Timestamp,Input Throttle,horizon,dT,dt,Input Roll,Roll P,Roll I,Roll D,Input Pitch,Pitch P,Pitch I,Pitch D,Input Yaw,Yaw P,Yaw I,Yaw D,Altitude,Direction X,Direction Y,Direction Z,Drag X,Drag Y,Drag Z,Vertical Velocity,Roll,Mass
1598614429.0830898,0.0,10.0,0.5,0.5,0.0184014892578125,-0.14,-0.011,-0.56,0.005924802890616839,10.0,1.0,100.0,0.19093447896085997,-10.0,-1.0,-100.0,468.19501275755465,-0.012316953352249362,0.0004281995103173159,0.9999240517685819,7.24449226872488,-0.6002709117157004,215.62400619464827,-20.069826697788347,-89.96188354492188,6440.1796875
1598614429.15398,0.0,10.0,0.5,0.5,-0.0006144378662109374,-0.14,-0.011,-0.56,0.004393588607945318,10.0,1.0,100.0,0.12722184045244295,-10.0,-1.0,-100.0,466.5379645162029,-0.012342595275837765,0.0004288247244422289,0.9999237353174555,7.492093500617219,-0.6216735951564181,231.46276199602497,-20.807646143815614,-89.96868896484375,6440.0849609375
1598614429.1880403,0.0,10.0,0.5,0.5,-0.004609451293945312,-0.14,-0.011,-0.56,0.004337713039928253,10.0,1.0,100.0,0.12420976427073221,-10.0,-1.0,-100.0,466.11791708052624,-0.01232730306356091,0.0004284953005515926,0.9999239241017072,7.551796006035767,-0.6267486656787177,235.19565309049153,-20.975937789408942,-89.96847534179688,6440.02197265625
1598614429.2199595,0.0,10.0,0.5,0.5,-0.006511193847656251,-0.14,-0.011,-0.56,0.0042476549273661535,10.0,1.0,100.0,0.12123357009769645,-10.0,-1.0,-100.0,465.2775445977459,-0.012275138102587478,0.00042698757299085727,0.9999245664879801,7.666798690811791,-0.636414627051621,242.3079232741413,-21.293127261704818,-89.96563720703125,6439.8486328125
1598614429.2558446,0.0,10.0,0.5,0.5,-0.006903607177734376,-0.14,-0.011,-0.56,0.004122133472230807,10.0,1.0,100.0,0.11709350984277372,-10.0,-1.0,-100.0,464.4169675508747,-0.012178919282928163,0.00042408763691351213,0.999925744280432,7.7760739244353845,-0.6454430485449344,248.92978313664287,-21.58445978845309,-89.96286010742188,6439.611328125
1598614429.2678156,0.0,10.0,0.5,0.5,-0.005987429809570313,-0.14,-0.011,-0.56,0.004221710828498997,10.0,1.0,100.0,0.12067152085283137,-10.0,-1.0,-100.0,463.9729602448642,-0.012112903256708467,0.0004219710458666242,0.9999265470598978,7.828628723115858,-0.6497229376836388,252.0510217852129,-21.72042999342288,-89.96200561523438,6439.46923828125
1598614429.2964087,0.0,10.0,0.5,0.5,-0.005849780273437501,-0.14,-0.011,-0.56,0.004207550408624371,10.0,1.0,100.0,0.12009451503594334,-10.0,-1.0,-100.0,463.53258389257826,-0.012036631449758207,0.0004195345310561689,0.9999274691166954,7.879779416045415,-0.6538452525122691,255.0416093147687,-21.84993629226196,-89.96157836914062,6439.3115234375
1598614429.3213153,0.0,10.0,0.5,0.5,-0.005588699340820312,-0.14,-0.011,-0.56,0.004180066148405892,10.0,1.0,100.0,0.11954994443771576,-10.0,-1.0,-100.0,463.1124706789851,-0.011951400409410668,0.00041668826565280864,0.9999284926429205,7.929529229794633,-0.6578104336061158,257.8992236685277,-21.97297873837062,-89.961669921875,6439.1376953125
1598614429.3540652,0.0,10.0,0.5,0.5,-0.004635379028320313,-0.14,-0.011,-0.56,0.003786816409135683,10.0,1.0,100.0,0.10718062515170998,-10.0,-1.0,-100.0,462.22796149610076,-0.011750604378849751,0.00041014694650579487,0.9999308751489845,8.024777280403837,-0.6652670936181034,263.205500621785,-22.19967207363006,-89.96316528320312,6438.7431640625
1598614429.3910108,0.0,10.0,0.5,0.5,-0.004509271240234375,-0.14,-0.011,-0.56,0.00407631934649289,10.0,1.0,100.0,0.1158398011537621,-10.0,-1.0,-100.0,461.76387069094926,-0.011636099947104983,0.00040645927676038806,0.999932215687082,8.070231080999303,-0.66875640923106,265.649177850486,-22.303322809019754,-89.964599609375,6438.521484375
1598614429.4029775,0.0,10.0,0.5,0.5,-0.004069696044921876,-0.14,-0.011,-0.56,0.00404731975529558,10.0,1.0,100.0,0.11486277950457889,-10.0,-1.0,-100.0,461.29968736635055,-0.011512544721483433,0.00040247370863844234,0.9999336474631452,8.114227876398367,-0.6720867142488383,267.9509208180908,-22.400509407523394,-89.9664306640625,6438.28515625
1598614429.42993,0.0,10.0,0.5,0.5,-0.003509274291992188,-0.14,-0.011,-0.56,0.003963953396174197,10.0,1.0,100.0,0.11276783625278766,-10.0,-1.0,-100.0,460.8794799702009,-0.011381908131020982,0.0003981159759916417,0.9999351447323807,8.15669756795008,-0.6752533901030756,270.1073222642449,-22.49123167102158,-89.96868896484375,6438.03271484375
1598614429.4589255,0.0,10.0,0.5,0.5,-0.000843258666992188,-0.14,-0.011,-0.56,0.0033494502153534715,10.0,1.0,100.0,0.09354597085816592,-10.0,-1.0,-100.0,459.9510197219206,-0.011089276715326571,0.0003885959253493169,0.9999384365725411,8.23705268010883,-0.6811015802132303,273.9806961906639,-22.653282484282514,-89.97430419921875,6437.47998046875
1598614429.4719052,0.0,10.0,0.5,0.5,-0.001652886962890625,-0.14,-0.011,-0.56,0.0037075050968040763,10.0,1.0,100.0,0.10517568399593102,-10.0,-1.0,-100.0,459.51054631895386,-0.010930098298991548,0.00038323265039239284,0.9999401912534119,8.274849891700862,-0.6837788530987571,275.69375995973945,-22.7246104442658,-89.97763061523438,6437.1796875
1598614429.499831,0.0,10.0,0.5,0.5,-0.0009817352294921875,-0.14,-0.011,-0.56,0.003654414935372448,10.0,1.0,100.0,0.10245459185341413,-10.0,-1.0,-100.0,459.0667159424629,-0.010761876209940097,0.00037791408525726384,0.9999420179197324,8.311000276826132,-0.6862886800394002,277.25552259580667,-22.78947302809405,-89.98123168945312,6436.8642578125
1598614429.532985,0.0,10.0,0.5,0.5,0.0025333465576171882,-0.14,-0.011,-0.56,0.002872290643080304,10.0,1.0,100.0,0.07986387174960723,-10.0,-1.0,-100.0,458.13819056516513,-0.010404865076288704,0.00036601078116054185,0.9999458009406571,8.378202776065427,-0.6908022427008995,279.92061662961135,-22.89980050212981,-89.98910522460938,6436.185546875
1598614429.5599227,0.0,10.0,0.5,0.5,0.0010806121826171878,-0.14,-0.011,-0.56,0.0033515352902159217,10.0,1.0,100.0,0.09425207798016982,-10.0,-1.0,-100.0,457.67400322004687,-0.010212664137047479,0.00035959723810539664,0.9999477847273077,8.409191299642911,-0.6928051239826781,281.02275758811913,-22.945264392834467,-89.9932861328125,6435.822265625
1598614429.5918918,0.0,10.0,0.5,0.5,0.004889141845703125,-0.14,-0.011,-0.56,0.0025480661218451927,10.0,1.0,100.0,0.06894034879764827,-10.0,-1.0,-100.0,456.7455362754408,-0.009809487533634998,0.00034651696770003144,0.9999518257797816,8.46564915264346,-0.6962897492280662,282.760441686705,-23.01679007706502,-90.00202178955078,6435.048828125
1598614429.6208591,0.0,10.0,0.5,0.5,0.0031284141540527345,-0.14,-0.011,-0.56,0.0030403471263516554,10.0,1.0,100.0,0.08544532110910107,-10.0,-1.0,-100.0,456.3049685222795,-0.009594955745069382,0.0003391648867342607,0.9999539098335631,8.491047540395266,-0.6977712268251309,283.39587517478617,-23.042850618289172,-90.00643157958984,6434.6376953125
1598614429.6547196,0.0,10.0,0.5,0.5,0.006821484375000001,-0.14,-0.011,-0.56,0.002146080795612855,10.0,1.0,100.0,0.05771445850297019,-10.0,-1.0,-100.0,455.37659053329844,-0.009149787775984705,0.0003244160119948178,0.9999580871906111,8.535899891917996,-0.700202036564141,284.19747674992976,-23.075563825299508,-90.01516723632812,6433.76953125
1598614429.691112,0.0,10.0,0.5,0.5,0.004933139038085938,-0.14,-0.011,-0.56,0.002744225543601062,10.0,1.0,100.0,0.07624417227750513,-10.0,-1.0,-100.0,454.9124011717504,-0.008915801849468153,0.00031652020836318574,0.9999602033542829,8.555240425886733,-0.7011477288959181,284.36328436108255,-23.082214994227055,-90.01937866210938,6433.3115234375
1598614429.7040243,0.0,10.0,0.5,0.5,0.005500872802734376,-0.14,-0.011,-0.56,0.0026197707332228414,10.0,1.0,100.0,0.07289734480643772,-10.0,-1.0,-100.0,454.44824173871893,-0.008675022341872507,0.0003082889372403321,0.9999623237629001,8.572477942532132,-0.7019134426167265,284.3734265100756,-23.082394855647124,-90.02347564697266,6432.837890625
1598614429.7331657,0.0,10.0,0.5,0.5,0.005963817596435547,-0.14,-0.011,-0.56,0.0025678021038548536,10.0,1.0,100.0,0.07024730085196595,-10.0,-1.0,-100.0,453.98402131383773,-0.008434501377007766,0.0003004151823514392,0.999964383834364,8.58750624739566,-0.7024939385986688,284.2264862182883,-23.0761025369436,-90.02732849121094,6432.3486328125
1598614429.7646124,0.0,10.0,0.5,0.5,0.008777881622314455,-0.14,-0.011,-0.56,0.0014797385699221127,10.0,1.0,100.0,0.03813809353063681,-10.0,-1.0,-100.0,453.0757819636492,-0.007926357501789844,0.00028344590100123695,0.999968545762903,8.610831236648892,-0.7031017233627896,283.46719774951526,-23.044097744034005,-90.03434753417969,6431.322265625
1598614429.796064,0.0,10.0,0.5,0.5,0.009107299041748047,-0.14,-0.011,-0.56,0.0011910765441016065,10.0,1.0,100.0,0.030588488553990573,-10.0,-1.0,-100.0,452.14739994634874,-0.007398506425256042,0.00026548579658394956,0.9999725954344785,8.624708157494329,-0.7029527251905157,282.0885621241454,-22.986192899522614,-90.04034423828125,6430.232421875
1598614429.8309736,0.0,10.0,0.5,0.5,0.007555196380615235,-0.14,-0.011,-0.56,0.0020219969021137794,10.0,1.0,100.0,0.053880444001551564,-10.0,-1.0,-100.0,451.6831474615028,-0.007133444468643762,0.00025681445790350197,0.9999745236836521,8.627944219348455,-0.7025892649785558,281.16865871078517,-22.947525354713008,-90.04283142089844,6429.6640625
1598614429.8645506,0.0,10.0,0.5,0.5,0.009591376495361329,-0.14,-0.011,-0.56,-0.0002258721253660667,10.0,1.0,100.0,-0.010911001531548559,-10.0,-1.0,-100.0,450.31410083686933,-0.006306439931065911,0.00022859551914714831,0.9999800880815,8.622370877587619,-0.7003386341250262,277.5059155610872,-22.792648062260973,-90.04764556884766,6427.8642578125
1598614429.8921478,0.0,10.0,0.5,0.5,0.00745726318359375,-0.14,-0.011,-0.56,0.0015626626878066326,10.0,1.0,100.0,0.04004376957073048,-10.0,-1.0,-100.0,449.8702945051482,-0.006021393928930384,0.0002193204383238134,0.9999818471920868,8.615261605320224,-0.6991977190376167,275.9887312872198,-22.72805992169274,-90.0483627319336,6427.232421875
1598614429.9230812,0.0,10.0,0.5,0.5,0.00734695281982422,-0.14,-0.011,-0.56,0.001401474990291561,10.0,1.0,100.0,0.03652068735393903,-10.0,-1.0,-100.0,449.40619368536863,-0.005733676901022442,0.00020953883717007756,0.9999835403858759,8.605386929422387,-0.6978555805928842,274.3242364441415,-22.656988380064593,-90.0487060546875,6426.5859375
1598614429.960403,0.0,10.0,0.5,0.5,0.006747245025634767,-0.14,-0.011,-0.56,0.00021464825568935945,10.0,1.0,100.0,0.0023140206578022987,-10.0,-1.0,-100.0,448.5013377070427,-0.005164656522817657,0.00018997498039717423,0.9999866450270765,8.57719196982,-0.6945633836645811,270.56213386363186,-22.4953894885845,-90.04805755615234,6425.2431640625
1598614429.991353,0.0,10.0,0.5,0.5,0.005613838195800781,-0.14,-0.011,-0.56,-2.8096365863843585e-05,10.0,1.0,100.0,-0.0060084181550474,-10.0,-1.0,-100.0,447.61701945820823,-0.004575329581835735,0.00017010510589095812,0.999989518656806,8.537563687014268,-0.6904645725924689,266.238977293145,-22.30783951744998,-90.04586791992188,6423.83837890625
1598614430.0234015,0.0,10.0,0.5,0.5,0.005710267639160157,-0.14,-0.011,-0.56,0.0008608229642282116,10.0,1.0,100.0,0.02064005540136853,-10.0,-1.0,-100.0,447.15270437207073,-0.004285782551699253,0.00016025577307020964,0.9999908031507124,8.513262191568604,-0.6881022087145262,263.86936787639945,-22.204328884868836,-90.0442123413086,6423.11181640625
1598614430.055535,0.0,10.0,0.5,0.5,0.003690841674804687,-0.14,-0.011,-0.56,-0.0003679183888405395,10.0,1.0,100.0,-0.015160357114734839,-10.0,-1.0,-100.0,446.29218924208544,-0.003701089901238033,0.00014026603380905885,0.9999931411059692,8.4556347371434,-0.6827585082617669,258.7301813958073,-21.977828176851773,-90.03997039794922,6421.61181640625
1598614430.0930007,0.0,10.0,0.5,0.5,0.004301824188232422,-0.14,-0.011,-0.56,0.0004856736679277531,10.0,1.0,100.0,0.009969149312925717,-10.0,-1.0,-100.0,445.8482594892848,-0.0034023042878663554,0.00012999906149549023,0.9999942036960899,8.422247259679441,-0.6797767108716171,255.9654724907973,-21.854834491851797,-90.03742980957031,6420.837890625
1598614430.1249654,0.0,10.0,0.5,0.5,0.0016157005310058594,-0.14,-0.011,-0.56,-0.0007248949592884102,10.0,1.0,100.0,-0.02534404455088335,-10.0,-1.0,-100.0,444.987651536474,-0.0028137647435064967,0.00010979977808983159,0.9999960353281292,8.34612769115031,-0.6731829346381636,250.05705774679413,-21.589351401457268,-90.03155517578125,6419.2431640625
1598614430.1393042,0.0,10.0,0.5,0.5,0.002642104339599609,-0.14,-0.011,-0.56,0.00017626260023204023,10.0,1.0,100.0,0.00043889768652801905,-10.0,-1.0,-100.0,444.5673726222012,-0.002517287125048319,9.977066736986793e-05,0.9999968266506369,8.303308853178406,-0.6695664652331454,246.91801124571077,-21.44685815214157,-90.02833557128906,6418.42236328125
1598614430.1662674,0.0,10.0,0.5,0.5,0.002031218719482421,-0.14,-0.011,-0.56,7.087255359465778e-05,10.0,1.0,100.0,-0.003073516265495912,-10.0,-1.0,-100.0,444.1471854452975,-0.002220027488107572,8.983796973731898e-05,0.9999975317004994,8.257313672232206,-0.6657387920282877,243.66034995564226,-21.297861050800186,-90.02490997314453,6417.5859375
1598614430.1972456,0.0,10.0,0.5,0.5,0.0014839012145996095,-0.14,-0.011,-0.56,-1.6893783917519144e-05,10.0,1.0,100.0,-0.00553102988980014,-10.0,-1.0,-100.0,443.7271199360257,-0.001931165341979544,8.01365120479909e-05,0.9999981320875362,8.208073304354917,-0.6616961961320915,240.28568914422772,-21.142357944919535,-90.02142333984375,6416.732421875
1598614430.229168,0.0,10.0,0.5,0.5,-0.004278306579589844,-0.14,-0.011,-0.56,-0.0024024316785901776,10.0,1.0,100.0,-0.07383192931013191,-10.0,-1.0,-100.0,442.46638045832515,-0.001051364513121003,4.975682776637377e-05,0.9999994460783058,8.038325589015749,-0.6480841315899509,229.49727128603496,-20.64326941315075,-90.01044464111328,6414.0966796875
1598614430.255135,0.0,10.0,0.5,0.5,-0.0008105674743652345,-0.14,-0.011,-0.56,-0.0004681568084055803,10.0,1.0,100.0,-0.018301156673514778,-10.0,-1.0,-100.0,442.0461917776847,-0.0007606274312078503,3.9868506338766995e-05,0.9999997099281646,7.975657810610682,-0.6431576102150751,225.82495881339614,-20.474678069947796,-90.00667572021484,6413.2119140625
1598614430.2951896,0.0,10.0,0.5,0.5,-0.0039098289489746104,-0.14,-0.011,-0.56,-0.001653444520970895,10.0,1.0,100.0,-0.05173905727738125,-10.0,-1.0,-100.0,441.2292262498522,-0.00019634374133493417,2.0240240812220163e-05,0.9999999805197339,7.846748048257698,-0.6331629950162393,218.56269150490587,-20.13739002825965,-89.99929809570312,6411.44384765625
1598614430.328764,0.0,10.0,0.5,0.5,-0.0022488670349121095,-0.14,-0.011,-0.56,-0.0007679797973471072,10.0,1.0,100.0,-0.027210534515291453,-10.0,-1.0,-100.0,440.85292614321224,8.967396449371793e-05,1.0582283152919966e-05,0.9999999959232976,7.780685919674717,-0.6281066795075781,214.9759009157136,-19.96869315337082,-89.99584197998047,6410.5595703125
1598614430.3567424,0.0,10.0,0.5,0.5,-0.004868755340576172,-0.14,-0.011,-0.56,-0.001885385311304099,10.0,1.0,100.0,-0.06021579884843915,-10.0,-1.0,-100.0,440.0359947507968,0.0006457602305336599,-8.219843491582604e-06,0.9999997914630577,7.645728715814864,-0.6178953016516566,207.8958427481798,-19.631193066827457,-89.98941040039062,6408.791015625
1598614430.3943002,0.0,10.0,0.5,0.5,-0.0032880187988281254,-0.14,-0.011,-0.56,-0.0010840596472828305,10.0,1.0,100.0,-0.03528915298304731,-10.0,-1.0,-100.0,439.6598164610332,0.0009207356462193433,-1.7892919970663733e-05,0.9999995759627668,7.576832555706745,-0.6127374206063498,204.40047696112285,-19.462389639847128,-89.98660278320312,6407.9072265625
1598614430.4273994,0.0,10.0,0.5,0.5,-0.005210993957519532,-0.14,-0.011,-0.56,-0.0021449238586234987,10.0,1.0,100.0,-0.06693564692219377,-10.0,-1.0,-100.0,438.8869535988197,0.0014544786599857637,-3.619639870795615e-05,0.999998941590264,7.436534674006949,-0.602335098101739,197.50280719693248,-19.124675492952214,-89.981689453125,6406.138671875
1598614430.460295,0.0,10.0,0.5,0.5,-0.005120582580566407,-0.14,-0.011,-0.56,-0.002301665965302592,10.0,1.0,100.0,-0.0717149993844844,-10.0,-1.0,-100.0,438.13438540836796,0.001979268019063795,-5.4128129278215744e-05,0.9999980397822059,7.293100947294777,-0.5918223302540939,190.72769120914737,-18.78681727205932,-89.97796630859375,6404.3701171875
1598614430.4942513,0.0,10.0,0.5,0.5,-0.0040736938476562505,-0.14,-0.011,-0.56,-0.0014880018393671438,10.0,1.0,100.0,-0.04710761084687799,-10.0,-1.0,-100.0,437.78188989614137,0.0022285579450254814,-6.289284792754032e-05,0.9999975147838995,7.220301281500068,-0.5865276687427333,187.3859475498448,-18.617833866078964,-89.9765625,6403.486328125
1598614430.5265546,0.0,10.0,0.5,0.5,-0.004558394622802735,-0.14,-0.011,-0.56,-0.002491126081975432,10.0,1.0,100.0,-0.0762205717592834,-10.0,-1.0,-100.0,437.02950539579615,0.002715804262891488,-7.984123907094269e-05,0.9999963090094793,7.07282364352488,-0.5758736882734335,180.79630757421637,-18.279758088802996,-89.97482299804688,6401.7177734375
1598614430.5594618,0.0,10.0,0.5,0.5,-0.003849156951904297,-0.14,-0.011,-0.56,-0.0026176534047256143,10.0,1.0,100.0,-0.08039287985018478,-10.0,-1.0,-100.0,436.3005592338741,0.003192461016682533,-9.625368145256564e-05,0.9999948994509351,6.9231910324330155,-0.5651521611799387,174.33288312577412,-17.94153602652657,-89.97451782226562,6399.94921875
1598614430.5893822,0.0,10.0,0.5,0.5,-0.003461430358886719,-0.14,-0.011,-0.56,-0.0018445415372495013,10.0,1.0,100.0,-0.05769759060459854,-10.0,-1.0,-100.0,435.94809470756445,0.0034156065037783323,-0.00010401305708678645,0.9999941613897029,6.847639568715793,-0.5597663045181813,171.14767251748253,-17.772369756386883,-89.97488403320312,6399.06494140625
1598614430.6229818,0.0,10.0,0.5,0.5,-0.0025692771911621096,-0.14,-0.011,-0.56,-0.0027244822070586526,10.0,1.0,100.0,-0.08326549260106657,-10.0,-1.0,-100.0,435.26333820982836,0.003847104933892417,-0.00011893569414941079,0.9999925927915307,6.695299442325481,-0.5489554787772487,164.87107668439057,-17.43392645155279,-89.97650146484375,6397.29638671875
1598614430.6588864,0.0,10.0,0.5,0.5,-0.0015561454772949216,-0.14,-0.011,-0.56,-0.0028434000315555076,10.0,1.0,100.0,-0.08639326421738341,-10.0,-1.0,-100.0,434.5549614119809,0.004264134658985168,-0.00013345627539725738,0.9999908996311079,6.541677161245193,-0.5381082885541335,158.72123987301327,-17.09533431856267,-89.97927856445312,6395.5283203125
1598614430.6888041,0.0,10.0,0.5,0.5,-0.0005233398437499998,-0.14,-0.011,-0.56,-0.00289233255015889,10.0,1.0,100.0,-0.08695575647280429,-10.0,-1.0,-100.0,433.9143033340806,0.004644571192578321,-0.0001469707007384667,0.9999892031207388,6.387002448172804,-0.5272303797855964,152.69572424984617,-16.756592406097887,-89.98300170898438,6393.759765625
1598614430.7217157,0.0,10.0,0.5,0.5,-0.0011413513183593754,-0.14,-0.011,-0.56,-0.002263251039142466,10.0,1.0,100.0,-0.06925394133582916,-10.0,-1.0,-100.0,433.56174722569995,0.004825861711906827,-0.00015341148198737414,0.9999883436938927,6.309394062995703,-0.5217852890960015,149.73014510259532,-16.587164848713385,-89.985107421875,6392.8759765625
1598614430.736618,0.0,10.0,0.5,0.5,-0.0007200225830078127,-0.14,-0.011,-0.56,-0.0023125252528175626,10.0,1.0,100.0,-0.07072273075094858,-10.0,-1.0,-100.0,433.2295467130607,0.005000473791374111,-0.00015959148637250295,0.9999874848178947,6.231666427258597,-0.51633865820229,146.79611507363808,-16.417699516008096,-89.98739624023438,6391.9912109375
1598614430.7635903,0.0,10.0,0.5,0.5,-0.0003292236328124999,-0.14,-0.011,-0.56,-0.0023374785788722757,10.0,1.0,100.0,-0.07200558569185415,-10.0,-1.0,-100.0,432.9210891542025,0.005167650731142249,-0.0001653243432434224,0.9999866339375655,6.153859359462165,-0.5108916603066173,143.89354219566653,-16.248196112447808,-89.98977661132812,6391.107421875
1598614430.7970653,0.0,10.0,0.5,0.5,8.110656738281267e-05,-0.14,-0.011,-0.56,-0.0024018182788609994,10.0,1.0,100.0,-0.07361994741839412,-10.0,-1.0,-100.0,432.5888885590248,0.005331407253252667,-0.0001710198502041874,0.9999857733232562,6.076018850212646,-0.5054462182619741,141.02253353597789,-16.078654562440082,-89.99224853515625,6390.22265625
1598614430.8269804,0.0,10.0,0.5,0.5,0.004273623657226563,-0.14,-0.011,-0.56,-0.003635748952702248,10.0,1.0,100.0,-0.10659491007783364,-10.0,-1.0,-100.0,431.6397415933898,0.00577722843452229,-0.00018731683811046087,0.9999832941324658,5.842526218917364,-0.48912380088544594,132.59544527482382,-15.5697995301564,-90.00019073486328,6387.5703125
1598614430.8549972,0.0,10.0,0.5,0.5,0.0017871849060058596,-0.14,-0.011,-0.56,-0.0025170874251225603,10.0,1.0,100.0,-0.07720307159049099,-10.0,-1.0,-100.0,431.3516694396967,0.005912538772908259,-0.0001918649263208582,0.9999825023834713,5.764782282167439,-0.48368929955456247,129.84754013909534,-15.400103951717373,-90.0029525756836,6386.68603515625
1598614430.8882008,0.0,10.0,0.5,0.5,0.0022211425781250003,-0.14,-0.011,-0.56,-0.002564767627560408,10.0,1.0,100.0,-0.07813486097548308,-10.0,-1.0,-100.0,431.0431503197178,0.0060415461860715905,-0.00019634608903895597,0.9999817304170585,5.6871524602905374,-0.4782605589717469,127.13050656042219,-15.230369472905124,-90.0057373046875,6385.8017578125
1598614430.9011657,0.0,10.0,0.5,0.5,0.0025648345947265625,-0.14,-0.011,-0.56,-0.0026359882613405826,10.0,1.0,100.0,-0.0782196178648836,-10.0,-1.0,-100.0,430.7347835403634,0.006157208951867084,-0.00020098339451527173,0.999981024011755,5.609648887972551,-0.47283718895935756,124.4438870741832,-15.060595912242754,-90.00840759277344,6384.91796875
1598614430.9270966,0.0,10.0,0.5,0.5,0.002904344177246094,-0.14,-0.011,-0.56,-0.002623395170756593,10.0,1.0,100.0,-0.07959669104170089,-10.0,-1.0,-100.0,430.44664995733183,0.006272775673272259,-0.0002050100553062808,0.9999803049341672,5.532320923158809,-0.4674225912210793,121.78797724483793,-14.890783190090001,-90.01097869873047,6384.03369140625
1598614430.961008,0.0,10.0,0.5,0.5,0.003229741668701172,-0.14,-0.011,-0.56,-0.002685489380965107,10.0,1.0,100.0,-0.08015645613052579,-10.0,-1.0,-100.0,430.13822219660506,0.006381099065344201,-0.000209170099954631,0.9999796187035952,5.45521958401315,-0.46201922783501526,119.16314716108609,-14.720931265158441,-90.0134506225586,6383.1494140625
1598614430.9899294,0.0,10.0,0.5,0.5,0.006530599975585938,-0.14,-0.011,-0.56,-0.0033962285921084936,10.0,1.0,100.0,-0.1002413923076595,-10.0,-1.0,-100.0,429.27720819204114,0.006660586543499213,-0.00021935667937332908,0.9999777939882183,5.225398304503974,-0.4458707116593636,111.47061300911048,-14.211138117120878,-90.02009582519531,6380.4970703125
1598614431.0223823,0.0,10.0,0.5,0.5,0.004188258361816407,-0.14,-0.011,-0.56,-0.0027032857343004717,10.0,1.0,100.0,-0.0811781291348945,-10.0,-1.0,-100.0,428.9891047559213,0.006739695744949913,-0.00022225777541263082,0.9999772632928946,5.1493643617828475,-0.4405116593346127,108.96667726387689,-14.04112741137949,-90.02201080322266,6379.6123046875
1598614431.0573225,0.0,10.0,0.5,0.5,0.004376938629150391,-0.14,-0.011,-0.56,-0.0027106873330227893,10.0,1.0,100.0,-0.08139498659591045,-10.0,-1.0,-100.0,428.7246522475034,0.00681200352141108,-0.0002249054533557988,0.999976772743028,5.073677916002964,-0.43516714435627585,106.4931278855796,-13.871076596746608,-90.02375793457031,6378.728515625
1598614431.094187,0.0,10.0,0.5,0.5,0.005289104461669922,-0.14,-0.011,-0.56,-0.0029654895714484493,10.0,1.0,100.0,-0.0874898284674818,-10.0,-1.0,-100.0,428.1721871221671,0.006931650650853454,-0.00022957465264426445,0.9999759494681526,4.923389394455601,-0.4245205669485027,101.63575073828628,-13.53085419381899,-90.02640533447266,6376.96044921875
1598614431.1233604,0.0,10.0,0.5,0.5,0.00499769744873047,-0.14,-0.011,-0.56,-0.0029245673130622145,10.0,1.0,100.0,-0.08606279041494289,-10.0,-1.0,-100.0,427.64334235328715,0.007025992928598348,-0.00023339412710077646,0.9999752901699865,4.7747781781100285,-0.41394229100006974,96.89886640303168,-13.190469577361682,-90.0280532836914,6375.19189453125
1598614431.1562972,0.0,10.0,0.5,0.5,0.004479335021972657,-0.14,-0.011,-0.56,-0.002837042510310135,10.0,1.0,100.0,-0.08357963763807921,-10.0,-1.0,-100.0,427.1348522204207,0.007088049279036696,-0.00023602880813714092,0.9999748516076892,4.627961541335098,-0.4034354768966673,92.28070178086425,-12.849921704415987,-90.0285873413086,6373.42333984375
1598614431.1892412,0.0,10.0,0.5,0.5,0.004096308898925782,-0.14,-0.011,-0.56,-0.0026732842499110664,10.0,1.0,100.0,-0.07977596839925805,-10.0,-1.0,-100.0,426.87049031769857,0.007108816685894884,-0.00023689511227401136,0.9999747039830716,4.5552878841035085,-0.3982110684828623,90.01617148071578,-12.679586208563075,-90.02842712402344,6372.5390625
1598614431.2262037,0.0,10.0,0.5,0.5,0.003388540649414063,-0.14,-0.011,-0.56,-0.002696047212553963,10.0,1.0,100.0,-0.08000879908304069,-10.0,-1.0,-100.0,426.3822934257332,0.007128842543345967,-0.00023785273476497896,0.9999745611914681,4.411494731488323,-0.3878226737903182,85.57555654798722,-12.338790991466443,-90.02725219726562,6370.7705078125
1598614431.2571473,0.0,10.0,0.5,0.5,0.0025398239135742185,-0.14,-0.011,-0.56,-0.00266828959959385,10.0,1.0,100.0,-0.07725317001523055,-10.0,-1.0,-100.0,425.8975139048416,0.007121113391692788,-0.00023843744114781238,0.9999746161236541,4.269889260909793,-0.3775181706291675,81.2524121513247,-11.997829309092058,-90.02507019042969,6369.00244140625
1598614431.2902591,0.0,10.0,0.5,0.5,0.0027839012145996094,-0.14,-0.011,-0.56,-0.002593674334922993,10.0,1.0,100.0,-0.07648679650303528,-10.0,-1.0,-100.0,425.65353715175297,0.0071063486421531945,-0.00023826028328443358,0.999974721200998,4.19994527386043,-0.3723989706288194,79.13468310490614,-11.827285685520959,-90.02365112304688,6368.1181640625
1598614431.3230493,0.0,10.0,0.5,0.5,0.001213243103027344,-0.14,-0.011,-0.56,-0.0024540037943824346,10.0,1.0,100.0,-0.07258934667685593,-10.0,-1.0,-100.0,425.1924998377217,0.007056835462718471,-0.00023680305287342068,0.9999750721880852,4.0618037423386415,-0.3622259206932337,74.98586665710833,-11.486072032713698,-90.02025604248047,6366.349609375
1598614431.3607228,0.0,10.0,0.5,0.5,0.0002948402404785158,-0.14,-0.011,-0.56,-0.0023911575654267285,10.0,1.0,100.0,-0.06920103320475943,-10.0,-1.0,-100.0,424.7281350613339,0.006980660405377646,-0.00023489110826062972,0.9999756073057342,3.9260873713239666,-0.3521441288870908,70.95241367196648,-11.144689089364515,-90.01622772216797,6364.58154296875
1598614431.389878,0.0,10.0,0.5,0.5,0.0010115928649902343,-0.14,-0.011,-0.56,-0.002432131203336659,10.0,1.0,100.0,-0.07164489061697299,-10.0,-1.0,-100.0,424.5078088644659,0.006933408180032994,-0.0002335139795637755,0.9999759363715862,3.8591577309518685,-0.3471376129086142,68.97864717074705,-10.973933703025534,-90.0140380859375,6363.697265625
1598614431.422756,0.0,10.0,0.5,0.5,-0.0009665672302246095,-0.14,-0.011,-0.56,-0.0021866069058067723,10.0,1.0,100.0,-0.06388965547060636,-10.0,-1.0,-100.0,424.08735855994746,0.006819839105972139,-0.00023002217938344725,0.999976718171161,3.727197720862036,-0.33719520770663536,65.1167460152833,-10.632294329648158,-90.00947570800781,6361.9287109375
1598614431.4570005,0.0,10.0,0.5,0.5,-0.0017307342529296879,-0.14,-0.011,-0.56,-0.002069687144787875,10.0,1.0,100.0,-0.05991923311852433,-10.0,-1.0,-100.0,423.6907727938378,0.006680601391393236,-0.00022578450182230507,0.9999776590436449,3.597807626206156,-0.32734728428162674,61.368417309230075,-10.290482481609217,-90.0047607421875,6360.16015625
1598614431.4939,0.0,10.0,0.5,0.5,-0.0007715538024902345,-0.14,-0.011,-0.56,-0.0022002498301464625,10.0,1.0,100.0,-0.06533737543930533,-10.0,-1.0,-100.0,423.4704460990615,0.0066035914824533375,-0.0002231259190202343,0.9999781711589294,3.534086876216172,-0.32245904009653376,59.53664698871453,-10.119511593449396,-90.00239562988281,6359.2763671875
1598614431.5239494,0.0,10.0,0.5,0.5,-0.002621501159667969,-0.14,-0.011,-0.56,-0.0019093401986725524,10.0,1.0,100.0,-0.05412162327113702,-10.0,-1.0,-100.0,423.07373710814863,0.0064320615071578845,-0.00021807612244960435,0.9999792902993406,3.4086050804992785,-0.3127533513730598,55.957449831233184,-9.777439123021777,-89.9979019165039,6357.5078125
1598614431.5569673,0.0,10.0,0.5,0.5,-0.003091938018798828,-0.14,-0.011,-0.56,-0.0017208955654586498,10.0,1.0,100.0,-0.049651892665387415,-10.0,-1.0,-100.0,422.6975971547654,0.006236106483363146,-0.00021178937343783655,0.9999805328711102,3.2857404366205505,-0.30314160738862855,52.490234716353854,-9.435191329938762,-89.99368286132812,6355.7392578125
1598614431.59088,0.0,10.0,0.5,0.5,-0.002112018585205078,-0.14,-0.011,-0.56,-0.0019782329058665926,10.0,1.0,100.0,-0.05777891603428746,-10.0,-1.0,-100.0,422.52130692405626,0.006132659161503369,-0.00020843727139568998,0.9999811733455348,3.2252900666601283,-0.2983710378908231,50.79847097706063,-9.264001386958759,-89.99176025390625,6354.85498046875
1598614431.626814,0.0,10.0,0.5,0.5,-0.00344321517944336,-0.14,-0.011,-0.56,-0.001515604121464698,10.0,1.0,100.0,-0.043509122857936525,-10.0,-1.0,-100.0,422.16872620838694,0.005909789343873281,-0.0002012114625625869,0.9999825167990981,3.106349452230456,-0.28890013688785054,47.49834828514566,-8.921488552581389,-89.98837280273438,6353.0869140625
1598614431.6577165,0.0,10.0,0.5,0.5,-0.00348629379272461,-0.14,-0.011,-0.56,-0.0013576757331475245,10.0,1.0,100.0,-0.03872007477073579,-10.0,-1.0,-100.0,421.8161755729234,0.0056647313991425394,-0.00019324051356662964,0.9999839366091235,2.989995101984255,-0.27952083359143887,44.3089863104602,-8.578797824484528,-89.98565673828125,6351.318359375
1598614431.6913974,0.0,10.0,0.5,0.5,-0.00277239990234375,-0.14,-0.011,-0.56,-0.0017021961016560252,10.0,1.0,100.0,-0.04922414079431535,-10.0,-1.0,-100.0,421.63994618540164,0.005538708507841294,-0.0001891658019561156,0.9999846433442688,2.9327766551180874,-0.27486511384231666,42.7556960372833,-8.407385300442948,-89.98455810546875,6350.4345703125
1598614431.722941,0.0,10.0,0.5,0.5,-0.003281479644775391,-0.14,-0.011,-0.56,-0.0011397692145400286,10.0,1.0,100.0,-0.03242450848195504,-10.0,-1.0,-100.0,421.3313715381082,0.00527272917827101,-0.0001803901154330524,0.9999860827963651,2.820250045044866,-0.26562198401732307,39.731938446639234,-8.064425597800692,-89.98300170898438,6348.666015625
1598614431.7599983,0.0,10.0,0.5,0.5,-0.0027644721984863285,-0.14,-0.011,-0.56,-0.001547374625759101,10.0,1.0,100.0,-0.043307576106610526,-10.0,-1.0,-100.0,421.1551416628063,0.005131376474341949,-0.0001761660167541963,0.9999868188836356,2.7649282474542534,-0.26103388863871896,38.26136879442708,-7.8928778412695255,-89.9825439453125,6347.78173828125
1598614431.7898817,0.0,10.0,0.5,0.5,-0.002794097137451172,-0.14,-0.011,-0.56,-0.0008745170124698641,10.0,1.0,100.0,-0.02540706880984331,-10.0,-1.0,-100.0,420.846689304919,0.00484167709773731,-0.00016625799980045153,0.9999882651917266,2.656093585473174,-0.2519193067836682,35.402159751096406,-7.549646829734657,-89.982177734375,6346.013671875
1598614431.824069,0.0,10.0,0.5,0.5,-0.002336150360107422,-0.14,-0.011,-0.56,-0.0007973261501075567,10.0,1.0,100.0,-0.020467131126029815,-10.0,-1.0,-100.0,420.5585305056302,0.004535077253056294,-0.000156603091550137,0.9999897042218887,2.5496788325524458,-0.24289110882298606,32.65276923787944,-7.206233703694595,-89.98257446289062,6344.24462890625
1598614431.8586903,0.0,10.0,0.5,0.5,-0.0017897163391113282,-0.14,-0.011,-0.56,-0.0006154665562516958,10.0,1.0,100.0,-0.016495930011320936,-10.0,-1.0,-100.0,420.27375952131115,0.004222128760693832,-0.00014623310849431605,0.9999910760824848,2.445603428032217,-0.23394578279731906,30.01280194963971,-6.8626371547680955,-89.98370361328125,6342.4765625
1598614431.8960118,0.0,10.0,0.5,0.5,-0.0018608764648437499,-0.14,-0.011,-0.56,-0.0010544572734789088,10.0,1.0,100.0,-0.029889700495635177,-10.0,-1.0,-100.0,420.141444810899,0.004061400710900327,-0.00014086198770377648,0.9999917425569903,2.3944236431361854,-0.22950419388729923,28.733852638141315,-6.690769921640549,-89.98452758789062,6341.591796875
1598614431.930033,0.0,10.0,0.5,0.5,-0.0009010986328125,-0.14,-0.011,-0.56,-0.000397075375407603,10.0,1.0,100.0,-0.009660115814456936,-10.0,-1.0,-100.0,419.8771210135892,0.0037333559919613957,-0.0001300674309896687,0.9999930225434079,2.2937049780791536,-0.22067901492691522,26.25769409885771,-6.346896608491022,-89.986572265625,6339.82421875
1598614431.9642067,0.0,10.0,0.5,0.5,-0.00023602905273437504,-0.14,-0.011,-0.56,-0.000223139816925465,10.0,1.0,100.0,-0.004706089600395431,-10.0,-1.0,-100.0,419.65680374379735,0.0033922781029523006,-0.00011874421057282946,0.9999942391579486,2.1950964040234053,-0.21192955245280776,23.89046212489728,-6.002837614534002,-89.98916625976562,6338.0556640625
1598614431.9971623,0.0,10.0,0.5,0.5,-0.0006837646484375001,-0.14,-0.011,-0.56,-0.0007318007103516393,10.0,1.0,100.0,-0.02001720260008681,-10.0,-1.0,-100.0,419.52451978717,0.0032236878777057005,-0.0001131495339995679,0.9999947975032919,2.1465672495978287,-0.20758357752206738,22.747796326817653,-5.830738351563197,-89.9906005859375,6337.171875
1598614432.0290594,0.0,10.0,0.5,0.5,0.0006546813964843751,-0.14,-0.011,-0.56,-1.886886304446815e-05,10.0,1.0,100.0,0.001129008145080039,-10.0,-1.0,-100.0,419.30420266860165,0.0028804048875449443,-0.00010165507575705315,0.9999958464583387,2.0510240331843534,-0.1989498181486364,20.544488592550266,-5.486399119330602,-89.99365234375,6335.40283203125
1598614432.0641088,0.0,10.0,0.5,0.5,0.0011720397949218752,-0.14,-0.011,-0.56,0.00013759314496695585,10.0,1.0,100.0,0.006097801848532754,-10.0,-1.0,-100.0,419.1075068860082,0.0025255752297495015,-8.98627415784805e-05,0.9999968066921247,1.9573857344477168,-0.19038886666169572,18.450148671285795,-5.141871840388457,-89.99681854248047,6333.634765625
1598614432.1988306,0.0,10.0,0.5,0.5,0.0005356880187988281,-0.14,-0.011,-0.56,-0.0004180180553567639,10.0,1.0,100.0,-0.00997383778578391,-10.0,-1.0,-100.0,418.99899660993833,0.0023516060411097246,-8.427574630440696e-05,0.9999972314194806,1.9112743391854845,-0.1861373586879225,17.44402024476236,-4.969537498567183,-89.99842071533203,6332.75
1598614432.223762,0.0,10.0,0.5,0.5,0.0007721160888671876,-0.14,-0.011,-0.56,-0.00032101491989692795,10.0,1.0,100.0,-0.007792624562961047,-10.0,-1.0,-100.0,418.9030594713986,0.0021761500861690215,-7.839834961511414e-05,0.9999976291094401,1.8656316465222018,-0.1819067468969886,16.465351034132034,-4.797154161610566,-90.00001525878906,6331.8662109375
1598614432.2532094,0.0,10.0,0.5,0.5,0.0020083206176757813,-0.14,-0.011,-0.56,0.0004266512027910574,10.0,1.0,100.0,0.014059177419974249,-10.0,-1.0,-100.0,418.7215002760058,0.0018204151336613055,-6.633816937330747e-05,0.999998340842618,1.775706725475371,-0.17350519421380353,14.590181137682622,-4.452248819927603,-90.0030288696289,6330.09765625
1598614432.296586,0.0,10.0,0.5,0.5,0.0013579078674316406,-0.14,-0.011,-0.56,-0.00012957058952370196,10.0,1.0,100.0,-0.001514565782179681,-10.0,-1.0,-100.0,418.6359701239271,0.0016410670806005947,-6.051298992195997e-05,0.9999986516175985,1.7314121441210149,-0.16933524666240024,13.69369571138319,-4.279723922699654,-90.00447845458984,6329.2138671875
1598614432.4187412,0.0,10.0,0.5,0.5,0.002475578308105469,-0.14,-0.011,-0.56,0.0006099609439586374,10.0,1.0,100.0,0.019768913417234493,-10.0,-1.0,-100.0,418.4751029826002,0.0012868836411689955,-4.857228567868857e-05,0.9999991707852699,1.64421998213628,-0.16106870628833134,11.98352618300325,-3.934531834556704,-90.0072021484375,6327.4453125
1598614432.488139,0.0,10.0,0.5,0.5,0.003330445861816407,-0.14,-0.011,-0.56,0.0014129075083309619,10.0,1.0,100.0,0.04326811608782545,-10.0,-1.0,-100.0,418.2597116684774,0.0007537918692891977,-3.0501485510534433e-05,0.999999715433698,1.5171993668047563,-0.1488957009543321,9.626671615645284,-3.416382470282653,-90.01056671142578,6324.79296875
1598614432.512964,0.0,10.0,0.5,0.5,0.002097531890869141,-0.14,-0.011,-0.56,0.0002483214479693478,10.0,1.0,100.0,0.009456789185764584,-10.0,-1.0,-100.0,418.19484187324997,0.0005792473795287277,-2.4751145856844557e-05,0.9999998319299129,1.4760654041974273,-0.1449222329823288,8.897439213878233,-3.2435697132107215,-90.01145935058594,6323.90869140625
1598614432.5425897,0.0,10.0,0.5,0.5,0.0021241905212402348,-0.14,-0.011,-0.56,0.00029718777987936896,10.0,1.0,100.0,0.011437310310304042,-10.0,-1.0,-100.0,418.1333903000923,0.00040512313381741783,-1.9164773213140828e-05,0.9999999177539756,1.435656979281762,-0.14100477911967346,8.196728239078162,-3.070707717808968,-90.01217651367188,6323.0244140625
1598614432.5670347,0.0,10.0,0.5,0.5,0.002413884735107422,-0.14,-0.011,-0.56,0.0010392141132727693,10.0,1.0,100.0,0.03194558399780704,-10.0,-1.0,-100.0,418.0209252870409,6.295184486973457e-05,-7.4259993796396404e-06,0.9999999979909598,1.3577356940642578,-0.1334135910850257,6.88300486151929,-2.7248379146137958,-90.01313018798828,6321.255859375
1598614432.5909717,0.0,10.0,0.5,0.5,0.0020935134887695313,-0.14,-0.011,-0.56,0.0004892343411400596,10.0,1.0,100.0,0.016839573710701033,-10.0,-1.0,-100.0,417.96988011698704,-0.0001082242760702182,-1.839865710733571e-06,0.9999999941420606,1.320716741829344,-0.1297905770240341,6.271047687378136,-2.551829039744599,-90.0134048461914,6320.3720703125
1598614432.6149077,0.0,10.0,0.5,0.5,0.0020487396240234375,-0.14,-0.011,-0.56,0.0005366909538230213,10.0,1.0,100.0,0.018600658254448423,-10.0,-1.0,-100.0,417.92225326923653,-0.00027745442777167903,3.5898405800554656e-06,0.9999999615030759,1.2856612829086993,-0.1263495820313962,5.690652311739494,-2.3787718946702086,-90.01353454589844,6319.4873046875
1598614432.6429272,0.0,10.0,0.5,0.5,0.0018859214782714845,-0.14,-0.011,-0.56,0.0012781318365097285,10.0,1.0,100.0,0.03807600057818173,-10.0,-1.0,-100.0,417.83749879535753,-0.0006059585318352359,1.5186431062575146e-05,0.9999998162917981,1.2254717196016205,-0.1204131883452813,4.633095216825781,-2.0325116525300326,-90.01338195800781,6317.7197265625
1598614432.6698852,0.0,10.0,0.5,0.5,0.0017938133239746095,-0.14,-0.011,-0.56,0.0007087091687183882,10.0,1.0,100.0,0.023523874402415233,-10.0,-1.0,-100.0,417.80024790391326,-0.0007697773806424064,2.0467139266146588e-05,0.9999997035118963,1.203980027027634,-0.11827717606109545,4.1625037567717404,-1.8593075437543674,-90.01310729980469,6316.8349609375
1598614432.6978114,0.0,10.0,0.5,0.5,0.001670317077636719,-0.14,-0.011,-0.56,0.000810304264459452,10.0,1.0,100.0,0.025204897368154115,-10.0,-1.0,-100.0,417.76659856271,-0.000931630913324457,2.611246095009443e-05,0.9999995656908961,1.1931295385011849,-0.11717827537561049,3.738884459697267,-1.6860533110134048,-90.0126953125,6315.951171875
1598614432.727323,0.0,10.0,0.5,0.5,0.0010983009338378907,-0.14,-0.011,-0.56,0.0014054986430914222,10.0,1.0,100.0,0.043751695889036386,-10.0,-1.0,-100.0,417.70952358155046,-0.0012450389314125918,3.6576679149544874e-05,0.9999992242698019,1.2405166196288469,-0.12173540714335393,3.084196643457048,-1.3393963142649563,-90.01153564453125,6314.1826171875
1598614432.758257,0.0,10.0,0.5,0.5,0.0012291053771972657,-0.14,-0.011,-0.56,0.0009353070725211394,10.0,1.0,100.0,0.029751834876156305,-10.0,-1.0,-100.0,417.6862198970048,-0.001400382099946003,4.173772781219886e-05,0.9999990185934865,1.3424014221224194,-0.13166666566361596,2.903079631089887,-1.165993349043831,-90.01078796386719,6313.29833984375
1598614432.790172,0.0,10.0,0.5,0.5,0.0003983551025390625,-0.14,-0.011,-0.56,0.001581513051938141,10.0,1.0,100.0,0.04734897975947851,-10.0,-1.0,-100.0,417.6499273539521,-0.0016996188666709103,5.223851803356365e-05,0.9999985542823776,2.0401649355636353,-0.1998581466690337,3.0931879370236524,-0.8190380743409857,-90.00900268554688,6311.5302734375
1598614432.8279278,0.0,10.0,0.5,0.5,0.0006797714233398438,-0.14,-0.011,-0.56,0.001088832284033578,10.0,1.0,100.0,0.033884686065620284,-10.0,-1.0,-100.0,417.6369694399182,-0.0018471779244346607,5.7235784286680694e-05,0.9999982923274322,2.9800147583294305,-0.29171547582621543,3.5567169896684754,-0.6454851027974986,-90.00798034667969,6310.6455078125
1598614432.8600318,0.0,10.0,0.5,0.5,-0.0003117828369140625,-0.14,-0.011,-0.56,0.0016551409165773622,10.0,1.0,100.0,0.0505255483380191,-10.0,-1.0,-100.0,417.6216122417245,-0.0021305555420978303,6.685755885127621e-05,0.9999977281289936,6.836151041445951,-0.6680859301367039,3.7599449151527735,-0.29822687150359806,-90.00575256347656,6308.87744140625
1598614432.892029,0.0,10.0,0.5,0.5,-0.0007599617004394532,-0.14,-0.011,-0.56,0.0017186075355761117,10.0,1.0,100.0,0.052565985541205715,-10.0,-1.0,-100.0,417.62007987708785,-0.0024047268896506195,7.611406539341448e-05,0.9999971057434291,1.8290894742457722,-0.17840756398899002,-0.16560554855787632,0.04923957564113701,-90.00334167480469,6307.10888671875
1598614432.924301,0.0,10.0,0.5,0.5,-0.0002754257202148438,-0.14,-0.011,-0.56,0.0013110808030492895,10.0,1.0,100.0,0.039537696339715614,-10.0,-1.0,-100.0,417.62448651972227,-0.0025334468468545357,8.075341565320165e-05,0.9999967875578201,0.5509177934077238,-0.053678495490970785,-0.225582326102788,0.22305027506074496,-90.00212097167969,6306.224609375
1598614432.9630485,0.0,10.0,0.5,0.5,-0.001275987243652344,-0.14,-0.011,-0.56,0.0017534218437346046,10.0,1.0,100.0,0.05413936396881914,-10.0,-1.0,-100.0,417.6438586952863,-0.0027811565205598707,8.89221402818991e-05,0.9999961286231369,0.34543280893252093,-0.03358025570078604,-0.3607067371510394,0.5708314706239596,-89.9997329711914,6304.4560546875
1598614432.9928966,0.0,10.0,0.5,0.5,-0.0015558937072753908,-0.14,-0.011,-0.56,0.0018342664854946907,10.0,1.0,100.0,0.05576085240949279,-10.0,-1.0,-100.0,417.677116102539,-0.003019110484308368,9.701617240651634e-05,0.9999954377694661,0.4920941873106433,-0.04771871625134696,-0.8239363820761876,0.9188213720713843,-89.99744415283203,6302.68798828125
1598614433.025814,0.0,10.0,0.5,0.5,-0.0010390655517578127,-0.14,-0.011,-0.56,0.0014502449487353458,10.0,1.0,100.0,0.044238130895566274,-10.0,-1.0,-100.0,417.69897895958275,-0.003128635407495246,0.00010081368851913764,0.9999951007265423,0.5793156172554399,-0.05610263052586751,-1.1513947341736728,1.0928932462022054,-89.99637603759766,6301.8037109375
1598614433.059935,0.0,10.0,0.5,0.5,-0.0018046974182128908,-0.14,-0.011,-0.56,0.0018888023342979992,10.0,1.0,100.0,0.05640256189207887,-10.0,-1.0,-100.0,417.75301907293033,-0.0033367919790023674,0.00010818495101066382,0.9999944270421235,0.7242821443243458,-0.06994723393979377,-1.890172482980779,1.4411879376322838,-89.99445343017578,6300.03515625
1598614433.096899,0.0,10.0,0.5,0.5,-0.0018630081176757814,-0.14,-0.011,-0.56,0.0019082180912272078,10.0,1.0,100.0,0.05737692319342428,-10.0,-1.0,-100.0,417.82109678385314,-0.003532981462159627,0.00011499750718244304,0.9999937523892644,0.856064597395297,-0.08243052836686533,-2.761739298974361,1.789683793197855,-89.99285888671875,6298.2666015625
1598614433.125349,0.0,10.0,0.5,0.5,-0.0018656402587890627,-0.14,-0.011,-0.56,0.001932866474246581,10.0,1.0,100.0,0.057077954656752805,-10.0,-1.0,-100.0,417.9031522121513,-0.003706678915276292,0.00012134821647571823,0.9999931228793674,0.9727661196965528,-0.09337788446548927,-3.731783342114363,2.138380405949569,-89.99160766601562,6296.49853515625
1598614433.1593697,0.0,10.0,0.5,0.5,-0.0014831634521484376,-0.14,-0.011,-0.56,0.0015921279116123998,10.0,1.0,100.0,0.04878061202296774,-10.0,-1.0,-100.0,417.94942871364765,-0.0037873307032128454,0.0001239611382652557,0.9999928203541165,1.028483073734006,-0.09856804378982958,-4.256813212393537,2.3128040653376325,-89.99118041992188,6295.6142578125
1598614433.1933563,0.0,10.0,0.5,0.5,-0.0016469070434570313,-0.14,-0.011,-0.56,0.0019229996837406222,10.0,1.0,100.0,0.057207075463386166,-10.0,-1.0,-100.0,418.05235754710156,-0.003935490948269172,0.00012928378749874764,0.9999922475682992,1.1370497752070896,-0.10861387022021962,-5.388784942122282,2.661801804050775,-89.99063110351562,6293.8466796875
1598614433.230256,0.0,10.0,0.5,0.5,-0.0014413726806640627,-0.14,-0.011,-0.56,0.001680297370860811,10.0,1.0,100.0,0.05013685553723773,-10.0,-1.0,-100.0,418.1090709504206,-0.004004266503167964,0.00013185942374969886,0.9999919741992251,1.1904662073137016,-0.11352424172549413,-5.996265796110956,2.8363750268267096,-89.99050903320312,6292.96240234375
1598614433.259226,0.0,10.0,0.5,0.5,-0.0013444046020507814,-0.14,-0.011,-0.56,0.0018687504757012646,10.0,1.0,100.0,0.05678689897221523,-10.0,-1.0,-100.0,418.233026121743,-0.0041257905482907364,0.00013586344369606203,0.99999147966044,1.2964670097175492,-0.12320603621388951,-7.295258779697767,3.1856734498491397,-89.99057006835938,6291.193359375
1598614433.29113,0.0,10.0,0.5,0.5,-0.0010708557128906251,-0.14,-0.011,-0.56,0.0019151425464449265,10.0,1.0,100.0,0.05639339689998964,-10.0,-1.0,-100.0,418.370897399378,-0.004231242076198991,0.0001398751079012956,0.999991038472569,1.4021625444435937,-0.13277946025120094,-8.707724173209437,3.535173151758568,-89.99102783203125,6289.4248046875
1598614433.3232498,0.0,10.0,0.5,0.5,-0.001101793670654297,-0.14,-0.011,-0.56,0.0017097920077962432,10.0,1.0,100.0,0.05091234486508951,-10.0,-1.0,-100.0,418.44503616401926,-0.004275961096202277,0.00014160893140232044,0.9999908480099278,1.455072917166109,-0.13754279157583751,-9.456797728113699,3.7099968791835765,-89.99136352539062,6288.541015625
1598614433.3624282,0.0,10.0,0.5,0.5,-0.0006128768920898437,-0.14,-0.011,-0.56,0.0018583998151958793,10.0,1.0,100.0,0.05501326395426753,-10.0,-1.0,-100.0,418.6039030649699,-0.004352753241914252,0.00014449557578052535,0.9999905162851515,1.561306235482051,-0.1470491567149758,-11.041448372925572,4.059794441943288,-89.99234008789062,6286.7724609375
1598614433.3974054,0.0,10.0,0.5,0.5,-0.0007583076477050783,-0.14,-0.011,-0.56,0.0017246711317420143,10.0,1.0,100.0,0.05108266751331067,-10.0,-1.0,-100.0,418.6885702890577,-0.004385718754157876,0.00014586437183180252,0.9999903720509484,1.614681479784452,-0.1517975907062373,-11.87714019708372,4.234769059879609,-89.992919921875,6285.88818359375
1598614433.4248877,0.0,10.0,0.5,0.5,0.0003946380615234374,-0.14,-0.011,-0.56,0.001913815325966331,10.0,1.0,100.0,0.055484725449181024,-10.0,-1.0,-100.0,418.96368935564533,-0.004454752540364397,0.00014879397053425632,0.9999900664707418,1.7761504246993502,-0.16605426985872784,-14.558899713146772,4.759991309199455,-89.99503326416016,6283.23583984375
1598614433.458481,0.0,10.0,0.5,0.5,-0.00023636245727539067,-0.14,-0.011,-0.56,0.0016969681693907528,10.0,1.0,100.0,0.05030845367023336,-10.0,-1.0,-100.0,419.06242492597084,-0.0044696155379451595,0.00014945518023729834,0.9999900000500465,1.8304644736743494,-0.17081483777859668,-15.511275731401415,4.935164367287007,-89.99581909179688,6282.3515625
1598614433.4943852,0.0,10.0,0.5,0.5,0.0004977928161621094,-0.14,-0.011,-0.56,0.001741426843414435,10.0,1.0,100.0,0.0506059091059364,-10.0,-1.0,-100.0,419.26923421013635,-0.0044851379155043634,0.0001504348979459504,0.9999899304029116,1.9398862707714222,-0.18035518592723412,-17.504086746474794,5.285661321445477,-89.99748992919922,6280.5830078125
1598614433.5248566,0.0,10.0,0.5,0.5,0.00016720886230468752,-0.14,-0.011,-0.56,0.0016376969037392992,10.0,1.0,100.0,0.049340356580773195,-10.0,-1.0,-100.0,419.38109204603825,-0.004487109774681891,0.00015035848390251402,0.9999899215683108,1.9950098599695747,-0.1851369728266141,-18.54470387127714,5.460984162183847,-89.99834442138672,6279.6982421875
1598614433.5571501,0.0,10.0,0.5,0.5,0.0008721046447753908,-0.14,-0.011,-0.56,0.0016872288933138181,10.0,1.0,100.0,0.048118705248396246,-10.0,-1.0,-100.0,419.604655151139,-0.004477294981070387,0.00015072014858970043,0.9999899655061991,2.106079462143595,-0.19472457960512043,-20.7145167137458,5.81177860267409,-90.0000228881836,6277.9306640625
1598614433.5930533,0.0,10.0,0.5,0.5,0.0010908523559570314,-0.14,-0.011,-0.56,0.0015919106112498188,10.0,1.0,100.0,0.046297136650003595,-10.0,-1.0,-100.0,419.8521435984876,-0.004451382701003721,0.00015016525871852445,0.9999900812720316,2.2182638613645915,-0.20434830602608456,-23.0029611586798,6.162771351085045,-90.00166320800781,6276.162109375
1598614433.6314814,0.0,10.0,0.5,0.5,0.0007238739013671876,-0.14,-0.011,-0.56,0.0016027683344313204,10.0,1.0,100.0,0.04682932685597892,-10.0,-1.0,-100.0,419.9843261020724,-0.004432368182676788,0.0001497465183054486,0.9999901657957808,2.274766877875869,-0.20917403931199324,-24.19177794041723,6.338341872654554,-90.00243377685547,6275.27783203125
1598614433.664409,0.0,10.0,0.5,0.5,0.0012608650207519534,-0.14,-0.011,-0.56,0.0015239629392673941,10.0,1.0,100.0,0.0432585711971332,-10.0,-1.0,-100.0,420.25210854411125,-0.004382437999929635,0.00014864045850988564,0.9999903860253813,2.3885899718619714,-0.21885399844453693,-26.658966870782077,6.689631147033773,-90.00379943847656,6273.509765625
1598614433.695908,0.0,10.0,0.5,0.5,0.0013108604431152347,-0.14,-0.011,-0.56,0.0014226608606235426,10.0,1.0,100.0,0.041048153731774506,-10.0,-1.0,-100.0,420.5198604755569,-0.004316855423289211,0.0001467076293197865,0.9999906715745531,2.503458674214029,-0.22857172505939893,-29.24577285148743,7.0411181842686315,-90.00494384765625,6271.7412109375
1598614433.7258732,0.0,10.0,0.5,0.5,0.001009630584716797,-0.14,-0.011,-0.56,0.0015176445651611183,10.0,1.0,100.0,0.04344250464294859,-10.0,-1.0,-100.0,420.67572423350066,-0.00427903435991643,0.00014581198913954775,0.9999908342598999,2.5612776189664936,-0.23344519297892344,-30.584234998164618,7.216935598857728,-90.00540924072266,6270.857421875
1598614433.7626007,0.0,10.0,0.5,0.5,0.001243400573730469,-0.14,-0.011,-0.56,0.0013241061148266003,10.0,1.0,100.0,0.037656619405333006,-10.0,-1.0,-100.0,420.9671574694803,-0.004192149604139435,0.00014323837795691895,0.999991202643535,2.677634696379668,-0.24321948508200641,-33.35135064313559,7.568717958309104,-90.00609588623047,6269.0888671875
1598614433.7940662,0.0,10.0,0.5,0.5,0.0011380767822265626,-0.14,-0.011,-0.56,0.0012576847445702113,10.0,1.0,100.0,0.03511867885332,-10.0,-1.0,-100.0,421.2789454536978,-0.004090330005629525,0.00014029995132726862,0.9999916247231118,2.794914320832152,-0.25303033515739964,-36.2391935388148,7.9206970166321895,-90.00647735595703,6267.3203125
1598614433.8265386,0.0,10.0,0.5,0.5,0.0009842430114746093,-0.14,-0.011,-0.56,0.0013668737670383966,10.0,1.0,100.0,0.03923699531366494,-10.0,-1.0,-100.0,421.4348701960407,-0.004035550779834848,0.00013862960480357913,0.9999918475226366,2.853873915212262,-0.2579483555734146,-37.72843677791617,8.096760034044852,-90.00654602050781,6266.4365234375
1598614433.859534,0.0,10.0,0.5,0.5,0.0008756439208984375,-0.14,-0.011,-0.56,0.0011521393919439213,10.0,1.0,100.0,0.031530459808719956,-10.0,-1.0,-100.0,421.79066464374773,-0.003916100785554433,0.00013516970936585924,0.9999923229124247,2.9724025253721624,-0.2678093586503118,-40.79802733635643,8.449033320666478,-90.00643157958984,6264.66796875
1598614433.8724995,0.0,10.0,0.5,0.5,0.0008257934570312501,-0.14,-0.011,-0.56,0.0012489435494913484,10.0,1.0,100.0,0.036216398162441155,-10.0,-1.0,-100.0,421.946650071186,-0.0038506284203234545,0.0001329181956497602,0.999992577469214,3.03194505957752,-0.2727512234721163,-42.3783586735925,8.625243458299588,-90.00625610351562,6263.78369140625
1598614433.9019349,0.0,10.0,0.5,0.5,0.0007493370056152344,-0.14,-0.011,-0.56,0.0012484145662031482,10.0,1.0,100.0,0.03518752161420764,-10.0,-1.0,-100.0,422.10248312947806,-0.0037823243620029394,0.00013088273965335918,0.9999928384204204,3.0916625613230404,-0.27770062634034653,-43.98914650706318,8.80150222068525,-90.00599670410156,6262.8994140625
1598614433.9338496,0.0,10.0,0.5,0.5,0.00041337509155273437,-0.14,-0.011,-0.56,0.0009874773820416035,10.0,1.0,100.0,0.02618025255074153,-10.0,-1.0,-100.0,422.4819896928966,-0.0036389537341700528,0.00012667769845431254,0.9999933709622685,3.2115783904704633,-0.28762076994794283,-47.302250978513996,9.154166170773964,-90.00530242919922,6261.130859375
1598614433.9608388,0.0,10.0,0.5,0.5,0.0004955711364746094,-0.14,-0.011,-0.56,0.0011326088349365648,10.0,1.0,100.0,0.032022045378685984,-10.0,-1.0,-100.0,422.6820423898753,-0.003562445293165566,0.00012419528222681628,0.9999936467593507,3.271752286598443,-0.2925903675055322,-49.00462127633534,9.330571418617517,-90.0048599243164,6260.2470703125
1598614433.9923596,0.0,10.0,0.5,0.5,2.200317382812576e-06,-0.14,-0.011,-0.56,0.0008757023840609726,10.0,1.0,100.0,0.022020147767104842,-10.0,-1.0,-100.0,423.03792829962913,-0.003402711270971444,0.00011962524989957164,0.9999942036061038,3.3924822904952507,-0.30254731326933293,-52.50131549721532,9.683527880038747,-90.00379943847656,6258.478515625
1598614434.0284667,0.0,10.0,0.5,0.5,0.00016756744384765625,-0.14,-0.011,-0.56,0.001011035215708981,10.0,1.0,100.0,0.028630677855304466,-10.0,-1.0,-100.0,423.23791989148594,-0.003318425291735255,0.00011672559387107678,0.9999944871991638,3.453004344615124,-0.3075336063161137,-54.295575763098235,9.860078911974067,-90.00318908691406,6257.59423828125
1598614434.0613794,0.0,10.0,0.5,0.5,-0.00041699752807617193,-0.14,-0.011,-0.56,0.0007003184957112594,10.0,1.0,100.0,0.0178115490972886,-10.0,-1.0,-100.0,423.66158503643237,-0.003144319239236922,0.0001112912876590735,0.9999950504231364,3.5743145120480198,-0.31751943002044053,-57.97627636635824,10.213326626496361,-90.00186920166016,6255.826171875
1598614434.0919418,0.0,10.0,0.5,0.5,-0.0006811988830566407,-0.14,-0.011,-0.56,0.0006411350597850943,10.0,1.0,100.0,0.014822160211898146,-10.0,-1.0,-100.0,424.08518929674756,-0.0029598173201575264,0.00010584202085819433,0.9999956141298311,3.6958871146628125,-0.32751983782274074,-61.779992892469174,10.566768176712937,-90.00044250488281,6254.0576171875
1598614434.126789,0.0,10.0,0.5,0.5,-0.0004176040649414063,-0.14,-0.011,-0.56,0.0008235244573134046,10.0,1.0,100.0,0.022919179152100573,-10.0,-1.0,-100.0,424.2851199901197,-0.002866725304710345,0.00010257755277171525,0.9999958856734728,3.75674675136278,-0.33252523186571004,-63.728161181687014,10.743561498661073,-89.99968719482422,6253.17333984375
1598614434.1626933,0.0,10.0,0.5,0.5,-0.0010168846130371094,-0.14,-0.011,-0.56,0.0005002276678263399,10.0,1.0,100.0,0.0110026963196956,-10.0,-1.0,-100.0,424.72917100030463,-0.0026748271062593393,9.670356738142628e-05,0.9999964179677704,3.8785055326988926,-0.34253983972752583,-67.71657447588211,11.097292854895041,-89.99823760986328,6251.4052734375
1598614434.1936107,0.0,10.0,0.5,0.5,-0.0012128181457519533,-0.14,-0.011,-0.56,0.0003524033464110247,10.0,1.0,100.0,0.007904216286403434,-10.0,-1.0,-100.0,425.19699503749143,-0.0024733346288914916,9.005469241555565e-05,0.9999969372482927,4.000256740323965,-0.3525587717734312,-71.82821668770924,11.45121680355014,-89.99681091308594,6249.63671875
1598614434.2265525,0.0,10.0,0.5,0.5,-0.0008888877868652345,-0.14,-0.011,-0.56,0.0006710895318509671,10.0,1.0,100.0,0.016914701727182894,-10.0,-1.0,-100.0,425.4206077225972,-0.0023733252387381997,8.694637458988566e-05,0.9999971798798429,4.061106243893472,-0.35756909575385193,-73.93046214539127,11.628250851773974,-89.99614715576172,6248.75244140625
1598614434.2600071,0.0,10.0,0.5,0.5,-0.0014092132568359376,-0.14,-0.011,-0.56,0.00028549627321745007,10.0,1.0,100.0,0.004303305336337295,-10.0,-1.0,-100.0,425.9086955327075,-0.002169039461521397,8.065518000175685e-05,0.9999976443785038,4.182648886106489,-0.36758654083627185,-78.2271172830315,11.982463189632517,-89.99488830566406,6246.98388671875
1598614434.2969084,0.0,10.0,0.5,0.5,-0.0014740745544433594,-0.14,-0.011,-0.56,0.0001515664557341517,10.0,1.0,100.0,0.0012593710385761202,-10.0,-1.0,-100.0,426.376397663611,-0.0019569892743197914,7.376020705220299e-05,0.9999980823743675,4.303930400380331,-0.37759828867000494,-82.64729665632072,12.336866956083144,-89.99380493164062,6245.2158203125
1598614434.327826,0.0,10.0,0.5,0.5,-0.001477690124511719,-0.14,-0.011,-0.56,9.727049543992498e-05,10.0,1.0,100.0,-0.0007301520393255996,-10.0,-1.0,-100.0,426.88822860631626,-0.0017475893088999943,6.704430025463798e-05,0.9999984707171653,4.424835982988713,-0.3875998909837259,-87.19076524153023,12.691461904491744,-89.99295043945312,6243.447265625
1598614434.3610897,0.0,10.0,0.5,0.5,-0.0012888183593750002,-0.14,-0.011,-0.56,0.0003708502674714586,10.0,1.0,100.0,0.008426003956009107,-10.0,-1.0,-100.0,427.1321658055531,-0.0016419681420778319,6.347382013863368e-05,0.9999986499549359,4.485124105589306,-0.3925966939897063,-89.5088971711293,12.868831054004186,-89.9925537109375,6242.56298828125
1598614434.3920066,0.0,10.0,0.5,0.5,-0.001420146179199219,-0.14,-0.011,-0.56,-2.6853615337583698e-05,10.0,1.0,100.0,-0.004510080497350393,-10.0,-1.0,-100.0,427.6678308628034,-0.00142987218370865,5.666084998375887e-05,0.999998976127019,4.605269904936382,-0.40257474047025693,-94.23701903884495,13.223712071177456,-89.9920654296875,6240.794921875
1598614434.4300005,0.0,10.0,0.5,0.5,-0.0012856666564941407,-0.14,-0.011,-0.56,0.0002873788078106581,10.0,1.0,100.0,0.004672199476218294,-10.0,-1.0,-100.0,427.95589673740324,-0.0013220915368195895,5.337356317856153e-05,0.9999991246122324,4.665112780000852,-0.4075557905371064,-96.64711823080218,13.40122384573126,-89.99188232421875,6239.91064453125
1598614434.4619143,0.0,10.0,0.5,0.5,-0.0013207176208496095,-0.14,-0.011,-0.56,-0.0001525180589814981,10.0,1.0,100.0,-0.00807109899115764,-10.0,-1.0,-100.0,428.48793037084397,-0.0011097498042927877,4.643375680088947e-05,0.9999993831494488,4.784323060889534,-0.4175029206569951,-101.56015148413465,13.756389734032194,-89.99169921875,6238.14208984375
1598614434.4930387,0.0,10.0,0.5,0.5,-0.00120560302734375,-0.14,-0.011,-0.56,-0.0002136416765181853,10.0,1.0,100.0,-0.010651831413971564,-10.0,-1.0,-100.0,429.04379840381444,-0.0008948479122432209,3.9620212476282096e-05,0.999999598838646,4.902783968248649,-0.42742425539241735,-106.59614728469451,14.111745017428246,-89.99172973632812,6236.37353515625
1598614434.5270362,0.0,10.0,0.5,0.5,-0.001165764617919922,-0.14,-0.011,-0.56,8.973823566764221e-05,10.0,1.0,100.0,-0.0007858996791986067,-10.0,-1.0,-100.0,429.33528210327495,-0.0007907910072361108,3.6235974432787594e-05,0.9999996866682195,4.961733828315234,-0.4323761837562175,-109.16082610406804,14.28949369692863,-89.9918212890625,6235.4892578125
1598614434.5629246,0.0,10.0,0.5,0.5,-0.0010088996887207032,-0.14,-0.011,-0.56,-0.0003348902210038306,10.0,1.0,100.0,-0.013453785833100728,-10.0,-1.0,-100.0,429.91144468425773,-0.0005825608045774963,2.934806180349081e-05,0.9999998298807857,5.078910318799153,-0.44225225386522754,-114.3810451200591,14.645132218660907,-89.99212646484375,6233.720703125
1598614434.5748932,0.0,10.0,0.5,0.5,-0.0010346847534179688,-0.14,-0.011,-0.56,-1.3483752895928768e-05,10.0,1.0,100.0,-0.004418248894319566,-10.0,-1.0,-100.0,430.2232838306809,-0.0004770298329078216,2.6060562134916836e-05,0.9999998858816863,5.1371357893536205,-0.44717672193974334,-117.03688618695394,14.823021870151386,-89.99234008789062,6232.8369140625
1598614434.6040583,0.0,10.0,0.5,0.5,-0.00098621826171875,-0.14,-0.011,-0.56,-6.245841542154595e-05,10.0,1.0,100.0,-0.005531820172251546,-10.0,-1.0,-100.0,430.5113802541746,-0.00037250740125292987,2.267633333858656e-05,0.9999999303620076,5.195136051912283,-0.45209368679801093,-119.72379663624241,15.000958630094157,-89.99258422851562,6231.95263671875
1598614434.6357758,0.0,10.0,0.5,0.5,-0.0006970336914062501,-0.14,-0.011,-0.56,-0.00048110572619728764,10.0,1.0,100.0,-0.017570173030743295,-10.0,-1.0,-100.0,431.13493637216743,-0.00016948787546498226,1.5840316947337398e-05,0.9999999855114721,5.310336561895955,-0.46189688920618804,-125.18880414220109,15.356973128478051,-89.99319458007812,6230.1845703125
1598614434.6609845,0.0,10.0,0.5,0.5,-0.0007822143554687502,-0.14,-0.011,-0.56,-0.00015933739892166275,10.0,1.0,100.0,-0.008587838143771372,-10.0,-1.0,-100.0,431.4468367153313,-6.801689775153375e-05,1.2597472278986841e-05,0.9999999976075027,5.367549421570944,-0.4667850808423089,-127.9675233041511,15.535050584241688,-89.99356079101562,6229.30029296875
1598614434.7018707,0.0,10.0,0.5,0.5,-0.0004948516845703127,-0.14,-0.011,-0.56,-0.0005486459225286238,10.0,1.0,100.0,-0.020349981980607997,-10.0,-1.0,-100.0,432.04677285673097,0.0001297271611916376,6.156514500295459e-06,0.9999999915664805,5.481116094280983,-0.4765289169795634,-133.6162602873349,15.891345928904538,-89.9942626953125,6227.5322265625
