Timestamp,Input Throttle,horizon,dT,dt,Input Roll,Roll P,Roll I,Roll D,Input Pitch,Pitch P,Pitch I,Pitch D,Input Yaw,Yaw P,Yaw I,Yaw D,Altitude,Direction X,Direction Y,Direction Z,Drag X,Drag Y,Drag Z,Vertical Velocity,Roll,Mass
1598100565.5912018,0.0,10.0,0.5,0.5,-0.18016540527343752,-0.14,-0.011,-0.56,-0.013068839343277554,10.0,1.0,100.0,0.17622065293400455,-10.0,-1.0,-100.0,19912.91353033879,-0.013652612981829614,-0.0009432225743551921,0.999906353860172,35.542653398693496,1.9781880233980955,134.5060397232492,-61.59157983929188,-88.69479370117188,4892.3046875
1598100565.6569443,0.0,10.0,0.5,0.5,-0.18170794372558596,-0.14,-0.011,-0.56,-0.011671774227768977,10.0,1.0,100.0,0.16091220140180085,-10.0,-1.0,-100.0,19907.94970480271,-0.013861893075332539,-0.0009627246309622969,0.9999034558804429,35.7854216880442,1.992150718020665,137.07870589786924,-62.32155239675978,-88.69830322265625,4892.3046875
1598100565.692972,0.0,10.0,0.5,0.5,-0.16513138732910157,-0.14,-0.011,-0.56,-0.010072130902890325,10.0,1.0,100.0,0.14474493617033438,-10.0,-1.0,-100.0,19905.44589301548,-0.013892570846344291,-0.0009650363570780752,0.9999030278882592,35.908977167336836,1.9992572774418151,138.382421126074,-62.68652625602709,-88.72683715820312,4892.3046875
1598100565.7098932,0.0,10.0,0.5,0.5,-0.12863513793945314,-0.14,-0.011,-0.56,-0.010142583885931217,10.0,1.0,100.0,0.14557266637184113,-10.0,-1.0,-100.0,19902.927482769242,-0.013915354939235633,-0.0009669011021590834,0.9999027092668435,36.040524190106545,2.006813574005765,139.72323408458584,-63.05149136869322,-88.80380249023438,4892.3046875
1598100565.7645273,0.0,10.0,0.5,0.5,-0.08318032531738281,-0.14,-0.011,-0.56,-0.009820069147251274,10.0,1.0,100.0,0.14231549496441856,-10.0,-1.0,-100.0,19900.394474196015,-0.013893806779124615,-0.0009647853717882196,0.9999030109577483,36.18153131573713,2.0149041009850825,141.10743084646305,-63.41644748548798,-88.93218994140625,4892.3046875
1598100565.7966104,0.0,10.0,0.5,0.5,-0.03329046325683595,-0.14,-0.011,-0.56,-0.009408466142320644,10.0,1.0,100.0,0.13791629976763012,-10.0,-1.0,-100.0,19897.846867708024,-0.013821594125617318,-0.0009582430574318938,0.999904018046767,36.331763884132556,2.0235185815675223,142.5347504481893,-63.78139412623896,-89.10784912109375,4892.3046875
1598100565.858401,0.0,10.0,0.5,0.5,0.01666017761230469,-0.14,-0.011,-0.56,-0.008946205930260359,10.0,1.0,100.0,0.13322621053627232,-10.0,-1.0,-100.0,19895.284663806786,-0.013700743998393234,-0.0009472220033097478,0.9999056917451601,36.48943792243111,2.032560142370248,143.9987950498189,-64.14633071214215,-89.32113647460938,4892.3046875
1598100565.8914568,0.0,10.0,0.5,0.5,0.063269384765625,-0.14,-0.011,-0.56,-0.008580199403162733,10.0,1.0,100.0,0.1283477985993331,-10.0,-1.0,-100.0,19892.707862318028,-0.013534075825127898,-0.0009330144202220824,0.9999079749035164,36.6516109358163,2.0418668331732603,145.48840697148327,-64.51125699001388,-89.55941772460938,4892.3046875
1598100565.9237893,0.0,10.0,0.5,0.5,0.10372773742675784,-0.14,-0.011,-0.56,-0.008147366832894269,10.0,1.0,100.0,0.12315694931279222,-10.0,-1.0,-100.0,19890.116464474006,-0.013323066059713468,-0.0009153153991215623,0.999910825078161,36.814827704616654,2.0512473220213243,146.9901056088907,-64.87617295036448,-89.80853271484375,4892.3046875
1598100565.9654994,0.0,10.0,0.5,0.5,0.13597394104003907,-0.14,-0.011,-0.56,-0.007749108584350366,10.0,1.0,100.0,0.11765928653038478,-10.0,-1.0,-100.0,19887.510470022797,-0.013069148369442361,-0.0008947727454987616,0.9999141946900401,36.97553729627547,2.060504126278633,148.4897056893023,-65.24107811759121,-90.05419158935547,4892.3046875
1598100565.996844,0.0,10.0,0.5,0.5,0.15855903396606447,-0.14,-0.011,-0.56,-0.007363050567576417,10.0,1.0,100.0,0.11189616755733858,-10.0,-1.0,-100.0,19884.8898798835,-0.01277404107092326,-0.0008717745577387263,0.9999180285822629,37.130381031678205,2.0694496254279504,149.973469551016,-65.6059728466037,-90.28289794921875,4892.3046875
1598100566.0579264,0.0,10.0,0.5,0.5,0.17223359146118167,-0.14,-0.011,-0.56,-0.00687504676512395,10.0,1.0,100.0,0.10452834846175432,-10.0,-1.0,-100.0,19882.254694126314,-0.012439580236774135,-0.0008464956688587776,0.9999222671231077,37.27641886915304,2.0779187824236605,151.42904871570084,-65.9708571002635,-90.48290252685547,4892.3046875
1598100566.0778372,0.0,10.0,0.5,0.5,0.17546236724853517,-0.14,-0.011,-0.56,-0.0063655010469127506,10.0,1.0,100.0,0.09697384273616139,-10.0,-1.0,-100.0,19879.604913410847,-0.012068140619895503,-0.0008189882896769983,0.9999268419440293,37.41124024602614,2.085775400182533,152.84598417232365,-66.33573120704374,-90.64471435546875,4892.3046875
1598100566.1257463,0.0,10.0,0.5,0.5,0.168726969909668,-0.14,-0.011,-0.56,-0.005913079346255071,10.0,1.0,100.0,0.08923860400163033,-10.0,-1.0,-100.0,19876.940538177383,-0.011661806461715963,-0.0007900014277488574,0.999931686750547,37.53310717070854,2.092920273526521,154.21635573794617,-66.70059541344469,-90.76152801513672,4892.3046875
1598100566.163759,0.0,10.0,0.5,0.5,0.15284641036987306,-0.14,-0.011,-0.56,-0.005421114805210802,10.0,1.0,100.0,0.08141464565266293,-10.0,-1.0,-100.0,19874.261568381917,-0.011223333558814422,-0.0007593381480541544,0.9999367280930351,37.6409961921991,2.099293684040589,155.53503450348117,-67.06545014812562,-90.82921600341797,4892.3046875
1598100566.1980555,0.0,10.0,0.5,0.5,0.12920971984863283,-0.14,-0.011,-0.56,-0.004962337166339443,10.0,1.0,100.0,0.0734995052418583,-10.0,-1.0,-100.0,19871.568004857283,-0.01075519370991508,-0.0007274785036362611,0.9999418966036422,37.73448752477628,2.104869363309884,156.79930195275134,-67.43029584991677,-90.84661865234375,4892.3046875
1598100566.2580252,0.0,10.0,0.5,0.5,0.09953392639160158,-0.14,-0.011,-0.56,-0.00443583087545702,10.0,1.0,100.0,0.06558321509797974,-10.0,-1.0,-100.0,19868.859847728512,-0.010260433391803783,-0.0006939385556608776,0.9999471195797773,37.81393082482681,2.1096639706629894,158.0096182654612,-67.79513302069843,-90.81541442871094,4892.3046875
1598100566.291935,0.0,10.0,0.5,0.5,0.06580699615478516,-0.14,-0.011,-0.56,-0.003999351471341917,10.0,1.0,100.0,0.057625815734353394,-10.0,-1.0,-100.0,19866.137097373605,-0.009741438845311992,-0.0006597099569618907,0.9999523334399473,37.88022744788807,2.1137250536774554,159.16879149921718,-68.15996201104595,-90.73992156982422,4892.3046875
1598100566.3251355,0.0,10.0,0.5,0.5,0.03018080673217774,-0.14,-0.011,-0.56,-0.0034719549358060626,10.0,1.0,100.0,0.04975633293977818,-10.0,-1.0,-100.0,19863.399754267535,-0.009201532720350422,-0.0006240469936972677,0.9999574702760843,37.934886121731424,2.11713434163045,160.28227971446984,-68.52478315726792,-90.62677764892578,4892.3046875
1598100566.3658547,0.0,10.0,0.5,0.5,-0.005256404113769528,-0.14,-0.011,-0.56,-0.002985832671565807,10.0,1.0,100.0,0.041938999599002096,-10.0,-1.0,-100.0,19860.64781837759,-0.00864338915214136,-0.0005874716141503574,0.9999624726463825,37.97985371878396,2.1199983935938382,161.3575419084048,-68.88959700655616,-90.4843521118164,4892.3046875
1598100566.397472,0.0,10.0,0.5,0.5,-0.03850148925781251,-0.14,-0.011,-0.56,-0.0024926954003339774,10.0,1.0,100.0,0.034264282022298496,-10.0,-1.0,-100.0,19857.88129008969,-0.008070239165996999,-0.0005500175676704664,0.9999672838250653,38.017490847543954,2.122447381584657,162.40398458913876,-69.25440351084886,-90.3222427368164,4892.3046875
1598100566.458315,0.0,10.0,0.5,0.5,-0.06779185867309571,-0.14,-0.011,-0.56,-0.0019925686605665434,10.0,1.0,100.0,0.02669566448820434,-10.0,-1.0,-100.0,19855.100169724203,-0.0074846642936512026,-0.0005117143341363781,0.999971858578456,38.05026313615065,2.1246179050682907,163.43168665036123,-69.61920303549041,-90.15065002441406,4892.3046875
1598100566.4932861,0.0,10.0,0.5,0.5,-0.09166228027343751,-0.14,-0.011,-0.56,-0.0014982309028329444,10.0,1.0,100.0,0.019303536246028694,-10.0,-1.0,-100.0,19852.304457780556,-0.006889626803810812,-0.00047270357979392185,0.9999761545126112,38.08086746933376,2.1266600783597807,164.45195414581087,-69.98399570821002,-89.97979736328125,4892.3046875
1598100566.525781,0.0,10.0,0.5,0.5,-0.10906055908203127,-0.14,-0.011,-0.56,-0.0010112803151246744,10.0,1.0,100.0,0.012085576248167959,-10.0,-1.0,-100.0,19849.494154122774,-0.006287773552899072,-0.0004331272384215074,0.9999801379550209,38.111848760274796,2.1287160862601633,165.4756828191837,-70.34878136838256,-89.81930541992188,4892.3046875
1598100566.5654645,0.0,10.0,0.5,0.5,-0.1193853340148926,-0.14,-0.011,-0.56,-0.0005352640248122474,10.0,1.0,100.0,0.005123655465538154,-10.0,-1.0,-100.0,19846.669259355403,-0.005682229529417962,-0.00039314575652495164,0.9999837787204295,38.14558594223324,2.130919470509687,166.51328569376918,-70.7135599013568,-89.67764282226562,4892.3046875
1598100566.597838,0.0,10.0,0.5,0.5,-0.12234823150634767,-0.14,-0.011,-0.56,-9.807869354460947e-05,10.0,1.0,100.0,-0.0016078656439404218,-10.0,-1.0,-100.0,19843.829773572274,-0.005075576683466599,-0.0003531574448724944,0.9999870568168117,38.18418747880179,2.133389097004884,167.5742076649059,-71.07833108334322,-89.5618896484375,4892.3046875
1598100566.658141,0.0,10.0,0.5,0.5,-0.11822005157470705,-0.14,-0.011,-0.56,0.0003706989492031276,10.0,1.0,100.0,-0.008105763814881678,-10.0,-1.0,-100.0,19840.975697330665,-0.0044701655828899385,-0.00031288311121688457,0.9999899598115073,38.22931541995216,2.136219357376585,168.6661251697439,-71.44309476061386,-89.47720336914062,4892.3046875
1598100566.6918602,0.0,10.0,0.5,0.5,-0.10760101928710938,-0.14,-0.011,-0.56,0.0007393658044896555,10.0,1.0,100.0,-0.014271322318445703,-10.0,-1.0,-100.0,19838.10703059344,-0.0038690052030686773,-0.0002732649777950381,0.9999924780342053,38.28214432124629,2.139477638963678,169.79470632559125,-71.80785069720025,-89.42672729492188,4892.3046875
1598100566.7257466,0.0,10.0,0.5,0.5,-0.09141735916137697,-0.14,-0.011,-0.56,0.0011450525452029155,10.0,1.0,100.0,-0.020153503473551118,-10.0,-1.0,-100.0,19835.223773948033,-0.003274359968768612,-0.0002339117452042997,0.9999946119115295,38.343399793385366,2.143206426727546,170.96372802071235,-72.17259842502528,-89.41152954101562,4892.3046875
1598100566.7670915,0.0,10.0,0.5,0.5,-0.07091331176757813,-0.14,-0.011,-0.56,0.0014701216071180473,10.0,1.0,100.0,-0.025699015779516388,-10.0,-1.0,-100.0,19832.32592765952,-0.0026887479827612153,-0.00019553557433030265,0.9999963661934599,38.413202831577266,2.1474144313439996,172.17432548726148,-72.53733758733614,-89.43057250976562,4892.3046875
1598100566.8000042,0.0,10.0,0.5,0.5,-0.04742464218139649,-0.14,-0.011,-0.56,0.0018294892529863702,10.0,1.0,100.0,-0.030934724291612946,-10.0,-1.0,-100.0,19829.41349213035,-0.0021141894100712316,-0.00015773747315497519,0.9999977526584888,38.49120140908974,2.1520838777924256,173.42551800364947,-72.90206813933244,-89.48101806640625,4892.3046875
1598100566.859582,0.0,10.0,0.5,0.5,-0.022488783264160157,-0.14,-0.011,-0.56,0.0021183798579661912,10.0,1.0,100.0,-0.03582560069262897,-10.0,-1.0,-100.0,19826.486467616865,-0.001552815512849215,-0.00012110590303623865,0.9999987870479361,38.57666476398511,2.1571755905666894,174.7145734585296,-73.26678954939878,-89.55831909179688,4892.3046875
1598100566.8961842,0.0,10.0,0.5,0.5,0.002421786499023436,-0.14,-0.011,-0.56,0.0023782252601589,10.0,1.0,100.0,-0.040329876487814484,-10.0,-1.0,-100.0,19823.54485463805,-0.0010069202343100608,-8.579734330027186e-05,0.9999994893750986,38.66846454941295,2.1626279172434346,176.03688522815264,-73.63150168666908,-89.65667724609375,4892.3046875
1598100566.9257774,0.0,10.0,0.5,0.5,0.02594086608886719,-0.14,-0.011,-0.56,0.0026367268879614906,10.0,1.0,100.0,-0.04445963410919246,-10.0,-1.0,-100.0,19820.588653346058,-0.0004784564632342124,-5.170037077527272e-05,0.9999998842032356,38.76522038083535,2.168364730671669,177.38658550791587,-73.99620426430572,-89.76947021484375,4892.3046875
1598100566.96568,0.0,10.0,0.5,0.5,0.04678265380859376,-0.14,-0.011,-0.56,0.002852284468995865,10.0,1.0,100.0,-0.04825302217069054,-10.0,-1.0,-100.0,19817.617864215514,3.116929549411886e-05,-1.9090260350093943e-05,0.9999999993320186,38.865393356443846,2.174300674449577,178.75695048260417,-74.36089715880468,-89.88955688476562,4892.3046875
1598100567.0012739,0.0,10.0,0.5,0.5,0.063881298828125,-0.14,-0.011,-0.56,0.003052246005080342,10.0,1.0,100.0,-0.05159337675694005,-10.0,-1.0,-100.0,19814.632487676106,0.0005196383007358591,1.2033076277041227e-05,0.9999998649156114,38.96750273872599,2.1803532368197884,180.14137992972957,-74.72558016644955,-90.00971984863281,4892.3046875
1598100567.0601404,0.0,10.0,0.5,0.5,0.0765183822631836,-0.14,-0.011,-0.56,0.0032212938658727486,10.0,1.0,100.0,-0.05461944457872838,-10.0,-1.0,-100.0,19811.632524155546,0.00098612418116806,4.1531826016959137e-05,0.9999995129169847,39.07003916129756,2.1864379099079962,181.53300364693908,-75.09025348055805,-90.12319946289062,4892.3046875
1598100567.0929368,0.0,10.0,0.5,0.5,0.08420270233154298,-0.14,-0.011,-0.56,0.003357840168121128,10.0,1.0,100.0,-0.05720320223919914,-10.0,-1.0,-100.0,19808.617974043475,0.0014287306968706515,6.926800585802083e-05,0.9999989769647463,39.17167032584972,2.1924797417544513,182.9256366245669,-75.45491711457552,-90.22394561767578,4892.3046875
1598100567.126777,0.0,10.0,0.5,0.5,0.08675124282836916,-0.14,-0.011,-0.56,0.003519059355444428,10.0,1.0,100.0,-0.05938945247883601,-10.0,-1.0,-100.0,19805.588837384013,0.0018461591352333976,9.563695015860413e-05,0.9999982912735507,39.271309539710046,2.1984172021302912,184.31412099389706,-75.81957117337554,-90.30693054199219,4892.3046875
1598100567.1681309,0.0,10.0,0.5,0.5,0.0843043296813965,-0.14,-0.011,-0.56,0.003603005821177112,10.0,1.0,100.0,-0.06120911544511365,-10.0,-1.0,-100.0,19802.545115070534,0.0022375269069802345,0.00012007227767001071,0.999997489524843,39.36815889510423,2.2042046880820516,185.69455942500795,-76.18421566758296,-90.36841583251953,4892.3046875
1598100567.200219,0.0,10.0,0.5,0.5,0.07725459747314453,-0.14,-0.011,-0.56,0.0037182588744131334,10.0,1.0,100.0,-0.06263130036721765,-10.0,-1.0,-100.0,19799.486807153444,0.002601766312505812,0.0001430470505716166,0.9999966051690357,39.46166425162207,2.2098100539352776,187.06413469420843,-76.54885078109675,-90.40605926513672,4892.3046875
1598100567.261087,0.0,10.0,0.5,0.5,0.06625477828979494,-0.14,-0.011,-0.56,0.003765408874394821,10.0,1.0,100.0,-0.06368537861597122,-10.0,-1.0,-100.0,19796.413914131,0.002938188341860845,0.00016408840364224949,0.9999956700527576,39.55162368508186,2.2152208049653166,188.42165735105308,-76.91347676862065,-90.41900634765625,4892.3046875
1598100567.2960262,0.0,10.0,0.5,0.5,0.05213256454467774,-0.14,-0.011,-0.56,0.0038440896036686127,10.0,1.0,100.0,-0.06433853416911879,-10.0,-1.0,-100.0,19793.326436302275,0.0032458815973442985,0.0001836729182392425,0.9999947152444933,39.6381319294051,2.2204410178867016,189.7673373553803,-77.27809378895981,-90.4078369140625,4892.3046875
1598100567.3259273,0.0,10.0,0.5,0.5,0.03585404281616211,-0.14,-0.011,-0.56,0.00385667649094799,10.0,1.0,100.0,-0.06462263246539732,-10.0,-1.0,-100.0,19790.224374229438,0.0035243192669939206,0.00020134647570128547,0.9999937692972398,39.721586901738135,2.2254918209965937,191.1028536404028,-77.64270201432797,-90.37446594238281,4892.3046875
1598100567.367182,0.0,10.0,0.5,0.5,0.018453437042236332,-0.14,-0.011,-0.56,0.0038943933848319475,10.0,1.0,100.0,-0.06453905270638827,-10.0,-1.0,-100.0,19787.107727882918,0.0037730457182023783,0.0002175261843871091,0.9999928583786822,39.80268902152067,2.2304114031317623,192.4313848510179,-78.00730171107342,-90.32196044921875,4892.3046875
1598100567.4003887,0.0,10.0,0.5,0.5,0.0009665870666503915,-0.14,-0.011,-0.56,0.003821295850670302,10.0,1.0,100.0,-0.06413844149704094,-10.0,-1.0,-100.0,19783.976497608353,0.003992117047922629,0.00023135538156844544,0.999992004706119,39.88226135863683,2.23524499593086,193.7567701765634,-78.37189283227833,-90.2542953491211,4892.3046875
1598100567.4591804,0.0,10.0,0.5,0.5,-0.015596807861328128,-0.14,-0.011,-0.56,0.003812725345140019,10.0,1.0,100.0,-0.06336188485599374,-10.0,-1.0,-100.0,19780.830684266868,0.004181056397524986,0.0002436500814054837,0.9999912296625599,39.96136336083775,2.2400513288536126,195.08408307057283,-78.73647560504713,-90.17611694335938,4892.3046875
1598100567.4940886,0.0,10.0,0.5,0.5,-0.03037151489257813,-0.14,-0.011,-0.56,0.0037743293171198923,10.0,1.0,100.0,-0.06228749078715347,-10.0,-1.0,-100.0,19777.670287879184,0.004340147739977347,0.0002542942825886187,0.9999905491813474,40.041134420939436,2.2448938437435944,196.41888679576473,-79.10105001601494,-90.0923843383789,4892.3046875
1598100567.527354,0.0,10.0,0.5,0.5,-0.04259661560058594,-0.14,-0.011,-0.56,0.0036534692173772424,10.0,1.0,100.0,-0.06084675019651774,-10.0,-1.0,-100.0,19774.495308907703,0.004469031848616344,0.00026270389523314405,0.9999899793202927,40.12270417643766,2.2498357179820307,197.7668046381428,-79.46561600329387,-90.00814056396484,4892.3046875
1598100567.56898,0.0,10.0,0.5,0.5,-0.05171266860961915,-0.14,-0.011,-0.56,0.0035583938584221354,10.0,1.0,100.0,-0.05912374251194013,-10.0,-1.0,-100.0,19771.305747264414,0.004568151084143469,0.0002693327971512347,0.9999895296729445,40.207232921382015,2.254942119609106,199.133718731024,-79.83017362952727,-89.92819213867188,4892.3046875
1598100567.6003685,0.0,10.0,0.5,0.5,-0.05739222717285157,-0.14,-0.011,-0.56,0.0034027771209164514,10.0,1.0,100.0,-0.05713884859839098,-10.0,-1.0,-100.0,19768.10160371731,0.004638096240702079,0.00027380868262719165,0.9999892064877836,40.295790074589746,2.2602733875616883,200.52516873371206,-80.1947225894165,-89.8568115234375,4892.3046875
1598100567.660191,0.0,10.0,0.5,0.5,-0.059466126251220705,-0.14,-0.011,-0.56,0.0032770492188195005,10.0,1.0,100.0,-0.0548444703543484,-10.0,-1.0,-100.0,19764.882878262782,0.004678973553602068,0.0002766158142844024,0.9999890152847559,40.389262669445216,2.265879872929859,201.94588448940215,-80.55926276089099,-89.797607421875,4892.3046875
1598100567.6954875,0.0,10.0,0.5,0.5,-0.05807752151489258,-0.14,-0.011,-0.56,0.003054989154894336,10.0,1.0,100.0,-0.052344953792783706,-10.0,-1.0,-100.0,19761.649571763817,0.0046918293373044324,0.00027704672665469055,0.9999889549302938,40.488396285126825,2.271804201613161,203.39997119565234,-80.92379420307932,-89.75320434570312,4892.3046875
1598100567.7278242,0.0,10.0,0.5,0.5,-0.05335022964477539,-0.14,-0.011,-0.56,0.0028985702716752488,10.0,1.0,100.0,-0.049558069510478066,-10.0,-1.0,-100.0,19758.401684055687,0.004676866603794749,0.0002759315900453104,0.9999890253300423,40.59363079157075,2.278071981015267,204.8900597463969,-81.28831650977804,-89.7254638671875,4892.3046875
1598100567.76711,0.0,10.0,0.5,0.5,-0.04589945907592774,-0.14,-0.011,-0.56,0.002676094429453443,10.0,1.0,100.0,-0.046575987205937,-10.0,-1.0,-100.0,19755.13921602629,0.004635106509347571,0.0002728275171853629,0.999989220618299,40.70526324061542,2.284700886425269,206.41809819322665,-81.65282939832323,-89.71493530273438,4892.3046875
1598100567.8007896,0.0,10.0,0.5,0.5,-0.03614238204956055,-0.14,-0.011,-0.56,0.00242357273745061,10.0,1.0,100.0,-0.04339310490981475,-10.0,-1.0,-100.0,19751.862167464336,0.004567423801893439,0.000267659707082841,0.9999895334442732,40.82329614940424,2.2916921311500964,207.98456559752222,-82.0173326978345,-89.72140502929688,4892.3046875
1598100567.8366055,0.0,10.0,0.5,0.5,-0.024842575073242185,-0.14,-0.011,-0.56,0.002197323180150974,10.0,1.0,100.0,-0.040017023832627154,-10.0,-1.0,-100.0,19748.570539279375,0.004474679415548004,0.000260871879809175,0.9999899545445396,40.94749280155215,2.299033478075585,209.58871724803407,-82.38182628282983,-89.74356079101562,4892.3046875
1598100567.8944037,0.0,10.0,0.5,0.5,-0.012710354614257815,-0.14,-0.011,-0.56,0.0019611072216811393,10.0,1.0,100.0,-0.03650787029156023,-10.0,-1.0,-100.0,19745.26433140633,0.004358198011207888,0.00025253805375756764,0.9999904711219134,41.07742092155379,2.306701617486922,211.2287788199068,-82.74630986998548,-89.779296875,4892.3046875
1598100567.9268763,0.0,10.0,0.5,0.5,-0.0004253562927246102,-0.14,-0.011,-0.56,0.0017157465255148627,10.0,1.0,100.0,-0.03278984743736238,-10.0,-1.0,-100.0,19741.94354470796,0.0042184892083412286,0.00024273289304444122,0.9999910726749224,41.21244890114496,2.314661947057792,212.9019069120823,-83.11078317849176,-89.825927734375,4892.3046875
1598100567.9716072,0.0,10.0,0.5,0.5,0.011264468383789066,-0.14,-0.011,-0.56,0.001421465686670512,10.0,1.0,100.0,-0.029000223023672916,-10.0,-1.0,-100.0,19738.608179272152,0.004057257840738248,0.00023116198568136738,0.9999917425773827,41.35184493717003,2.322874061535453,214.60467748767022,-83.47524592689606,-89.88021850585938,4892.3046875
1598100568.001524,0.0,10.0,0.5,0.5,0.021739041137695314,-0.14,-0.011,-0.56,0.0011745303760015437,10.0,1.0,100.0,-0.025087205687310467,-10.0,-1.0,-100.0,19735.258235576213,0.0038755754337171573,0.0002184328132647368,0.9999924660727018,41.49474946075315,2.3312902015150363,216.33293229137723,-83.83969809250226,-89.93869018554688,4892.3046875
1598100568.06061,0.0,10.0,0.5,0.5,0.030469091796875004,-0.14,-0.011,-0.56,0.0009003116360058552,10.0,1.0,100.0,-0.021084472374270004,-10.0,-1.0,-100.0,19731.893714415026,0.0036747143252221478,0.00020441828240362313,0.9999932273209623,41.640266468756444,2.3398603692004776,218.0822414269781,-84.20413954194106,-89.99781036376953,4892.3046875
1598100568.0970042,0.0,10.0,0.5,0.5,0.037064894866943365,-0.14,-0.011,-0.56,0.0006312396022249657,10.0,1.0,100.0,-0.01700976682398462,-10.0,-1.0,-100.0,19728.514615578693,0.0034559835027044355,0.00018929732452449425,0.9999940101543369,41.787522573579736,2.3485356229928787,219.84820888872852,-84.5685702704561,-90.05421447753906,4892.3046875
1598100568.1271658,0.0,10.0,0.5,0.5,0.04125510635375977,-0.14,-0.011,-0.56,0.00032827564039988053,10.0,1.0,100.0,-0.012906946103981139,-10.0,-1.0,-100.0,19725.120940020657,0.003220962426447029,0.00017287655352881285,0.9999947977438406,41.935696507808565,2.357269752550308,221.62663044183964,-84.93299020460893,-90.10485076904297,4892.3046875
1598100568.1668131,0.0,10.0,0.5,0.5,0.042934944152832034,-0.14,-0.011,-0.56,9.470134324399658e-05,10.0,1.0,100.0,-0.008740874562754856,-10.0,-1.0,-100.0,19721.712688050582,0.0029707570741812823,0.00015591886359179127,0.9999955751360675,42.08398937297896,2.3660176194977707,223.41334264709437,-85.29739918322934,-90.14716339111328,4892.3046875
1598100568.2018518,0.0,10.0,0.5,0.5,0.04214574661254883,-0.14,-0.011,-0.56,-0.00019718408120315942,10.0,1.0,100.0,-0.004564833666898711,-10.0,-1.0,-100.0,19718.289859803393,0.002706846699827517,0.00013795555856642802,0.9999963269678581,42.23182696174804,2.3747465525562226,225.20530356413948,-85.66179725950066,-90.17920684814453,4892.3046875
1598100568.237208,0.0,10.0,0.5,0.5,0.03906046142578125,-0.14,-0.011,-0.56,-0.0004926308319559479,10.0,1.0,100.0,-0.0004050025578394914,-10.0,-1.0,-100.0,19714.85245635186,0.002430802964970888,0.00011905731458063282,0.9999970385067655,42.37874523191728,2.3834299729663826,227.0000091076784,-86.02618457712651,-90.19971466064453,4892.3046875
1598100568.2939506,0.0,10.0,0.5,0.5,0.03397919235229493,-0.14,-0.011,-0.56,-0.0007089528015803718,10.0,1.0,100.0,0.0037312186633827633,-10.0,-1.0,-100.0,19711.400477369316,0.0021441101734997296,0.00010003945174716837,0.9999976963891826,42.52436287230992,2.392045857296969,228.79535426641635,-86.39056134480249,-90.20814514160156,4892.3046875
1598100568.3277264,0.0,10.0,0.5,0.5,0.02729455337524414,-0.14,-0.011,-0.56,-0.0010254379644021767,10.0,1.0,100.0,0.007846499297699757,-10.0,-1.0,-100.0,19707.933923727134,0.0018480815280664386,8.00119827838301e-05,0.9999982890949106,42.668538933689334,2.400585658244482,230.59049551681443,-86.75492712179708,-90.20466613769531,4892.3046875
1598100568.3695898,0.0,10.0,0.5,0.5,0.019464247894287107,-0.14,-0.011,-0.56,-0.0012891141940057466,10.0,1.0,100.0,0.011912325296266835,-10.0,-1.0,-100.0,19704.45279570343,0.0015441574392130867,5.955606428463613e-05,0.9999988060147262,42.81122170116803,2.409045828487605,232.38506040384786,-87.119282366668,-90.19010162353516,4892.3046875
1598100568.4006095,0.0,10.0,0.5,0.5,0.010988896179199221,-0.14,-0.011,-0.56,-0.0015325743433502615,10.0,1.0,100.0,0.015904460535072704,-10.0,-1.0,-100.0,19700.957094168756,0.0012338553111768272,3.890250603805215e-05,0.9999992380435428,42.95256885097517,2.417434660601272,234.1798142226853,-87.48362707541284,-90.16585540771484,4892.3046875
1598100568.462334,0.0,10.0,0.5,0.5,0.0024076011657714856,-0.14,-0.011,-0.56,-0.0018107546337756699,10.0,1.0,100.0,0.019770603733294326,-10.0,-1.0,-100.0,19697.446818683995,0.000919017274907795,1.7760841634769072e-05,0.9999995775458113,43.09278357215127,2.4257630634771394,235.97578344385474,-87.84796110904007,-90.13384246826172,4892.3046875
1598100568.496406,0.0,10.0,0.5,0.5,-0.0058338768005371106,-0.14,-0.011,-0.56,-0.002073253540398001,10.0,1.0,100.0,0.02362368588570933,-10.0,-1.0,-100.0,19693.921970271855,0.0006002780378688243,-3.6755183913559547e-06,0.9999998198263675,43.23224794762936,2.4340521508331405,237.7750024845799,-88.21228466850451,-90.09624481201172,4892.3046875
1598100568.527882,0.0,10.0,0.5,0.5,-0.013256973266601565,-0.14,-0.011,-0.56,-0.0022868423345399156,10.0,1.0,100.0,0.02729336698608765,-10.0,-1.0,-100.0,19690.382549410802,0.00027975045370708037,-2.4929404868290797e-05,0.9999999605591035,43.37131973919701,2.4423217579557126,239.57940308786522,-88.57659763167786,-90.05549621582031,4892.3046875
1598100568.5674963,0.0,10.0,0.5,0.5,-0.019464675140380864,-0.14,-0.011,-0.56,-0.002575305503589945,10.0,1.0,100.0,0.030860336964393317,-10.0,-1.0,-100.0,19686.828556264518,-4.139142990388385e-05,-4.669368869468901e-05,0.9999999980532246,43.51045481171688,2.4505974042040872,241.39149794364553,-88.94090001827875,-90.01410675048828,4892.3046875
1598100568.601206,0.0,10.0,0.5,0.5,-0.024230635833740237,-0.14,-0.011,-0.56,-0.0027825184890569493,10.0,1.0,100.0,0.03434441286690059,-10.0,-1.0,-100.0,19683.25999123673,-0.0003622736972965673,-6.817896244812698e-05,0.9999999320546963,43.65010041510614,2.4589042708497892,243.21379480173357,-89.30519193275522,-89.97439575195312,4892.3046875
1598100568.6613333,0.0,10.0,0.5,0.5,-0.027318476867675787,-0.14,-0.011,-0.56,-0.0029864350922673257,10.0,1.0,100.0,0.03761380748318687,-10.0,-1.0,-100.0,19679.67685490439,-0.0006809165092587693,-8.937742177951533e-05,0.999999764182164,43.790634100307,2.4672637418913865,245.0484514669763,-89.66947301684142,-89.93853759765625,4892.3046875
1598100568.6953497,0.0,10.0,0.5,0.5,-0.028631162261962894,-0.14,-0.011,-0.56,-0.003226281484225246,10.0,1.0,100.0,0.040810176286087255,-10.0,-1.0,-100.0,19676.079147509765,-0.0009968208551832931,-0.00011063968406552206,0.9999994970533951,43.932455415865846,2.4756985870305814,246.89778794449916,-90.03374318845168,-89.90838623046875,4892.3046875
1598100568.7281973,0.0,10.0,0.5,0.5,-0.02824739608764649,-0.14,-0.011,-0.56,-0.003363679764003919,10.0,1.0,100.0,0.043772982423093104,-10.0,-1.0,-100.0,19672.46686983714,-0.001308085833606838,-0.00013102656220005004,0.9999991358713726,44.07577849984679,2.484221263263703,248.7631173300348,-90.39800255347458,-89.88528442382812,4892.3046875
1598100568.7716832,0.0,10.0,0.5,0.5,-0.026193320465087894,-0.14,-0.011,-0.56,-0.0035960193012154608,10.0,1.0,100.0,0.04661143734565763,-10.0,-1.0,-100.0,19668.840022035292,-0.0016139888884136714,-0.00015148041216519505,0.9999986860459131,44.220805604937006,2.492843623808204,250.6457035515288,-90.76225086166565,-89.8702392578125,4892.3046875
1598100568.8015513,0.0,10.0,0.5,0.5,-0.022755496215820313,-0.14,-0.011,-0.56,-0.0037668156537279196,10.0,1.0,100.0,0.04924227405524428,-10.0,-1.0,-100.0,19665.198604793637,-0.001913128229845556,-0.0001714356639959403,0.9999981552733932,44.36757576008746,2.5015683806909554,252.5459001681682,-91.12648790240135,-89.86361694335938,4892.3046875
1598100568.8613086,0.0,10.0,0.5,0.5,-0.01816181106567383,-0.14,-0.011,-0.56,-0.003923852911747587,10.0,1.0,100.0,0.051697033586364655,-10.0,-1.0,-100.0,19661.54261811776,-0.00220452818730198,-0.00019081319694222023,0.999997551819901,44.51604840872806,2.5103938340939105,254.4636145188332,-91.49071377794439,-89.8653564453125,4892.3046875
1598100568.8986022,0.0,10.0,0.5,0.5,-0.01272350311279297,-0.14,-0.011,-0.56,-0.004033196812046121,10.0,1.0,100.0,0.05399385340075823,-10.0,-1.0,-100.0,19657.872063003946,-0.002487477832882116,-0.00020923355867920958,0.9999968843328209,44.66602484127811,2.5193092994859483,256.3978358036027,-91.85492811623192,-89.87493896484375,4892.3046875
1598100568.9275405,0.0,10.0,0.5,0.5,-0.006818868255615236,-0.14,-0.011,-0.56,-0.004198657324836973,10.0,1.0,100.0,0.05607670116305876,-10.0,-1.0,-100.0,19654.18693956826,-0.002760832712275198,-0.00022729665761067323,0.999996163062121,44.81723156552605,2.5282998621342285,258.347105493438,-92.21913091181693,-89.89138793945312,4892.3046875
1598100568.96935,0.0,10.0,0.5,0.5,-0.000787229156494141,-0.14,-0.011,-0.56,-0.004290124565848909,10.0,1.0,100.0,0.05796449772292764,-10.0,-1.0,-100.0,19650.487248255056,-0.0030237347684804604,-0.00024436520678234653,0.9999953986462615,44.96935488880546,2.5373482839917494,260.3097065172581,-92.58332203419114,-89.91342163085938,4892.3046875
1598100569.0024886,0.0,10.0,0.5,0.5,0.004985195922851564,-0.14,-0.011,-0.56,-0.004431349089819546,10.0,1.0,100.0,0.059673328913412406,-10.0,-1.0,-100.0,19646.772989760386,-0.003275560245545491,-0.00026098622759443017,0.9999946012810603,45.12190105460975,2.5464270701033014,262.28284402161137,-92.9475013000734,-89.939453125,4892.3046875
1598100569.0377285,0.0,10.0,0.5,0.5,0.010278790283203127,-0.14,-0.011,-0.56,-0.004501322092228327,10.0,1.0,100.0,0.06117518488334962,-10.0,-1.0,-100.0,19643.04416451743,-0.0035154972911965398,-0.0002765570853862712,0.9999937823781577,45.27444927357707,2.5555127211820157,264.26410066061464,-93.31166864989562,-89.9678955078125,4892.3046875
1598100569.0949967,0.0,10.0,0.5,0.5,0.01470958251953125,-0.14,-0.011,-0.56,-0.004564699038396995,10.0,1.0,100.0,0.062461590473039556,-10.0,-1.0,-100.0,19639.300772923278,-0.003742739582802004,-0.00029111840137710846,0.9999929535504197,45.42646746899168,2.564575355085228,266.2503674668821,-93.67582407085055,-89.99693298339844,4892.3046875
1598100569.1289058,0.0,10.0,0.5,0.5,0.018151252746582032,-0.14,-0.011,-0.56,-0.004664840558345687,10.0,1.0,100.0,0.06359156637185126,-10.0,-1.0,-100.0,19635.54281562555,-0.003957099702680151,-0.00030510226726166535,0.99999212410626,45.577514127199294,2.573590066983284,268.23901576759016,-94.03996748239204,-90.02494049072266,4892.3046875
1598100569.1713893,0.0,10.0,0.5,0.5,0.020420810699462895,-0.14,-0.011,-0.56,-0.004710642278092746,10.0,1.0,100.0,0.06449241748136278,-10.0,-1.0,-100.0,19631.77029296104,-0.0041577539000475965,-0.00031807300124072523,0.9999913059182427,45.727123401415405,2.582530466989564,270.22723159745124,-94.40409901084251,-90.05036926269531,4892.3046875
1598100569.2021272,0.0,10.0,0.5,0.5,0.021471309661865237,-0.14,-0.011,-0.56,-0.004741048790440981,10.0,1.0,100.0,0.06518980302408818,-10.0,-1.0,-100.0,19627.98320528574,-0.004344194161668565,-0.00032998955261660405,0.9999905094969557,45.874856177176106,2.5913715408899964,272.2123117075746,-94.76821856542698,-90.07192993164062,4892.3046875
1598100569.2617266,0.0,10.0,0.5,0.5,0.021306319427490235,-0.14,-0.011,-0.56,-0.00476948331225793,10.0,1.0,100.0,0.0657446275115319,-10.0,-1.0,-100.0,19624.18155305204,-0.004516519107635458,-0.00034093713689426554,0.9999897423558998,46.02040402608824,2.6000955431427024,274.19228745314166,-95.1323260982878,-90.08861541748047,4892.3046875
1598100569.2971292,0.0,10.0,0.5,0.5,0.019989251708984378,-0.14,-0.011,-0.56,-0.00481734625797865,10.0,1.0,100.0,0.0660679918109617,-10.0,-1.0,-100.0,19620.36533698975,-0.004674016014945328,-0.00035118812761691703,0.9999890150602612,46.16351689484392,2.608687990882222,276.1655136637779,-95.49642168141949,-90.0997314453125,4892.3046875
1598100569.3274226,0.0,10.0,0.5,0.5,0.01766984252929688,-0.14,-0.011,-0.56,-0.004816836452185066,10.0,1.0,100.0,0.06622428961715414,-10.0,-1.0,-100.0,19616.534557583043,-0.0048166281487541755,-0.0003603735258858061,0.9999883350440636,46.30399381546908,2.617137092896502,278.13061287224565,-95.86050538802111,-90.1049575805664,4892.3046875
1598100569.3692245,0.0,10.0,0.5,0.5,0.01453486557006836,-0.14,-0.011,-0.56,-0.004793352655905379,10.0,1.0,100.0,0.06619887985489147,-10.0,-1.0,-100.0,19612.68921526405,-0.0049441756403448495,-0.0003683894199201852,0.9999877096327099,46.44180303711069,2.625440609093826,280.08720979056415,-96.22457745512116,-90.10432434082031,4892.3046875
1598100569.403135,0.0,10.0,0.5,0.5,0.010784287261962892,-0.14,-0.011,-0.56,-0.004810869702538986,10.0,1.0,100.0,0.06600790378244033,-10.0,-1.0,-100.0,19608.829310026835,-0.00505664590397603,-0.0003757230929088919,0.9999871444995476,46.57689590186483,2.6335953240234247,282.03482169380607,-96.58863786918874,-90.09815979003906,4892.3046875
1598100569.4384484,0.0,10.0,0.5,0.5,0.006693880462646485,-0.14,-0.011,-0.56,-0.004769857396383686,10.0,1.0,100.0,0.06562347595797904,-10.0,-1.0,-100.0,19604.954842733452,-0.005153777631001609,-0.0003819129229651094,0.9999866462701635,46.709415122798525,2.6416088511650493,283.9741221794677,-96.9526865411768,-90.0871353149414,4892.3046875
1598100569.4964015,0.0,10.0,0.5,0.5,0.0024831558227539074,-0.14,-0.011,-0.56,-0.004731686232886212,10.0,1.0,100.0,0.06511048190023047,-10.0,-1.0,-100.0,19601.065814019763,-0.005235926272918234,-0.000387097252586622,0.9999862175209124,46.83953566349277,2.649490693585296,285.90599830355615,-97.31672362017315,-90.07211303710938,4892.3046875
1598100569.528653,0.0,10.0,0.5,0.5,-0.0015880462646484378,-0.14,-0.011,-0.56,-0.004714805088928002,10.0,1.0,100.0,0.06442279412517485,-10.0,-1.0,-100.0,19597.162224113592,-0.005302997706987282,-0.0003915695610690957,0.9999858623443626,46.967407430658135,2.6572489980642415,287.83119940942623,-97.68074902771289,-90.05416107177734,4892.3046875
1598100569.5713851,0.0,10.0,0.5,0.5,-0.005281489562988282,-0.14,-0.011,-0.56,-0.004637019221527458,10.0,1.0,100.0,0.06358182985106497,-10.0,-1.0,-100.0,19593.244073506095,-0.00535510306455423,-0.00039484954517333276,0.9999855833785829,47.09334976241006,2.664901581103062,289.75153343093814,-98.04476308424871,-90.03447723388672,4892.3046875
1598100569.602152,0.0,10.0,0.5,0.5,-0.00844457015991211,-0.14,-0.011,-0.56,-0.004604978227310982,10.0,1.0,100.0,0.06262982053693511,-10.0,-1.0,-100.0,19589.311363000306,-0.005392728442064359,-0.0003974702702807325,0.999985380141797,47.21767005236106,2.6724656110816136,291.66875748432517,-98.40876547753574,-90.01423645019531,4892.3046875
1598100569.663282,0.0,10.0,0.5,0.5,-0.010893134307861329,-0.14,-0.011,-0.56,-0.004509637988019517,10.0,1.0,100.0,0.06153492516123624,-10.0,-1.0,-100.0,19585.36409234209,-0.005416026523403218,-0.0003989246720960243,0.9999852536491745,47.34060244556615,2.6799542986207774,293.58421591588876,-98.77275645923501,-89.99463653564453,4892.3046875
1598100569.698455,0.0,10.0,0.5,0.5,-0.012544210052490234,-0.14,-0.011,-0.56,-0.004443122919920944,10.0,1.0,100.0,0.060314983793005844,-10.0,-1.0,-100.0,19581.402262488846,-0.0054252984872584795,-0.0003995894571861191,0.9999852031228211,47.4625131109708,2.687388347654053,295.50008915096964,-99.13673587664428,-89.97674560546875,4892.3046875
1598100569.7287931,0.0,10.0,0.5,0.5,-0.01334172592163086,-0.14,-0.011,-0.56,-0.004329992631139849,10.0,1.0,100.0,0.05900639204166191,-10.0,-1.0,-100.0,19577.425873698317,-0.0054211482725943965,-0.00039912134888858697,0.9999852258176394,47.58363110528115,2.694780789670566,297.4177371735012,-99.50070357828936,-89.96148681640625,4892.3046875
1598100569.7689223,0.0,10.0,0.5,0.5,-0.013264558410644531,-0.14,-0.011,-0.56,-0.004249265734858045,10.0,1.0,100.0,0.05756411419756806,-10.0,-1.0,-100.0,19573.434926601243,-0.005403714169659068,-0.0003979266897219025,0.9999853206560196,47.70418406320873,2.7021446874436363,299.33853817752913,-99.86465978051099,-89.94961547851562,4892.3046875
1598100569.8027155,0.0,10.0,0.5,0.5,-0.01242643737792969,-0.14,-0.011,-0.56,-0.004139491853651598,10.0,1.0,100.0,0.05602796934037882,-10.0,-1.0,-100.0,19569.42942175863,-0.0053734822696258535,-0.0003958158394959473,0.9999854844037083,47.824364875402445,2.7094911563151274,301.2636691639516,-100.22860426570355,-89.94155883789062,4892.3046875
1598100569.8392375,0.0,10.0,0.5,0.5,-0.010821354675292971,-0.14,-0.011,-0.56,-0.004006009985531882,10.0,1.0,100.0,0.05439809201542668,-10.0,-1.0,-100.0,19565.40935938724,-0.005330893624490958,-0.00039266514708345695,0.9999857135915725,47.944269661909345,2.716825872734251,303.19371472416486,-100.59253713960345,-89.93765258789062,4892.3046875
1598100569.897017,0.0,10.0,0.5,0.5,-0.008670111846923827,-0.14,-0.011,-0.56,-0.003931719120690156,10.0,1.0,100.0,0.05273406600201965,-10.0,-1.0,-100.0,19561.374740207102,-0.005276888150615998,-0.00038911573500616063,0.9999860014222153,48.06404262296486,2.724157270914661,305.1295748665429,-100.95645818856225,-89.93783569335938,4892.3046875
1598100569.9293685,0.0,10.0,0.5,0.5,-0.006057807159423828,-0.14,-0.011,-0.56,-0.0038075219871400333,10.0,1.0,100.0,0.050972115591256625,-10.0,-1.0,-100.0,19557.325564409955,-0.005211737296197555,-0.00038475809691959964,0.9999863447845486,48.18361531720128,2.7314817441509875,307.0708099112587,-101.32036743839296,-89.94192504882812,4892.3046875
1598100569.9721992,0.0,10.0,0.5,0.5,-0.0031948165893554694,-0.14,-0.011,-0.56,-0.0036898728323810637,10.0,1.0,100.0,0.049169561093927144,-10.0,-1.0,-100.0,19553.261832651682,-0.005136205351669421,-0.00037973326221959856,0.9999867375106708,48.30302977064,2.7388018987068006,309.017676488093,-101.68426480581236,-89.949462890625,4892.3046875
1598100570.0026143,0.0,10.0,0.5,0.5,-0.0002249778747558601,-0.14,-0.011,-0.56,-0.003542638359875344,10.0,1.0,100.0,0.047295220347500506,-10.0,-1.0,-100.0,19549.183545322157,-0.005050699484142588,-0.00037384047754495807,0.9999871752567722,48.42216584346876,2.746111150705817,310.969397629816,-102.04815019451405,-89.95986938476562,4892.3046875
1598100570.063929,0.0,10.0,0.5,0.5,0.002646126556396485,-0.14,-0.011,-0.56,-0.0034366709452248907,10.0,1.0,100.0,0.04542005317426469,-10.0,-1.0,-100.0,19545.090702999267,-0.004956230838414161,-0.000367541542064586,0.9999876502682877,48.54096616122796,2.753406407401707,312.9255872320376,-102.41202369120278,-89.97238159179688,4892.3046875
1598100570.0997672,0.0,10.0,0.5,0.5,0.005291934204101564,-0.14,-0.011,-0.56,-0.0032963692072077184,10.0,1.0,100.0,0.04348173774686767,-10.0,-1.0,-100.0,19540.983306009788,-0.004853147198125608,-0.00036056829685502935,0.9999881584062766,48.65929021026562,2.760679809339387,314.885315093438,-102.77588504350474,-89.9862060546875,4892.3046875
1598100570.1292021,0.0,10.0,0.5,0.5,0.007563540649414063,-0.14,-0.011,-0.56,-0.0031944662438192868,10.0,1.0,100.0,0.04156649801847283,-10.0,-1.0,-100.0,19536.861354889465,-0.004742543665140728,-0.00035333806623402035,0.9999886916519584,48.77697594622465,2.7679222336176976,316.84750055845467,-103.13973440469888,-90.00049591064453,4892.3046875
1598100570.1703641,0.0,10.0,0.5,0.5,0.009340001678466797,-0.14,-0.011,-0.56,-0.0030360273885622147,10.0,1.0,100.0,0.03959443651290748,-10.0,-1.0,-100.0,19532.724850427127,-0.004624684080201565,-0.0003453663972422702,0.9999892464517857,48.89390733604711,2.7751270780178072,318.81134400483074,-103.50357178628516,-90.014404296875,4892.3046875
1598100570.203129,0.0,10.0,0.5,0.5,0.010557357025146485,-0.14,-0.011,-0.56,-0.002922359569006873,10.0,1.0,100.0,0.037651278875190146,-10.0,-1.0,-100.0,19528.57379270636,-0.004500582142722583,-0.0003371338637015212,0.9999898154987054,49.00996651877101,2.782287598949815,320.7760243335926,-103.86739710270102,-90.02716827392578,4892.3046875
1598100570.2395775,0.0,10.0,0.5,0.5,0.011199470520019532,-0.14,-0.011,-0.56,-0.0028046283500648772,10.0,1.0,100.0,0.03569165422905447,-10.0,-1.0,-100.0,19524.408182210173,-0.004370740975619461,-0.0003286328057429989,0.9999903942657664,49.125078708890925,2.7893994259290897,322.7409903925336,-104.23121032219254,-90.03816223144531,4892.3046875
1598100570.2978866,0.0,10.0,0.5,0.5,0.011220309448242188,-0.14,-0.011,-0.56,-0.0026665534786570093,10.0,1.0,100.0,0.033770107313663235,-10.0,-1.0,-100.0,19520.22801946674,-0.004236107808702949,-0.00031970755635094385,0.9999909765481444,49.23910932828492,2.7964547582569854,324.7052910970525,-104.59501145808463,-90.04682922363281,4892.3046875
1598100570.3298063,0.0,10.0,0.5,0.5,0.01068437957763672,-0.14,-0.011,-0.56,-0.0025654298765866532,10.0,1.0,100.0,0.031882367285542015,-10.0,-1.0,-100.0,19516.033305201912,-0.004097498911561302,-0.0003107374861381226,0.9999915569367996,49.352113656742524,2.8034565376465084,326.669218425862,-104.95880064134695,-90.05282592773438,4892.3046875
1598100570.3732114,0.0,10.0,0.5,0.5,0.009637852478027342,-0.14,-0.011,-0.56,-0.002418342252823367,10.0,1.0,100.0,0.030000702113998405,-10.0,-1.0,-100.0,19511.824039728497,-0.003955397720222714,-0.00030131300810205656,0.9999921319887203,49.46407016907366,2.8104033459769955,328.63256225512623,-105.32257799148034,-90.05595397949219,4892.3046875
1598100570.4037867,0.0,10.0,0.5,0.5,0.008184863281250001,-0.14,-0.011,-0.56,-0.0022912394702602566,10.0,1.0,100.0,0.02815912153686361,-10.0,-1.0,-100.0,19507.60022363148,-0.0038105466388786333,-0.000291661112095166,0.9999926973073896,49.575027473252916,2.817297688465378,330.59557154644205,-105.68634317614011,-90.05621337890625,4892.3046875
1598100570.4632177,0.0,10.0,0.5,0.5,0.006404550170898438,-0.14,-0.011,-0.56,-0.002211506723470433,10.0,1.0,100.0,0.026390188251914658,-10.0,-1.0,-100.0,19503.36185738712,-0.0036639100376529,-0.0002822365265412215,0.999993248030095,49.68508652584144,2.824145070395064,332.5588532207132,-106.05009623627544,-90.05372619628906,4892.3046875
1598100570.4997797,0.0,10.0,0.5,0.5,0.004426158142089845,-0.14,-0.011,-0.56,-0.0020972357647537345,10.0,1.0,100.0,0.02464756732996322,-10.0,-1.0,-100.0,19499.10894108785,-0.0035159368652488217,-0.0002727074446088686,0.9999937818899722,49.79439299802723,2.830953595741396,334.5233306718229,-106.41383751501883,-90.04878234863281,4892.3046875
1598100570.5306969,0.0,10.0,0.5,0.5,0.0023662384033203126,-0.14,-0.011,-0.56,-0.001985016248095549,10.0,1.0,100.0,0.02297931868979942,-10.0,-1.0,-100.0,19494.841475545894,-0.003367465548455331,-0.00026310433893006084,0.9999942954596724,49.903090122159306,2.837731206632388,336.48991761683897,-106.77756685892328,-90.04178619384766,4892.3046875
1598100570.5630865,0.0,10.0,0.5,0.5,0.0003801025390625006,-0.14,-0.011,-0.56,-0.0018566152953291646,10.0,1.0,100.0,0.02136904991794094,-10.0,-1.0,-100.0,19490.559461156256,-0.0032191028880958856,-0.0002532889921308175,0.9999947865970513,50.011411397695085,2.8444910209170113,338.4601536351562,-107.14128403801251,-90.03328704833984,4892.3046875
1598100570.6031103,0.0,10.0,0.5,0.5,-0.0014779411315917965,-0.14,-0.011,-0.56,-0.0017688848236581422,10.0,1.0,100.0,0.01981462775209604,-10.0,-1.0,-100.0,19486.262898502056,-0.003071374432799714,-0.0002436521065755065,0.9999952536351083,50.11954029412384,2.8512434162452736,340.4352695237217,-107.50498924990296,-90.0238037109375,4892.3046875
1598100570.6394508,0.0,10.0,0.5,0.5,-0.0030549758911132814,-0.14,-0.011,-0.56,-0.0016767002426155819,10.0,1.0,100.0,0.018361840594995925,-10.0,-1.0,-100.0,19481.951787888887,-0.0029251679608385778,-0.0002341382432949514,0.9999956942765723,50.22766932549413,2.8579992793929767,342.4165690622961,-107.8686825397113,-90.01396942138672,4892.3046875
1598100570.6966875,0.0,10.0,0.5,0.5,-0.004314192962646485,-0.14,-0.011,-0.56,-0.0016155611932189193,10.0,1.0,100.0,0.01697255544370587,-10.0,-1.0,-100.0,19477.626130129676,-0.0027809372786028906,-0.00022501937128397535,0.9999961078694931,50.33606417247549,2.8647737255570322,344.40587766827775,-108.23236361664081,-90.00434112548828,4892.3046875
1598100570.7301056,0.0,10.0,0.5,0.5,-0.0051855148315429695,-0.14,-0.011,-0.56,-0.0014784891304133498,10.0,1.0,100.0,0.01566443970905071,-10.0,-1.0,-100.0,19473.285925390897,-0.002639249397646401,-0.00021556945814400736,0.9999964939400666,50.44491686815183,2.8715777258660404,346.4045412209038,-108.59603261718051,-89.9954605102539,4892.3046875
1598100570.772986,0.0,10.0,0.5,0.5,-0.00564275131225586,-0.14,-0.011,-0.56,-0.0014780749486919434,10.0,1.0,100.0,0.014464279156736627,-10.0,-1.0,-100.0,19468.93117420969,-0.0025008573640412047,-0.00020706137911747288,0.9999968514140584,50.55441668947117,2.8784221660218847,348.4139085156411,-108.9596894348212,-89.98779296875,4892.3046875
1598100570.804163,0.0,10.0,0.5,0.5,-0.005675003814697266,-0.14,-0.011,-0.56,-0.0013508316851195874,10.0,1.0,100.0,0.013328841433224449,-10.0,-1.0,-100.0,19464.561876952183,-0.00236604657269199,-0.00019825568817813337,0.9999971812551764,50.66473538788072,2.885316934373802,350.4352216532864,-109.32333401894765,-89.98171997070312,4892.3046875
1598100570.8371055,0.0,10.0,0.5,0.5,-0.0053040657043457035,-0.14,-0.011,-0.56,-0.0012993499586499795,10.0,1.0,100.0,0.012329533947333472,-10.0,-1.0,-100.0,19460.1780347249,-0.002235719876199319,-0.00018986741292348013,0.9999974827503322,50.776026416267875,2.8922709600616225,352.4696192072288,-109.68696628483615,-89.97750854492188,4892.3046875
1598100570.8991382,0.0,10.0,0.5,0.5,-0.004610317230224609,-0.14,-0.011,-0.56,-0.001231610807667674,10.0,1.0,100.0,0.011358290964481165,-10.0,-1.0,-100.0,19455.779647235177,-0.0021097099342359186,-0.00018170986960451782,0.9999977580502452,50.88838240999627,2.8992897067984984,354.5178286095787,-110.05058632842507,-89.97525024414062,4892.3046875
1598100570.9290571,0.0,10.0,0.5,0.5,-0.003576090240478516,-0.14,-0.011,-0.56,-0.0011856272150278188,10.0,1.0,100.0,0.010550658027453603,-10.0,-1.0,-100.0,19451.366715459153,-0.0019890917120516795,-0.00017395861354055735,0.9999980066242943,51.001925525077404,2.906380292002164,356.5807868668565,-110.41419361501396,-89.97503662109375,4892.3046875
1598100570.9698508,0.0,10.0,0.5,0.5,-0.0023335968017578128,-0.14,-0.011,-0.56,-0.0011315972672085485,10.0,1.0,100.0,0.009767439432677608,-10.0,-1.0,-100.0,19446.939239816624,-0.0018735716808738654,-0.00016650187734349947,0.999998231001576,51.11664292116416,2.9135422404157536,358.6585096285432,-110.77778848489683,-89.97674560546875,4892.3046875
1598100571.0057578,0.0,10.0,0.5,0.5,-0.000938883209228516,-0.14,-0.011,-0.56,-0.0011163258630649687,10.0,1.0,100.0,0.009131084482562158,-10.0,-1.0,-100.0,19442.497220561025,-0.0017639916358995504,-0.0001596630926855846,0.9999984314193725,51.232601840223296,2.9207795702432082,360.7515665657794,-111.14137067756957,-89.98019409179688,4892.3046875
1598100571.0411065,0.0,10.0,0.5,0.5,0.0004999626159667967,-0.14,-0.011,-0.56,-0.001055178538721579,10.0,1.0,100.0,0.008606922911122444,-10.0,-1.0,-100.0,19438.040658519603,-0.001660796837816085,-0.00015296648460607655,0.9999986091765918,51.34978018683216,2.9280912020956906,362.85990351259187,-111.50494000059207,-89.98507690429688,4892.3046875
1598100571.0973628,0.0,10.0,0.5,0.5,0.0019421798706054688,-0.14,-0.011,-0.56,-0.001065286363659993,10.0,1.0,100.0,0.008154841192527486,-10.0,-1.0,-100.0,19433.5695540444,-0.0015640229795011826,-0.00014704434090477198,0.9999987661042795,51.468145311625335,2.9354754649027535,364.983394883668,-111.8684966233063,-89.9910888671875,4892.3046875
1598100571.130021,0.0,10.0,0.5,0.5,0.00324992904663086,-0.14,-0.011,-0.56,-0.001001975569344594,10.0,1.0,100.0,0.007825631847900076,-10.0,-1.0,-100.0,19429.08390739211,-0.0014741602181720238,-0.0001411559076192453,0.9999989034627291,51.587648876066474,2.9429297262386753,367.12179387906025,-112.23204027408411,-89.99778747558594,4892.3046875
1598100571.1736977,0.0,10.0,0.5,0.5,0.00439857635498047,-0.14,-0.011,-0.56,-0.0010192608056668637,10.0,1.0,100.0,0.007550100181254106,-10.0,-1.0,-100.0,19424.58371991443,-0.0013910211374300746,-0.00013602757364490053,0.9999990232778703,51.708273631576525,2.950453121281965,369.27507476265555,-112.59557081782698,-90.0047836303711,4892.3046875
1598100571.2035725,0.0,10.0,0.5,0.5,0.005327300262451173,-0.14,-0.011,-0.56,-0.0010251926558772976,10.0,1.0,100.0,0.00740543522465075,-10.0,-1.0,-100.0,19420.06899133802,-0.001315133960992464,-0.00013148395394783885,0.9999991265669358,51.829911036601025,2.958039548836228,371.44255682711656,-112.95908832731678,-90.01168060302734,4892.3046875
1598100571.2375803,0.0,10.0,0.5,0.5,0.005973355102539063,-0.14,-0.011,-0.56,-0.0009833310338929024,10.0,1.0,100.0,0.0073660101692732,-10.0,-1.0,-100.0,19415.539722530637,-0.001246742584283658,-0.00012703353196358855,0.9999992147473968,51.952523412529956,2.965686903885782,373.62405616427054,-113.3225926288002,-90.01807403564453,4892.3046875
1598100571.299891,0.0,10.0,0.5,0.5,0.006346956634521485,-0.14,-0.011,-0.56,-0.0010071300206964332,10.0,1.0,100.0,0.007375451348468342,-10.0,-1.0,-100.0,19410.995914109284,-0.0011855535046246227,-0.00012326116993153846,0.9999992896345334,52.07607485729405,2.9733931657520007,375.8193988699648,-113.68608364640654,-90.0236587524414,4892.3046875
1598100571.3308938,0.0,10.0,0.5,0.5,0.006413023376464844,-0.14,-0.011,-0.56,-0.0010336357920769465,10.0,1.0,100.0,0.0075366587465962144,-10.0,-1.0,-100.0,19406.43756606418,-0.0011322327325808542,-0.00012012584664192756,0.9999993518092001,52.200474668241384,2.9811531862851526,378.02801511226045,-114.049561379598,-90.02814483642578,4892.3046875
1598100571.363261,0.0,10.0,0.5,0.5,0.006212958526611329,-0.14,-0.011,-0.56,-0.0010292784225144984,10.0,1.0,100.0,0.007710017953515177,-10.0,-1.0,-100.0,19401.864679644234,-0.0010861142589489378,-0.00011728487917071234,0.9999994032998588,52.32570632052279,2.9889659879522386,380.2498584583931,-114.41302564541652,-90.03136444091797,4892.3046875
1598100571.4035416,0.0,10.0,0.5,0.5,0.0057464584350585945,-0.14,-0.011,-0.56,-0.00106438314267867,10.0,1.0,100.0,0.008020949315330844,-10.0,-1.0,-100.0,19397.277254912653,-0.0010477308929563607,-0.00011506605801489351,0.9999994445097349,52.45173508981835,2.9968295480021037,382.48475074193664,-114.7764764754134,-90.03318786621094,4892.3046875
1598100571.4417462,0.0,10.0,0.5,0.5,0.005061343383789063,-0.14,-0.011,-0.56,-0.0010836432406706176,10.0,1.0,100.0,0.008395988075275366,-10.0,-1.0,-100.0,19392.675292613218,-0.001016897513274371,-0.00011326458243195835,0.999999476545154,52.57856181650098,3.004743907583661,384.732775355187,-115.13991390449722,-90.03358459472656,4892.3046875
1598100571.49793,0.0,10.0,0.5,0.5,0.004219621276855469,-0.14,-0.011,-0.56,-0.001099748356549985,10.0,1.0,100.0,0.008864936159028506,-10.0,-1.0,-100.0,19388.058793174103,-0.0009937156955289923,-0.00011180938013926075,0.9999995000137647,52.706227236816474,3.0127113392014833,386.9943018359626,-115.50333762923046,-90.03262329101562,4892.3046875
1598100571.530923,0.0,10.0,0.5,0.5,0.0032762344360351566,-0.14,-0.011,-0.56,-0.0011681429271715182,10.0,1.0,100.0,0.009415277668860463,-10.0,-1.0,-100.0,19383.427757235477,-0.0009781628815625496,-0.00011114026957042734,0.9999995154224914,52.83474962580269,3.020732886707783,389.26954578627516,-115.86674774332401,-90.03044128417969,4892.3046875
1598100571.566911,0.0,10.0,0.5,0.5,0.0022910354614257816,-0.14,-0.011,-0.56,-0.0011990481779211581,10.0,1.0,100.0,0.009996940563174012,-10.0,-1.0,-100.0,19378.782185194315,-0.0009697627109382789,-0.0001108402310038017,0.9999995236372504,52.96415528262385,3.0288100078270412,391.55877654855726,-116.23014396320372,-90.02723693847656,4892.3046875
1598100571.6041691,0.0,10.0,0.5,0.5,0.0012903434753417974,-0.14,-0.011,-0.56,-0.0012209551403201363,10.0,1.0,100.0,0.010685912137852865,-10.0,-1.0,-100.0,19374.122077997075,-0.0009687725323464695,-0.00011078952045835193,0.9999995246026183,53.094457074152,3.0369434377309203,393.8621709726386,-116.59352636920033,-90.02320861816406,4892.3046875
1598100571.6376536,0.0,10.0,0.5,0.5,0.0003812408447265623,-0.14,-0.011,-0.56,-0.001330254482388624,10.0,1.0,100.0,0.011401342409335595,-10.0,-1.0,-100.0,19369.447435567854,-0.0009746911555752549,-0.00011175586346628337,0.9999995187437735,53.22579983080764,3.045141500135678,396.1808921796194,-116.95689500370692,-90.01866912841797,4892.3046875
1598100571.6998847,0.0,10.0,0.5,0.5,-0.0004031692504882817,-0.14,-0.011,-0.56,-0.0013314356083485804,10.0,1.0,100.0,0.012231537491485554,-10.0,-1.0,-100.0,19364.758259106427,-0.000987866269647067,-0.00011265898340812729,0.9999995057139712,53.3581585615731,3.0534027912869797,398.5148447530318,-117.32024951885523,-90.013916015625,4892.3046875
1598100571.732107,0.0,10.0,0.5,0.5,-0.0010526191711425785,-0.14,-0.011,-0.56,-0.001427917132189152,10.0,1.0,100.0,0.013047610102915492,-10.0,-1.0,-100.0,19360.054548571352,-0.001007442203666239,-0.00011436674465064824,0.9999994859900949,53.49159393919623,3.061730840475636,400.86457469727196,-117.68359000860895,-90.00920104980469,4892.3046875
1598100571.7647374,0.0,10.0,0.5,0.5,-0.0015092483520507817,-0.14,-0.011,-0.56,-0.001447281497859328,10.0,1.0,100.0,0.01394665248002605,-10.0,-1.0,-100.0,19355.33630497253,-0.0010335250657745954,-0.00011610053010629732,0.9999994591731564,53.626132881844775,3.070127281838121,403.2303817055102,-118.04691625714514,-90.00480651855469,4892.3046875
1598100571.804602,0.0,10.0,0.5,0.5,-0.0017638343811035156,-0.14,-0.011,-0.56,-0.001525185735259113,10.0,1.0,100.0,0.01487179606552641,-10.0,-1.0,-100.0,19350.60352889297,-0.0010656949631896266,-0.00011838599572330764,0.9999994251393355,53.76193944305315,3.0786016078061986,405.6136016417774,-118.41022816600272,-90.00096893310547,4892.3046875
1598100571.8402617,0.0,10.0,0.5,0.5,-0.0018078201293945312,-0.14,-0.011,-0.56,-0.0015835810511633684,10.0,1.0,100.0,0.015881249553946628,-10.0,-1.0,-100.0,19345.85622078576,-0.0011041008433978086,-0.0001209915401218026,0.9999993831609972,53.89890052885115,3.087147478932486,408.013491459052,-118.7735258051052,-89.99788665771484,4892.3046875
1598100571.897962,0.0,10.0,0.5,0.5,-0.001664440155029297,-0.14,-0.011,-0.56,-0.001682132349043713,10.0,1.0,100.0,0.016899146420478982,-10.0,-1.0,-100.0,19341.094380967203,-0.0011481896120736105,-0.00012424911323053765,0.999999333111164,54.037105418242184,3.095770151396716,410.4308324605535,-119.13680899282727,-89.99568176269531,4892.3046875
1598100571.932869,0.0,10.0,0.5,0.5,-0.0013355079650878908,-0.14,-0.011,-0.56,-0.0017216926102930638,10.0,1.0,100.0,0.01792472093890134,-10.0,-1.0,-100.0,19336.31801055488,-0.0011974532847495022,-0.00012755887321975337,0.9999992749169194,54.17647552796913,3.1044652563658524,412.86513366555516,-119.5000775830905,-89.99444580078125,4892.3046875
1598100571.9672482,0.0,10.0,0.5,0.5,-0.0008538627624511719,-0.14,-0.011,-0.56,-0.0017884183800170742,10.0,1.0,100.0,0.01901473881104275,-10.0,-1.0,-100.0,19331.527109634597,-0.0012519483401987011,-0.00013115941784048654,0.9999992077109664,54.31704229046185,3.1132347578208024,415.31674032378663,-119.86333151594488,-89.99420166015625,4892.3046875
1598100572.0048735,0.0,10.0,0.5,0.5,-0.0002781715393066407,-0.14,-0.011,-0.56,-0.0018604462473932163,10.0,1.0,100.0,0.020098036796740854,-10.0,-1.0,-100.0,19326.721679248963,-0.0013110809308140826,-0.00013506896702926647,0.9999991314112064,54.458809406143445,3.122079024869503,417.785787601803,-120.22657060122009,-89.99488067626953,4892.3046875
1598100572.0379949,0.0,10.0,0.5,0.5,0.00040523681640625,-0.14,-0.011,-0.56,-0.0019687534857571838,10.0,1.0,100.0,0.021198706326154143,-10.0,-1.0,-100.0,19321.90171932697,-0.0013745327285513977,-0.0001395856416891289,0.999999045587358,54.60166279340399,3.1309916482558484,420.2715017512305,-120.58979464081892,-89.99644470214844,4892.3046875
1598100572.1003213,0.0,10.0,0.5,0.5,0.0011177894592285156,-0.14,-0.011,-0.56,-0.0020343330681204036,10.0,1.0,100.0,0.022354534488327013,-10.0,-1.0,-100.0,19317.06723115698,-0.001442360217447823,-0.00014426258778483053,0.9999989493921027,54.745497945775014,3.1399667942914347,422.7731762873009,-120.95300366058277,-89.99874877929688,4892.3046875
1598100572.1307225,0.0,10.0,0.5,0.5,0.0018242195129394535,-0.14,-0.011,-0.56,-0.002098204316628946,10.0,1.0,100.0,0.023433425957102863,-10.0,-1.0,-100.0,19312.218214996043,-0.0015134164989354438,-0.00014906627412702175,0.9999988436742049,54.890338075553714,3.149005909591037,425.2910807321964,-121.31619761848256,-90.00162506103516,4892.3046875
1598100572.1666288,0.0,10.0,0.5,0.5,0.002490934753417969,-0.14,-0.011,-0.56,-0.0021554467065078276,10.0,1.0,100.0,0.024617051869460137,-10.0,-1.0,-100.0,19307.35467140167,-0.001588313377404466,-0.00015392210204657054,0.9999987267834903,55.03605597321133,3.158101837004896,427.8243221969529,-121.67937651746797,-90.00489044189453,4892.3046875
1598100572.2046118,0.0,10.0,0.5,0.5,0.0030603324890136722,-0.14,-0.011,-0.56,-0.0022299335328702253,10.0,1.0,100.0,0.02572402186792629,-10.0,-1.0,-100.0,19302.47660147841,-0.0016659604593517877,-0.00015897926078405463,0.9999985996496907,55.18252605035264,3.167247425316967,430.37199701726195,-122.04253997445045,-90.00831604003906,4892.3046875
1598100572.2405581,0.0,10.0,0.5,0.5,0.003542657470703125,-0.14,-0.011,-0.56,-0.002335392103829821,10.0,1.0,100.0,0.026827776861829387,-10.0,-1.0,-100.0,19297.58400527679,-0.0017460371560701427,-0.0001644984891313449,0.9999984621460659,55.32973563628698,3.1764420336985286,432.9340814071549,-122.40568790815506,-90.01173400878906,4892.3046875
1598100572.297607,0.0,10.0,0.5,0.5,0.003902890777587891,-0.14,-0.011,-0.56,-0.0024104611745549478,10.0,1.0,100.0,0.027941341317748697,-10.0,-1.0,-100.0,19292.676883801352,-0.0018283738878563933,-0.00017015886377273761,0.9999983140460224,55.477480712411214,3.1856740322639427,435.50904984063357,-122.76882044579973,-90.01496124267578,4892.3046875
1598100572.3305166,0.0,10.0,0.5,0.5,0.004103541564941407,-0.14,-0.011,-0.56,-0.002437700315419204,10.0,1.0,100.0,0.029050832773555236,-10.0,-1.0,-100.0,19287.755237228237,-0.0019126933988277872,-0.00017551055131773133,0.999998155398303,55.6257572763253,3.1949432116438294,438.09692481734635,-123.13193746709455,-90.0177993774414,4892.3046875
1598100572.3677526,0.0,10.0,0.5,0.5,0.0041687507629394535,-0.14,-0.011,-0.56,-0.0025234184793178904,10.0,1.0,100.0,0.030131948091495983,-10.0,-1.0,-100.0,19282.819066529395,-0.0019985256024975355,-0.00018111138541398823,0.999997986545014,55.774446996780206,3.204242785775414,440.6968261911825,-123.49503886560981,-90.02012634277344,4892.3046875
1598100572.4046245,0.0,10.0,0.5,0.5,0.0041011375427246095,-0.14,-0.011,-0.56,-0.0026450756066694063,10.0,1.0,100.0,0.03119707967876257,-10.0,-1.0,-100.0,19277.868372373283,-0.0020855591863885494,-0.0001872636157796233,0.9999978076852061,55.923481504164684,3.213568836219138,443.3082588922451,-123.85812444224375,-90.0218505859375,4892.3046875
1598100572.4387362,0.0,10.0,0.5,0.5,0.0038968872070312506,-0.14,-0.011,-0.56,-0.0026643224433687547,10.0,1.0,100.0,0.032218925548780995,-10.0,-1.0,-100.0,19272.903155014268,-0.002173266063057298,-0.00019298407403769437,0.9999976198330506,56.07281613576288,3.2229188000803424,445.9309116045737,-124.22119435016448,-90.02289581298828,4892.3046875
1598100572.5004728,0.0,10.0,0.5,0.5,0.0035863227844238283,-0.14,-0.011,-0.56,-0.002728098078575789,10.0,1.0,100.0,0.03324047096434703,-10.0,-1.0,-100.0,19267.923415667145,-0.002261560242593574,-0.00019871572510841515,0.9999974229253442,56.222367448538385,3.2322878633912735,448.56415545473016,-124.58424830306737,-90.02324676513672,4892.3046875
1598100572.531996,0.0,10.0,0.5,0.5,0.0031977737426757817,-0.14,-0.011,-0.56,-0.0027929044874295886,10.0,1.0,100.0,0.03418474942643605,-10.0,-1.0,-100.0,19262.92915438558,-0.0023496673008954103,-0.00020446596331017441,0.9999972186247544,56.3720701837686,3.2416722562132083,451.2075000329417,-124.9472864245734,-90.02293395996094,4892.3046875
1598100572.5653274,0.0,10.0,0.5,0.5,0.002750174713134766,-0.14,-0.011,-0.56,-0.002887453273518837,10.0,1.0,100.0,0.0351780000478377,-10.0,-1.0,-100.0,19257.9203720612,-0.002438033949726222,-0.00021050262364969132,0.9999970058350702,56.52189775164075,3.251070429516174,453.8607582306618,-125.31030858604086,-90.02201080322266,4892.3046875
