Timestamp,Input Throttle,horizon,dT,dt,Input Roll,Roll P,Roll I,Roll D,Input Pitch,Pitch P,Pitch I,Pitch D,Input Yaw,Yaw P,Yaw I,Yaw D,Altitude,Direction X,Direction Y,Direction Z,Vertical Velocity,Roll,Mass
1594013245.076868,0.0,5.0,0.5,0.5,0.0197130126953125,-0.004,-0.0002,-0.006,0.0008439070173079834,2.0,0.5,10.0,0.0245077142278787,-2.0,-0.5,-10.0,478.4750827923417,-0.011741100939397404,0.0004137308431573758,0.9999309853062462,-14.239950745454486,-89.92276000976562,6440.1796875
1594013245.1532826,0.0,5.0,0.5,0.5,0.019812383422851566,-0.004,-0.0002,-0.006,0.0008546881625831782,2.0,0.5,10.0,0.024599709584710503,-2.0,-0.5,-10.0,477.58274993440136,-0.01178530532764289,0.00041427583766658895,0.9999304650593783,-14.823334429800747,-89.925048828125,6440.1796875
1594013245.1876268,0.0,5.0,0.5,0.5,0.019898372192382812,-0.004,-0.0002,-0.006,0.0008744360962249829,2.0,0.5,10.0,0.025169477166644527,-2.0,-0.5,-10.0,476.6762157744961,-0.011820517510810117,0.0004146495115708062,0.9999300492692272,-14.79851986863374,-89.9251708984375,6438.69287109375
1594013245.2255237,0.0,5.0,0.5,0.5,0.019945789184570312,-0.004,-0.0002,-0.006,0.0008924540316721808,2.0,0.5,10.0,0.02564808241791639,-2.0,-0.5,-10.0,476.1247187642148,-0.011840492611427087,0.00041473469481337534,0.9999298129018114,-13.970796162063136,-89.92013549804688,6435.71875
1594013245.2644205,0.0,5.0,0.5,0.5,0.0199773583984375,-0.004,-0.0002,-0.006,0.000913005032480088,2.0,0.5,10.0,0.026210602173539526,-2.0,-0.5,-10.0,475.58754427940585,-0.011854679789028877,0.0004147902030211195,0.9999296447831653,-13.107398709329175,-89.91043090820312,6432.658203125
1594013245.301548,0.0,5.0,0.5,0.5,0.019989141235351563,-0.004,-0.0002,-0.006,0.000930996042849098,2.0,0.5,10.0,0.026746785167782377,-2.0,-0.5,-10.0,475.0934936789563,-0.011861789854096319,0.0004146074182124025,0.9999295605402142,-12.238939972739555,-89.89596557617188,6429.5869140625
1594013245.3374527,0.0,5.0,0.5,0.5,0.0199809814453125,-0.004,-0.0002,-0.006,0.0009489483744592335,2.0,0.5,10.0,0.0272717480146795,-2.0,-0.5,-10.0,474.62514380540233,-0.011862037687835213,0.00041422359426343124,0.9999295577592986,-11.404122868460563,-89.87667846679688,6426.59912109375
1594013245.376348,0.0,5.0,0.5,0.5,0.019953453979492185,-0.004,-0.0002,-0.006,0.0009645127331516413,2.0,0.5,10.0,0.027768517341735327,-2.0,-0.5,-10.0,474.18280193570536,-0.01185421650283963,0.00041347483922089156,0.999929650820327,-10.60481755473743,-89.85260009765625,6423.69921875
1594013245.4531434,0.0,5.0,0.5,0.5,0.019905669555664064,-0.004,-0.0002,-0.006,0.0009824359967381532,2.0,0.5,10.0,0.028252367663426942,-2.0,-0.5,-10.0,473.7839804549003,-0.01183862714005578,0.0004126216701542308,0.9999298358638951,-9.8415079558453,-89.82366943359375,6420.8876953125
1594013245.4880493,0.0,5.0,0.5,0.5,0.019650824584960938,-0.004,-0.0002,-0.006,0.0009868605663757956,2.0,0.5,10.0,0.028538585550876527,-2.0,-0.5,-10.0,473.24579429184087,-0.011800159881939805,0.0004105601531095077,0.9999302914039165,-8.765272368374701,-89.77117919921875,6416.84033203125
1594013245.5239518,0.0,5.0,0.5,0.5,0.019650728149414064,-0.004,-0.0002,-0.006,0.001004807840513042,2.0,0.5,10.0,0.029078946751577794,-2.0,-0.5,-10.0,472.9165013853926,-0.01176396660072685,0.000408627161112386,0.9999307186568779,-8.069792140978533,-89.73013305664062,6414.197265625
1594013245.5618515,0.0,5.0,0.5,0.5,0.01943386291503906,-0.004,-0.0002,-0.006,0.0010027455957241883,2.0,0.5,10.0,0.028908684782514137,-2.0,-0.5,-10.0,472.63035999424756,-0.011719521762038542,0.00040686574605756763,0.9999312412710855,-7.406334964356815,-89.6842041015625,6411.6328125
1594013245.6027422,0.0,5.0,0.5,0.5,0.019197417602539065,-0.004,-0.0002,-0.006,0.000991970245823682,2.0,0.5,10.0,0.028711342356048428,-2.0,-0.5,-10.0,472.3438236571383,-0.011666313292449495,0.00040453082973521435,0.9999318644232567,-6.788399095209891,-89.63348388671875,6409.1796875
1594013245.6366515,0.0,5.0,0.5,0.5,0.01894079040527344,-0.004,-0.0002,-0.006,0.0009835740474121004,2.0,0.5,10.0,0.028489129091730795,-2.0,-0.5,-10.0,472.1008813973749,-0.011604097646675322,0.00040192754410660315,0.9999325894139343,-6.199978406726766,-89.57797241210938,6406.7998046875
1594013245.7127318,0.0,5.0,0.5,0.5,0.01866398864746094,-0.004,-0.0002,-0.006,0.0009770154673625258,2.0,0.5,10.0,0.028250078378630607,-2.0,-0.5,-10.0,471.85800036857836,-0.011533315361458294,0.00039926495420657414,0.9999334093949803,-5.639796393196142,-89.51766967773438,6404.4892578125
1594013245.8244326,0.0,5.0,0.5,0.5,0.018025518188476565,-0.004,-0.0002,-0.006,0.0009474754003911917,2.0,0.5,10.0,0.027466579103295558,-2.0,-0.5,-10.0,471.55423509399407,-0.011410377535947728,0.0003946491455789994,0.9999348216441605,-4.851629268664891,-89.41842651367188,6401.1513671875
1594013245.849366,0.0,5.0,0.5,0.5,0.017891211547851563,-0.004,-0.0002,-0.006,0.0009504957158920604,2.0,0.5,10.0,0.027553978347623374,-2.0,-0.5,-10.0,471.37546556268353,-0.01131709350304186,0.00039113749081706533,0.9999358831475679,-4.342846299338543,-89.34640502929688,6398.9677734375
1594013245.8743079,0.0,5.0,0.5,0.5,0.01754735412597656,-0.004,-0.0002,-0.006,0.000945896959525738,2.0,0.5,10.0,0.02723598828879934,-2.0,-0.5,-10.0,471.216303904308,-0.01121512823815494,0.0003879240742492866,0.9999370332243498,-3.8579830577262264,-89.26986694335938,6396.8427734375
1594013245.9262245,0.0,5.0,0.5,0.5,0.017184686279296875,-0.004,-0.0002,-0.006,0.0009295221930338168,2.0,0.5,10.0,0.026896529961763973,-2.0,-0.5,-10.0,471.0754004633054,-0.011104531857932412,0.00038398812475585927,0.9999382690573133,-3.4072770665932373,-89.1888427734375,6394.80078125
1594013245.9812717,0.0,5.0,0.5,0.5,0.016803642578125003,-0.004,-0.0002,-0.006,0.0009212025895669363,2.0,0.5,10.0,0.026529127947339106,-2.0,-0.5,-10.0,470.9519564183429,-0.010984810103553747,0.000380134172994923,0.9999395928979906,-2.9786601889417255,-89.1033935546875,6392.814453125
1594013246.0543685,0.0,5.0,0.5,0.5,0.015940677490234378,-0.004,-0.0002,-0.006,0.0008817438099861936,2.0,0.5,10.0,0.0253395324558974,-2.0,-0.5,-10.0,470.79757226083893,-0.010789306308027992,0.0003737610898128916,0.9999417238879671,-2.3773333234564102,-88.9671630859375,6389.935546875
1594013246.0942566,0.0,5.0,0.5,0.5,0.015284976196289065,-0.004,-0.0002,-0.006,0.000864665496669337,2.0,0.5,10.0,0.024661700950155258,-2.0,-0.5,-10.0,470.6778687851038,-0.010573961604164264,0.00036717226968187533,0.9999440266937536,-1.8049956503570352,-88.82138061523438,6387.12890625
1594013246.1272104,0.0,5.0,0.5,0.5,0.015118854980468749,-0.004,-0.0002,-0.006,0.0008779449378950985,2.0,0.5,10.0,0.02490497662035623,-2.0,-0.5,-10.0,470.6168414951535,-0.010419553824119047,0.00036295359582640726,0.9999456491043868,-1.4358909294940125,-88.71902465820312,6385.2880859375
1594013246.2030084,0.0,5.0,0.5,0.5,0.014651774291992187,-0.004,-0.0002,-0.006,0.0008621557713831194,2.0,0.5,10.0,0.024435405639917317,-2.0,-0.5,-10.0,470.5697080536047,-0.010256944590162834,0.00035829550887880564,0.9999473319690406,-1.0935088628491445,-88.61273193359375,6383.5126953125
1594013246.241936,0.0,5.0,0.5,0.5,0.013604576416015627,-0.004,-0.0002,-0.006,0.0008196237686338401,2.0,0.5,10.0,0.022876350090078403,-2.0,-0.5,-10.0,470.52293119963724,-0.009997128737114882,0.00035105123634014685,0.9999499658383129,-0.6265833263459821,-88.4461669921875,6380.9638671875
1594013246.2788055,0.0,5.0,0.5,0.5,0.013425614624023438,-0.004,-0.0002,-0.006,0.0008289364345239333,2.0,0.5,10.0,0.023197165757149713,-2.0,-0.5,-10.0,470.5067722859094,-0.009813750942765629,0.0003459912885398824,0.9999517841288458,-0.3262493294730967,-88.33047485351562,6379.2919921875
1594013246.316704,0.0,5.0,0.5,0.5,0.012904771118164063,-0.004,-0.0002,-0.006,0.0008226380297131175,2.0,0.5,10.0,0.02265778198954046,-2.0,-0.5,-10.0,470.5022713870276,-0.009622640077645406,0.0003414525393764237,0.9999536430295654,-0.04137776030696852,-88.21115112304688,6377.6572265625
1594013246.3526344,0.0,5.0,0.5,0.5,0.012370591430664064,-0.004,-0.0002,-0.006,0.0008060715210207965,2.0,0.5,10.0,0.02209241950479168,-2.0,-0.5,-10.0,470.5085612264229,-0.00942332770558864,0.0003364967266468507,0.9999555428442336,0.22217183739693566,-88.08840942382812,6376.0751953125
1594013246.393762,0.0,5.0,0.5,0.5,0.011823036499023436,-0.004,-0.0002,-0.006,0.0007986832461812413,2.0,0.5,10.0,0.021510980377820083,-2.0,-0.5,-10.0,470.52491262438707,-0.009216246637179395,0.0003319654737505871,0.9999574743942099,0.4719523064139165,-87.96237182617188,6374.52734375
1594013246.425938,0.0,5.0,0.5,0.5,0.011262008056640627,-0.004,-0.0002,-0.006,0.000782910018962687,2.0,0.5,10.0,0.020915677120449335,-2.0,-0.5,-10.0,470.55081666307524,-0.009001938330477266,0.0003270917551146765,0.9999594282356048,0.7085865225139385,-87.83309936523438,6373.0107421875
1594013246.5017354,0.0,5.0,0.5,0.5,0.010689299926757812,-0.004,-0.0002,-0.006,0.0007722077017082317,2.0,0.5,10.0,0.0202998486887529,-2.0,-0.5,-10.0,470.58590914087836,-0.008780291004638608,0.0003223594732213808,0.999961400542163,0.9331547293421725,-87.7008056640625,6371.52392578125
1594013246.5416284,0.0,5.0,0.5,0.5,0.009418245239257814,-0.004,-0.0002,-0.006,0.0007310222244581309,2.0,0.5,10.0,0.01826956367010439,-2.0,-0.5,-10.0,470.65450465353206,-0.008434765378649806,0.00031519795527525725,0.9999643770571309,1.2468962269795543,-87.49685668945312,6369.3505859375
1594013246.578606,0.0,5.0,0.5,0.5,0.009220795288085937,-0.004,-0.0002,-0.006,0.0007510276909024369,2.0,0.5,10.0,0.01874821521543638,-2.0,-0.5,-10.0,470.710494955536,-0.008195628303376447,0.0003111137055005407,0.999966366876894,1.4487048653239893,-87.35739135742188,6367.919921875
1594013246.615742,0.0,5.0,0.5,0.5,0.008609761352539063,-0.004,-0.0002,-0.006,0.0007343681394964061,2.0,0.5,10.0,0.018087701138987312,-2.0,-0.5,-10.0,470.7741249540122,-0.007950570923947653,0.00030653786761413213,0.9999683467272948,1.6398691631015496,-87.21533203125,6366.515625
1594013246.6526375,0.0,5.0,0.5,0.5,0.007989467163085939,-0.004,-0.0002,-0.006,0.0007284415313762006,2.0,0.5,10.0,0.0174050786176145,-2.0,-0.5,-10.0,470.8450086619705,-0.00769908112125182,0.000302446442204044,0.9999703158974461,1.8159164992527745,-87.07086181640625,6365.1474609375
1594013246.694494,0.0,5.0,0.5,0.5,0.007360886840820313,-0.004,-0.0002,-0.006,0.0007216697505055679,2.0,0.5,10.0,0.016713818501206103,-2.0,-0.5,-10.0,470.92274384747725,-0.007441476474370689,0.00029867512593198493,0.9999722672259719,1.9821775362700946,-86.924072265625,6363.8037109375
1594013246.727406,0.0,5.0,0.5,0.5,0.0067248486328125,-0.004,-0.0002,-0.006,0.0007101529765039833,2.0,0.5,10.0,0.016016299264913905,-2.0,-0.5,-10.0,471.0066740256734,-0.007178563809230376,0.0002947697818826699,0.9999741903331368,2.139086255487128,-86.77520751953125,6362.482421875
1594013246.802206,0.0,5.0,0.5,0.5,0.0060805291748046875,-0.004,-0.0002,-0.006,0.0007015268073228544,2.0,0.5,10.0,0.015299237712622012,-2.0,-0.5,-10.0,471.0967704023933,-0.006909898443374187,0.00029099099256603726,0.9999760840278853,2.2873014400507725,-86.62432861328125,6361.1826171875
1594013246.8430965,0.0,5.0,0.5,0.5,0.00465915771484375,-0.004,-0.0002,-0.006,0.00067612625454354,2.0,0.5,10.0,0.012913059489772226,-2.0,-0.5,-10.0,471.2422282253392,-0.00649763507518244,0.0002859148959625706,0.9999788492718743,2.4933154904779444,-86.39459228515625,6359.2734375
1594013246.8790007,0.0,5.0,0.5,0.5,0.004453790893554689,-0.004,-0.0002,-0.006,0.0006820093875007163,2.0,0.5,10.0,0.01352202607618987,-2.0,-0.5,-10.0,471.3460144366836,-0.006216157032065775,0.00028236695394689645,0.9999806396429164,2.625529683678407,-86.23934936523438,6358.0126953125
1594013246.916899,0.0,5.0,0.5,0.5,0.003786295776367187,-0.004,-0.0002,-0.006,0.0006802745319423409,2.0,0.5,10.0,0.012772576088493661,-2.0,-0.5,-10.0,471.45476044819225,-0.005930745252570585,0.00027945211764216914,0.9999823739282925,2.750174108621595,-86.0826416015625,6356.7705078125
1594013246.9540288,0.0,5.0,0.5,0.5,0.0031145892333984374,-0.004,-0.0002,-0.006,0.0006734613883024771,2.0,0.5,10.0,0.012006104217299871,-2.0,-0.5,-10.0,471.56807770975865,-0.005640902554358728,0.0002766341060664878,0.9999840517187979,2.8640947881486367,-85.9246826171875,6355.5546875
1594013246.992947,0.0,5.0,0.5,0.5,0.002440323486328125,-0.004,-0.0002,-0.006,0.0006677271149570835,2.0,0.5,10.0,0.011240119284481159,-2.0,-0.5,-10.0,471.6858921662206,-0.005347175989881834,0.0002739685896796737,0.9999856662223439,2.971083449868981,-85.765625,6354.35546875
1594013247.0278847,0.0,5.0,0.5,0.5,0.0017627972412109375,-0.004,-0.0002,-0.006,0.0006634438795304063,2.0,0.5,10.0,0.010461240088287825,-2.0,-0.5,-10.0,471.80773510807194,-0.005049365804441205,0.0002715451610543592,0.9999872150023712,3.071452203054179,-85.60562133789062,6353.173828125
1594013247.104602,0.0,5.0,0.5,0.5,0.00108265380859375,-0.004,-0.0002,-0.006,0.0006601525602901315,2.0,0.5,10.0,0.009681688265235213,-2.0,-0.5,-10.0,471.9335160861956,-0.0047483163526509066,0.0002693971635405732,0.9999886903945381,3.1655565252434683,-85.44482421875,6352.005859375
1594013247.1474874,0.0,5.0,0.5,0.5,-0.00040817993164062494,-0.004,-0.0002,-0.006,0.0006449352034015745,2.0,0.5,10.0,0.00705235051346321,-2.0,-0.5,-10.0,472.12858080654405,-0.004290625183380495,0.0002664767578661363,0.9999907597201452,3.2951266016632945,-85.2025146484375,6350.28369140625
1594013247.183401,0.0,5.0,0.5,0.5,-0.000609542236328125,-0.004,-0.0002,-0.006,0.0006501034327192979,2.0,0.5,10.0,0.007764892842266401,-2.0,-0.5,-10.0,472.26307177648414,-0.00398172295010121,0.0002646079321141902,0.9999920379007979,3.3778388595917135,-85.04043579101562,6349.1435546875
1594013247.2193055,0.0,5.0,0.5,0.5,-0.0012952996826171876,-0.004,-0.0002,-0.006,0.0006515170684775505,2.0,0.5,10.0,0.0069584826406260064,-2.0,-0.5,-10.0,472.40036113897804,-0.0036704237424781453,0.00026329405467479146,0.9999932293099747,3.4552429078697107,-84.87808227539062,6348.017578125
1594013247.2575262,0.0,5.0,0.5,0.5,-0.0019790283203125003,-0.004,-0.0002,-0.006,0.0006431218193511092,2.0,0.5,10.0,0.006146735643298642,-2.0,-0.5,-10.0,472.54075872630347,-0.0033568599642687107,0.00026161495662263594,0.9999943315083314,3.5251585659739746,-84.71578979492188,6346.9091796875
1594013247.2964523,0.0,5.0,0.5,0.5,-0.0026605535888671876,-0.004,-0.0002,-0.006,0.0006436411312275438,2.0,0.5,10.0,0.005338777957164626,-2.0,-0.5,-10.0,472.6836966369301,-0.0030413135715451544,0.0002603602339827923,0.9999953413013023,3.5900803252930324,-84.55361938476562,6345.8134765625
1594013247.3303676,0.0,5.0,0.5,0.5,-0.0033398980712890628,-0.004,-0.0002,-0.006,0.0006403423082439957,2.0,0.5,10.0,0.004528513809853414,-2.0,-0.5,-10.0,472.8291988655692,-0.0027240647464184258,0.000259131424534144,0.999996256154073,3.6503303309399264,-84.39175415039062,6344.7294921875
1594013247.4052076,0.0,5.0,0.5,0.5,-0.00401659912109375,-0.004,-0.0002,-0.006,0.0006387001086777989,2.0,0.5,10.0,0.003715233900603347,-2.0,-0.5,-10.0,472.97677732107695,-0.0024052785684842803,0.0002580552362510375,0.9999970740169709,3.7061931458145096,-84.2303466796875,6343.65576171875
1594013247.4480946,0.0,5.0,0.5,0.5,-0.0054898779296875,-0.004,-0.0002,-0.006,0.0006295589337797908,2.0,0.5,10.0,0.0009810585314939052,-2.0,-0.5,-10.0,473.2023099344224,-0.0019252572393878493,0.0002564740600645124,0.9999981138010304,3.782225205942128,-83.98956298828125,6342.064453125
1594013247.4834049,0.0,5.0,0.5,0.5,-0.005675850830078126,-0.004,-0.0002,-0.006,0.0006328740212945046,2.0,0.5,10.0,0.0017541984293270325,-2.0,-0.5,-10.0,473.3548723506974,-0.0016039257847539755,0.0002555055644086975,0.999998681068622,3.830420175287685,-83.83004760742188,6341.009765625
1594013247.520594,0.0,5.0,0.5,0.5,-0.0063393530273437495,-0.004,-0.0002,-0.006,0.0006315628428860617,2.0,0.5,10.0,0.0009364945218250449,-2.0,-0.5,-10.0,473.5096248751506,-0.0012823635803492785,0.00025465605148083844,0.9999991453466064,3.874804602514835,-83.67153930664062,6339.96435546875
1594013247.557495,0.0,5.0,0.5,0.5,-0.0069960345458984375,-0.004,-0.0002,-0.006,0.0006284962177360602,2.0,0.5,10.0,0.00012068363409748362,-2.0,-0.5,-10.0,473.6656862535747,-0.0009608523059193244,0.0002537539932453713,0.9999995061857565,3.914020412216909,-83.51431274414062,6338.931640625
1594013247.6332922,0.0,5.0,0.5,0.5,-0.007644361572265625,-0.004,-0.0002,-0.006,0.0006256096166708735,2.0,0.5,10.0,-0.0006951816786049244,-2.0,-0.5,-10.0,473.82337119581643,-0.0006388115214919168,0.00025281473947963635,0.9999997640022459,3.949844575158519,-83.3585205078125,6337.90673828125
1594013247.670239,0.0,5.0,0.5,0.5,-0.009050680541992187,-0.004,-0.0002,-0.006,0.0006176121518373277,2.0,0.5,10.0,-0.003424551784087196,-2.0,-0.5,-10.0,474.06230865686666,-0.00015692548996475985,0.000251414710908039,0.9999999560825159,3.9971756706969193,-83.12777709960938,6336.3857421875
1594013247.7100964,0.0,5.0,0.5,0.5,-0.009217644653320313,-0.004,-0.0002,-0.006,0.0006165660069421558,2.0,0.5,10.0,-0.0026273843522939965,-2.0,-0.5,-10.0,474.2230211640708,0.00016357600760629848,0.0002502103389561384,0.9999999553188369,4.026705986272903,-82.97613525390625,6335.37744140625
1594013247.750996,0.0,5.0,0.5,0.5,-0.009840084228515626,-0.004,-0.0002,-0.006,0.000612466270117875,2.0,0.5,10.0,-0.003431109068947567,-2.0,-0.5,-10.0,474.38495000090916,0.0004829691654204988,0.0002489125701678082,0.9999998523916479,4.053383608312023,-82.82638549804688,6334.375
1594013247.7849157,0.0,5.0,0.5,0.5,-0.0104516552734375,-0.004,-0.0002,-0.006,0.0006107288466119688,2.0,0.5,10.0,-0.004232223703311726,-2.0,-0.5,-10.0,474.5476698318962,0.000801205171725322,0.0002477340094846033,0.9999996483490048,4.076033273764717,-82.6788330078125,6333.38330078125
1594013247.8208413,0.0,5.0,0.5,0.5,-0.011053235473632813,-0.004,-0.0002,-0.006,0.0005990400353361638,2.0,0.5,10.0,-0.005023335269318252,-2.0,-0.5,-10.0,474.7114013865357,0.001117639182820953,0.00024582529720498856,0.9999993452260758,4.096099877288453,-82.5335693359375,6332.3974609375
1594013247.8991663,0.0,5.0,0.5,0.5,-0.011643811645507813,-0.004,-0.0002,-0.006,0.0005930404984157776,2.0,0.5,10.0,-0.005813486795433566,-2.0,-0.5,-10.0,474.8758040735265,0.0014325013286131498,0.0002437857003079693,0.9999989442536806,4.113708195225669,-82.3907470703125,6331.41796875
1594013247.9340713,0.0,5.0,0.5,0.5,-0.012912360229492189,-0.004,-0.0002,-0.006,0.0005767590956462139,2.0,0.5,10.0,-0.008448887777335969,-2.0,-0.5,-10.0,475.1235067418311,0.0019005125378985098,0.00024078212082864186,0.9999981650363483,4.135616021754407,-82.181396484375,6329.9599609375
1594013247.9704885,0.0,5.0,0.5,0.5,-0.013050618896484375,-0.004,-0.0002,-0.006,0.0005708491249281778,2.0,0.5,10.0,-0.007652498732698104,-2.0,-0.5,-10.0,475.28934883791953,0.002209554298905436,0.00023784798805094956,0.9999975306460186,4.148819993827671,-82.04525756835938,6328.9912109375
1594013248.0103831,0.0,5.0,0.5,0.5,-0.01359870849609375,-0.004,-0.0002,-0.006,0.0005634277274792119,2.0,0.5,10.0,-0.008407884992105374,-2.0,-0.5,-10.0,475.4556762536522,0.0025154882968649187,0.00023485446121308335,0.9999968085759128,4.159967910902948,-81.91201782226562,6328.02734375
1594013248.0512722,0.0,5.0,0.5,0.5,-0.01413197509765625,-0.004,-0.0002,-0.006,0.0005529141231292017,2.0,0.5,10.0,-0.009159833997737543,-2.0,-0.5,-10.0,475.6223076466704,0.0028186109597889007,0.00023156246986916185,0.9999960008975436,4.168175567303124,-81.78195190429688,6327.07177734375
1594013248.0851817,0.0,5.0,0.5,0.5,-0.014651421508789063,-0.004,-0.0002,-0.006,0.0005356997778435059,2.0,0.5,10.0,-0.009901650599266317,-2.0,-0.5,-10.0,475.7892469824292,0.00311862530201428,0.00022747316609879627,0.9999951112041421,4.174515400625697,-81.65512084960938,6326.1201171875
1594013248.1231086,0.0,5.0,0.5,0.5,-0.015154324340820313,-0.004,-0.0002,-0.006,0.0005210952682827063,2.0,0.5,10.0,-0.010621811221706138,-2.0,-0.5,-10.0,475.9563998299418,0.003415002510772169,0.00022294812693013016,0.9999941440088458,4.179082616625242,-81.53167724609375,6325.1728515625
1594013248.2022398,0.0,5.0,0.5,0.5,-0.015642197875976562,-0.004,-0.0002,-0.006,0.0005073243650932783,2.0,0.5,10.0,-0.011337253702008165,-2.0,-0.5,-10.0,476.1236755923601,0.0037080561143323872,0.00021814327824056445,0.9999931013428857,4.182010701964936,-81.41171264648438,6324.2294921875
1594013248.2361212,0.0,5.0,0.5,0.5,-0.01668135559082031,-0.004,-0.0002,-0.006,0.0004513855619511636,2.0,0.5,10.0,-0.01374482955162852,-2.0,-0.5,-10.0,476.3747114405269,0.004139460909147133,0.00020960587612044697,0.9999914104274887,4.183329149889326,-81.2386474609375,6322.822265625
1594013248.2740247,0.0,5.0,0.5,0.5,-0.016778030395507813,-0.004,-0.0002,-0.006,0.00046100730614391316,2.0,0.5,10.0,-0.012990338245839277,-2.0,-0.5,-10.0,476.54196061810944,0.004422181230437726,0.0002034520535920955,0.9999902014122075,4.183264829861156,-81.12802124023438,6321.88671875
1594013248.3133538,0.0,5.0,0.5,0.5,-0.017209888916015624,-0.004,-0.0002,-0.006,0.00042999801828230206,2.0,0.5,10.0,-0.013660893567898994,-2.0,-0.5,-10.0,476.70929828169756,0.004699892183153127,0.0001959163160117221,0.9999889362539286,4.181808626526608,-81.02127075195312,6320.9541015625
1594013248.3542445,0.0,5.0,0.5,0.5,-0.01762338684082031,-0.004,-0.0002,-0.006,0.00041101095364200007,2.0,0.5,10.0,-0.01432829986775547,-2.0,-0.5,-10.0,476.8763910107082,0.004973321040176751,0.00018825373507595346,0.9999876152424902,4.178379411787369,-80.91860961914062,6320.02734375
1594013248.387156,0.0,5.0,0.5,0.5,-0.0180171728515625,-0.004,-0.0002,-0.006,0.00037991594239298796,2.0,0.5,10.0,-0.014967296012746814,-2.0,-0.5,-10.0,477.04342495277524,0.005241624731019557,0.00017949586829936478,0.9999862464811266,4.173699835584567,-80.82015991210938,6319.103515625
1594013248.4260864,0.0,5.0,0.5,0.5,-0.01839305419921875,-0.004,-0.0002,-0.006,0.0003521029354012096,2.0,0.5,10.0,-0.015591030640315619,-2.0,-0.5,-10.0,477.2102453703992,0.005504555398885487,0.00017012302923519095,0.9999848353490244,4.167830084461376,-80.7259521484375,6318.181640625
1594013248.5028465,0.0,5.0,0.5,0.5,-0.018749356079101564,-0.004,-0.0002,-0.006,0.00031742491339891435,2.0,0.5,10.0,-0.01620286026220006,-2.0,-0.5,-10.0,477.37679172016215,0.005762195644339046,0.00015969220914809605,0.9999833856618593,4.160866007387524,-80.63616943359375,6317.263671875
1594013248.5377524,0.0,5.0,0.5,0.5,-0.019496087646484375,-0.004,-0.0002,-0.006,0.00021751138403830277,2.0,0.5,10.0,-0.018288455765650052,-2.0,-0.5,-10.0,477.62593867536634,0.006138430537985552,0.00014297319104847043,0.9999811494369266,4.148378354115584,-80.50991821289062,6315.890625
1594013248.5796435,0.0,5.0,0.5,0.5,-0.019546091308593753,-0.004,-0.0002,-0.006,0.00023071929358227345,2.0,0.5,10.0,-0.01759836313284192,-2.0,-0.5,-10.0,477.7916329416912,0.006381869374807083,0.00013049341832348967,0.9999796271498488,4.139434263709392,-80.43145751953125,6314.9775390625
1594013248.6185822,0.0,5.0,0.5,0.5,-0.019834941406249997,-0.004,-0.0002,-0.006,0.00018871027456078668,2.0,0.5,10.0,-0.01815779901211399,-2.0,-0.5,-10.0,477.956898028031,0.006618992783497552,0.00011697808408674281,0.9999780873852485,4.129573195758692,-80.35769653320312,6314.06689453125
1594013248.6565616,0.0,5.0,0.5,0.5,-0.020102847900390627,-0.004,-0.0002,-0.006,0.0001451311990918037,2.0,0.5,10.0,-0.01870359541797289,-2.0,-0.5,-10.0,478.1217654981883,0.00684994975510633,0.00010250523757601276,0.9999765335651777,4.118399898078583,-80.28875732421875,6313.1591796875
1594013248.6915174,0.0,5.0,0.5,0.5,-0.020348774414062503,-0.004,-0.0002,-0.006,9.93866253146208e-05,2.0,0.5,10.0,-0.01922465463513819,-2.0,-0.5,-10.0,478.2861460149288,0.007074541796019257,8.707873699624095e-05,0.9999749713246177,4.106403480110176,-80.22470092773438,6312.25390625
1594013248.7293785,0.0,5.0,0.5,0.5,-0.0205736279296875,-0.004,-0.0002,-0.006,4.836126621937163e-05,2.0,0.5,10.0,-0.019724926342371323,-2.0,-0.5,-10.0,478.4500682945363,0.007292339636692867,7.045609540764308e-05,0.9999734080557151,4.093632812221245,-80.16558837890625,6311.349609375
1594013248.7663188,0.0,5.0,0.5,0.5,-0.020776837768554688,-0.004,-0.0002,-0.006,-3.6232190821836984e-06,2.0,0.5,10.0,-0.020211376690575412,-2.0,-0.5,-10.0,478.6134120612405,0.007503573501881467,5.27946045611989e-05,0.9999718464024033,4.080154731534112,-80.11151123046875,6310.4482421875
1594013248.8407815,0.0,5.0,0.5,0.5,-0.020958934326171876,-0.004,-0.0002,-0.006,-5.2517609500904824e-05,2.0,0.5,10.0,-0.020672677778716897,-2.0,-0.5,-10.0,478.7761448764941,0.007707500761626655,3.4566576031413474e-05,0.9999702961774222,4.066010109974684,-80.06246948242188,6309.5478515625
1594013248.8796782,0.0,5.0,0.5,0.5,-0.021319180908203127,-0.004,-0.0002,-0.006,-0.00023913667746023871,2.0,0.5,10.0,-0.022271657346934932,-2.0,-0.5,-10.0,479.01928305940237,0.008000413958638285,4.428835311097588e-06,0.9999679961663152,4.0435554844127015,-79.99853515625,6308.201171875
1594013248.917575,0.0,5.0,0.5,0.5,-0.021311451416015627,-0.004,-0.0002,-0.006,-0.00020241960181664097,2.0,0.5,10.0,-0.021702374581569844,-2.0,-0.5,-10.0,479.1805830238154,0.008186668648368582,-1.6935799844182118e-05,0.9999664885233007,4.028228362941646,-79.96240234375,6307.3046875
1594013248.9584658,0.0,5.0,0.5,0.5,-0.0214169677734375,-0.004,-0.0002,-0.006,-0.00026962569890979203,2.0,0.5,10.0,-0.02210068641753812,-2.0,-0.5,-10.0,479.3412101221038,0.00836497157195773,-3.9604220527209967e-05,0.999965012228981,4.012348868260579,-79.9315185546875,6306.4091796875
1594013248.9923751,0.0,5.0,0.5,0.5,-0.021498970336914062,-0.004,-0.0002,-0.006,-0.0003374992620079011,2.0,0.5,10.0,-0.022479144375696904,-2.0,-0.5,-10.0,479.5012264191173,0.008535818250487034,-6.338996213967693e-05,0.9999635672305804,3.9956804784433873,-79.90594482421875,6305.515625
1594013249.0302744,0.0,5.0,0.5,0.5,-0.021558674926757816,-0.004,-0.0002,-0.006,-0.0004076400871517112,2.0,0.5,10.0,-0.022837084600755057,-2.0,-0.5,-10.0,479.6605721930973,0.008699044047700968,-8.824863482678704e-05,0.9999621587064357,3.9785268262786886,-79.88568115234375,6304.6240234375
1594013249.0701654,0.0,5.0,0.5,0.5,-0.021596069335937502,-0.004,-0.0002,-0.006,-0.00048000506828871435,2.0,0.5,10.0,-0.023168557337869076,-2.0,-0.5,-10.0,479.8191852757009,0.008854021393204566,-0.0001141394991653227,0.9999607958701898,3.960917724092831,-79.8707275390625,6303.732421875
1594013249.1104,0.0,5.0,0.5,0.5,-0.02161022827148438,-0.004,-0.0002,-0.006,-0.0005568281949796213,2.0,0.5,10.0,-0.023482886406823753,-2.0,-0.5,-10.0,479.97709714074153,0.009001012971711712,-0.00014121446026858908,0.999959480091048,3.942897816370476,-79.86117553710938,6302.84228515625
1594013249.144643,0.0,5.0,0.5,0.5,-0.021601995849609378,-0.004,-0.0002,-0.006,-0.0006383115135559173,2.0,0.5,10.0,-0.02377877698910835,-2.0,-0.5,-10.0,480.1342450833181,0.009140136539092665,-0.00016961598274739894,0.999958213694185,3.9244944103381103,-79.85699462890625,6301.9541015625
1594013249.2194428,0.0,5.0,0.5,0.5,-0.021570875244140624,-0.004,-0.0002,-0.006,-0.0007207478535647353,2.0,0.5,10.0,-0.024050811737522323,-2.0,-0.5,-10.0,480.2907220919151,0.00927104325385129,-0.00019915331282149598,0.9999570031231059,3.9057316632537473,-79.85821533203125,6301.06640625
1594013249.259919,0.0,5.0,0.5,0.5,-0.021463941650390624,-0.004,-0.0002,-0.006,-0.0010001068968566596,2.0,0.5,10.0,-0.02499490566057194,-2.0,-0.5,-10.0,480.52390980138443,0.009451442219104406,-0.00024599789183514265,0.9999553038636358,3.876927647884537,-79.87014770507812,6299.73681640625
1594013249.294822,0.0,5.0,0.5,0.5,-0.021392287597656247,-0.004,-0.0002,-0.006,-0.0009343768173637796,2.0,0.5,10.0,-0.024593285610053063,-2.0,-0.5,-10.0,480.6783742294647,0.009561039929865938,-0.00027838851577266423,0.999954253461274,3.8575504951838115,-79.88485717773438,6298.8505859375
1594013249.3337176,0.0,5.0,0.5,0.5,-0.021282012329101565,-0.004,-0.0002,-0.006,-0.001027562439357117,2.0,0.5,10.0,-0.024784392058211577,-2.0,-0.5,-10.0,480.83213481795974,0.009661794284633643,-0.00031196776525719465,0.9999532751120499,3.8378851301009846,-79.90493774414062,6297.9658203125
1594013249.3716154,0.0,5.0,0.5,0.5,-0.02114912841796875,-0.004,-0.0002,-0.006,-0.001122071797914545,2.0,0.5,10.0,-0.024963827377582223,-2.0,-0.5,-10.0,480.9850394758396,0.00975456283340318,-0.0003465969531848681,0.9999523630526013,3.817801978261643,-79.93038940429688,6297.08154296875
1594013249.413504,0.0,5.0,0.5,0.5,-0.020993938598632814,-0.004,-0.0002,-0.006,-0.0012230391446392177,2.0,0.5,10.0,-0.025112711666039005,-2.0,-0.5,-10.0,481.13715132232755,0.009838487017826502,-0.0003825894189655785,0.9999515277244874,3.7974732090606103,-79.961181640625,6296.1982421875
1594013249.449408,0.0,5.0,0.5,0.5,-0.020816259155273437,-0.004,-0.0002,-0.006,-0.001318766153824614,2.0,0.5,10.0,-0.025235409915872243,-2.0,-0.5,-10.0,481.28840839583427,0.00991322090580146,-0.0004192303934781789,0.9999507749370216,3.7769189752102865,-79.997314453125,6295.31591796875
1594013249.5234623,0.0,5.0,0.5,0.5,-0.020617005004882814,-0.004,-0.0002,-0.006,-0.0014252185221557442,2.0,0.5,10.0,-0.025342613491257635,-2.0,-0.5,-10.0,481.43893409112934,0.009979373706820623,-0.0004572564789385593,0.9999501002634743,3.7561668196393074,-80.0386962890625,6294.43359375
1594013249.5631835,0.0,5.0,0.5,0.5,-0.02014263732910156,-0.004,-0.0002,-0.006,-0.001771310041332506,2.0,0.5,10.0,-0.02572756831743516,-2.0,-0.5,-10.0,481.66302687011193,0.010061891641877985,-0.0005163561893378846,0.9999492445683795,3.7246729106645398,-80.11062622070312,6293.11181640625
1594013249.5980892,0.0,5.0,0.5,0.5,-0.02002479431152344,-0.004,-0.0002,-0.006,-0.0016818449976912636,2.0,0.5,10.0,-0.025480076475272027,-2.0,-0.5,-10.0,481.81138625345193,0.010105611939786499,-0.0005565874371627634,0.9999487820972369,3.7036013131779484,-80.16506958007812,6292.23046875
1594013249.635989,0.0,5.0,0.5,0.5,-0.019749284667968752,-0.004,-0.0002,-0.006,-0.0017979263914617812,2.0,0.5,10.0,-0.025505494907410844,-2.0,-0.5,-10.0,481.9588893747423,0.010140140909885605,-0.0005981745454376416,0.9999484085339307,3.6823823630646606,-80.22467041015625,6291.3505859375
1594013249.6753914,0.0,5.0,0.5,0.5,-0.01945350341796875,-0.004,-0.0002,-0.006,-0.0019061932301266823,2.0,0.5,10.0,-0.02551783395994562,-2.0,-0.5,-10.0,482.10559779405594,0.010166322065779282,-0.0006401901170862145,0.999948116680195,3.6609471690270285,-80.28927612304688,6290.470703125
1594013249.716314,0.0,5.0,0.5,0.5,-0.019136038818359378,-0.004,-0.0002,-0.006,-0.002022892094071744,2.0,0.5,10.0,-0.025491866195360872,-2.0,-0.5,-10.0,482.25139030301943,0.010182997049280804,-0.0006832855311835677,0.9999479184897467,3.6393963540838823,-80.35894775390625,6289.591796875
1594013249.7521858,0.0,5.0,0.5,0.5,-0.018799042358398434,-0.004,-0.0002,-0.006,-0.0021393871569337307,2.0,0.5,10.0,-0.02544423955654961,-2.0,-0.5,-10.0,482.39632979175076,0.01019033249430024,-0.0007272192272723154,0.9999478127761723,3.6177478261624714,-80.43350219726562,6288.7119140625
1594013249.787162,0.0,5.0,0.5,0.5,-0.01844142517089844,-0.004,-0.0002,-0.006,-0.0022582044630136836,2.0,0.5,10.0,-0.02538356403269523,-2.0,-0.5,-10.0,482.54035483126063,0.01018918682895496,-0.0007720018684278716,0.9999477908795437,3.5960142208331454,-80.512939453125,6287.83349609375
1594013249.865937,0.0,5.0,0.5,0.5,-0.018064112548828126,-0.004,-0.0002,-0.006,-0.0023781174925074852,2.0,0.5,10.0,-0.025291329360916236,-2.0,-0.5,-10.0,482.6835526661016,0.010178734951870844,-0.0008175409680351394,0.9999478611315418,3.574211093583709,-80.59716796875,6286.955078125
1594013249.9018404,0.0,5.0,0.5,0.5,-0.017205445556640626,-0.004,-0.0002,-0.006,-0.00277251042279414,2.0,0.5,10.0,-0.025024366100577608,-2.0,-0.5,-10.0,482.89668834395707,0.010146360416214011,-0.0008865439971106273,0.9999481313598447,3.541387861513899,-80.7322998046875,6285.6376953125
1594013249.937744,0.0,5.0,0.5,0.5,-0.017043284912109376,-0.004,-0.0002,-0.006,-0.0026694266757297438,2.0,0.5,10.0,-0.024965736485627936,-2.0,-0.5,-10.0,483.0377505852375,0.010113524420627459,-0.000933509069069699,0.9999484212621226,3.5195035988771903,-80.828125,6284.759765625
1594013249.978635,0.0,5.0,0.5,0.5,-0.016599029541015626,-0.004,-0.0002,-0.006,-0.002792089269351819,2.0,0.5,10.0,-0.024799261796416852,-2.0,-0.5,-10.0,483.1778965241974,0.01007172923889688,-0.0009808841260452185,0.9999487977574,3.497583167841989,-80.928466796875,6283.88232421875
1594013250.0195265,0.0,5.0,0.5,0.5,-0.016138275756835938,-0.004,-0.0002,-0.006,-0.002915963351165522,2.0,0.5,10.0,-0.02461062502926144,-2.0,-0.5,-10.0,483.31709782627877,0.0100211392002042,-0.001028750647273013,0.9999492579332393,3.475598882499273,-81.03311157226562,6283.0048828125
1594013250.052437,0.0,5.0,0.5,0.5,-0.015659611206054688,-0.004,-0.0002,-0.006,-0.003041959771474359,2.0,0.5,10.0,-0.024398290335206508,-2.0,-0.5,-10.0,483.4555038380204,0.009961638246537317,-0.001077171769946452,0.9999498014722656,3.45360070071419,-81.14202880859375,6282.1279296875
1594013250.128279,0.0,5.0,0.5,0.5,-0.015164091186523437,-0.004,-0.0002,-0.006,-0.0031617285431678314,2.0,0.5,10.0,-0.024166823827070874,-2.0,-0.5,-10.0,483.59299473743886,0.009893509003900895,-0.0011255076147133204,0.9999504246272407,3.431593290263408,-81.25509643554688,6281.2509765625
1594013250.16921,0.0,5.0,0.5,0.5,-0.014052245483398437,-0.004,-0.0002,-0.006,-0.0035776324680698154,2.0,0.5,10.0,-0.023406884413451064,-2.0,-0.5,-10.0,483.79755347268656,0.009774543071660053,-0.0011984239895207632,0.9999515098681944,3.398586756028215,-81.43218994140625,6279.935546875
1594013250.2021115,0.0,5.0,0.5,0.5,-0.013863483276367187,-0.004,-0.0002,-0.006,-0.003467436508116796,2.0,0.5,10.0,-0.02349432966216715,-2.0,-0.5,-10.0,483.9329075360438,0.009684393790425778,-0.001247858228287809,0.9999523265469981,3.3766207380999282,-81.55517578125,6279.05859375
1594013250.2409763,0.0,5.0,0.5,0.5,-0.013311875000000003,-0.004,-0.0002,-0.006,-0.0035866083092081637,2.0,0.5,10.0,-0.023185967705955542,-2.0,-0.5,-10.0,484.06728439510334,0.009585680637645725,-0.0012968150815137298,0.9999532154042796,3.3546706974089644,-81.681884765625,6278.181640625
1594013250.2830403,0.0,5.0,0.5,0.5,-0.01274595458984375,-0.004,-0.0002,-0.006,-0.003706920349792643,2.0,0.5,10.0,-0.022860176016942867,-2.0,-0.5,-10.0,484.2008077863138,0.009478784978708413,-0.001345451740862846,0.9999541701472825,3.3327367439320863,-81.81216430664062,6277.3046875
1594013250.3538814,0.0,5.0,0.5,0.5,-0.011484899291992187,-0.004,-0.0002,-0.006,-0.004132080367363258,2.0,0.5,10.0,-0.021775400017783525,-2.0,-0.5,-10.0,484.39950509916525,0.009302223721218885,-0.0014192126635645453,0.9999557262545458,3.29989940033434,-82.01400756835938,6275.990234375
1594013250.430226,0.0,5.0,0.5,0.5,-0.01057803955078125,-0.004,-0.0002,-0.006,-0.004295862400133025,2.0,0.5,10.0,-0.021160866427421814,-2.0,-0.5,-10.0,484.59612625464797,0.009107395443676615,-0.0014921091491032173,0.999957413572458,3.267165789688081,-82.22323608398438,6274.6748046875
1594013250.472144,0.0,5.0,0.5,0.5,-0.009642727661132814,-0.004,-0.0002,-0.006,-0.004458277114176056,2.0,0.5,10.0,-0.020502496204898763,-2.0,-0.5,-10.0,484.79082484310493,0.008894366564585098,-0.001564063279555557,0.9999592211432787,3.2345457770517143,-82.43951416015625,6273.3603515625
1594013250.5070195,0.0,5.0,0.5,0.5,-0.009432514038085937,-0.004,-0.0002,-0.006,-0.004342581910301362,2.0,0.5,10.0,-0.02075157776490887,-2.0,-0.5,-10.0,484.91967795894016,0.008742504973152642,-0.0016119538748033224,0.9999604843250056,3.2128638467606523,-82.5872802734375,6272.4833984375
1594013250.5439215,0.0,5.0,0.5,0.5,-0.008784121093750001,-0.004,-0.0002,-0.006,-0.0044548783502111906,2.0,0.5,10.0,-0.02029168551454579,-2.0,-0.5,-10.0,485.0475238971412,0.00858295693537472,-0.0016587907273875697,0.9999617899017783,3.191247289805578,-82.7376708984375,6271.607421875
1594013250.5828166,0.0,5.0,0.5,0.5,-0.008126231689453124,-0.004,-0.0002,-0.006,-0.004572749143525666,2.0,0.5,10.0,-0.01981397676391008,-2.0,-0.5,-10.0,485.1744543503737,0.008415935680136653,-0.0017052205916613108,0.9999631314450356,3.1697036183866034,-82.8905029296875,6270.73046875
1594013250.623716,0.0,5.0,0.5,0.5,-0.007459002075195314,-0.004,-0.0002,-0.006,-0.004685214275252935,2.0,0.5,10.0,-0.019315802034309604,-2.0,-0.5,-10.0,485.30065070081037,0.008241393295487242,-0.0017508687687960841,0.999964506317651,3.1482302590161124,-83.045654296875,6269.853515625
1594013250.6586483,0.0,5.0,0.5,0.5,-0.006784154663085937,-0.004,-0.0002,-0.006,-0.004797334591868849,2.0,0.5,10.0,-0.018804555147098414,-2.0,-0.5,-10.0,485.42596460401546,0.008059725525079187,-0.0017959504228794076,0.9999659071121071,3.126834888679152,-83.2030029296875,6268.9765625
1594013250.6955235,0.0,5.0,0.5,0.5,-0.006101356811523438,-0.004,-0.0002,-0.006,-0.004902829071620304,2.0,0.5,10.0,-0.018274481767904673,-2.0,-0.5,-10.0,485.55042194086127,0.00787093238591194,-0.0018400259571173334,0.9999673308302895,3.1055210325490115,-83.36239624023438,6268.10009765625
1594013250.774315,0.0,5.0,0.5,0.5,-0.00541186279296875,-0.004,-0.0002,-0.006,-0.005006695025442659,2.0,0.5,10.0,-0.017726052158564133,-2.0,-0.5,-10.0,485.67396525421645,0.007675047086876414,-0.0018831476864857861,0.9999687732159466,3.0842902567384174,-83.52362060546875,6267.2236328125
1594013250.8094275,0.0,5.0,0.5,0.5,-0.0038956390380859383,-0.004,-0.0002,-0.006,-0.005358776374380948,2.0,0.5,10.0,-0.01591494175503374,-2.0,-0.5,-10.0,485.857829360757,0.007368399045268576,-0.0019461821735975919,0.999970959113542,3.0526075259751253,-83.7685546875,6265.90771484375
1594013250.8494086,0.0,5.0,0.5,0.5,-0.0036785412597656244,-0.004,-0.0002,-0.006,-0.005245013385355248,2.0,0.5,10.0,-0.016332351819510614,-2.0,-0.5,-10.0,485.9792354502715,0.007155700785451576,-0.0019870349574801507,0.99997242343894,3.0315777553995487,-83.9337158203125,6265.03076171875
1594013250.8872714,0.0,5.0,0.5,0.5,-0.002970564575195312,-0.004,-0.0002,-0.006,-0.00533117092182086,2.0,0.5,10.0,-0.01573596977773809,-2.0,-0.5,-10.0,486.0999091711128,0.006936885793198971,-0.00202619654788618,0.9999738867305693,3.0106391454436343,-84.10018920898438,6264.15380859375
1594013250.9261708,0.0,5.0,0.5,0.5,-0.0022610815429687505,-0.004,-0.0002,-0.006,-0.005424153457386357,2.0,0.5,10.0,-0.015128056361206245,-2.0,-0.5,-10.0,486.21966769744176,0.006712036684824922,-0.0020646541959036184,0.9999753425793021,2.989814047218975,-84.2677001953125,6263.2763671875
1594013250.9610765,0.0,5.0,0.5,0.5,-0.00154888427734375,-0.004,-0.0002,-0.006,-0.00550493224191931,2.0,0.5,10.0,-0.014499664977610658,-2.0,-0.5,-10.0,486.33872371620964,0.006480756763748281,-0.0021015475499579785,0.9999767913755121,2.969089080248562,-84.43606567382812,6262.3994140625
1594013250.9989762,0.0,5.0,0.5,0.5,-0.0008338250732421873,-0.004,-0.0002,-0.006,-0.005590653107811841,2.0,0.5,10.0,-0.013865927426281453,-2.0,-0.5,-10.0,486.45686387619935,0.0062439712009554225,-0.002137590597066946,0.9999782215278896,2.9484642404574943,-84.60519409179688,6261.521484375
1594013251.0368745,0.0,5.0,0.5,0.5,-0.00011782958984375008,-0.004,-0.0002,-0.006,-0.005657809926533545,2.0,0.5,10.0,-0.013217301144904154,-2.0,-0.5,-10.0,486.57418238103855,0.006001647560509854,-0.0021714213295287044,0.9999796323705644,2.927962360550845,-84.77484130859375,6260.64404296875
1594013251.1136801,0.0,5.0,0.5,0.5,0.000599005126953125,-0.004,-0.0002,-0.006,-0.005735681362532317,2.0,0.5,10.0,-0.012555000104227308,-2.0,-0.5,-10.0,486.69061303371564,0.005753851713977883,-0.0022043505905770147,0.9999810168342835,2.9074608158143995,-84.94485473632812,6259.7666015625
1594013251.1525962,0.0,5.0,0.5,0.5,0.0021668621826171873,-0.004,-0.0002,-0.006,-0.005980838289804469,2.0,0.5,10.0,-0.010343165332895666,-2.0,-0.5,-10.0,486.8639186504297,0.0053726434184698585,-0.002250519718024546,0.999983034787939,2.876857456775107,-85.20016479492188,6258.4501953125
1594013251.1895447,0.0,5.0,0.5,0.5,0.0023740277099609376,-0.004,-0.0002,-0.006,-0.005883236360997315,2.0,0.5,10.0,-0.010909379758024026,-2.0,-0.5,-10.0,486.9783969646087,0.0051125639116715435,-0.002279150106159779,0.999984333459801,2.8565567034612305,-85.37039184570312,6257.572265625
1594013251.2294388,0.0,5.0,0.5,0.5,0.0030897351074218754,-0.004,-0.0002,-0.006,-0.005943527474681362,2.0,0.5,10.0,-0.010205546347006062,-2.0,-0.5,-10.0,487.09199194109533,0.004847855218318138,-0.0023063830123308355,0.9999855893447578,2.8363652940611215,-85.5404052734375,6256.6943359375
1594013251.2653372,0.0,5.0,0.5,0.5,0.003800037841796875,-0.004,-0.0002,-0.006,-0.005987310444157514,2.0,0.5,10.0,-0.009500106513048454,-2.0,-0.5,-10.0,487.20491588278674,0.004578980253639459,-0.00233122484476834,0.9999867990781478,2.8163104009239417,-85.70989990234375,6255.81640625
1594013251.3022418,0.0,5.0,0.5,0.5,0.00450713134765625,-0.004,-0.0002,-0.006,-0.006036049391494725,2.0,0.5,10.0,-0.008782533330588625,-2.0,-0.5,-10.0,487.31695291772485,0.004305856353418125,-0.002354553826213994,0.9999879577661638,2.7963730641321445,-85.87875366210938,6254.9384765625
1594013251.3411381,0.0,5.0,0.5,0.5,0.00521018310546875,-0.004,-0.0002,-0.006,-0.006080619708408622,2.0,0.5,10.0,-0.008059102572522398,-2.0,-0.5,-10.0,487.4282289572293,0.004028929829393914,-0.0023763406818351645,0.9999890603048582,2.7765874119172955,-86.04681396484375,6254.06005859375
1594013251.3820293,0.0,5.0,0.5,0.5,0.005908546142578124,-0.004,-0.0002,-0.006,-0.006115463270690483,2.0,0.5,10.0,-0.007331016312223544,-2.0,-0.5,-10.0,487.53874030022416,0.0037486634829131302,-0.00239610133135158,0.9999901030612762,2.756863480355598,-86.21392822265625,6253.181640625
1594013251.4179327,0.0,5.0,0.5,0.5,0.006600658569335938,-0.004,-0.0002,-0.006,-0.0061438712671559315,2.0,0.5,10.0,-0.006588446361865557,-2.0,-0.5,-10.0,487.64839923521504,0.0034646110869861243,-0.0024137085648982407,0.9999910852007532,2.7373379390752586,-86.37985229492188,6252.302734375
1594013251.4927325,0.0,5.0,0.5,0.5,0.007286725463867188,-0.004,-0.0002,-0.006,-0.006171796557888933,2.0,0.5,10.0,-0.005850023114100222,-2.0,-0.5,-10.0,487.7572922841646,0.00317794615354138,-0.002429557875548911,0.9999919989213787,2.7179556669425655,-86.54446411132812,6251.423828125
1594013251.5336387,0.0,5.0,0.5,0.5,0.008774632568359374,-0.004,-0.0002,-0.006,-0.006263074493428111,2.0,0.5,10.0,-0.0033444944816133472,-2.0,-0.5,-10.0,487.9192177053774,0.0027420300788258893,-0.0024492965601109833,0.9999932410858623,2.6890187241873065,-86.78848266601562,6250.10546875
1594013251.5675478,0.0,5.0,0.5,0.5,0.008953228759765626,-0.004,-0.0002,-0.006,-0.006210189104275417,2.0,0.5,10.0,-0.004025589136974393,-2.0,-0.5,-10.0,488.0261927220272,0.002448073827989534,-0.0024603177399435943,0.9999939768674364,2.669827905317651,-86.94906616210938,6249.2265625
1594013251.6058269,0.0,5.0,0.5,0.5,0.009611619873046876,-0.004,-0.0002,-0.006,-0.0062112502149471146,2.0,0.5,10.0,-0.003272200808776434,-2.0,-0.5,-10.0,488.13243237975985,0.0021525136315697427,-0.0024687163239354155,0.999994636048003,2.6507912561822913,-87.10775756835938,6248.3466796875
1594013251.6457245,0.0,5.0,0.5,0.5,0.01025946533203125,-0.004,-0.0002,-0.006,-0.006218393193757225,2.0,0.5,10.0,-0.0025045064276319213,-2.0,-0.5,-10.0,488.23791067407,0.001854572478958298,-0.002475520532922044,0.9999952161680632,2.631899547399643,-87.2642822265625,6247.4677734375
1594013251.6876206,0.0,5.0,0.5,0.5,0.0108971533203125,-0.004,-0.0002,-0.006,-0.006212118125446442,2.0,0.5,10.0,-0.0017416954156954487,-2.0,-0.5,-10.0,488.3425978838932,0.0015551926122013874,-0.0024799630450492056,0.9999957155704389,2.613129771083548,-87.41851806640625,6246.587890625
1594013251.7205286,0.0,5.0,0.5,0.5,0.01152385498046875,-0.004,-0.0002,-0.006,-0.006197507733934627,2.0,0.5,10.0,-0.0009754727970237337,-2.0,-0.5,-10.0,488.4466083981097,0.001254456620187311,-0.0024818278633613523,0.9999961334270471,2.5944814743970563,-87.5703125,6245.7080078125
1594013251.7967162,0.0,5.0,0.5,0.5,0.012138618774414061,-0.004,-0.0002,-0.006,-0.0061910546908708975,2.0,0.5,10.0,-0.00020040372988209794,-2.0,-0.5,-10.0,488.5498603398446,0.0009519683701355727,-0.0024823138165447163,0.9999964659309243,2.5759556032950597,-87.719482421875,6244.82763671875
1594013251.8365738,0.0,5.0,0.5,0.5,0.013463026733398439,-0.004,-0.0002,-0.006,-0.006146734359091339,2.0,0.5,10.0,0.0023851637169678454,-2.0,-0.5,-10.0,488.70330212963745,0.0004972515472685385,-0.0024785838618212666,0.9999968046763642,2.5484018285989927,-87.93807983398438,6243.50732421875
1594013251.8704884,0.0,5.0,0.5,0.5,0.013606213378906249,-0.004,-0.0002,-0.006,-0.00612283399260076,2.0,0.5,10.0,0.001652070414797701,-2.0,-0.5,-10.0,488.80469236627687,0.00019295951979204126,-0.0024731401918005533,0.9999969231673742,2.5301428534226,-88.08010864257812,6242.62744140625
1594013251.908386,0.0,5.0,0.5,0.5,0.014177816162109376,-0.004,-0.0002,-0.006,-0.006095242854380015,2.0,0.5,10.0,0.002429789308202052,-2.0,-0.5,-10.0,488.9053519052686,-0.00011179519602542703,-0.0024660569068194705,0.9999969530279412,2.512003420667099,-88.21908569335938,6241.74609375
1594013251.947282,0.0,5.0,0.5,0.5,0.014733342285156251,-0.004,-0.0002,-0.006,-0.006048400597563999,2.0,0.5,10.0,0.003187931999068178,-2.0,-0.5,-10.0,489.0053050442366,-0.00041522876115563273,-0.0024560985686369395,0.999996897577636,2.494018681605036,-88.35467529296875,6240.8662109375
1594013252.0243554,0.0,5.0,0.5,0.5,0.015919817504882812,-0.004,-0.0002,-0.006,-0.005928866618440097,2.0,0.5,10.0,0.005782172930731888,-2.0,-0.5,-10.0,489.1538994939765,-0.0008711215645695236,-0.002437810446855647,0.9999966491081083,2.467280431077226,-88.55154418945312,6239.54443359375
1594013252.0991547,0.0,5.0,0.5,0.5,0.016657555541992188,-0.004,-0.0002,-0.006,-0.005831902735411956,2.0,0.5,10.0,0.006849629306806061,-2.0,-0.5,-10.0,489.3009349339409,-0.001326156951284951,-0.0024145838021734246,0.9999962055392024,2.4407969145234945,-88.740234375,6238.22265625
1594013252.1719594,0.0,5.0,0.5,0.5,0.017939960937500003,-0.004,-0.0002,-0.006,-0.005600460405494991,2.0,0.5,10.0,0.009687595728026575,-2.0,-0.5,-10.0,489.49440799676813,-0.001927355847887622,-0.002376166956285834,0.9999953195540624,2.4058324766014185,-88.97842407226562,6236.4599609375
1594013252.2118518,0.0,5.0,0.5,0.5,0.018224182739257813,-0.004,-0.0002,-0.006,-0.005569066225137179,2.0,0.5,10.0,0.009230912721730902,-2.0,-0.5,-10.0,489.6376916379668,-0.0023745399765033506,-0.0023419507095856747,0.9999944383979212,2.3799331698079884,-89.14633178710938,6235.1376953125
1594013252.250749,0.0,5.0,0.5,0.5,0.018317882080078125,-0.004,-0.0002,-0.006,-0.005595733531740134,2.0,0.5,10.0,0.008500374876347626,-2.0,-0.5,-10.0,489.7324033497134,-0.0026699413774482483,-0.0023162344976168864,0.9999937532158855,2.3627677126818796,-89.25299072265625,6234.255859375
1594013252.3235526,0.0,5.0,0.5,0.5,0.019226474609375,-0.004,-0.0002,-0.006,-0.005344530303997818,2.0,0.5,10.0,0.010993947136613932,-2.0,-0.5,-10.0,489.8731520647416,-0.0031075552416010405,-0.0022745606910216385,0.9999925847095483,2.3372908959981102,-89.40447998046875,6232.93359375
1594013252.400869,0.0,5.0,0.5,0.5,0.019762677001953124,-0.004,-0.0002,-0.006,-0.005196972236028147,2.0,0.5,10.0,0.012009467454618264,-2.0,-0.5,-10.0,490.0124394687591,-0.0035399454731798257,-0.0022284016512178055,0.9999912514677954,2.3119423124245357,-89.54562377929688,6231.6103515625
1594013252.4437513,0.0,5.0,0.5,0.5,0.020254117431640625,-0.004,-0.0002,-0.006,-0.005037247289555284,2.0,0.5,10.0,0.012986438760002852,-2.0,-0.5,-10.0,490.1501095434651,-0.003964863287358994,-0.0021776677983860538,0.999989768758697,2.2868024079439953,-89.67623901367188,6230.287109375
1594013252.4776604,0.0,5.0,0.5,0.5,0.02031228515625,-0.004,-0.0002,-0.006,-0.005096053097937966,2.0,0.5,10.0,0.01229319673852997,-2.0,-0.5,-10.0,490.24109438539017,-0.0042438670356890985,-0.002141521206697378,0.9999887016759262,2.270178904023569,-89.75723266601562,6229.404296875
1594013252.5574465,0.0,5.0,0.5,0.5,0.020978607177734372,-0.004,-0.0002,-0.006,-0.004749879768591564,2.0,0.5,10.0,0.0146504868520862,-2.0,-0.5,-10.0,490.3763235133374,-0.0046555940360952725,-0.0020839035015951233,0.9999869913105707,2.2455662228800586,-89.869384765625,6228.08056640625
1594013252.6651602,0.0,5.0,0.5,0.5,0.021652135620117186,-0.004,-0.0002,-0.006,-0.00431287630381365,2.0,0.5,10.0,0.01717628244968949,-2.0,-0.5,-10.0,490.55436048610136,-0.005191514647588443,-0.002001022604724426,0.9999845219223141,2.2132005039830256,-90.0009994506836,6226.314453125
1594013252.7040563,0.0,5.0,0.5,0.5,0.02200059799194336,-0.004,-0.0002,-0.006,-0.004042667128063608,2.0,0.5,10.0,0.018254071891355084,-2.0,-0.5,-10.0,490.7298338182736,-0.0057099293061256395,-0.0019112577086952212,0.999981871736328,2.1811936302229546,-90.1119155883789,6224.54833984375
1594013252.7798536,0.0,5.0,0.5,0.5,0.02205490234375,-0.004,-0.0002,-0.006,-0.004060031108042497,2.0,0.5,10.0,0.017795183997419313,-2.0,-0.5,-10.0,490.8597226184793,-0.006085435145600153,-0.0018399978190586173,0.9999797907393502,2.1574798116294556,-90.18115234375,6223.22314453125
1594013252.8197644,0.0,5.0,0.5,0.5,0.02223230773925781,-0.004,-0.0002,-0.006,-0.003847082821763315,2.0,0.5,10.0,0.018610307327524944,-2.0,-0.5,-10.0,490.98821108974516,-0.006448958292263914,-0.0017651029252432956,0.9999776474244852,2.1341687906096367,-90.23802947998047,6221.8974609375
1594013252.896555,0.0,5.0,0.5,0.5,0.022356909637451173,-0.004,-0.0002,-0.006,-0.003635986676875515,2.0,0.5,10.0,0.01939245827148196,-2.0,-0.5,-10.0,491.11538311932236,-0.006800096750164464,-0.0016875027007579708,0.9999754552081882,2.111103828436461,-90.28243255615234,6220.5712890625
1594013252.9663684,0.0,5.0,0.5,0.5,0.02250765594482422,-0.004,-0.0002,-0.006,-0.0030817308589520414,2.0,0.5,10.0,0.02144639000326612,-2.0,-0.5,-10.0,491.2827696184395,-0.007246664128677285,-0.0015792675780134894,0.9999724955082131,2.0807765351907053,-90.32209014892578,6218.80322265625
1594013253.006261,0.0,5.0,0.5,0.5,0.02240227462768555,-0.004,-0.0002,-0.006,-0.0034584485734138414,2.0,0.5,10.0,0.019762031897264394,-2.0,-0.5,-10.0,491.36548669287004,-0.007461194148241674,-0.0015233618399024388,0.9999710045549256,2.065792063300004,-90.33351135253906,6217.9189453125
1594013253.0481498,0.0,5.0,0.5,0.5,0.022407259674072266,-0.004,-0.0002,-0.006,-0.0032952923888800055,2.0,0.5,10.0,0.020297885828114176,-2.0,-0.5,-10.0,491.4477445001248,-0.007668285122636722,-0.0014661150419792244,0.999969523490572,2.0509087150472327,-90.33928680419922,6217.0341796875
1594013253.0820603,0.0,5.0,0.5,0.5,0.022386783447265624,-0.004,-0.0002,-0.006,-0.0031336846476287543,2.0,0.5,10.0,0.020825810014390354,-2.0,-0.5,-10.0,491.5293648416409,-0.00786942369250862,-0.0014079068684239699,0.9999680444739211,2.036206001302494,-90.3393783569336,6216.1494140625
1594013253.1199608,0.0,5.0,0.5,0.5,0.022342411346435546,-0.004,-0.0002,-0.006,-0.002964496891660923,2.0,0.5,10.0,0.02134192623029762,-2.0,-0.5,-10.0,491.6103733277414,-0.008064942365990726,-0.001348357803873411,0.999966568759109,2.021620506281295,-90.33383178710938,6215.263671875
1594013253.158855,0.0,5.0,0.5,0.5,0.022272980194091796,-0.004,-0.0002,-0.006,-0.0027991450631553857,2.0,0.5,10.0,0.021809006498256345,-2.0,-0.5,-10.0,491.69083046831656,-0.008252592331514477,-0.0012880190381129911,0.9999651172549807,2.007150243199055,-90.3226318359375,6214.37890625
1594013253.1977499,0.0,5.0,0.5,0.5,0.022178155517578128,-0.004,-0.0002,-0.006,-0.002631727308587721,2.0,0.5,10.0,0.02225243899214619,-2.0,-0.5,-10.0,491.77067734498996,-0.008433165520258731,-0.00122675610195955,0.9999636877350968,1.9927916466704747,-90.3057861328125,6213.4931640625
1594013253.2326574,0.0,5.0,0.5,0.5,0.022058345184326172,-0.004,-0.0002,-0.006,-0.0024613856835946574,2.0,0.5,10.0,0.022677930246490043,-2.0,-0.5,-10.0,491.8499776517274,-0.008607753964515377,-0.0011643606097769925,0.9999622747064295,1.978541880687579,-90.28330993652344,6212.60791015625
1594013253.3084533,0.0,5.0,0.5,0.5,0.02191417861938477,-0.004,-0.0002,-0.006,-0.002293514162487102,2.0,0.5,10.0,0.023063356447745216,-2.0,-0.5,-10.0,491.9286034750985,-0.008774853523088365,-0.0011011902279045717,0.9999608938982215,1.964401228989938,-90.25520324707031,6211.72265625
1594013253.3892527,0.0,5.0,0.5,0.5,0.0213537158203125,-0.004,-0.0002,-0.006,-0.0013447194768415522,2.0,0.5,10.0,0.02525693439319111,-2.0,-0.5,-10.0,492.08442693320103,-0.009087210087224578,-0.0009722483221126699,0.9999582378009748,1.9364495483145168,-90.18225860595703,6209.951171875
1594013253.459052,0.0,5.0,0.5,0.5,0.020838223571777344,-0.004,-0.0002,-0.006,-0.001011555177480698,2.0,0.5,10.0,0.02563555099577371,-2.0,-0.5,-10.0,492.237925871741,-0.009369528968648889,-0.0008400132689170359,0.9999557521733717,1.9088506036089363,-90.08714294433594,6208.1787109375
1594013253.4996223,0.0,5.0,0.5,0.5,0.02054636947631836,-0.004,-0.0002,-0.006,-0.0010874955031323571,2.0,0.5,10.0,0.02521816453494536,-2.0,-0.5,-10.0,492.3517009320203,-0.00956116722793357,-0.0007392259780128811,0.9999540177559131,1.8883658657355142,-90.00135803222656,6206.85009765625
1594013253.5335283,0.0,5.0,0.5,0.5,0.020415245208740232,-0.004,-0.0002,-0.006,-0.0012458921069295281,2.0,0.5,10.0,0.02481202390650606,-2.0,-0.5,-10.0,492.4268499969039,-0.00967827083713548,-0.0006717035186670562,0.9999529388366165,1.8748479150219803,-89.93743896484375,6205.9638671875
1594013253.6103349,0.0,5.0,0.5,0.5,0.02009888916015625,-0.004,-0.0002,-0.006,-0.0010618292663256551,2.0,0.5,10.0,0.0250523100351873,-2.0,-0.5,-10.0,492.50144746748265,-0.009787506081716763,-0.0006034062805090134,0.9999519191568967,1.8614896453571004,-89.86825561523438,6205.0771484375
1594013253.6502283,0.0,5.0,0.5,0.5,0.019369618072509767,-0.004,-0.0002,-0.006,-0.00046847253410610174,2.0,0.5,10.0,0.02584204965794216,-2.0,-0.5,-10.0,492.61235284327995,-0.009936355077475704,-0.0005003976068086606,0.9999505080002755,1.841698396883742,-89.7547607421875,6203.7470703125
1594013253.6851354,0.0,5.0,0.5,0.5,0.01921808303833008,-0.004,-0.0002,-0.006,-0.0006237165382029834,2.0,0.5,10.0,0.02550976841090509,-2.0,-0.5,-10.0,492.685607269872,-0.010024908250390544,-0.0004310272132208765,0.9999496564478199,1.8286072911669646,-89.67266845703125,6202.8603515625
1594013253.723034,0.0,5.0,0.5,0.5,0.018826360626220704,-0.004,-0.0002,-0.006,-0.0004449825657410636,2.0,0.5,10.0,0.025678454298434458,-2.0,-0.5,-10.0,492.7584048388526,-0.010105375068785042,-0.00036189485346294694,0.9999488739064784,1.8156191883250792,-89.58554077148438,6201.9736328125
1594013253.7609317,0.0,5.0,0.5,0.5,0.01841400650024414,-0.004,-0.0002,-0.006,-0.0002535542598628381,2.0,0.5,10.0,0.025824236871364967,-2.0,-0.5,-10.0,492.8306510753464,-0.010177611758739139,-0.00029193578337688935,0.9999481641527158,1.8027534519079644,-89.49346923828125,6201.0859375
1594013253.8008318,0.0,5.0,0.5,0.5,0.017981400604248046,-0.004,-0.0002,-0.006,-6.607647554963416e-05,2.0,0.5,10.0,0.025950167376609483,-2.0,-0.5,-10.0,492.90235101850703,-0.01024176213499533,-0.00022164851305574146,0.9999475272134568,1.7899914505287748,-89.39654541015625,6200.19921875
1594013253.8357363,0.0,5.0,0.5,0.5,0.017529535064697264,-0.004,-0.0002,-0.006,0.00011740195631717285,2.0,0.5,10.0,0.026045491498981495,-2.0,-0.5,-10.0,492.97359039401636,-0.010297052339523546,-0.00015145067561108777,0.9999469724819461,1.77732786284209,-89.294921875,6199.3115234375
1594013253.8746343,0.0,5.0,0.5,0.5,0.017058602294921878,-0.004,-0.0002,-0.006,0.0002995572441249772,2.0,0.5,10.0,0.026110203185776816,-2.0,-0.5,-10.0,493.04431080876384,-0.010343479141145423,-8.119286061698258e-05,0.9999465014924428,1.7647628890163631,-89.18862915039062,6198.42431640625
1594013253.953551,0.0,5.0,0.5,0.5,0.016570295104980468,-0.004,-0.0002,-0.006,0.00047953837026523975,2.0,0.5,10.0,0.02615411744635527,-2.0,-0.5,-10.0,493.114570918493,-0.010381769538493122,-1.0808005978123265e-05,0.9999461079200402,1.752295997390252,-89.07781982421875,6197.537109375
1594013253.9894567,0.0,5.0,0.5,0.5,0.015471380004882811,-0.004,-0.0002,-0.006,0.001088822028339939,2.0,0.5,10.0,0.026316649225477187,-2.0,-0.5,-10.0,493.2189131954219,-0.010423803341582367,9.558460284367293e-05,0.9999456661176545,1.7337815905263543,-88.90328979492188,6196.205078125
1594013254.0243948,0.0,5.0,0.5,0.5,0.015280836181640625,-0.004,-0.0002,-0.006,0.0009115450945514296,2.0,0.5,10.0,0.026136380662032922,-2.0,-0.5,-10.0,493.28795367397834,-0.010440702745101187,0.0001662749985398326,0.9999454805532216,1.7215354560483556,-88.78158569335938,6195.3173828125
1594013254.06329,0.0,5.0,0.5,0.5,0.014730477294921876,-0.004,-0.0002,-0.006,0.0010876574847692457,2.0,0.5,10.0,0.026102837613043217,-2.0,-0.5,-10.0,493.3563857557019,-0.010449268674520293,0.0002366526888087468,0.9999453768979947,1.709383453158417,-88.65570068359375,6194.43017578125
1594013254.1047068,0.0,5.0,0.5,0.5,0.0141658935546875,-0.004,-0.0002,-0.006,0.0012722407297454808,2.0,0.5,10.0,0.0260426476292059,-2.0,-0.5,-10.0,493.42448093090206,-0.010449253977062086,0.00030761165821578906,0.9999453577403071,1.6973465909069962,-88.52590942382812,6193.5419921875
1594013254.1376193,0.0,5.0,0.5,0.5,0.013585036010742187,-0.004,-0.0002,-0.006,0.0014435794033212748,2.0,0.5,10.0,0.025961294825296657,-2.0,-0.5,-10.0,493.49202583916485,-0.010440694221660012,0.000377944693555321,0.9999454230416669,1.6854040927895464,-88.39224243164062,6192.654296875
1594013254.214417,0.0,5.0,0.5,0.5,0.012989270629882813,-0.004,-0.0002,-0.006,0.001623475681018214,2.0,0.5,10.0,0.025860338589348594,-2.0,-0.5,-10.0,493.55911574244965,-0.010423750909358966,0.0004484642480337664,0.9999455706671228,1.673557359729706,-88.25485229492188,6191.765625
1594013254.290462,0.0,5.0,0.5,0.5,0.010935140380859375,-0.004,-0.0002,-0.006,0.002638118582577076,2.0,0.5,10.0,0.025322367743934714,-2.0,-0.5,-10.0,493.6918251932366,-0.010363774998862688,0.0005886991184314984,0.9999461213491059,1.6501388093552822,-87.969482421875,6189.9892578125
1594013254.3273606,0.0,5.0,0.5,0.5,0.010390119628906251,-0.004,-0.0002,-0.006,0.0025333515104941154,2.0,0.5,10.0,0.02512202896599463,-2.0,-0.5,-10.0,493.7900918792002,-0.010296591788354669,0.0006934544726248314,0.9999467482413442,1.6327841225056354,-87.74661254882812,6188.6572265625
1594013254.3652613,0.0,5.0,0.5,0.5,0.010170493774414063,-0.004,-0.0002,-0.006,0.002361768580816332,2.0,0.5,10.0,0.025128839860419208,-2.0,-0.5,-10.0,493.8550999109866,-0.010241175273096571,0.0007629315855284774,0.9999472667418126,1.621295540310848,-87.59402465820312,6187.7685546875
1594013254.4062877,0.0,5.0,0.5,0.5,0.009499868774414062,-0.004,-0.0002,-0.006,0.002539708266987467,2.0,0.5,10.0,0.02491335505308311,-2.0,-0.5,-10.0,493.919623206486,-0.010177464042553685,0.0008321403016035042,0.9999478620249063,1.6099332701532496,-87.4385986328125,6186.8798828125
1594013254.4413037,0.0,5.0,0.5,0.5,0.008818829956054689,-0.004,-0.0002,-0.006,0.0027109789280654,2.0,0.5,10.0,0.024677265935663235,-2.0,-0.5,-10.0,493.9837196331937,-0.010105548530216038,0.0009005745021409308,0.9999485321027627,1.5986782678641065,-87.280517578125,6185.9912109375
1594013254.4782102,0.0,5.0,0.5,0.5,0.008128720703125002,-0.004,-0.0002,-0.006,0.002883985207944801,2.0,0.5,10.0,0.0244238788613307,-2.0,-0.5,-10.0,494.04732654767577,-0.010025829408787648,0.0009686660679983312,0.9999492709286381,1.5875141055203674,-87.11990356445312,6185.10302734375
1594013254.5600386,0.0,5.0,0.5,0.5,0.007428922119140626,-0.004,-0.0002,-0.006,0.003058768078888094,2.0,0.5,10.0,0.024134407777638013,-2.0,-0.5,-10.0,494.1104752717074,-0.009937002856190905,0.0010366309826686955,0.999950089439689,1.5764389057317367,-86.95687866210938,6184.2138671875
1594013254.590917,0.0,5.0,0.5,0.5,0.005886828002929687,-0.004,-0.0002,-0.006,0.0036304193193665538,2.0,0.5,10.0,0.023228430703022458,-2.0,-0.5,-10.0,494.20443627086934,-0.009789617080385362,0.0011375727720427877,0.9999514334834507,1.5599926156637147,-86.708251953125,6182.880859375
1594013254.62885,0.0,5.0,0.5,0.5,0.005658885498046875,-0.004,-0.0002,-0.006,0.0034617200235551792,2.0,0.5,10.0,0.023365303654388915,-2.0,-0.5,-10.0,494.26654685498215,-0.009680950166897434,0.0012041744838959707,0.9999524134515995,1.5491184143418866,-86.5399169921875,6181.9921875
1594013254.6667137,0.0,5.0,0.5,0.5,0.004930188598632812,-0.004,-0.0002,-0.006,0.0036278315771916076,2.0,0.5,10.0,0.023018916734484043,-2.0,-0.5,-10.0,494.328169255401,-0.009564694429226932,0.001270075915783573,0.9999534506804023,1.538329833677139,-86.3697509765625,6181.1025390625
