Timestamp,Input Throttle,horizon,dT,dt,Input Roll,Roll P,Roll I,Roll D,Input Pitch,Pitch P,Pitch I,Pitch D,Input Yaw,Yaw P,Yaw I,Yaw D,Altitude,Direction X,Direction Y,Direction Z,Vertical Velocity,Roll,Mass
1594106463.734907,0.0,5.0,0.5,0.5,0.0021282806396484377,-0.004,-0.0001,-0.026,-0.010487524756092288,2.0,0.2,20.0,-0.003908880847258631,-2.0,-0.2,-10.0,474.9661190075567,0.0018047646358606705,-0.003325494320069645,0.9999928419304491,-13.971150066234975,-90.48143768310547,3893.01171875
1594106463.7658238,0.0,5.0,0.5,0.5,0.0020113603973388673,-0.004,-0.0001,-0.026,-0.007877429928726332,2.0,0.2,20.0,-0.0037809198251401066,-2.0,-0.2,-10.0,474.4262027920922,0.0018160392409191331,-0.003378218474714447,0.9999926447936568,-14.359188205583514,-90.484130859375,3893.01171875
1594106463.7998545,0.0,5.0,0.5,0.5,0.0020304076385498043,-0.004,-0.0001,-0.026,-0.008091407428679382,2.0,0.2,20.0,-0.003852507528739577,-2.0,-0.2,-10.0,473.84209691232536,0.0018283736550329427,-0.00343280466668512,0.999992436422345,-14.747151235776832,-90.4869384765625,3893.01171875
1594106463.8700266,0.0,5.0,0.5,0.5,0.002038725509643555,-0.004,-0.0001,-0.026,-0.008350716228690781,2.0,0.2,20.0,-0.003955174629734567,-2.0,-0.2,-10.0,473.2999474797398,0.001844160635785645,-0.0034910945096892636,0.9999922056349608,-13.646483846713508,-90.48948669433594,3890.81103515625
1594106463.9009435,0.0,5.0,0.5,0.5,0.002065715103149414,-0.004,-0.0001,-0.026,-0.009179748440636775,2.0,0.2,20.0,-0.004089809596838734,-2.0,-0.2,-10.0,472.5847583085997,0.0018654624326119346,-0.0035785948361363126,0.9999918568213,-11.93662702972004,-90.492431640625,3887.42529296875
1594106463.9657583,0.0,5.0,0.5,0.5,0.002036185073852539,-0.004,-0.0001,-0.026,-0.008799728583891619,2.0,0.2,20.0,-0.004092836425996768,-2.0,-0.2,-10.0,472.1573748146184,0.0018803570616759923,-0.003637613689566908,0.9999916159768371,-10.776422458456084,-90.49383544921875,3885.13916015625
1594106464.0031564,0.0,5.0,0.5,0.5,0.002037583389282226,-0.004,-0.0001,-0.026,-0.009626756320475643,2.0,0.2,20.0,-0.004247424688262619,-2.0,-0.2,-10.0,471.5964277709136,0.0019025176793154013,-0.0037255524409943895,0.999991250304466,-9.170379295081617,-90.49493408203125,3881.90966796875
1594106464.066108,0.0,5.0,0.5,0.5,0.0020160282135009765,-0.004,-0.0001,-0.026,-0.009217132404283826,2.0,0.2,20.0,-0.00423722907396301,-2.0,-0.2,-10.0,471.26275953964796,0.001916964363357749,-0.003783490625700659,0.999991005182704,-8.161351702493363,-90.49500274658203,3879.84912109375
1594106464.1000192,0.0,5.0,0.5,0.5,0.0019901249694824217,-0.004,-0.0001,-0.026,-0.009995229622374762,2.0,0.2,20.0,-0.0043805609788366805,-2.0,-0.2,-10.0,470.85848601325415,0.0019377526515269152,-0.003868090221141673,0.9999906414525599,-6.787654938863529,-90.49403381347656,3876.96533203125
1594106464.1662385,0.0,5.0,0.5,0.5,0.0019792877197265628,-0.004,-0.0001,-0.026,-0.009571628939258791,2.0,0.2,20.0,-0.004365148932234931,-2.0,-0.2,-10.0,470.6380213148659,0.001950562300031863,-0.003922227922109013,0.9999904056713949,-5.930836027716309,-90.49266815185547,3875.130859375
1594106464.2838871,0.0,5.0,0.5,0.5,0.0019242778778076172,-0.004,-0.0001,-0.026,-0.010262273702420962,2.0,0.2,20.0,-0.004480691747814105,-2.0,-0.2,-10.0,470.32803549361415,0.0019676146379175308,-0.00399927129593023,0.9999900671115379,-4.767752597434705,-90.48948669433594,3872.56005859375
1594106464.3138406,0.0,5.0,0.5,0.5,0.001921245574951172,-0.004,-0.0001,-0.026,-0.009790829041186177,2.0,0.2,20.0,-0.0044284583357853055,-2.0,-0.2,-10.0,470.1908983606845,0.0019772007184830926,-0.004047268899369883,0.999989855094428,-4.04318954566467,-90.48662567138672,3870.92138671875
1594106464.3801212,0.0,5.0,0.5,0.5,0.001891515884399414,-0.004,-0.0001,-0.026,-0.009844301812199795,2.0,0.2,20.0,-0.00443439183207202,-2.0,-0.2,-10.0,470.06441056425683,0.0019854149745156804,-0.004092725437156863,0.9999896538094157,-3.366777993884537,-90.483154296875,3869.3544921875
1594106464.433978,0.0,5.0,0.5,0.5,0.0020160660552978513,-0.004,-0.0001,-0.026,-0.020601099294581822,2.0,0.2,20.0,-0.004428296824449172,-2.0,-0.2,-10.0,469.92108177393675,0.001991490535041795,-0.004622394974552872,0.9999873336348556,-2.470969882523821,-90.48429870605469,3867.17919921875
1594106464.5025213,0.0,5.0,0.5,0.5,0.0022364273834228517,-0.004,-0.0001,-0.026,-0.03332726994489195,2.0,0.2,20.0,-0.004362182329275645,-2.0,-0.2,-10.0,469.8292672360549,0.0019907984110503364,-0.0056813465831407365,0.9999818793471654,-1.635621665773524,-90.49263763427734,3865.09375
1594106464.5332983,0.0,5.0,0.5,0.5,0.00261493896484375,-0.004,-0.0001,-0.026,-0.053136186626337616,2.0,0.2,20.0,-0.004257686663092774,-2.0,-0.2,-10.0,469.78579281270504,0.001981304775578151,-0.0075425235748799585,0.9999695919224287,-0.8643307912997165,-90.51248168945312,3863.103515625
1594106464.5992982,0.0,5.0,0.5,0.5,0.002696561584472656,-0.004,-0.0001,-0.026,-0.05353216484160916,2.0,0.2,20.0,-0.004219243338186371,-2.0,-0.2,-10.0,469.7812530086376,0.001970021556085959,-0.009248951749986764,0.9999552869536692,-0.3842765173850219,-90.53239440917969,3861.827392578125
1594106464.6681209,0.0,5.0,0.5,0.5,0.003365500030517578,-0.004,-0.0001,-0.026,-0.09095840532101786,2.0,0.2,20.0,-0.004041423695897529,-2.0,-0.2,-10.0,469.8077339633601,0.001945688063190445,-0.012496421567957898,0.9999200236748721,0.24045355431692855,-90.57193756103516,3860.0537109375
1594106464.7000701,0.0,5.0,0.5,0.5,0.0038657048034667968,-0.004,-0.0001,-0.026,-0.11571520116622983,2.0,0.2,20.0,-0.003894284669910881,-2.0,-0.2,-10.0,469.86938670952804,0.0019131006941122413,-0.016566054912766512,0.9998609432667933,0.8061095231370001,-90.62285614013672,3858.36767578125
1594106464.770154,0.0,5.0,0.5,0.5,0.0037440529632568357,-0.004,-0.0001,-0.026,-0.10402691738364861,2.0,0.2,20.0,-0.0039071445375858,-2.0,-0.2,-10.0,469.9286985681392,0.001887057295449006,-0.019722892359119174,0.9998037039998174,1.1644267315448515,-90.66288757324219,3857.271484375
1594106464.8001108,0.0,5.0,0.5,0.5,0.004413540802001953,-0.004,-0.0001,-0.026,-0.1437457999708113,2.0,0.2,20.0,-0.003671150634583093,-2.0,-0.2,-10.0,470.0426462593023,0.001845794146320389,-0.024383784096640798,0.9997009673482855,1.6292441851730475,-90.71984100341797,3855.734375
1594106464.867137,0.0,5.0,0.5,0.5,0.004112881088256836,-0.004,-0.0001,-0.026,-0.12301668521561537,2.0,0.2,20.0,-0.0037213998912816824,-2.0,-0.2,-10.0,470.13326482474804,0.0018157986609240858,-0.027660194539332723,0.9996157344266192,1.916372738480399,-90.75910186767578,3854.7431640625
1594106464.904334,0.0,5.0,0.5,0.5,0.004758107681274414,-0.004,-0.0001,-0.026,-0.16442670096347733,2.0,0.2,20.0,-0.0034610573268203004,-2.0,-0.2,-10.0,470.28895071009174,0.001769376212817983,-0.03249955663428278,0.999470183710546,2.2996614564179954,-90.81454467773438,3853.326171875
1594106464.934255,0.0,5.0,0.5,0.5,0.004354683303833007,-0.004,-0.0001,-0.026,-0.13797094184008338,2.0,0.2,20.0,-0.003538891044953223,-2.0,-0.2,-10.0,470.4052081806585,0.0017375370471768038,-0.035670617822994806,0.999362090530322,2.5360002874848977,-90.84903717041016,3852.40966796875
1594106465.0008566,0.0,5.0,0.5,0.5,0.004429696044921875,-0.004,-0.0001,-0.026,-0.14366956207741444,2.0,0.2,20.0,-0.003465037292813795,-2.0,-0.2,-10.0,470.53034483781084,0.0017052731856106438,-0.03878420325729493,0.9992461546691381,2.7543383628506426,-90.88130950927734,3851.51953125
1594106465.0666769,0.0,5.0,0.5,0.5,0.004922245483398437,-0.004,-0.0001,-0.026,-0.18262304433843823,2.0,0.2,20.0,-0.0031906563233857353,-2.0,-0.2,-10.0,470.7329209098825,0.0016559974288955716,-0.04335525479427417,0.9990583464213884,3.037427688983664,-90.92556762695312,3850.249755859375
1594106465.100816,0.0,5.0,0.5,0.5,0.004953948974609375,-0.004,-0.0001,-0.026,-0.18975957357966858,2.0,0.2,20.0,-0.0030775119122773286,-2.0,-0.2,-10.0,470.95202893356327,0.0016060477762851152,-0.04780258685592995,0.9988555117235033,3.2978664668187934,-90.96484375,3849.01318359375
1594106465.1718564,0.0,5.0,0.5,0.5,0.004634954986572266,-0.004,-0.0001,-0.026,-0.1651224208913466,2.0,0.2,20.0,-0.003165345519697335,-2.0,-0.2,-10.0,471.10653447092045,0.0015723491560277367,-0.050690696666960626,0.9987131625194243,3.4618813872760916,-90.98810577392578,3848.203125
1594106465.203767,0.0,5.0,0.5,0.5,0.0004026359558105472,-0.004,-0.0001,-0.026,-0.2006956924790301,2.0,0.2,20.0,-0.0029010160419246,-2.0,-0.2,-10.0,471.3492544197943,0.001522861747510798,-0.054898495862702304,0.9984907791482659,3.670559319385983,-90.86705017089844,3847.04248046875
1594106465.2336845,0.0,5.0,0.5,0.5,-0.008673657455444335,-0.004,-0.0001,-0.026,-0.1772735690358811,2.0,0.2,20.0,-0.0030080993717448196,-2.0,-0.2,-10.0,471.51792226638645,0.0014911962494760364,-0.05762427821055166,0.9983372270402715,3.797782594871074,-90.45951080322266,3846.2861328125
1594106465.3036454,0.0,5.0,0.5,0.5,-0.019162660217285157,-0.004,-0.0001,-0.026,-0.18185181469331396,2.0,0.2,20.0,-0.002955337238632291,-2.0,-0.2,-10.0,471.6853025315795,0.0014610712584309793,-0.06027590843316036,0.9981806851133391,3.9135137851426736,-89.75674438476562,3845.546630859375
1594106465.3345616,0.0,5.0,0.5,0.5,-0.04467813529968262,-0.004,-0.0001,-0.026,-0.21425093065981718,2.0,0.2,20.0,-0.0027265486421287548,-2.0,-0.2,-10.0,471.92787987494376,0.0014175425876646194,-0.06412653924824885,0.9979407685514482,4.059819927393819,-88.2974853515625,3844.4775390625
1594106465.4016366,0.0,5.0,0.5,0.5,-0.03729760009765625,-0.004,-0.0001,-0.026,-0.19253637850531297,2.0,0.2,20.0,-0.00281546300622324,-2.0,-0.2,-10.0,472.0941362945596,0.0013893419858226257,-0.06660693639611645,0.9977783249563854,4.151101675638744,-87.27963256835938,3843.773681640625
1594106465.437544,0.0,5.0,0.5,0.5,-0.05650781494140625,-0.004,-0.0001,-0.026,-0.22231127576122175,2.0,0.2,20.0,-0.0025501300896692905,-2.0,-0.2,-10.0,472.35001384059433,0.0013443637982864607,-0.07018424060602664,0.9975331398287143,4.2691575746348995,-85.75833129882812,3842.745849609375
1594106465.5013692,0.0,5.0,0.5,0.5,-0.047038763504028316,-0.004,-0.0001,-0.026,-0.20195668217728857,2.0,0.2,20.0,-0.00259326414904987,-2.0,-0.2,-10.0,472.52408736909274,0.0013111317690361888,-0.0724797505223271,0.997369022327095,4.340068666409066,-84.7572021484375,3842.072265625
1594106465.5722585,0.0,5.0,0.5,0.5,-0.06546914520263672,-0.004,-0.0001,-0.026,-0.22913379042050178,2.0,0.2,20.0,-0.0021926538456112188,-2.0,-0.2,-10.0,472.7901638962794,0.0012507111217353653,-0.07577126850523262,0.9971244408752589,4.430731888302,-83.27725219726562,3841.08447265625
1594106465.60417,0.0,5.0,0.5,0.5,-0.07049588470458984,-0.004,-0.0001,-0.026,-0.2326071783802381,2.0,0.2,20.0,-0.0018706535497782025,-2.0,-0.2,-10.0,473.06116187374573,0.0011742027015105281,-0.07889196974812479,0.9968824797122661,4.508758543146886,-81.82962036132812,3840.115234375
1594106465.63708,0.0,5.0,0.5,0.5,-0.061390581665039065,-0.004,-0.0001,-0.026,-0.21431633714376916,2.0,0.2,20.0,-0.0018605584353456029,-2.0,-0.2,-10.0,473.2443792637205,0.0011103241669117381,-0.08086930592828527,0.9967240954942956,4.55692317965924,-80.88156127929688,3839.474609375
1594106465.7043436,0.0,5.0,0.5,0.5,-0.06476569496154785,-0.004,-0.0001,-0.026,-0.21705692614084202,2.0,0.2,20.0,-0.0015813057321504747,-2.0,-0.2,-10.0,473.42910175432917,0.0010345910377950124,-0.0827640214016969,0.9965686360621651,4.59667915731066,-79.95077514648438,3838.8466796875
1594106465.7382524,0.0,5.0,0.5,0.5,-0.08151426200866699,-0.004,-0.0001,-0.026,-0.2390206134034808,2.0,0.2,20.0,-0.0006724124071297722,-2.0,-0.2,-10.0,473.70878296904266,0.0008965527709622088,-0.0854595071389738,0.996341241158215,4.642537954323338,-78.58944702148438,3837.9248046875
1594106465.801618,0.0,5.0,0.5,0.5,-0.07281435913085937,-0.004,-0.0001,-0.026,-0.22297092721507755,2.0,0.2,20.0,-0.0007035731088484405,-2.0,-0.2,-10.0,473.8967010078486,0.0007851086795422845,-0.08715511277436316,0.9961944438319507,4.669896247557732,-77.70358276367188,3837.31494140625
1594106465.8385203,0.0,5.0,0.5,0.5,-0.08869239807128906,-0.004,-0.0001,-0.026,-0.2420710454295563,2.0,0.2,20.0,0.0005986998432692544,-2.0,-0.2,-10.0,474.1802817470161,0.0005848424616473542,-0.08954032399415598,0.9959830261296206,4.701233256154747,-76.41058349609375,3836.4140625
1594106465.9013767,0.0,5.0,0.5,0.5,-0.080229296875,-0.004,-0.0001,-0.026,-0.22766661272687094,2.0,0.2,20.0,0.0005037462118561318,-2.0,-0.2,-10.0,474.3702131934697,0.0004272545828960345,-0.09103084744862203,0.9958479815043595,4.718327995337479,-75.5760498046875,3835.8193359375
1594106465.9352808,0.0,5.0,0.5,0.5,-0.09497291961669922,-0.004,-0.0001,-0.026,-0.24398169040840398,2.0,0.2,20.0,0.0022678376549869414,-2.0,-0.2,-10.0,474.6562773260521,0.00015052720934724504,-0.09310525965543129,0.9956562599441907,4.736116594036059,-74.365234375,3834.9384765625
1594106466.0017211,0.0,5.0,0.5,0.5,-0.0869149755859375,-0.004,-0.0001,-0.026,-0.23111967167187164,2.0,0.2,20.0,0.002084315697321713,-2.0,-0.2,-10.0,474.8473916593939,-6.279571115641185e-05,-0.09438561442900696,0.9955357109845722,4.74474733626465,-73.5882568359375,3834.3564453125
1594106466.0356317,0.0,5.0,0.5,0.5,-0.10043975097656249,-0.004,-0.0001,-0.026,-0.24466058050320583,2.0,0.2,20.0,0.004380483880107356,-2.0,-0.2,-10.0,475.1346478877822,-0.0004296222810079418,-0.09614515474831214,0.9953672310474757,4.751092096830841,-72.4677734375,3833.49267578125
1594106466.105624,0.0,5.0,0.5,0.5,-0.0928468569946289,-0.004,-0.0001,-0.026,-0.23342604290102945,2.0,0.2,20.0,0.004070231378306968,-2.0,-0.2,-10.0,475.3262372753816,-0.0007066561583962789,-0.09721555434190604,0.9952630992009448,4.752599627666946,-71.75338745117188,3832.920654296875
1594106466.1435263,0.0,5.0,0.5,0.5,-0.10506572235107421,-0.004,-0.0001,-0.026,-0.24418127710513887,2.0,0.2,20.0,0.006947187378996815,-2.0,-0.2,-10.0,475.61351805354934,-0.0011741292915108691,-0.09866086135936566,0.9951204227912493,4.749291275515313,-70.73031616210938,3832.0712890625
1594106466.175438,0.0,5.0,0.5,0.5,-0.0979875473022461,-0.004,-0.0001,-0.026,-0.23456917437326444,2.0,0.2,20.0,0.006485301135378726,-2.0,-0.2,-10.0,475.80490763124544,-0.0015213922930408159,-0.09952168892794278,0.995034229963181,4.7447923083531425,-70.08297729492188,3831.50830078125
1594106466.2383041,0.0,5.0,0.5,0.5,-0.09986076141357421,-0.004,-0.0001,-0.026,-0.23476778517779254,2.0,0.2,20.0,0.0075885211343384214,-2.0,-0.2,-10.0,475.9960610267008,-0.001898453155344353,-0.10029805296546757,0.9949556253657513,4.738164270551222,-69.46279907226562,3830.94873046875
1594106466.3025782,0.0,5.0,0.5,0.5,-0.11011676177978516,-0.004,-0.0001,-0.026,-0.2417925992337293,2.0,0.2,20.0,0.011341673765603424,-2.0,-0.2,-10.0,476.2821103549795,-0.0025207749166588733,-0.10130965859682678,0.9948517471306033,4.723183675528679,-68.58648681640625,3830.116455078125
1594106466.3434343,0.0,5.0,0.5,0.5,-0.11181712463378907,-0.004,-0.0001,-0.026,-0.2400570934096846,2.0,0.2,20.0,0.013494535477001964,-2.0,-0.2,-10.0,476.5671422147425,-0.00321327172104385,-0.10213754568258543,0.9947650962145708,4.7055802253938195,-67.77337646484375,3829.28857421875
1594106466.404272,0.0,5.0,0.5,0.5,-0.10595122619628908,-0.004,-0.0001,-0.026,-0.2336488575200325,2.0,0.2,20.0,0.012661019802176075,-2.0,-0.2,-10.0,476.7566913496703,-0.003714562561491354,-0.10258743483675599,0.9947170553672995,4.692690689658753,-67.26708984375,3828.73828125
1594106466.442209,0.0,5.0,0.5,0.5,-0.11390693542480469,-0.004,-0.0001,-0.026,-0.23635765087349397,2.0,0.2,20.0,0.01747920283388941,-2.0,-0.2,-10.0,477.03968786040787,-0.00452691715259974,-0.10310904595898826,0.9946597567321807,4.6690895839129976,-66.56588745117188,3827.919189453125
1594106466.5070345,0.0,5.0,0.5,0.5,-0.10859302215576172,-0.004,-0.0001,-0.026,-0.23156060018509927,2.0,0.2,20.0,0.01643990720205983,-2.0,-0.2,-10.0,477.2276585280197,-0.005109475601934352,-0.10335609577854188,0.9946312938594332,4.652045589049057,-66.13790893554688,3827.375244140625
1594106466.5468907,0.0,5.0,0.5,0.5,-0.11505046020507811,-0.004,-0.0001,-0.026,-0.2315920233021735,2.0,0.2,20.0,0.021928086315939545,-2.0,-0.2,-10.0,477.50810670037754,-0.006043878102718541,-0.10357395986404896,0.9946033914961078,4.623792210242443,-65.55422973632812,3826.5634765625
1594106466.5847902,0.0,5.0,0.5,0.5,-0.11041299163818359,-0.004,-0.0001,-0.026,-0.22839612563988967,2.0,0.2,20.0,0.02066021658350874,-2.0,-0.2,-10.0,477.6941329045221,-0.006707533949299948,-0.10361999658884638,0.9945943420788428,4.603911605602727,-65.20526123046875,3826.02392578125
1594106466.6196978,0.0,5.0,0.5,0.5,-0.11092860717773437,-0.004,-0.0001,-0.026,-0.22684807361113762,2.0,0.2,20.0,0.022489759875463006,-2.0,-0.2,-10.0,477.87946672923863,-0.0074030409661291355,-0.10358565993531263,0.9945929851151273,4.5830606237801685,-64.8878173828125,3825.48583984375
1594106466.688557,0.0,5.0,0.5,0.5,-0.11128360198974609,-0.004,-0.0001,-0.026,-0.22514920712970043,2.0,0.2,20.0,0.024388690980733096,-2.0,-0.2,-10.0,478.0638944884995,-0.008130492886134936,-0.1034727465024203,0.9945990578201219,4.560903990337497,-64.60281372070312,3824.949462890625
1594106466.730442,0.0,5.0,0.5,0.5,-0.11496499053955077,-0.004,-0.0001,-0.026,-0.22052784824947755,2.0,0.2,20.0,0.0310415387207068,-2.0,-0.2,-10.0,478.33868548541795,-0.009280091630149088,-0.10315644428925853,0.9946218517109571,4.52615214980002,-64.23492431640625,3824.14794921875
1594106466.770336,0.0,5.0,0.5,0.5,-0.11161913696289062,-0.004,-0.0001,-0.026,-0.22012981636716394,2.0,0.2,20.0,0.029358834184646326,-2.0,-0.2,-10.0,478.5208395535592,-0.010085562474697834,-0.10284820592689377,0.9946459309559298,4.5025599681763335,-64.02935791015625,3823.6142578125
1594106466.8192055,0.0,5.0,0.5,0.5,-0.11152750122070314,-0.004,-0.0001,-0.026,-0.21784586942832224,2.0,0.2,20.0,0.03146367293828879,-2.0,-0.2,-10.0,478.702120324946,-0.010919583428695263,-0.10246277478449657,0.9946769035627627,4.478705190946036,-63.85577392578125,3823.080810546875
1594106466.888331,0.0,5.0,0.5,0.5,-0.11303554931640626,-0.004,-0.0001,-0.026,-0.20967501550893256,2.0,0.2,20.0,0.038950876140229206,-2.0,-0.2,-10.0,478.971992415376,-0.012225690637675403,-0.10174068472316149,0.9947358270216742,4.441467214528283,-63.6563720703125,3822.283203125
1594106466.9581463,0.0,5.0,0.5,0.5,-0.11170404174804688,-0.004,-0.0001,-0.026,-0.20442740200337384,2.0,0.2,20.0,0.04248881598966061,-2.0,-0.2,-10.0,479.23960016458295,-0.013594756419151163,-0.1008464810990711,0.994809112266187,4.403602266834496,-63.529144287109375,3821.48681640625
1594106466.9990346,0.0,5.0,0.5,0.5,-0.11007535156249999,-0.004,-0.0001,-0.026,-0.19887271818152372,2.0,0.2,20.0,0.04609587157331325,-2.0,-0.2,-10.0,479.5050957882777,-0.015021119470241097,-0.09978313996241385,0.9948958191434427,4.365054509579679,-63.47418212890625,3820.69189453125
1594106467.0404396,0.0,5.0,0.5,0.5,-0.10855944732666016,-0.004,-0.0001,-0.026,-0.2024165985413069,2.0,0.2,20.0,0.04380091979406302,-2.0,-0.2,-10.0,479.680670570815,-0.016001989958098012,-0.09898079981436661,0.9949606713762555,4.338996892755004,-63.47796630859375,3820.16259765625
1594106467.0828736,0.0,5.0,0.5,0.5,-0.1076019384765625,-0.004,-0.0001,-0.026,-0.19909732283759987,2.0,0.2,20.0,0.04620862459748947,-2.0,-0.2,-10.0,479.85540647874586,-0.017003427245172013,-0.09810469911147306,0.995030829408901,4.312389507187596,-63.51385498046875,3819.634033203125
1594106467.12476,0.0,5.0,0.5,0.5,-0.10652589599609376,-0.004,-0.0001,-0.026,-0.1956224713794719,2.0,0.2,20.0,0.04867077877963768,-2.0,-0.2,-10.0,480.0290611393284,-0.01802597801075291,-0.09715531004027071,0.9951059792040919,4.285345867850022,-63.581390380859375,3819.1064453125
1594106467.1686075,0.0,5.0,0.5,0.5,-0.10533131866455078,-0.004,-0.0001,-0.026,-0.19198704909037978,2.0,0.2,20.0,0.05116308102861184,-2.0,-0.2,-10.0,480.2014219489647,-0.0190680906077438,-0.09613282837139625,0.9951858556218988,4.258119060387691,-63.68017578125,3818.5791015625
1594106467.2101908,0.0,5.0,0.5,0.5,-0.10401705871582032,-0.004,-0.0001,-0.026,-0.18820534391489271,2.0,0.2,20.0,0.05367012085811132,-2.0,-0.2,-10.0,480.37288552732207,-0.02012720842815848,-0.0950380765445619,0.9952701439747901,4.230499937648098,-63.809906005859375,3818.052734375
1594106467.2520802,0.0,5.0,0.5,0.5,-0.10258319854736328,-0.004,-0.0001,-0.026,-0.18427309558453858,2.0,0.2,20.0,0.05620778138223622,-2.0,-0.2,-10.0,480.54314815311227,-0.021203199794184443,-0.09387148938491884,0.9953585121950507,4.202711707923585,-63.97027587890625,3817.526611328125
1594106467.293968,0.0,5.0,0.5,0.5,-0.10103410675048828,-0.004,-0.0001,-0.026,-0.18018055084276202,2.0,0.2,20.0,0.058758339492970345,-2.0,-0.2,-10.0,480.7123937130673,-0.02229387637956811,-0.0926330914938371,0.995450698646732,4.174780529523777,-64.16091918945312,3817.000732421875
1594106467.334893,0.0,5.0,0.5,0.5,-0.09936943420410156,-0.004,-0.0001,-0.026,-0.17596092029045177,2.0,0.2,20.0,0.06132019216949274,-2.0,-0.2,-10.0,480.88053119007964,-0.02339730410217991,-0.09132440991619474,0.9955462913969442,4.146740854472053,-64.38153076171875,3816.47509765625
1594106467.377744,0.0,5.0,0.5,0.5,-0.09759533691406251,-0.004,-0.0001,-0.026,-0.17158334053498875,2.0,0.2,20.0,0.0638818907593087,-2.0,-0.2,-10.0,481.047531513148,-0.0245116827310669,-0.08994518783382334,0.995645037448201,4.11861656327423,-64.63162231445312,3815.9501953125
1594106467.4246485,0.0,5.0,0.5,0.5,-0.09570961730957031,-0.004,-0.0001,-0.026,-0.16709565538867407,2.0,0.2,20.0,0.06643953925654117,-2.0,-0.2,-10.0,481.21342596702743,-0.025635274086055572,-0.08849727415525799,0.9957464864058632,4.090428014868615,-64.91085815429688,3815.425048828125
1594106467.4685364,0.0,5.0,0.5,0.5,-0.09371954254150391,-0.004,-0.0001,-0.026,-0.1624729904784838,2.0,0.2,20.0,0.06897638697025897,-2.0,-0.2,-10.0,481.37815365870483,-0.026765313933662924,-0.08698112773865098,0.9958503408581758,4.062194154348798,-65.21871948242188,3814.900390625
1594106467.520396,0.0,5.0,0.5,0.5,-0.09162748901367188,-0.004,-0.0001,-0.026,-0.15772475814873846,2.0,0.2,20.0,0.07150702421301534,-2.0,-0.2,-10.0,481.5418387661921,-0.027899961370272806,-0.08539789286499774,0.9959562199463164,4.033932969501187,-65.5546875,3814.37548828125
1594106467.5871823,0.0,5.0,0.5,0.5,-0.08367782043457031,-0.004,-0.0001,-0.026,-0.13414838912419233,2.0,0.2,20.0,0.08085987220115474,-2.0,-0.2,-10.0,481.78522198309656,-0.029606744009584157,-0.08289848693896677,0.9961181062365951,3.9915134296195096,-66.11016845703125,3813.589111328125
1594106467.6340568,0.0,5.0,0.5,0.5,-0.07961328704833984,-0.004,-0.0001,-0.026,-0.12563395002822617,2.0,0.2,20.0,0.08449888339518002,-2.0,-0.2,-10.0,482.0260351301404,-0.03131301253184767,-0.08025224052285043,0.9962826271381243,3.949183680552389,-66.72622680664062,3812.802734375
1594106467.6759803,0.0,5.0,0.5,0.5,-0.08229498474121093,-0.004,-0.0001,-0.026,-0.13774717215410234,2.0,0.2,20.0,0.08124985801725539,-2.0,-0.2,-10.0,482.18525207263883,-0.03244374264903337,-0.07841159986651045,0.996393007085707,3.9210350477750886,-67.16973876953125,3812.278564453125
1594106467.7188303,0.0,5.0,0.5,0.5,-0.07975583221435546,-0.004,-0.0001,-0.026,-0.13244614341048344,2.0,0.2,20.0,0.08364579711429529,-2.0,-0.2,-10.0,482.3433097306406,-0.033565151781073325,-0.07651244930574419,0.9965035000877566,3.892886114738457,-67.63763427734375,3811.75439453125
1594106467.7686975,0.0,5.0,0.5,0.5,-0.07714811370849609,-0.004,-0.0001,-0.026,-0.12698478918712733,2.0,0.2,20.0,0.08603189692907867,-2.0,-0.2,-10.0,482.50029945990536,-0.034677897789027086,-0.0745534863676943,0.9966138776253097,3.864760578089527,-68.12884521484375,3811.23046875
1594106467.8385477,0.0,5.0,0.5,0.5,-0.06645615173339844,-0.004,-0.0001,-0.026,-0.09879421247081929,2.0,0.2,20.0,0.09490019202025055,-2.0,-0.2,-10.0,482.73369663150515,-0.03632357068423711,-0.07150765712338597,0.9967784373598135,3.822688192888726,-68.90963745117188,3810.445068359375
1594106467.8784404,0.0,5.0,0.5,0.5,-0.07023380767822267,-0.004,-0.0001,-0.026,-0.1130890964896793,2.0,0.2,20.0,0.09164680518184408,-2.0,-0.2,-10.0,482.8878530985676,-0.03740230541607483,-0.06940650413195641,0.9968870571603102,3.794747635701024,-69.45889282226562,3809.92138671875
1594106467.9203255,0.0,5.0,0.5,0.5,-0.06732841827392577,-0.004,-0.0001,-0.026,-0.1073757917956856,2.0,0.2,20.0,0.0938229799315281,-2.0,-0.2,-10.0,483.04097557789646,-0.03846111455060492,-0.06725534091156789,0.9969942135170063,3.7668934679884805,-70.0301513671875,3809.3974609375
1594106467.95723,0.0,5.0,0.5,0.5,-0.06439526733398437,-0.004,-0.0001,-0.026,-0.10148500769351779,2.0,0.2,20.0,0.09596655859418075,-2.0,-0.2,-10.0,483.19285126100294,-0.039500710650493466,-0.06505128591861041,0.9970998064679591,3.739142427641128,-70.62130737304688,3808.87353515625
1594106467.993134,0.0,5.0,0.5,0.5,-0.061376031494140636,-0.004,-0.0001,-0.026,-0.09550471325845988,2.0,0.2,20.0,0.09804308804989437,-2.0,-0.2,-10.0,483.34369487757795,-0.04051885919384867,-0.06279570421598284,0.9972035507265544,3.711460526620761,-71.23248291015625,3808.349853515625
1594106468.0309944,0.0,5.0,0.5,0.5,-0.058291360473632814,-0.004,-0.0001,-0.026,-0.08951993954836751,2.0,0.2,20.0,0.10002801360408511,-2.0,-0.2,-10.0,483.49347570631653,-0.041511695279787944,-0.06049368767099813,0.9973050149813555,3.6838791214777964,-71.86309814453125,3807.826171875
1594106468.0694075,0.0,5.0,0.5,0.5,-0.055150151977539065,-0.004,-0.0001,-0.026,-0.08343166144813191,2.0,0.2,20.0,0.10193993772309654,-2.0,-0.2,-10.0,483.64234779565595,-0.04247854410920462,-0.05814457344306311,0.9974040213822514,3.656404192621216,-72.51242065429688,3807.30224609375
1594106468.1093328,0.0,5.0,0.5,0.5,-0.051963078613281255,-0.004,-0.0001,-0.026,-0.07731305210489736,2.0,0.2,20.0,0.10375583286789725,-2.0,-0.2,-10.0,483.7897929721512,-0.04341696684315631,-0.05575099432668406,0.9975002724920561,3.629041069950956,-73.17947387695312,3806.778564453125
1594106468.151222,0.0,5.0,0.5,0.5,-0.04872756622314453,-0.004,-0.0001,-0.026,-0.07113633088406457,2.0,0.2,20.0,0.1054897583930063,-2.0,-0.2,-10.0,483.9363919472089,-0.044325190874884936,-0.053314853806792364,0.9975935063027753,3.6017937313019637,-73.86343383789062,3806.2548828125
1594106468.1881256,0.0,5.0,0.5,0.5,-0.045449732055664056,-0.004,-0.0001,-0.026,-0.06491463400626585,2.0,0.2,20.0,0.10713615471751983,-2.0,-0.2,-10.0,484.08177886379417,-0.045201310529878566,-0.05083846492653538,0.9976834628329242,3.574663670935462,-74.56338500976562,3805.73095703125
1594106468.2515264,0.0,5.0,0.5,0.5,-0.042133311462402345,-0.004,-0.0001,-0.026,-0.05866748328756688,2.0,0.2,20.0,0.10868205463732514,-2.0,-0.2,-10.0,484.2260460377438,-0.046042696214455614,-0.0483248000222165,0.9977699052527673,3.54765787969177,-75.27841186523438,3805.20703125
1594106468.2894292,0.0,5.0,0.5,0.5,-0.02769492889404297,-0.004,-0.0001,-0.026,-0.024071903677300208,2.0,0.2,20.0,0.11479094392936755,-2.0,-0.2,-10.0,484.44060463586356,-0.04723672651672299,-0.04448819908791555,0.9978925251798905,3.5073898490343773,-76.37725830078125,3804.4208984375
1594106468.3243341,0.0,5.0,0.5,0.5,-0.033726880493164066,-0.004,-0.0001,-0.026,-0.043146127543653864,2.0,0.2,20.0,0.11202767016140569,-2.0,-0.2,-10.0,484.58227335312404,-0.047985088252781236,-0.041890043237061705,0.9979692658508927,3.4806768250518774,-77.126220703125,3803.89697265625
1594106468.386131,0.0,5.0,0.5,0.5,-0.03030393005371094,-0.004,-0.0001,-0.026,-0.036942848960041755,2.0,0.2,20.0,0.11320057593755703,-2.0,-0.2,-10.0,484.72297673963476,-0.04869059189133876,-0.039269175525825394,0.998041661512581,3.4540934590138397,-77.88705444335938,3803.37255859375
1594106468.4480002,0.0,5.0,0.5,0.5,-0.015260447387695317,-0.004,-0.0001,-0.026,-0.0012762370787104127,2.0,0.2,20.0,0.11808798060234588,-2.0,-0.2,-10.0,484.93194944411516,-0.04967047884346769,-0.03528879716681622,0.9981420461667667,3.414515650892886,-79.04547119140625,3802.58642578125
1594106468.4858625,0.0,5.0,0.5,0.5,-0.00991235900878907,-0.004,-0.0001,-0.026,0.00825355584900822,2.0,0.2,20.0,0.11902678865184928,-2.0,-0.2,-10.0,485.1385385119356,-0.05055003260828438,-0.031262105259229,0.9982321247976657,3.375194679252619,-80.22509765625,3801.7998046875
1594106468.5493896,0.0,5.0,0.5,0.5,-0.016590030517578125,-0.004,-0.0001,-0.026,-0.012251081275873196,2.0,0.2,20.0,0.11674544047104006,-2.0,-0.2,-10.0,485.27501870365813,-0.0510778178350167,-0.02856007937838229,0.9982862206757707,3.349105809781304,-81.02206420898438,3801.275390625
1594106468.5863206,0.0,5.0,0.5,0.5,-0.0010956933593750037,-0.004,-0.0001,-0.026,0.02378285416584304,2.0,0.2,20.0,0.12004533344526554,-2.0,-0.2,-10.0,485.4777506762184,-0.05177829781560273,-0.0244926810521388,0.9983582104886987,3.31029714524264,-82.22640991210938,3800.48828125
1594106468.6531117,0.0,5.0,0.5,0.5,-0.008104345092773437,-0.004,-0.0001,-0.026,0.002960260673255506,2.0,0.2,20.0,0.11808105667480352,-2.0,-0.2,-10.0,485.6116389220115,-0.05218440585026518,-0.02176994438092101,0.9984001488920695,3.2845727417317567,-83.03353881835938,3799.96337890625
1594106468.6880577,0.0,5.0,0.5,0.5,0.007514150390624995,-0.004,-0.0001,-0.026,0.03885415221277842,2.0,0.2,20.0,0.12033198671661453,-2.0,-0.2,-10.0,485.8106053264346,-0.052697308024342505,-0.01769186589113186,0.9984538004375955,3.246273474796271,-84.2506103515625,3799.176025390625
1594106468.7581465,0.0,5.0,0.5,0.5,0.01256353729248047,-0.004,-0.0001,-0.026,0.04773872500953483,2.0,0.2,20.0,0.12015457909080202,-2.0,-0.2,-10.0,486.007220024243,-0.053097449204765126,-0.013610810863321346,0.9984965732117413,3.2082593927173035,-85.47048950195312,3798.388427734375
1594106468.7950487,0.0,5.0,0.5,0.5,0.005362967834472657,-0.004,-0.0001,-0.026,0.026237550769482972,2.0,0.2,20.0,0.11870403347441168,-2.0,-0.2,-10.0,486.1370720004197,-0.053298263465434266,-0.010909645111822231,0.9985190407574124,3.183104061168933,-86.2843017578125,3797.86328125
1594106468.8279583,0.0,5.0,0.5,0.5,0.008655031433105469,-0.004,-0.0001,-0.026,0.0321383190013016,2.0,0.2,20.0,0.11861652866938704,-2.0,-0.2,-10.0,486.26586823607795,-0.05344821405399198,-0.00821634910353682,0.9985368195624271,3.158062885178002,-87.09603881835938,3797.337890625
1594106468.8618684,0.0,5.0,0.5,0.5,0.011913787231445313,-0.004,-0.0001,-0.026,0.037960178051172994,2.0,0.2,20.0,0.11841700788751464,-2.0,-0.2,-10.0,486.3936700230697,-0.053547440936298686,-0.005533880679313677,0.9985499725771367,3.1332100087702175,-87.90484619140625,3796.812255859375
1594106468.9257522,0.0,5.0,0.5,0.5,0.01519060089111328,-0.004,-0.0001,-0.026,0.043687274791842895,2.0,0.2,20.0,0.1180969268745537,-2.0,-0.2,-10.0,486.52044613088947,-0.0535953618387326,-0.002865618891668108,0.9985586239263787,3.1084976901577566,-88.71170043945312,3796.28662109375
1594106468.986534,0.0,5.0,0.5,0.5,0.0304723828125,-0.004,-0.0001,-0.026,0.07833305396133948,2.0,0.2,20.0,0.11742101988929879,-2.0,-0.2,-10.0,486.70880135544576,-0.05357242887033084,0.001105406170009392,0.998563354495914,3.0717108399165935,-89.91714477539062,3795.49755859375
1594106469.0433815,0.0,5.0,0.5,0.5,0.03515533233642578,-0.004,-0.0001,-0.026,0.08606041984245336,2.0,0.2,20.0,0.11608130048172648,-2.0,-0.2,-10.0,486.89498499187175,-0.053436637452261605,0.005037247846649351,0.9985585370482428,3.035165298640486,-91.11473083496094,3794.70849609375
1594106469.1082077,0.0,5.0,0.5,0.5,0.03969893173217773,-0.004,-0.0001,-0.026,0.09326614322558102,2.0,0.2,20.0,0.11453705163708822,-2.0,-0.2,-10.0,487.0790874748491,-0.053190859167455314,0.008908639227168724,0.9985446252662663,2.998886582690581,-92.30072784423828,3793.919189453125
1594106469.1421173,0.0,5.0,0.5,0.5,0.043966422958374024,-0.004,-0.0001,-0.026,0.10013447084985179,2.0,0.2,20.0,0.11278102685776528,-2.0,-0.2,-10.0,487.2609239622252,-0.05283735426292007,0.012709917810308365,0.9985222441106407,2.962930097742016,-93.46748352050781,3793.12939453125
1594106469.208938,0.0,5.0,0.5,0.5,0.036696082839965824,-0.004,-0.0001,-0.026,0.0795103883705732,2.0,0.2,20.0,0.112804036019502,-2.0,-0.2,-10.0,487.38096953730565,-0.05254359602526434,0.015196821989385167,0.9985029930441655,2.939113195342875,-94.23284912109375,3792.602783203125
1594106469.2434468,0.0,5.0,0.5,0.5,0.0506942359161377,-0.004,-0.0001,-0.026,0.1107383968794833,2.0,0.2,20.0,0.10944555982845892,-2.0,-0.2,-10.0,487.55923826107755,-0.05201918066462943,0.018847200095423157,0.9984682207719702,2.9038019890833686,-95.35944366455078,3791.812255859375
1594106469.30628,0.0,5.0,0.5,0.5,0.043576633758544925,-0.004,-0.0001,-0.026,0.09082378768444196,2.0,0.2,20.0,0.10981312249578697,-2.0,-0.2,-10.0,487.6769235867541,-0.05161459520061124,0.021231008854811502,0.9984413742555364,2.8804203801382955,-96.09527587890625,3791.28515625
1594106469.372389,0.0,5.0,0.5,0.5,0.056989623870849604,-0.004,-0.0001,-0.026,0.12046673469767642,2.0,0.2,20.0,0.10561666511439616,-2.0,-0.2,-10.0,487.85174103057943,-0.05093054197925489,0.02471629563306917,0.9983963063953503,2.8456812180828712,-97.17682647705078,3790.494140625
1594106469.4062994,0.0,5.0,0.5,0.5,0.06049126487731934,-0.004,-0.0001,-0.026,0.12595159932822914,2.0,0.2,20.0,0.10309899193837385,-2.0,-0.2,-10.0,488.0244360684883,-0.050154887650247296,0.028104111419477076,0.998345955150875,2.811250571363784,-98.22753143310547,3789.70263671875
1594106469.4742706,0.0,5.0,0.5,0.5,0.05380022598266601,-0.004,-0.0001,-0.026,0.10713756975856553,2.0,0.2,20.0,0.1040149947643979,-2.0,-0.2,-10.0,488.1384232637938,-0.04959049686705306,0.030298180797500653,0.9983099733353566,2.788414443234228,-98.91166687011719,3789.1748046875
1594106469.509177,0.0,5.0,0.5,0.5,0.06600186553955079,-0.004,-0.0001,-0.026,0.13412751006505008,2.0,0.2,20.0,0.09862693543088179,-2.0,-0.2,-10.0,488.3077493411256,-0.04867784104488432,0.03348945588264487,0.9982529359515518,2.754582744042058,-99.90790557861328,3788.382568359375
1594106469.5430899,0.0,5.0,0.5,0.5,0.05948904121398925,-0.004,-0.0001,-0.026,0.11634729894895832,2.0,0.2,20.0,0.09982963547382448,-2.0,-0.2,-10.0,488.4194265034748,-0.04802567717636467,0.03555298359139668,0.9982131634523267,2.732186615555825,-100.55088806152344,3787.85400390625
1594106469.608937,0.0,5.0,0.5,0.5,0.061668272171020506,-0.004,-0.0001,-0.026,0.11979870919013118,2.0,0.2,20.0,0.09804430573330283,-2.0,-0.2,-10.0,488.53028328402434,-0.04734244807468132,0.03755805857782005,0.998172372311597,2.7099494156953634,-101.1776351928711,3787.32568359375
1594106469.642847,0.0,5.0,0.5,0.5,0.07265941551208496,-0.004,-0.0001,-0.026,0.14414709027762812,2.0,0.2,20.0,0.09176616239813987,-2.0,-0.2,-10.0,488.6948634160217,-0.0462596592305029,0.040461553688226924,0.9981096666203632,2.676994614764602,-102.084228515625,3786.5322265625
1594106469.7047498,0.0,5.0,0.5,0.5,0.0666584400177002,-0.004,-0.0001,-0.026,0.12767593545578085,2.0,0.2,20.0,0.09336057368271808,-2.0,-0.2,-10.0,488.8033742328407,-0.04550116562578977,0.04232717708226019,0.9980671590664335,2.6551451235622214,-102.66703796386719,3786.00341796875
1594106469.7720356,0.0,5.0,0.5,0.5,0.07678207328796387,-0.004,-0.0001,-0.026,0.1499274718313832,2.0,0.2,20.0,0.08658689189620243,-2.0,-0.2,-10.0,488.96469295641873,-0.04431635152365165,0.04500996786200611,0.998003088061702,2.622710988008335,-103.50678253173828,3785.20947265625
1594106469.806895,0.0,5.0,0.5,0.5,0.07886388236999511,-0.004,-0.0001,-0.026,0.15293153959219033,2.0,0.2,20.0,0.0833804228692779,-2.0,-0.2,-10.0,489.12399629864376,-0.04307463873486113,0.04756163277111492,0.9979391096585036,2.590593366055223,-104.30123901367188,3784.41552734375
1594106469.875158,0.0,5.0,0.5,0.5,0.0734454842376709,-0.004,-0.0001,-0.026,0.13805858585518357,2.0,0.2,20.0,0.0853858709486339,-2.0,-0.2,-10.0,489.22911903390195,-0.042221232011591614,0.049181347860516894,0.9978970701380209,2.569304151581562,-104.8064193725586,3783.8857421875
1594106469.90807,0.0,5.0,0.5,0.5,0.08190038124084473,-0.004,-0.0001,-0.026,0.15692327487814195,2.0,0.2,20.0,0.07797055504793436,-2.0,-0.2,-10.0,489.3852122441167,-0.04090663226708816,0.051489061031719116,0.9978354193105379,2.537811848536059,-105.52352905273438,3783.0908203125
1594106469.9429767,0.0,5.0,0.5,0.5,0.07683389114379882,-0.004,-0.0001,-0.026,0.14333925735583025,2.0,0.2,20.0,0.08014242481939728,-2.0,-0.2,-10.0,489.4882839299971,-0.040007535386595794,0.05294826770942311,0.9977955091394536,2.5169836926893887,-105.97370910644531,3782.560546875
1594106470.009171,0.0,5.0,0.5,0.5,0.07805612289428712,-0.004,-0.0001,-0.026,0.14522461046397622,2.0,0.2,20.0,0.07798901979806946,-2.0,-0.2,-10.0,489.5904984626686,-0.03909480917020893,0.054339926115058904,0.9977568683430622,2.4963127669266587,-106.40225219726562,3782.030029296875
1594106470.0430784,0.0,5.0,0.5,0.5,0.08498576667785644,-0.004,-0.0001,-0.026,0.1610490555166285,2.0,0.2,20.0,0.07017644389012397,-2.0,-0.2,-10.0,489.74221012962516,-0.03769912771734888,0.05630540810418253,0.9977015970657622,2.46571927839284,-107.00247955322266,3781.23388671875
1594106470.1856608,0.0,5.0,0.5,0.5,0.08061746704101563,-0.004,-0.0001,-0.026,0.1491904861080641,2.0,0.2,20.0,0.07257349468537115,-2.0,-0.2,-10.0,489.8423383536283,-0.036753024988667796,0.0575343181898031,0.997666786750274,2.445449072356569,-107.37491607666016,3780.703125
1594106470.2222464,0.0,5.0,0.5,0.5,0.08647239334106445,-0.004,-0.0001,-0.026,0.16277672382541516,2.0,0.2,20.0,0.06459978861522465,-2.0,-0.2,-10.0,489.96916056482587,-0.03531777958073137,0.059250905200599585,0.9976181557481781,2.4153924886905838,-107.89079284667969,3779.906494140625
1594106470.2841978,0.0,5.0,0.5,0.5,0.08253660827636718,-0.004,-0.0001,-0.026,0.15220729145398648,2.0,0.2,20.0,0.06711003244684911,-2.0,-0.2,-10.0,490.0672920269426,-0.03434916519283601,0.06031392887397475,0.9975882742065187,2.395521618857237,-108.20475769042969,3779.375244140625
1594106470.3151493,0.0,5.0,0.5,0.5,0.08722499633789063,-0.004,-0.0001,-0.026,0.16355476132090163,2.0,0.2,20.0,0.05903601572549182,-2.0,-0.2,-10.0,490.21286050626077,-0.032887738476865026,0.06177975652391039,0.9975478225838216,2.3661861384689273,-108.63129425048828,3778.57763671875
1594106470.3740964,0.0,5.0,0.5,0.5,0.08380004516601562,-0.004,-0.0001,-0.026,0.15424822350157993,2.0,0.2,20.0,0.06164909792650222,-2.0,-0.2,-10.0,490.3089619384846,-0.03190668741871805,0.06267405740600826,0.9975238973710016,2.346961070951004,-108.88508605957031,3778.045654296875
1594106470.4399002,0.0,5.0,0.5,0.5,0.08731100204467773,-0.004,-0.0001,-0.026,0.1633610766700985,2.0,0.2,20.0,0.05355004337891084,-2.0,-0.2,-10.0,490.4517273848178,-0.030432836910156524,0.06388754023863454,0.9974929697195147,2.318472948930413,-109.22054290771484,3777.2470703125
1594106470.5100563,0.0,5.0,0.5,0.5,0.0870341441345215,-0.004,-0.0001,-0.026,0.1628169097431134,2.0,0.2,20.0,0.0503111863082253,-2.0,-0.2,-10.0,490.5928278909996,-0.028954370722300518,0.06495260232399717,0.9974681969202909,2.290310988056422,-109.50057220458984,3776.4482421875
1594106470.5419707,0.0,5.0,0.5,0.5,0.08655592445373535,-0.004,-0.0001,-0.026,0.1618722979841621,2.0,0.2,20.0,0.04715081474989021,-2.0,-0.2,-10.0,490.73207988531794,-0.0274788717051339,0.06586566410229062,0.9974500618588266,2.2624279262523768,-109.72599792480469,3775.64892578125
1594106470.6062696,0.0,5.0,0.5,0.5,0.08430934394836426,-0.004,-0.0001,-0.026,0.1554492589563571,2.0,0.2,20.0,0.04988112185170089,-2.0,-0.2,-10.0,490.82408026151825,-0.026497695888781713,0.06639202085730002,0.9974417134244336,2.243998308208196,-109.84523010253906,3775.1162109375
1594106470.6425476,0.0,5.0,0.5,0.5,0.08521003044128418,-0.004,-0.0001,-0.026,0.15979701416721498,2.0,0.2,20.0,0.041878924519444166,-2.0,-0.2,-10.0,490.9606159621617,-0.02503419478626921,0.06705719578530915,0.9974350212343728,2.2167523457148985,-109.9774398803711,3774.316162109375
1594106470.706874,0.0,5.0,0.5,0.5,0.08352099952697754,-0.004,-0.0001,-0.026,0.15467120941351933,2.0,0.2,20.0,0.044606884579618374,-2.0,-0.2,-10.0,491.0507638094714,-0.024063048760741772,0.06741913478771208,0.9974345241412162,2.198751200445833,-110.03472900390625,3773.78271484375
1594106470.7411659,0.0,5.0,0.5,0.5,0.08327138305664063,-0.004,-0.0001,-0.026,0.15690542620048473,2.0,0.2,20.0,0.03673577333077615,-2.0,-0.2,-10.0,491.18445949675515,-0.02261898442911193,0.06784073935603326,0.997439730323102,2.1720741247893884,-110.0751724243164,3772.982421875
1594106470.8079877,0.0,5.0,0.5,0.5,0.08213984550476074,-0.004,-0.0001,-0.026,0.15308974020749194,2.0,0.2,20.0,0.03945046166814537,-2.0,-0.2,-10.0,491.2728467696579,-0.0216629861727872,0.06804276702377517,0.9974471900235251,2.154451562489007,-110.07177734375,3772.448486328125
1594106470.8418975,0.0,5.0,0.5,0.5,0.0807489850616455,-0.004,-0.0001,-0.026,0.15327757258814065,2.0,0.2,20.0,0.03172626007427929,-2.0,-0.2,-10.0,491.40403856220655,-0.02024378112472783,0.06822794015888839,0.9974643540034147,2.1283400447160976,-110.0218505859375,3771.6474609375
1594106470.9100413,0.0,5.0,0.5,0.5,0.080171337890625,-0.004,-0.0001,-0.026,0.15070303221886114,2.0,0.2,20.0,0.03441587976779434,-2.0,-0.2,-10.0,491.4905424552271,-0.019306318488058173,0.068273392825265,0.9974798293191521,2.1110982206901228,-109.9588623046875,3771.113525390625
1594106470.9418254,0.0,5.0,0.5,0.5,0.0776689988708496,-0.004,-0.0001,-0.026,0.14891549104933083,2.0,0.2,20.0,0.02687001781264272,-2.0,-0.2,-10.0,491.61904693604447,-0.017917278409455256,0.06822837125479303,0.9975088272743837,2.0855534885748535,-109.82050323486328,3770.31201171875
1594106471.0078645,0.0,5.0,0.5,0.5,0.07763952178955079,-0.004,-0.0001,-0.026,0.14757634884083498,2.0,0.2,20.0,0.02952140764955409,-2.0,-0.2,-10.0,491.70385126699694,-0.017001553427863275,0.0681226262439631,0.9975320821781446,2.068686432299672,-109.69940948486328,3769.77734375
1594106471.04385,0.0,5.0,0.5,0.5,0.07406333938598633,-0.004,-0.0001,-0.026,0.14384362126406022,2.0,0.2,20.0,0.02218241575860449,-2.0,-0.2,-10.0,491.8297307472676,-0.015646787981114886,0.06785394314070071,0.9975725639902756,2.0437045125812268,-109.47518920898438,3768.9755859375
1594106471.0737712,0.0,5.0,0.5,0.5,0.07457180236816406,-0.004,-0.0001,-0.026,0.1437232717880523,2.0,0.2,20.0,0.024790155301352167,-2.0,-0.2,-10.0,491.9128674501553,-0.014754848543593567,0.06760240781697235,0.9976032322029651,2.0272140402255783,-109.29789733886719,3768.440673828125
1594106471.141229,0.0,5.0,0.5,0.5,0.0731975241088867,-0.004,-0.0001,-0.026,0.14199140094469906,2.0,0.2,20.0,0.022900284561756575,-2.0,-0.2,-10.0,491.9954163040966,-0.013873647862934815,0.06729391758710354,0.9976367327593525,2.010874656278332,-109.09861755371094,3767.90576171875
1594106471.207469,0.0,5.0,0.5,0.5,0.06820353691101075,-0.004,-0.0001,-0.026,0.13565520495099456,2.0,0.2,20.0,0.01584744099551218,-2.0,-0.2,-10.0,492.1178070856258,-0.012570177910071046,0.06672524781314369,0.9976922030023007,1.9867220662559326,-108.75973510742188,3767.10302734375
1594106471.2413778,0.0,5.0,0.5,0.5,0.06540703453063965,-0.004,-0.0001,-0.026,0.13177960620213985,2.0,0.2,20.0,0.013276368106171818,-2.0,-0.2,-10.0,492.23877784307115,-0.01128885165999066,0.06603274251820913,0.9977535962068604,1.962838125457493,-108.37324523925781,3766.2998046875
1594106471.3102086,0.0,5.0,0.5,0.5,0.06693167175292969,-0.004,-0.0001,-0.026,0.1339482002894031,2.0,0.2,20.0,0.015768089514961326,-2.0,-0.2,-10.0,492.31864303920884,-0.010447606790271333,0.0655034083420877,0.9977976503319326,1.9470518160174268,-108.08967590332031,3765.7646484375
1594106471.3410945,0.0,5.0,0.5,0.5,0.060430893707275384,-0.004,-0.0001,-0.026,0.12491546580557761,2.0,0.2,20.0,0.00905224737826689,-2.0,-0.2,-10.0,492.4371487823082,-0.009205608186418216,0.06461392512242314,0.997867875752192,1.9237354157728728,-107.62788391113281,3764.961181640625
1594106471.407253,0.0,5.0,0.5,0.5,0.06247435211181641,-0.004,-0.0001,-0.026,0.12814891798280095,2.0,0.2,20.0,0.011466557266845027,-2.0,-0.2,-10.0,492.5154428554233,-0.00839019879548598,0.06395556458081685,0.997917476710034,1.9083548331366902,-107.29657745361328,3764.425537109375
1594106471.4441538,0.0,5.0,0.5,0.5,0.05511389747619629,-0.004,-0.0001,-0.026,0.11752775427658876,2.0,0.2,20.0,0.004973660621256381,-2.0,-0.2,-10.0,492.6316389183048,-0.007187809782064351,0.06287820012747825,0.9979953243073163,1.8855880569153465,-106.76498413085938,3763.62158203125
1594106471.508202,0.0,5.0,0.5,0.5,0.05761929199218749,-0.004,-0.0001,-0.026,0.12181243433006653,2.0,0.2,20.0,0.007317407335298894,-2.0,-0.2,-10.0,492.7083342706319,-0.006399013611428853,0.06209839987335334,0.9980495184899243,1.8705717142623641,-106.38880157470703,3763.085693359375
1594106471.5401182,0.0,5.0,0.5,0.5,0.04947684143066407,-0.004,-0.0001,-0.026,0.10968405728216346,2.0,0.2,20.0,0.0010319342423650932,-2.0,-0.2,-10.0,492.822285578819,-0.0052355649445155125,0.06084367725503566,0.998133576129867,1.8483392531968925,-105.79246520996094,3762.28125
1594106471.6082506,0.0,5.0,0.5,0.5,0.05242080337524414,-0.004,-0.0001,-0.026,0.11495524156037723,2.0,0.2,20.0,0.0033030612997753186,-2.0,-0.2,-10.0,492.8975362163037,-0.004472637015266246,0.05994899258365263,0.9981914214249364,1.8336760944810733,-105.375,3761.7451171875
1594106471.6421692,0.0,5.0,0.5,0.5,0.04357060028076172,-0.004,-0.0001,-0.026,0.10143832067384306,2.0,0.2,20.0,-0.0027788466407872928,-2.0,-0.2,-10.0,493.00927486328874,-0.003347175098392186,0.058528195037764984,0.9982801444506858,1.81101308923038,-104.71949768066406,3760.94189453125
1594106471.7104309,0.0,5.0,0.5,0.5,0.046923018798828126,-0.004,-0.0001,-0.026,0.10762158319005993,2.0,0.2,20.0,-0.0005937395310254175,-2.0,-0.2,-10.0,493.08293104264885,-0.0026089265480848628,0.05752558713092183,0.9983406233984017,1.7947891013106914,-104.26460266113281,3760.408203125
1594106471.7443392,0.0,5.0,0.5,0.5,0.03744450424194336,-0.004,-0.0001,-0.026,0.09280510852907682,2.0,0.2,20.0,-0.0064741451390071,-2.0,-0.2,-10.0,493.1922546001151,-0.0015202877077669303,0.05594901260436721,0.9984324697814478,1.7711842818481958,-103.555908203125,3759.606689453125
1594106471.775293,0.0,5.0,0.5,0.5,0.041173491516113284,-0.004,-0.0001,-0.026,0.09988923005525852,2.0,0.2,20.0,-0.004350133099652441,-2.0,-0.2,-10.0,493.2642291088123,-0.000806370617368581,0.05484693558588385,0.9984944483687757,1.755715682623112,-103.06761169433594,3759.072265625
1594106471.8442173,0.0,5.0,0.5,0.5,0.038789912109375005,-0.004,-0.0001,-0.026,0.0966672441174592,2.0,0.2,20.0,-0.0058606872643955634,-2.0,-0.2,-10.0,493.3356532054022,-0.00010162892192953434,0.053708281183504646,0.9985566634918001,1.7404971985604831,-102.56664276123047,3758.537109375
1594106471.8741004,0.0,5.0,0.5,0.5,0.028590206069946292,-0.004,-0.0001,-0.026,0.08009861119639428,2.0,0.2,20.0,-0.011471838125747202,-2.0,-0.2,-10.0,493.44176782050636,0.0009380784306081599,0.0519299353612378,0.9986502900526469,1.7191103676724222,-101.7941665649414,3757.733154296875
1594106471.941144,0.0,5.0,0.5,0.5,0.032742945632934575,-0.004,-0.0001,-0.026,0.08834081505375757,2.0,0.2,20.0,-0.009447787376445277,-2.0,-0.2,-10.0,493.5117881116457,0.0016202831999042545,0.05069883536107498,0.9987126727820081,1.7052470361815841,-101.26494598388672,3757.19677734375
1594106472.0076902,0.0,5.0,0.5,0.5,0.022058260803222658,-0.004,-0.0001,-0.026,0.07077294018322608,2.0,0.2,20.0,-0.014874421222925632,-2.0,-0.2,-10.0,493.615736595355,0.002626326506554415,0.04879218592569044,0.9988054990846185,1.6848707555042304,-100.45196533203125,3756.3916015625
1594106472.042839,0.0,5.0,0.5,0.5,0.018173620834350583,-0.004,-0.0001,-0.026,0.06501531388953191,2.0,0.2,20.0,-0.01684079358686963,-2.0,-0.2,-10.0,493.7184060096042,0.0036135180588949102,0.046809254529216276,0.9988973101263499,1.6648337026905955,-99.619873046875,3755.586181640625
1594106472.1098208,0.0,5.0,0.5,0.5,0.022778826065063484,-0.004,-0.0001,-0.026,0.07452253750757928,2.0,0.2,20.0,-0.014913608385255258,-2.0,-0.2,-10.0,493.78626438009087,0.004260830447371774,0.045451494717538114,0.9989574600311268,1.6516185028848949,-99.05429077148438,3755.04931640625
1594106472.140707,0.0,5.0,0.5,0.5,0.011618908767700196,-0.004,-0.0001,-0.026,0.05548082226857061,2.0,0.2,20.0,-0.020071837777358534,-2.0,-0.2,-10.0,493.8871136534726,0.005215554108006704,0.04336481464866313,0.9990456900691946,1.6332482653430014,-98.19422912597656,3754.24169921875
1594106472.2067826,0.0,5.0,0.5,0.5,0.016517034988403324,-0.004,-0.0001,-0.026,0.06554022932257118,2.0,0.2,20.0,-0.01820888717002852,-2.0,-0.2,-10.0,493.9536070715403,0.005841640059247646,0.04193886343431236,0.9991031012739657,1.6211540430764704,-97.61428833007812,3753.703369140625
1594106472.2432945,0.0,5.0,0.5,0.5,0.0051377724456787115,-0.004,-0.0001,-0.026,0.04579450366344284,2.0,0.2,20.0,-0.0231875963461847,-2.0,-0.2,-10.0,494.05257536889985,0.006764186505615892,0.03975918091284819,0.9991863956810344,1.603240900528966,-96.73458099365234,3752.895751953125
1594106472.2752063,0.0,5.0,0.5,0.5,0.010215280609130857,-0.004,-0.0001,-0.026,0.05640732230378949,2.0,0.2,20.0,-0.021386527673845742,-2.0,-0.2,-10.0,494.11794934258796,0.0073690786978722125,0.03827477022397972,0.999240080582963,1.5913944335252879,-96.14369201660156,3752.357421875
1594106472.3410013,0.0,5.0,0.5,0.5,0.007668502349853515,-0.004,-0.0001,-0.026,0.052702830666295636,2.0,0.2,20.0,-0.02265428540222911,-2.0,-0.2,-10.0,494.1828090354102,0.007965176253259026,0.036771985582724036,0.999291937845772,1.5796250468853876,-95.54900360107422,3751.81884765625
1594106472.4080808,0.0,5.0,0.5,0.5,-0.0038153092956542956,-0.004,-0.0001,-0.026,0.03193593843722142,2.0,0.2,20.0,-0.027390682632672605,-2.0,-0.2,-10.0,494.279238280491,0.008843179309993014,0.03447726471262529,0.9993663574473712,1.562102311766656,-94.65315246582031,3751.01123046875
1594106472.4418921,0.0,5.0,0.5,0.5,-0.0076291968536376965,-0.004,-0.0001,-0.026,0.02601948315385394,2.0,0.2,20.0,-0.029074535772884786,-2.0,-0.2,-10.0,494.37451982731,0.009701994450823377,0.03213809110933574,0.9994363483501709,1.5447424724539376,-93.75199890136719,3750.20361328125
1594106472.5104816,0.0,5.0,0.5,0.5,-0.002358516387939453,-0.004,-0.0001,-0.026,0.037676988039288345,2.0,0.2,20.0,-0.027387304194741516,-2.0,-0.2,-10.0,494.4375695207855,0.010263601584585209,0.03055832964136657,0.9994802884359663,1.5332576207563322,-93.1491928100586,3749.665283203125
1594106472.5414026,0.0,5.0,0.5,0.5,-0.013820200729370116,-0.004,-0.0001,-0.026,0.01623034843392504,2.0,0.2,20.0,-0.031818751439291346,-2.0,-0.2,-10.0,494.5311645794427,0.01108816600796917,0.028163911830500193,0.999541818357283,1.516088065036016,-92.24713897705078,3748.857666015625
1594106472.607546,0.0,5.0,0.5,0.5,-0.008400428314208983,-0.004,-0.0001,-0.026,0.02823700918138937,2.0,0.2,20.0,-0.03018215179006569,-2.0,-0.2,-10.0,494.59300988027826,0.011626461976771876,0.026549875984323425,0.9995798764816747,1.5047341304304487,-91.64847564697266,3748.3193359375
1594106472.644052,0.0,5.0,0.5,0.5,-0.019733733291625973,-0.004,-0.0001,-0.026,0.006543944005450039,2.0,0.2,20.0,-0.03440293182378402,-2.0,-0.2,-10.0,494.68489011970814,0.012414497567701658,0.02411370554228659,0.9996321370660116,1.4878461316453868,-90.75432586669922,3747.51171875
1594106472.6759908,0.0,5.0,0.5,0.5,-0.014302700195312499,-0.004,-0.0001,-0.026,0.018851339017508698,2.0,0.2,20.0,-0.03282563029232004,-2.0,-0.2,-10.0,494.7455621472327,0.01292775386008832,0.02247593319471611,0.9996637962871114,1.476680928726806,-90.16291046142578,3746.9736328125
1594106472.7425568,0.0,5.0,0.5,0.5,-0.016640107650756835,-0.004,-0.0001,-0.026,0.015080559455533757,2.0,0.2,20.0,-0.03386078920750747,-2.0,-0.2,-10.0,494.8058759944979,0.013429920490341423,0.02083334374432554,0.9996927573129926,1.4655934687186418,-89.57492065429688,3746.43505859375
1594106472.808719,0.0,5.0,0.5,0.5,-0.027597980499267576,-0.004,-0.0001,-0.026,-0.006977423359362432,2.0,0.2,20.0,-0.0377749441279797,-2.0,-0.2,-10.0,494.89544349501375,0.01416346270228382,0.018354650331628395,0.9997312154451737,1.4491165006520987,-88.70245361328125,3745.62744140625
1594106472.8416247,0.0,5.0,0.5,0.5,-0.03084640411376953,-0.004,-0.0001,-0.026,-0.012650264894678055,2.0,0.2,20.0,-0.03907988079874216,-2.0,-0.2,-10.0,494.98396009672433,0.014872168628125335,0.0158615454502006,0.9997635870425707,1.4328003540903778,-87.84051513671875,3744.819580078125
1594106472.912403,0.0,5.0,0.5,0.5,-0.025550136947631835,-0.004,-0.0001,-0.026,0.00015401890197848378,2.0,0.2,20.0,-0.03762069718944201,-2.0,-0.2,-10.0,495.04250153468456,0.015329646611593474,0.014196108857962015,0.9997817123892877,1.4220094279506394,-87.27261352539062,3744.28125
1594106472.942309,0.0,5.0,0.5,0.5,-0.03596775337219238,-0.004,-0.0001,-0.026,-0.021896752885184986,2.0,0.2,20.0,-0.04112926138654345,-2.0,-0.2,-10.0,495.1293365928577,0.015992447835406043,0.011698205198196473,0.9998036775324308,1.4059753680855427,-86.43563842773438,3743.4736328125
1594106473.009401,0.0,5.0,0.5,0.5,-0.03068764549255371,-0.004,-0.0001,-0.026,-0.009017548485120503,2.0,0.2,20.0,-0.03974043210918696,-2.0,-0.2,-10.0,495.1867374142166,0.01641856232649584,0.010031383785604493,0.9998148839412608,1.3953733450283619,-85.88870239257812,3742.93505859375
1594106473.0453503,0.0,5.0,0.5,0.5,-0.04066772109985352,-0.004,-0.0001,-0.026,-0.030855313061074825,2.0,0.2,20.0,-0.04294842034657095,-2.0,-0.2,-10.0,495.2722577640088,0.017030731820949482,0.007542126789664552,0.9998265202009454,1.3796106958235705,-85.08444213867188,3742.127197265625
1594106473.0742712,0.0,5.0,0.5,0.5,-0.03553262199401855,-0.004,-0.0001,-0.026,-0.017959660297378922,2.0,0.2,20.0,-0.04163856876459704,-2.0,-0.2,-10.0,495.32857788400725,0.017421814491474726,0.005884078996287907,0.999830914702176,1.3691887568868368,-84.56097412109375,3741.588623046875
1594106473.1421943,0.0,5.0,0.5,0.5,-0.037406231384277344,-0.004,-0.0001,-0.026,-0.02151339807852481,2.0,0.2,20.0,-0.04235278810809945,-2.0,-0.2,-10.0,495.38453973131254,0.017797576074679793,0.004234016373155267,0.9998326456918768,1.3588385562404426,-84.04721069335938,3741.050048828125
1594106473.2083223,0.0,5.0,0.5,0.5,-0.04660629814147949,-0.004,-0.0001,-0.026,-0.043155739268572614,2.0,0.2,20.0,-0.04512729680229695,-2.0,-0.2,-10.0,495.4676551845623,0.018332947987688843,0.0017682891063680866,0.9998303736993175,1.3434530572149128,-83.29751586914062,3740.241943359375
1594106473.2432187,0.0,5.0,0.5,0.5,-0.04895138031005859,-0.004,-0.0001,-0.026,-0.04820836032071412,2.0,0.2,20.0,-0.045884001175938355,-2.0,-0.2,-10.0,495.54987089091446,0.018833141289453834,-0.0006841205984554664,0.9998224066143837,1.3282128448711468,-82.5718994140625,3739.43408203125
1594106473.2751415,0.0,5.0,0.5,0.5,-0.04424534851074219,-0.004,-0.0001,-0.026,-0.03529897888005469,2.0,0.2,20.0,-0.044742738583680004,-2.0,-0.2,-10.0,495.60418159666006,0.01914585845690461,-0.0023072325697716485,0.9998140391001804,1.3181276031355895,-82.10223388671875,3738.8955078125
1594106473.3421104,0.0,5.0,0.5,0.5,-0.04579450500488281,-0.004,-0.0001,-0.026,-0.03869667377606205,2.0,0.2,20.0,-0.04525664743479432,-2.0,-0.2,-10.0,495.6581623671809,0.019440977841115415,-0.003918446054512694,0.9998033277405606,1.3079661251304635,-81.645751953125,3738.35693359375
1594106473.4088585,0.0,5.0,0.5,0.5,-0.053751411132812496,-0.004,-0.0001,-0.026,-0.05963426284701054,2.0,0.2,20.0,-0.04731480834313462,-2.0,-0.2,-10.0,495.7381526118843,0.019850809388297794,-0.006316912369770654,0.9997829974473171,1.2928656560035283,-80.98696899414062,3737.54931640625
1594106473.4457595,0.0,5.0,0.5,0.5,-0.0555595068359375,-0.004,-0.0001,-0.026,-0.06425239089402289,2.0,0.2,20.0,-0.04772911382538359,-2.0,-0.2,-10.0,495.8174248370342,0.020219325863176017,-0.00868860300284415,0.9997578141927661,1.2779067630979415,-80.35784912109375,3736.7412109375
1594106473.4766757,0.0,5.0,0.5,0.5,-0.0513362271118164,-0.004,-0.0001,-0.026,-0.05159056682087931,2.0,0.2,20.0,-0.046789491069554705,-2.0,-0.2,-10.0,495.86968903429806,0.020441076232542512,-0.01025061447667622,0.9997385094640028,1.2680132274000997,-79.95541381835938,3736.20263671875
1594106473.5432205,0.0,5.0,0.5,0.5,-0.052546622009277344,-0.004,-0.0001,-0.026,-0.054743014140267304,2.0,0.2,20.0,-0.047061507562996194,-2.0,-0.2,-10.0,495.9215312565211,0.020641832058291305,-0.01179547978716639,0.9997173507676397,1.2582077978798945,-79.56826782226562,3735.6640625
1594106473.6090367,0.0,5.0,0.5,0.5,-0.05907224273681641,-0.004,-0.0001,-0.026,-0.07460677039412729,2.0,0.2,20.0,-0.04830042985289208,-2.0,-0.2,-10.0,495.99875443510246,0.020906353603511053,-0.014085221165899426,0.9996822149681931,1.24366257626901,-79.01705932617188,3734.85595703125
1594106473.6419857,0.0,5.0,0.5,0.5,-0.060309871826171875,-0.004,-0.0001,-0.026,-0.07871938599192393,2.0,0.2,20.0,-0.04832743202412987,-2.0,-0.2,-10.0,496.07507126324344,0.021123230840277264,-0.01633558740086368,0.9996434152752357,1.2292636869588416,-78.49993896484375,3734.0478515625
1594106473.7120357,0.0,5.0,0.5,0.5,-0.05668339874267578,-0.004,-0.0001,-0.026,-0.06658187519153827,2.0,0.2,20.0,-0.04763875812093077,-2.0,-0.2,-10.0,496.12540549517144,0.021241029621039853,-0.017810970211019093,0.9996157201648943,1.2197414206174313,-78.17449951171875,3733.50927734375
1594106473.7422156,0.0,5.0,0.5,0.5,-0.061965830078125,-0.004,-0.0001,-0.026,-0.08525621494347707,2.0,0.2,20.0,-0.0481175258405256,-2.0,-0.2,-10.0,496.2003017819952,0.02137424577891933,-0.019983261609596334,0.9995718137646863,1.2056137514507914,-77.71807861328125,3732.701171875
1594106473.7760885,0.0,5.0,0.5,0.5,-0.05862612365722657,-0.004,-0.0001,-0.026,-0.07347154648340995,2.0,0.2,20.0,-0.04755893578789812,-2.0,-0.2,-10.0,496.24969814612996,0.02143447489861749,-0.02140486055010792,0.9995410923171948,1.1962761500199082,-77.43545532226562,3732.162109375
1594106473.8469102,0.0,5.0,0.5,0.5,-0.059299744567871085,-0.004,-0.0001,-0.026,-0.07613884584963262,2.0,0.2,20.0,-0.04743808445561406,-2.0,-0.2,-10.0,496.2988830188988,0.0214707805266061,-0.022801102623600994,0.9995094373254942,1.1870105517749057,-77.16961669921875,3731.623046875
1594106473.8763776,0.0,5.0,0.5,0.5,-0.06341079010009766,-0.004,-0.0001,-0.026,-0.09373145761394763,2.0,0.2,20.0,-0.04723688541162641,-2.0,-0.2,-10.0,496.3717797413701,0.02148088562512182,-0.024852911719182573,0.9994603065313995,1.1735879928915234,-76.80368041992188,3730.814453125
1594106473.9426541,0.0,5.0,0.5,0.5,-0.06061705169677734,-0.004,-0.0001,-0.026,-0.08249073041332398,2.0,0.2,20.0,-0.046887482646923724,-2.0,-0.2,-10.0,496.4199325471418,0.02145747284976499,-0.02619039966118347,0.9994266555503156,1.1647103645197767,-76.5810546875,3730.27490234375
1594106473.9786775,0.0,5.0,0.5,0.5,-0.06390463653564453,-0.004,-0.0001,-0.026,-0.09909293847647577,2.0,0.2,20.0,-0.04615992966019404,-2.0,-0.2,-10.0,496.4916449408047,0.02137526920976251,-0.02814503288709269,0.9993752823589317,1.1515175928612775,-76.27978515625,3729.466064453125
1594106474.0427966,0.0,5.0,0.5,0.5,-0.061455064697265624,-0.004,-0.0001,-0.026,-0.08834495488108751,2.0,0.2,20.0,-0.0459768539255792,-2.0,-0.2,-10.0,496.5389154206496,0.021289952876913838,-0.02941715982139214,0.9993404668152599,1.142786521380258,-76.1015625,3728.926513671875
1594106474.075742,0.0,5.0,0.5,0.5,-0.06387345977783203,-0.004,-0.0001,-0.026,-0.10396775008043156,2.0,0.2,20.0,-0.044723252314842844,-2.0,-0.2,-10.0,496.6093185171485,0.02111330893061421,-0.03126774619796707,0.9992880246624093,1.1297946884253214,-75.86764526367188,3728.11767578125
1594106474.1426542,0.0,5.0,0.5,0.5,-0.06181755157470703,-0.004,-0.0001,-0.026,-0.09366412638208436,2.0,0.2,20.0,-0.044698013416206335,-2.0,-0.2,-10.0,496.6557957935147,0.020963657474932975,-0.032466130440353895,0.9992529586843883,1.1211961892350197,-75.7344970703125,3727.578125
1594106474.1765234,0.0,5.0,0.5,0.5,-0.0633638217163086,-0.004,-0.0001,-0.026,-0.10824721226963376,2.0,0.2,20.0,-0.04290604757775767,-2.0,-0.2,-10.0,496.72488670854364,0.020689883397603463,-0.034203774071012806,0.9992006958385752,1.1084046658309261,-75.5684814453125,3726.76904296875
1594106474.2452495,0.0,5.0,0.5,0.5,-0.06171019439697266,-0.004,-0.0001,-0.026,-0.09847058293732504,2.0,0.2,20.0,-0.04305634231508016,-2.0,-0.2,-10.0,496.7705077538267,0.020475181471644805,-0.035324155307543244,0.9991661378347004,1.0999411138727242,-75.4805908203125,3726.2294921875
1594106474.2757359,0.0,5.0,0.5,0.5,-0.0623926644897461,-0.004,-0.0001,-0.026,-0.11195336445007315,2.0,0.2,20.0,-0.04072603044256066,-2.0,-0.2,-10.0,496.8383432822302,0.020103568984481422,-0.03694159114251588,0.9991151912356979,1.0873549860879552,-75.38241577148438,3725.42041015625
