Timestamp,Input Throttle,horizon,dT,dt,Input Roll,Roll P,Roll I,Roll D,Input Pitch,Pitch P,Pitch I,Pitch D,Input Yaw,Yaw P,Yaw I,Yaw D,Altitude,Direction X,Direction Y,Direction Z,Vertical Velocity,Roll,Mass
1594013117.5013397,0.0,5.0,0.5,0.5,0.02195558166503906,-0.004,-0.0002,-0.006,-0.008214046078525765,2.0,0.5,10.0,-0.0038052066385687797,-2.0,-0.5,-10.0,475.4902577964822,0.0017922842457686198,-0.003291158845364192,0.9999929779706641,-13.582830672785542,-90.47945404052734,3893.01171875
1594013117.5332851,0.0,5.0,0.5,0.5,0.022052505950927736,-0.004,-0.0002,-0.006,-0.007346122338668316,2.0,0.5,10.0,-0.003789600881194405,-2.0,-0.5,-10.0,474.94246773887426,0.0018019024272160143,-0.0033410960708368355,0.9999927950863887,-13.970942453786614,-90.48196411132812,3893.01171875
1594013117.5671635,0.0,5.0,0.5,0.5,0.022164327239990237,-0.004,-0.0002,-0.006,-0.007637102650454752,2.0,0.5,10.0,-0.003911666593696869,-2.0,-0.5,-10.0,474.39431162260007,0.0018125817943506484,-0.0033930375510844214,0.9999926008943344,-14.358980585988292,-90.48368835449219,3893.01171875
1594013117.6379552,0.0,5.0,0.5,0.5,0.022231078033447267,-0.004,-0.0002,-0.006,-0.007954630677024701,2.0,0.5,10.0,-0.004063735727951943,-2.0,-0.5,-10.0,473.8631587495329,0.0018266012706743052,-0.003448645130375387,0.9999923851582885,-13.286966582593172,-90.48043060302734,3890.853515625
1594013117.6678824,0.0,5.0,0.5,0.5,0.022193988647460937,-0.004,-0.0002,-0.006,-0.008579411434569608,2.0,0.5,10.0,-0.0042346954637088735,-2.0,-0.5,-10.0,473.16329739103094,0.0018449199736292872,-0.0035326804882033695,0.9999920581878933,-11.620125063057584,-90.46380615234375,3887.53076171875
1594013117.7366548,0.0,5.0,0.5,0.5,0.022211895141601563,-0.004,-0.0002,-0.006,-0.008596378511816903,2.0,0.5,10.0,-0.004299375118113369,-2.0,-0.5,-10.0,472.7484286116669,0.0018578883640686915,-0.0035894043741297823,0.9999918321801763,-10.488875964729912,-90.44469451904297,3885.287109375
1594013117.7735562,0.0,5.0,0.5,0.5,0.022027057342529296,-0.004,-0.0002,-0.006,-0.009227041404407232,2.0,0.5,10.0,-0.004489864512041277,-2.0,-0.5,-10.0,472.18105047312565,0.0018768282707452345,-0.0036742736685587796,0.999991488578103,-8.928622534662615,-90.40385437011719,3882.12548828125
1594013117.8044736,0.0,5.0,0.5,0.5,0.0220266291809082,-0.004,-0.0002,-0.006,-0.00923291457004827,2.0,0.5,10.0,-0.004543081964182487,-2.0,-0.5,-10.0,471.8776302675251,0.0018892261961926827,-0.0037301780374340357,0.9999912582598852,-7.944661976209685,-90.36849975585938,3880.1015625
1594013117.8718789,0.0,5.0,0.5,0.5,0.021927044219970705,-0.004,-0.0002,-0.006,-0.009518704836588562,2.0,0.5,10.0,-0.004652302146016401,-2.0,-0.5,-10.0,471.6178570528282,0.0019007877067342461,-0.0037850384585524648,0.999991030204752,-7.02273674926246,-90.32659149169922,3878.169921875
1594013117.911774,0.0,5.0,0.5,0.5,0.021534445800781253,-0.004,-0.0002,-0.006,-0.010106869829695768,2.0,0.5,10.0,-0.004817654819581135,-2.0,-0.5,-10.0,471.25114651117474,0.0019162817395378842,-0.0038639982319994544,0.9999906986477213,-5.796391025570228,-90.25153350830078,3875.50390625
1594013118.0501957,0.0,5.0,0.5,0.5,0.02150785415649414,-0.004,-0.0002,-0.006,-0.01011577032024212,2.0,0.5,10.0,-0.004867214479905509,-2.0,-0.5,-10.0,471.05956955475267,0.0019253388979865393,-0.003914439758117477,0.9999904850704872,-5.015083020526985,-90.1933364868164,3873.781005859375
1594013118.0751252,0.0,5.0,0.5,0.5,0.02085705123901367,-0.004,-0.0002,-0.006,-0.010488096646307779,2.0,0.5,10.0,-0.004908683826292611,-2.0,-0.5,-10.0,470.8172664983431,0.0019357879145084356,-0.003984904553251496,0.9999901865822741,-3.954392903345034,-90.09391021728516,3871.361328125
1594013118.1196835,0.0,5.0,0.5,0.5,0.02070274475097656,-0.004,-0.0002,-0.006,-0.010335720360280477,2.0,0.5,10.0,-0.004870766786235225,-2.0,-0.5,-10.0,470.693869874347,0.0019407778187415152,-0.004028244656684175,0.9999900032632548,-3.2927462748976932,-90.01959991455078,3869.81591796875
1594013118.1533234,0.0,5.0,0.5,0.5,0.020332363739013672,-0.004,-0.0002,-0.006,-0.010416874410831865,2.0,0.5,10.0,-0.004868837938586576,-2.0,-0.5,-10.0,470.59550127841067,0.0019442411848633989,-0.004068477550817358,0.9999898336566394,-2.6749976548113534,-89.93890380859375,3868.335205078125
1594013118.220971,0.0,5.0,0.5,0.5,0.01993656921386719,-0.004,-0.0002,-0.006,-0.010487475987480392,2.0,0.5,10.0,-0.004856049762395936,-2.0,-0.5,-10.0,470.51999751629774,0.0019455714756399607,-0.004105305792230546,0.9999896805547472,-2.11752733826597,-89.85198974609375,3866.943603515625
1594013118.2577875,0.0,5.0,0.5,0.5,0.019026139526367187,-0.004,-0.0002,-0.006,-0.010740180058011582,2.0,0.5,10.0,-0.004833646410936085,-2.0,-0.5,-10.0,470.44607337599155,0.0019443937240737302,-0.004154668727185689,0.9999894789750606,-1.3557100019027961,-89.71002197265625,3864.96630859375
1594013118.3208337,0.0,5.0,0.5,0.5,0.018840913848876952,-0.004,-0.0002,-0.006,-0.010617506280061955,2.0,0.5,10.0,-0.004816779565938702,-2.0,-0.5,-10.0,470.4213936747983,0.0019416462550187353,-0.004183226423348106,0.9999893652567068,-0.8712755488908738,-89.6077880859375,3863.68310546875
1594013118.3537686,0.0,5.0,0.5,0.5,0.01779349838256836,-0.004,-0.0002,-0.006,-0.010794239155162607,2.0,0.5,10.0,-0.004754506877506165,-2.0,-0.5,-10.0,470.41854321351275,0.0019338972318357218,-0.004219631606596885,0.9999892273172755,-0.21487322633313005,-89.44329833984375,3861.8623046875
1594013118.4205487,0.0,5.0,0.5,0.5,0.017593719940185548,-0.004,-0.0002,-0.006,-0.010688347753199148,2.0,0.5,10.0,-0.004743423632412154,-2.0,-0.5,-10.0,470.43711044010706,0.0019263299794435302,-0.004239105585935735,0.9999891595595634,0.19336906767877288,-89.32647705078125,3860.69189453125
1594013118.4534156,0.0,5.0,0.5,0.5,0.016417650756835937,-0.004,-0.0002,-0.006,-0.010782940538492238,2.0,0.5,10.0,-0.0046426936395333775,-2.0,-0.5,-10.0,470.49376259662677,0.0019115233435738506,-0.004261324687795103,0.9999890935357305,0.7438059327704256,-89.14077758789062,3859.02783203125
1594013118.5234637,0.0,5.0,0.5,0.5,0.016205005950927734,-0.004,-0.0002,-0.006,-0.010705398253418054,2.0,0.5,10.0,-0.004645765156268813,-2.0,-0.5,-10.0,470.54892710305285,0.0018994602667269207,-0.00427172322202258,0.9999890721559959,1.0850157295852447,-89.01031494140625,3857.95703125
1594013118.554386,0.0,5.0,0.5,0.5,0.01490967803955078,-0.004,-0.0002,-0.006,-0.010718156775529175,2.0,0.5,10.0,-0.004508257133352301,-2.0,-0.5,-10.0,470.6552552114008,0.0018780565284083515,-0.004279963196288466,0.9999890773497051,1.544305821612775,-88.80487060546875,3856.427734375
1594013118.6208146,0.0,5.0,0.5,0.5,0.014685288848876954,-0.004,-0.0002,-0.006,-0.010669700855241047,2.0,0.5,10.0,-0.004523146760980725,-2.0,-0.5,-10.0,470.7408211180009,0.0018617014295539962,-0.0042815624371400395,0.9999891010860488,1.8284265328706597,-88.6617431640625,3855.44091796875
1594013118.6563988,0.0,5.0,0.5,0.5,0.013279957885742186,-0.004,-0.0002,-0.006,-0.010612456901541762,2.0,0.5,10.0,-0.0043529395274480055,-2.0,-0.5,-10.0,470.88879369641654,0.0018342177293359215,-0.004277069317622844,0.9999891711030544,2.209213537259907,-88.43804931640625,3854.028076171875
1594013118.7197654,0.0,5.0,0.5,0.5,0.013044557495117189,-0.004,-0.0002,-0.006,-0.010585340654447356,2.0,0.5,10.0,-0.004376771328715527,-2.0,-0.5,-10.0,470.99929815297946,0.0018137590603245172,-0.004270196231738958,0.9999892377931943,2.4442414920245152,-88.28329467773438,3853.11376953125
1594013118.7545063,0.0,5.0,0.5,0.5,0.011539367675781252,-0.004,-0.0002,-0.006,-0.010467748246551679,2.0,0.5,10.0,-0.004179409583274512,-2.0,-0.5,-10.0,471.1815594746731,0.0017808125757587433,-0.004253982249346462,0.9999893661142563,2.7581245118429187,-88.04306030273438,3851.799560546875
1594013118.8213272,0.0,5.0,0.5,0.5,0.011295518188476563,-0.004,-0.0002,-0.006,-0.010463956185520262,2.0,0.5,10.0,-0.004216860158482197,-2.0,-0.5,-10.0,471.3127893820638,0.001757159641339218,-0.004239740785924427,0.9999894684385746,2.9513345319631847,-87.87786865234375,3850.947265625
1594013118.8543193,0.0,5.0,0.5,0.5,0.009702326049804689,-0.004,-0.0002,-0.006,-0.010282835294636842,2.0,0.5,10.0,-0.003985699502338342,-2.0,-0.5,-10.0,471.52310965419747,0.001718954168867957,-0.0042125440156550445,0.9999896497811771,3.2079252240853244,-87.62289428710938,3849.71728515625
1594013118.9242067,0.0,5.0,0.5,0.5,0.00945198974609375,-0.004,-0.0002,-0.006,-0.010293966686388607,2.0,0.5,10.0,-0.004036409609465457,-2.0,-0.5,-10.0,471.67140328651294,0.0016922377134981979,-0.004190837188038797,0.999989786555435,3.365326500001326,-87.44851684570312,3848.91748046875
1594013118.9543064,0.0,5.0,0.5,0.5,0.007783082885742188,-0.004,-0.0002,-0.006,-0.010065930382163862,2.0,0.5,10.0,-0.003785164881903329,-2.0,-0.5,-10.0,471.9046858957736,0.001650012324501327,-0.004153946257997767,0.9999900110450176,3.5733690715027255,-87.18075561523438,3847.759033203125
1594013119.0212917,0.0,5.0,0.5,0.5,0.007528550415039064,-0.004,-0.0002,-0.006,-0.010092274380800542,2.0,0.5,10.0,-0.003839117704078988,-2.0,-0.5,-10.0,472.06698997761123,0.0016204101980980417,-0.004125846559640787,0.9999901757822205,3.700452426337222,-86.99856567382812,3847.00390625
1594013119.0571873,0.0,5.0,0.5,0.5,0.0057964208984375,-0.004,-0.0002,-0.006,-0.00980742378598853,2.0,0.5,10.0,-0.00356786818988524,-2.0,-0.5,-10.0,472.3186234337045,0.001574300341865112,-0.0040793004142022265,0.9999904403975892,3.8671953786494857,-86.72006225585938,3845.906494140625
1594013119.120644,0.0,5.0,0.5,0.5,0.005539148559570313,-0.004,-0.0002,-0.006,-0.009858668160422636,2.0,0.5,10.0,-0.003627883284612732,-2.0,-0.5,-10.0,472.49170279013924,0.001542142370342225,-0.004045618419131628,0.9999906273403348,3.968497077181767,-86.53140258789062,3845.189453125
1594013119.1544409,0.0,5.0,0.5,0.5,0.0037580163574218745,-0.004,-0.0002,-0.006,-0.009523562651578362,2.0,0.5,10.0,-0.003339517957105326,-2.0,-0.5,-10.0,472.75814705109224,0.0014926451128609178,-0.003990607730910808,0.9999909234890612,4.100226365800741,-86.24435424804688,3844.143310546875
1594013119.2215617,0.0,5.0,0.5,0.5,0.0035000921630859378,-0.004,-0.0002,-0.006,-0.009587037389273212,2.0,0.5,10.0,-0.003408492214275464,-2.0,-0.5,-10.0,472.92866566730663,0.0014585684722926524,-0.003951248642145995,0.999991130066752,4.179683115785457,-86.05072021484375,3843.45849609375
1594013119.2545693,0.0,5.0,0.5,0.5,0.0016832849121093745,-0.004,-0.0002,-0.006,-0.009206910521643857,2.0,0.5,10.0,-0.0030984523696623986,-2.0,-0.5,-10.0,473.18507650040556,0.0014058145788848086,-0.0038881011108295093,0.9999914531410365,4.281480411363452,-85.75732421875,3842.456787109375
1594013119.324037,0.0,5.0,0.5,0.5,0.0014268157958984373,-0.004,-0.0002,-0.006,-0.009288863758502356,2.0,0.5,10.0,-0.0031758630735563204,-2.0,-0.5,-10.0,473.3591672194889,0.0013698663846897403,-0.0038438321092144666,0.9999916741757424,4.342114579895074,-85.56021118164062,3841.799560546875
1594013119.3549516,0.0,5.0,0.5,0.5,-0.000411712646484375,-0.004,-0.0002,-0.006,-0.008868068230285304,2.0,0.5,10.0,-0.00285332320145609,-2.0,-0.5,-10.0,473.6243139980361,0.001314644955421537,-0.0037735246000034682,0.9999920160784956,4.419185998972059,-85.26272583007812,3840.834228515625
1594013119.4210274,0.0,5.0,0.5,0.5,-0.000664970703125,-0.004,-0.0002,-0.006,-0.008956802091584098,2.0,0.5,10.0,-0.0029321782383542492,-2.0,-0.5,-10.0,473.80341172311455,0.0012768829724955743,-0.003724158745001084,0.9999922500757277,4.464740790394784,-85.06362915039062,3840.19921875
1594013119.4569654,0.0,5.0,0.5,0.5,-0.0025103369140625,-0.004,-0.0002,-0.006,-0.008504761643668268,2.0,0.5,10.0,-0.0026007764815555077,-2.0,-0.5,-10.0,474.0750940319849,0.0012195284850782212,-0.003647294988685435,0.9999926049674266,4.520901953598807,-84.764404296875,3839.26513671875
1594013119.5220342,0.0,5.0,0.5,0.5,-0.0027579437255859374,-0.004,-0.0002,-0.006,-0.0086064183660979,2.0,0.5,10.0,-0.002684218787016212,-2.0,-0.5,-10.0,474.25797748344485,0.0011804802870164152,-0.003593824298913665,0.9999928454210063,4.553622983781428,-84.56494140625,3838.64892578125
1594013119.5553706,0.0,5.0,0.5,0.5,-0.0045962890625,-0.004,-0.0002,-0.006,-0.008115705603591036,2.0,0.5,10.0,-0.002339674686739298,-2.0,-0.5,-10.0,474.5341815598076,0.0011210611549046742,-0.003510589419981314,0.99999320946885,4.592351825169736,-84.26629638671875,3837.740234375
1594013119.62139,0.0,5.0,0.5,0.5,-0.004836526489257812,-0.004,-0.0002,-0.006,-0.008232630598183844,2.0,0.5,10.0,-0.0024285778245682283,-2.0,-0.5,-10.0,474.7194462487241,0.001080842302909636,-0.00345334039956301,0.9999934530885695,4.614054457338826,-84.0679931640625,3837.140625
1594013119.6548855,0.0,5.0,0.5,0.5,-0.006653433837890625,-0.004,-0.0002,-0.006,-0.007715356945155785,2.0,0.5,10.0,-0.002075223425389699,-2.0,-0.5,-10.0,474.99891919409856,0.0010198024765965292,-0.003364994569876954,0.9999938183881206,4.638211916073911,-83.77224731445312,3836.25390625
1594013119.7243018,0.0,5.0,0.5,0.5,-0.0068842724609375,-0.004,-0.0002,-0.006,-0.007837729870038817,2.0,0.5,10.0,-0.0021663632810344576,-2.0,-0.5,-10.0,475.1858024847461,0.0009785011202904383,-0.0033041775103831343,0.9999940624556415,4.650873323223187,-83.57666015625,3835.66748046875
1594013119.7552183,0.0,5.0,0.5,0.5,-0.008665504150390625,-0.004,-0.0002,-0.006,-0.007289285072498098,2.0,0.5,10.0,-0.0018102891073111342,-2.0,-0.5,-10.0,475.4668662020704,0.0009164107561917615,-0.0032104890240589033,0.9999944264602441,4.662826117941733,-83.2861328125,3834.798583984375
1594013119.8223805,0.0,5.0,0.5,0.5,-0.008884910888671875,-0.004,-0.0002,-0.006,-0.007428687424119595,2.0,0.5,10.0,-0.001906527035398336,-2.0,-0.5,-10.0,475.6544521814212,0.0008747277960446854,-0.0031468555317853797,0.9999946660615469,4.667888598114363,-83.09481811523438,3834.2236328125
1594013119.8584187,0.0,5.0,0.5,0.5,-0.0106162255859375,-0.004,-0.0002,-0.006,-0.006856288824959332,2.0,0.5,10.0,-0.0015443570088185246,-2.0,-0.5,-10.0,475.9361889977008,0.0008118742378264921,-0.0030490318073667093,0.99999502212024,4.669512347912635,-82.81182861328125,3833.3701171875
1594013119.922186,0.0,5.0,0.5,0.5,-0.010822775268554687,-0.004,-0.0002,-0.006,-0.007000541439247612,2.0,0.5,10.0,-0.001641538402884142,-2.0,-0.5,-10.0,476.1239284337498,0.0007696896001401118,-0.002982551808177827,0.9999952559700627,4.66813537863815,-82.62628173828125,3832.8046875
1594013119.9552345,0.0,5.0,0.5,0.5,-0.012490479736328126,-0.004,-0.0002,-0.006,-0.006410834684452216,2.0,0.5,10.0,-0.0012766309972568862,-2.0,-0.5,-10.0,476.40521106950473,0.0007062400906506713,-0.002881099608190906,0.999995600235312,4.6611214068705795,-82.35305786132812,3831.96435546875
1594013120.0231967,0.0,5.0,0.5,0.5,-0.012682505493164062,-0.004,-0.0002,-0.006,-0.006560592328769633,2.0,0.5,10.0,-0.0013765455349624078,-2.0,-0.5,-10.0,476.5925543438643,0.0006638304125283792,-0.0028122283926469835,0.9999958253416117,4.654480470934053,-82.17474365234375,3831.40673828125
1594013120.0558789,0.0,5.0,0.5,0.5,-0.014273339233398437,-0.004,-0.0002,-0.006,-0.00595284113293,2.0,0.5,10.0,-0.0010121561332022153,-2.0,-0.5,-10.0,476.8727087941952,0.0006002759384234865,-0.0027074464296498566,0.999996154693921,4.640264527019232,-81.9134521484375,3830.576904296875
1594013120.1251714,0.0,5.0,0.5,0.5,-0.014449119262695312,-0.004,-0.0002,-0.006,-0.0061128549412211115,2.0,0.5,10.0,-0.001118456529083795,-2.0,-0.5,-10.0,477.05892350443173,0.0005583421813948792,-0.002636809040302891,0.9999963677394501,4.628994768392588,-81.74380493164062,3830.0263671875
1594013120.1560886,0.0,5.0,0.5,0.5,-0.015950559082031253,-0.004,-0.0002,-0.006,-0.00549400328893987,2.0,0.5,10.0,-0.0007539801434982916,-2.0,-0.5,-10.0,477.33740186551586,0.0004952014355785594,-0.0025297757921539004,0.9999966774994703,4.608589073388454,-81.49652099609375,3829.2060546875
1594013120.2260702,0.0,5.0,0.5,0.5,-0.01610904968261719,-0.004,-0.0002,-0.006,-0.005653206246383772,2.0,0.5,10.0,-0.000855258577979335,-2.0,-0.5,-10.0,477.52236593561247,0.00045320985460928795,-0.002457328410057246,0.9999968780640833,4.593571199025016,-81.33685302734375,3828.6611328125
1594013120.2898874,0.0,5.0,0.5,0.5,-0.01825675109863281,-0.004,-0.0002,-0.006,-0.004586442116858363,2.0,0.5,10.0,-0.0002556727804177261,-2.0,-0.5,-10.0,477.8900007427437,0.00037044010094509916,-0.0023115871187676077,0.9999972596658073,4.559130531591945,-81.03076171875,3827.578125
1594013120.3565607,0.0,5.0,0.5,0.5,-0.018637857055664064,-0.004,-0.0002,-0.006,-0.004672410888393297,2.0,0.5,10.0,-0.00031945402672431335,-2.0,-0.5,-10.0,478.1639980498003,0.0003090552878140185,-0.0022010455315928674,0.9999975299386479,4.531509147008671,-80.81350708007812,3826.7685546875
1594013120.4230747,0.0,5.0,0.5,0.5,-0.019442638549804686,-0.004,-0.0002,-0.006,-0.004395356803692576,2.0,0.5,10.0,-0.00017781694303636516,-2.0,-0.5,-10.0,478.4362544909818,0.00024845515534841677,-0.002089780576889659,0.9999977855411363,4.501903480308459,-80.60723876953125,3825.96240234375
1594013120.4569812,0.0,5.0,0.5,0.5,-0.02019095397949219,-0.004,-0.0002,-0.006,-0.004120314451997841,2.0,0.5,10.0,-4.3933213143786164e-05,-2.0,-0.5,-10.0,478.706558369915,0.00018914564697969236,-0.0019781364654560788,0.9999980255980749,4.469782149533103,-80.41305541992188,3825.15966796875
1594013120.5264468,0.0,5.0,0.5,0.5,-0.020296009521484373,-0.004,-0.0002,-0.006,-0.004294496108646614,2.0,0.5,10.0,-0.0001404285239779427,-2.0,-0.5,-10.0,478.88563317852095,0.0001501812657134368,-0.0019037999079101668,0.9999981764940864,4.447535042177738,-80.29046630859375,3824.6259765625
1594013120.6451292,0.0,5.0,0.5,0.5,-0.02133207336425781,-0.004,-0.0002,-0.006,-0.0036445669652136973,2.0,0.5,10.0,0.0001862901779974895,-2.0,-0.5,-10.0,479.15261140745133,9.280130126417632e-05,-0.0017917640967536669,0.9999983904833747,4.4125510565773,-80.117431640625,3823.828125
1594013120.6700633,0.0,5.0,0.5,0.5,-0.021414113159179685,-0.004,-0.0002,-0.006,-0.0038212853155540835,2.0,0.5,10.0,8.985977091408292e-05,-2.0,-0.5,-10.0,479.3263148808619,5.5399819443677304e-05,-0.0017173793845511713,0.9999985237683652,4.38863637882294,-80.009521484375,3823.296875
1594013120.724551,0.0,5.0,0.5,0.5,-0.021823712768554687,-0.004,-0.0002,-0.006,-0.0036211325598730832,2.0,0.5,10.0,0.00018519161190562407,-2.0,-0.5,-10.0,479.50209380709566,1.855791500638223e-05,-0.0016428380074302528,0.999998650368532,4.364185286687068,-79.90762329101562,3822.7666015625
1594013120.7604554,0.0,5.0,0.5,0.5,-0.022205468139648438,-0.004,-0.0002,-0.006,-0.003422937028104621,2.0,0.5,10.0,0.00027583155910225964,-2.0,-0.5,-10.0,479.6769566667499,-1.7447899847797893e-05,-0.0015683454448190848,0.9999987699933119,4.338956804698938,-79.81198120117188,3822.23779296875
1594013120.7903771,0.0,5.0,0.5,0.5,-0.022558250732421875,-0.004,-0.0002,-0.006,-0.0032263289619528595,2.0,0.5,10.0,0.00036588638995153466,-2.0,-0.5,-10.0,479.85066034377087,-5.2821275899444426e-05,-0.0014938902635776932,0.9999988827502725,4.313338483745501,-79.72268676757812,3821.70947265625
1594013120.8558373,0.0,5.0,0.5,0.5,-0.022883319702148436,-0.004,-0.0002,-0.006,-0.0030360333348209197,2.0,0.5,10.0,0.00045295519314762377,-2.0,-0.5,-10.0,480.02335716167,-8.744635983170424e-05,-0.0014200006358925366,0.9999989879751522,4.287363512750917,-79.63983154296875,3821.181640625
1594013120.922538,0.0,5.0,0.5,0.5,-0.02353308654785156,-0.004,-0.0002,-0.006,-0.0023964381259683493,2.0,0.5,10.0,0.0007359875489659344,-2.0,-0.5,-10.0,480.28063247026876,-0.00013797876584020996,-0.001308841289095838,0.9999991339477949,4.247760029391272,-79.52792358398438,3820.39111328125
1594013120.956925,0.0,5.0,0.5,0.5,-0.02385628356933594,-0.004,-0.0002,-0.006,-0.0021486745242328465,2.0,0.5,10.0,0.0008344216416836249,-2.0,-0.5,-10.0,480.53534469613805,-0.00018642930335021298,-0.0011992790509643683,0.9999992634866651,4.20758414093455,-79.4310302734375,3819.6015625
1594013121.027602,0.0,5.0,0.5,0.5,-0.02385966613769531,-0.004,-0.0002,-0.006,-0.0023249967943771255,2.0,0.5,10.0,0.0007426294680861421,-2.0,-0.5,-10.0,480.7038005552022,-0.0002173433848975143,-0.001126381131391522,0.9999993420134835,4.180655041498625,-79.37490844726562,3819.0751953125
1594013121.0565295,0.0,5.0,0.5,0.5,-0.02425445251464844,-0.004,-0.0002,-0.006,-0.0017135057094446221,2.0,0.5,10.0,0.000993826545298518,-2.0,-0.5,-10.0,480.95445301698055,-0.00026234450498847505,-0.0010182242552283774,0.9999994471972107,4.139550114688809,-79.3038330078125,3818.28759765625
1594013121.123764,0.0,5.0,0.5,0.5,-0.024233779907226565,-0.004,-0.0002,-0.006,-0.001889248335627474,2.0,0.5,10.0,0.0009086795052257291,-2.0,-0.5,-10.0,481.12022362311836,-0.00029103099434695196,-0.0009464286424938352,0.9999995097867723,4.111971416207892,-79.26522827148438,3817.7626953125
1594013121.1599572,0.0,5.0,0.5,0.5,-0.024465057373046876,-0.004,-0.0002,-0.006,-0.0012943281503239742,2.0,0.5,10.0,0.001133219932797538,-2.0,-0.5,-10.0,481.366726993816,-0.0003320488032116204,-0.000840544514165841,0.9999995916141725,4.070249098717703,-79.22064208984375,3816.975830078125
1594013121.1898532,0.0,5.0,0.5,0.5,-0.0244205322265625,-0.004,-0.0002,-0.006,-0.001470671203126939,2.0,0.5,10.0,0.0010535936107791935,-2.0,-0.5,-10.0,481.5296594259562,-0.00035798041450291836,-0.0007706564735860318,0.9999996389692462,4.0423284974346165,-79.19992065429688,3816.45166015625
1594013121.2581346,0.0,5.0,0.5,0.5,-0.024446160888671874,-0.004,-0.0002,-0.006,-0.0012963201593252736,2.0,0.5,10.0,0.0011096718585718065,-2.0,-0.5,-10.0,481.6915231849998,-0.0003826943681887623,-0.0007015212758437363,0.999999680706409,4.014313316519734,-79.18634033203125,3815.927734375
1594013121.3239908,0.0,5.0,0.5,0.5,-0.02444494079589844,-0.004,-0.0002,-0.006,-0.0007195445347559632,2.0,0.5,10.0,0.0013031861671966897,-2.0,-0.5,-10.0,481.93219773913734,-0.00041789366169428516,-0.0005994557430484448,0.9999997330088142,3.9720758205826363,-79.1795654296875,3815.14208984375
1594013121.3581553,0.0,5.0,0.5,0.5,-0.024319938964843753,-0.004,-0.0002,-0.006,-0.0004920099286617745,2.0,0.5,10.0,0.0013593951897694634,-2.0,-0.5,-10.0,482.1702484082198,-0.00045038935655580684,-0.0004991667257133913,0.9999997739909781,3.9298203489557704,-79.1890869140625,3814.35693359375
1594013121.4258263,0.0,5.0,0.5,0.5,-0.024231968994140627,-0.004,-0.0002,-0.006,-0.0006615269851003961,2.0,0.5,10.0,0.0012930685586787375,-2.0,-0.5,-10.0,482.3276268284535,-0.00047042962052983066,-0.00043355577392981164,0.9999997953626607,3.9016661685324534,-79.20449829101562,3813.833251953125
1594013121.4568214,0.0,5.0,0.5,0.5,-0.02396408447265625,-0.004,-0.0002,-0.006,-0.00011242943157754772,2.0,0.5,10.0,0.0014442850315287132,-2.0,-0.5,-10.0,482.56152643612586,-0.0004983460013511417,-0.0003367688742964497,0.9999998191189777,3.8593868768600292,-79.24118041992188,3813.04833984375
1594013121.5240073,0.0,5.0,0.5,0.5,-0.02385350158691406,-0.004,-0.0002,-0.006,-0.00028323744473181495,2.0,0.5,10.0,0.0013845658108142447,-2.0,-0.5,-10.0,482.7160052093677,-0.0005153333974010247,-0.0002739409181009533,0.9999998296939169,3.831234934470553,-79.27462768554688,3812.52490234375
1594013121.5603583,0.0,5.0,0.5,0.5,-0.02341959411621094,-0.004,-0.0002,-0.006,0.00024149379100338493,2.0,0.5,10.0,0.001506497158262914,-2.0,-0.5,-10.0,482.9456641410943,-0.0005384088813445517,-0.00018140851918215038,0.9999998386033999,3.7890910970446487,-79.33828735351562,3811.739990234375
1594013121.5893753,0.0,5.0,0.5,0.5,-0.023287862548828125,-0.004,-0.0002,-0.006,8.521279434240238e-05,2.0,0.5,10.0,0.0014556272397411559,-2.0,-0.5,-10.0,483.0974578462774,-0.0005522490231858607,-0.00012080833537175576,0.9999998402131685,3.7610690936359195,-79.38958740234375,3811.216796875
1594013121.6561532,0.0,5.0,0.5,0.5,-0.023009374389648438,-0.004,-0.0002,-0.006,0.00022739912732303225,2.0,0.5,10.0,0.0014794914013193223,-2.0,-0.5,-10.0,483.2479999301722,-0.0005646827463983032,-6.189940572771642e-05,0.9999998386509167,3.733127337959794,-79.44796752929688,3810.693359375
1594013121.724066,0.0,5.0,0.5,0.5,-0.022348638916015625,-0.004,-0.0002,-0.006,0.0007072951769097713,2.0,0.5,10.0,0.0015621380630555324,-2.0,-0.5,-10.0,483.4718596760649,-0.0005809620961234117,2.39383518227191e-05,0.9999998309549848,3.6913152907644204,-79.54861450195312,3809.908203125
1594013121.7571585,0.0,5.0,0.5,0.5,-0.021784353027343748,-0.004,-0.0002,-0.006,0.0008912932818184727,2.0,0.5,10.0,0.0015677714836743102,-2.0,-0.5,-10.0,483.6931568218861,-0.0005940685822724815,0.00010749218008460401,0.9999998177639589,3.6496766433854946,-79.66473388671875,3809.12353515625
1594013121.82625,0.0,5.0,0.5,0.5,-0.02161212646484375,-0.004,-0.0002,-0.006,0.0007450821938441996,2.0,0.5,10.0,0.0015309299368638305,-2.0,-0.5,-10.0,483.8392739070114,-0.0006010397992704843,0.0001615652235719506,0.9999998063239003,3.6220097730748706,-79.75067138671875,3808.60009765625
1594013121.8567905,0.0,5.0,0.5,0.5,-0.020703060302734375,-0.004,-0.0002,-0.006,0.001178217198724821,2.0,0.5,10.0,0.00156629356687321,-2.0,-0.5,-10.0,484.05645067233127,-0.0006090330070297006,0.00023954975619053955,0.9999997858473324,3.580770092283059,-79.89199829101562,3807.814453125
1594013121.9242473,0.0,5.0,0.5,0.5,-0.020513709106445312,-0.004,-0.0002,-0.006,0.0010403739235007102,2.0,0.5,10.0,0.001540181180280705,-2.0,-0.5,-10.0,484.1998211198952,-0.0006128569660693643,0.00028997194176275473,0.9999997701612796,3.5534038114494306,-79.99432373046875,3807.291015625
1594013121.9617012,0.0,5.0,0.5,0.5,-0.01945811767578125,-0.004,-0.0002,-0.006,0.0014387169696081974,2.0,0.5,10.0,0.0015431852481444886,-2.0,-0.5,-10.0,484.4128478805069,-0.0006157004903179846,0.00036217098476650563,0.9999997448725096,3.512619576210198,-80.15969848632812,3806.505126953125
1594013121.990665,0.0,5.0,0.5,0.5,-0.019252186279296875,-0.004,-0.0002,-0.006,0.0013074744965297573,2.0,0.5,10.0,0.0015201461940179302,-2.0,-0.5,-10.0,484.55350268783513,-0.0006156611956439265,0.00040848773176699907,0.9999997270494954,3.4855721622881566,-80.27767944335938,3805.981201171875
1594013122.0577712,0.0,5.0,0.5,0.5,-0.018699776611328125,-0.004,-0.0002,-0.006,0.0014143836907809326,2.0,0.5,10.0,0.0015095174638930786,-2.0,-0.5,-10.0,484.6931496791076,-0.0006143246900791284,0.00045315066774722506,0.9999997086297813,3.4586596663083573,-80.40170288085938,3805.457275390625
1594013122.1244345,0.0,5.0,0.5,0.5,-0.01745304443359375,-0.004,-0.0002,-0.006,0.0017692129724010677,2.0,0.5,10.0,0.0014704773962206689,-2.0,-0.5,-10.0,484.90046937798616,-0.0006096412805993684,0.0005172948912535523,0.9999996803717011,3.418634623940191,-80.59866333007812,3804.6708984375
1594013122.1568174,0.0,5.0,0.5,0.5,-0.01651315246582031,-0.004,-0.0002,-0.006,0.001884078511255507,2.0,0.5,10.0,0.0014275237573031722,-2.0,-0.5,-10.0,485.1055007900577,-0.000601919835050554,0.0005776617756357561,0.9999996519996319,3.3788707382794625,-80.80841064453125,3803.88427734375
1594013122.2274826,0.0,5.0,0.5,0.5,-0.016277142333984376,-0.004,-0.0002,-0.006,0.0017670681052627815,2.0,0.5,10.0,0.001424882511493352,-2.0,-0.5,-10.0,485.24084436893463,-0.0005951100387396726,0.0006155518071991843,0.9999996334699401,3.352492373926076,-80.95513916015625,3803.35986328125
1594013122.2584,0.0,5.0,0.5,0.5,-0.014831104125976562,-0.004,-0.0002,-0.006,0.0020642271680846066,2.0,0.5,10.0,0.0013396229853688921,-2.0,-0.5,-10.0,485.44196968944743,-0.0005822712982093321,0.0006694250326731247,0.9999996064150531,3.3133255275654108,-81.18496704101562,3802.572509765625
1594013122.2914565,0.0,5.0,0.5,0.5,-0.014586038818359376,-0.004,-0.0002,-0.006,0.0019583830722353195,2.0,0.5,10.0,0.0013462369198514194,-2.0,-0.5,-10.0,485.57462810294237,-0.0005721726643245221,0.0007031576590281822,0.99999958909379,3.287384086728928,-81.34432983398438,3802.04736328125
1594013122.3607514,0.0,5.0,0.5,0.5,-0.013868496704101563,-0.004,-0.0002,-0.006,0.002028606980809682,2.0,0.5,10.0,0.0013074119531795486,-2.0,-0.5,-10.0,485.7064323419472,-0.0005606420019267993,0.0007348635382241927,0.9999995728279716,3.2616079448732447,-81.50851440429688,3801.5224609375
1594013122.3914592,0.0,5.0,0.5,0.5,-0.012275192260742187,-0.004,-0.0002,-0.006,0.0022684821985291927,2.0,0.5,10.0,0.001187690427697545,-2.0,-0.5,-10.0,485.9020340985153,-0.0005412579519931255,0.0007792108982723539,0.9999995499350014,3.2233469881805257,-81.76312255859375,3800.734375
1594013122.4585495,0.0,5.0,0.5,0.5,-0.012015756225585938,-0.004,-0.0002,-0.006,0.002173166125398387,2.0,0.5,10.0,0.0012018160969172777,-2.0,-0.5,-10.0,486.03115259704646,-0.0005265800453753593,0.0008061855298994643,0.9999995363890661,3.1979822879919904,-81.93829345703125,3800.208740234375
1594013122.5239568,0.0,5.0,0.5,0.5,-0.010328267822265626,-0.004,-0.0002,-0.006,0.0023743692465450312,2.0,0.5,10.0,0.0010544432393308288,-2.0,-0.5,-10.0,486.22290726250503,-0.0005024387202489444,0.0008435812557462227,0.9999995179628824,3.16029018654472,-82.20858764648438,3799.419921875
1594013122.5582309,0.0,5.0,0.5,0.5,-0.009125465087890625,-0.004,-0.0002,-0.006,0.0024191473423067224,2.0,0.5,10.0,0.0009663085909458642,-2.0,-0.5,-10.0,486.412527090637,-0.00047544815559233064,0.0008766629789154156,0.9999995027054128,3.12294719417661,-82.4871826171875,3798.63134765625
1594013122.6274273,0.0,5.0,0.5,0.5,-0.008854080200195312,-0.004,-0.0002,-0.006,0.002342717767194775,2.0,0.5,10.0,0.0009966145268924546,-2.0,-0.5,-10.0,486.5377393118106,-0.00045606016526773005,0.0008960973156672132,0.9999994945092356,3.0981963559552623,-82.67730712890625,3798.10498046875
1594013122.6592,0.0,5.0,0.5,0.5,-0.00704370849609375,-0.004,-0.0002,-0.006,0.002474617490779337,2.0,0.5,10.0,0.0008130061458286053,-2.0,-0.5,-10.0,486.72354348236695,-0.0004252427295557906,0.0009217058964907011,0.9999994848132979,3.061529655797373,-82.96826171875,3797.3154296875
1594013122.7255356,0.0,5.0,0.5,0.5,-0.006772362060546875,-0.004,-0.0002,-0.006,0.0024159248829311933,2.0,0.5,10.0,0.0008456292338058723,-2.0,-0.5,-10.0,486.84631464933045,-0.00040301627840017484,0.0009367218126860334,0.9999994800649273,3.037269634832414,-83.1656494140625,3796.788818359375
1594013122.7613096,0.0,5.0,0.5,0.5,-0.0049043603515625,-0.004,-0.0002,-0.006,0.00250097028856645,2.0,0.5,10.0,0.0006378490217996632,-2.0,-0.5,-10.0,487.02854874241166,-0.0003679796087713922,0.0009549839849622199,0.9999994762981609,3.001255205415929,-83.46646118164062,3795.99853515625
1594013122.7919345,0.0,5.0,0.5,0.5,-0.00463113037109375,-0.004,-0.0002,-0.006,0.0024504094176514054,2.0,0.5,10.0,0.0006817383234526558,-2.0,-0.5,-10.0,487.1488476708764,-0.00034333270792448077,0.0009647992269815837,0.9999994756424143,2.977434075369719,-83.66970825195312,3795.471435546875
1594013122.8585653,0.0,5.0,0.5,0.5,-0.0037521032714843746,-0.004,-0.0002,-0.006,0.002454958510717695,2.0,0.5,10.0,0.0006087048843613709,-2.0,-0.5,-10.0,487.26823121646885,-0.0003176610037794477,0.0009722675132201052,0.9999994768935478,2.9537865917097794,-83.87490844726562,3794.9443359375
1594013122.8939147,0.0,5.0,0.5,0.5,-0.00182898193359375,-0.004,-0.0002,-0.006,0.002490140877194941,2.0,0.5,10.0,0.00037631162519146907,-2.0,-0.5,-10.0,487.445550676086,-0.0002779142328867089,0.0009804337657294939,0.9999994807565203,2.9187464728546906,-84.18560791015625,3794.15283203125
1594013122.9583797,0.0,5.0,0.5,0.5,-0.0015564111328125,-0.004,-0.0002,-0.006,0.0024495950300897026,2.0,0.5,10.0,0.000425075848070372,-2.0,-0.5,-10.0,487.5625843607122,-0.00024995287454561194,0.0009830217269474765,0.9999994855957901,2.895534409453059,-84.39443969726562,3793.62548828125
1594013122.9923894,0.0,5.0,0.5,0.5,0.00039127136230468766,-0.004,-0.0002,-0.006,0.0024413218929932746,2.0,0.5,10.0,0.0001709845427224675,-2.0,-0.5,-10.0,487.73639558139257,-0.0002066300803608297,0.0009837521157167264,0.9999994947677647,2.8610877054047563,-84.7095947265625,3792.833251953125
1594013123.0590215,0.0,5.0,0.5,0.5,0.0006591259765625,-0.004,-0.0002,-0.006,0.0024166467919622416,2.0,0.5,10.0,0.00023312467564135176,-2.0,-0.5,-10.0,487.8511100084288,-0.00017693863228295198,0.0009817204693553048,0.9999995024586964,2.8383063386315532,-84.92047119140625,3792.30517578125
1594013123.0921855,0.0,5.0,0.5,0.5,0.0026123937988281254,-0.004,-0.0002,-0.006,0.002356563606122509,2.0,0.5,10.0,-3.781838121655822e-05,-2.0,-0.5,-10.0,488.02141060773283,-0.0001308609604936838,0.0009745827590239761,0.9999995165318105,2.8045031342830264,-85.23745727539062,3791.5126953125
1594013123.1639225,0.0,5.0,0.5,0.5,0.0028741070556640626,-0.004,-0.0002,-0.006,0.0023469574002109254,2.0,0.5,10.0,3.069315671480296e-05,-2.0,-0.5,-10.0,488.13395791873336,-9.952719218346562e-05,0.0009675071272412505,0.9999995270120364,2.7821538664295415,-85.44869995117188,3790.984375
1594013123.1943204,0.0,5.0,0.5,0.5,0.0048191015625,-0.004,-0.0002,-0.006,0.002248337871460203,2.0,0.5,10.0,-0.00025410337820587947,-2.0,-0.5,-10.0,488.30102428700775,-5.103982208727828e-05,0.0009532016348982916,0.9999995444006863,2.7489976992328926,-85.76498413085938,3790.19091796875
1594013123.2625623,0.0,5.0,0.5,0.5,0.0050729925537109375,-0.004,-0.0002,-0.006,0.0022503535311805207,2.0,0.5,10.0,-0.00017945267304878104,-2.0,-0.5,-10.0,488.41125189478043,-1.832114100485077e-05,0.0009413796969966346,0.9999995567342027,2.7270767423722697,-85.97494506835938,3789.662109375
1594013123.300462,0.0,5.0,0.5,0.5,0.006994805297851563,-0.004,-0.0002,-0.006,0.0021154894455469872,2.0,0.5,10.0,-0.0004724875404910746,-2.0,-0.5,-10.0,488.5750831933692,3.1907088568336026e-05,0.0009203460928089826,0.9999995759724137,2.6945601483695762,-86.2880859375,3788.8681640625
1594013123.3303819,0.0,5.0,0.5,0.5,0.007238945312500001,-0.004,-0.0002,-0.006,0.0021255011988876313,2.0,0.5,10.0,-0.00039846827878033136,-2.0,-0.5,-10.0,488.68320597254205,6.603217558470969e-05,0.0009038376234900454,0.9999995893585667,2.673064181666658,-86.49514770507812,3788.3388671875
1594013123.3994122,0.0,5.0,0.5,0.5,0.008104033203125001,-0.004,-0.0002,-0.006,0.002067068012836507,2.0,0.5,10.0,-0.0004894792084231031,-2.0,-0.5,-10.0,488.79041175975,0.00010045527065456807,0.0008854962580938793,0.999999602902479,2.6517422772176467,-86.70065307617188,3787.809326171875
1594013123.4344435,0.0,5.0,0.5,0.5,0.009966345825195313,-0.004,-0.0002,-0.006,0.0018778150779067244,2.0,0.5,10.0,-0.0007915005904608988,-2.0,-0.5,-10.0,488.94963526527863,0.00015273309211784436,0.0008548362819680741,0.9999996229636957,2.6201716285423617,-87.00515747070312,3787.0146484375
1594013123.4994614,0.0,5.0,0.5,0.5,0.010194707641601564,-0.004,-0.0002,-0.006,0.0019041735360932116,2.0,0.5,10.0,-0.0007085199715901667,-2.0,-0.5,-10.0,489.05488853901625,0.0001877050335702492,0.0008320169460661912,0.9999996362572449,2.599269262524323,-87.20547485351562,3786.48486328125
1594013123.5345597,0.0,5.0,0.5,0.5,0.012000789794921876,-0.004,-0.0002,-0.006,0.0016775537329080917,2.0,0.5,10.0,-0.0010195892296102735,-2.0,-0.5,-10.0,489.21105896751396,0.0002411276933075493,0.000794748079089406,0.9999996551164037,2.5682690200054297,-87.50128173828125,3785.689453125
1594013123.600383,0.0,5.0,0.5,0.5,0.012213599853515625,-0.004,-0.0002,-0.006,0.0017163653500003372,2.0,0.5,10.0,-0.0009365286284505005,-2.0,-0.5,-10.0,489.3141761769075,0.0002769829166353579,0.0007677040429925467,0.9999996669554277,2.547779199054134,-87.69488525390625,3785.158935546875
1594013123.6352901,0.0,5.0,0.5,0.5,0.013946281127929687,-0.004,-0.0002,-0.006,0.001459403178002375,2.0,0.5,10.0,-0.001242193636045687,-2.0,-0.5,-10.0,489.4672059204895,0.0003306350038867596,0.0007246158265621314,0.9999996828061487,2.517389414011948,-87.97940063476562,3784.36328125
1594013123.706392,0.0,5.0,0.5,0.5,0.014142830200195314,-0.004,-0.0002,-0.006,0.0015098022628637212,2.0,0.5,10.0,-0.0011549998857895054,-2.0,-0.5,-10.0,489.5682773676235,0.00036628658825795326,0.0006939209503613939,0.9999996921538776,2.4972996507937855,-88.16470336914062,3783.832275390625
1594013123.7393057,0.0,5.0,0.5,0.5,0.015788663940429687,-0.004,-0.0002,-0.006,0.001209929135034387,2.0,0.5,10.0,-0.0014645646530220676,-2.0,-0.5,-10.0,489.7183751973789,0.00042005444579355637,0.0006444327957272385,0.9999997041302734,2.467508952219179,-88.4356689453125,3783.0361328125
1594013123.7727172,0.0,5.0,0.5,0.5,0.015967456054687502,-0.004,-0.0002,-0.006,0.0012756689657420933,2.0,0.5,10.0,-0.0013761864843809914,-2.0,-0.5,-10.0,489.8174943571212,0.00045566958140814257,0.0006099082648463736,0.9999997101885286,2.447824239873477,-88.6112060546875,3782.5048828125
1594013123.8455253,0.0,5.0,0.5,0.5,0.01667395263671875,-0.004,-0.0002,-0.006,0.001172230262623341,2.0,0.5,10.0,-0.0014699172368799142,-2.0,-0.5,-10.0,489.91575932560954,0.0004913940800750421,0.0005738114214689344,0.9999997146361146,2.4283002623231655,-88.78253173828125,3781.9736328125
1594013123.9083896,0.0,5.0,0.5,0.5,0.018979099731445313,-0.004,-0.0002,-0.006,0.0005994118441299194,2.0,0.5,10.0,-0.0019818608790674796,-2.0,-0.5,-10.0,490.10999925469514,0.0005620541245443791,0.0004973709596217046,0.9999997183586051,2.3898324642706275,-89.11126708984375,3780.91015625
1594013123.9432957,0.0,5.0,0.5,0.5,0.01862655517578125,-0.004,-0.0002,-0.006,0.0008635902767112569,2.0,0.5,10.0,-0.0017181851981800105,-2.0,-0.5,-10.0,490.20594477956183,0.00059704119297033,0.00045730263287442526,0.999999717208018,2.370784696884936,-89.2684326171875,3780.37841796875
1594013124.0110817,0.0,5.0,0.5,0.5,0.019990485229492188,-0.004,-0.0002,-0.006,0.0004916573561008751,2.0,0.5,10.0,-0.0020142885332687394,-2.0,-0.5,-10.0,490.3485047640279,0.0006490210774957978,0.00039457434073871754,0.9999997115413236,2.342490538084572,-89.49459838867188,3779.58056640625
1594013124.0779018,0.0,5.0,0.5,0.5,0.02081733459472656,-0.004,-0.0002,-0.006,0.0003179491738561392,2.0,0.5,10.0,-0.002130329743011493,-2.0,-0.5,-10.0,490.4893561619101,0.0007000855985625607,0.0003296477596274309,0.9999997006062098,2.3146242910406323,-89.70840454101562,3778.7822265625
1594013124.14672,0.0,5.0,0.5,0.5,0.0215906640625,-0.004,-0.0002,-0.006,0.00013229767924492536,2.0,0.5,10.0,-0.002242800297767044,-2.0,-0.5,-10.0,490.6286202870542,0.0007500995877425964,0.0002620092354815158,0.9999996843508347,2.287002892132244,-89.90960693359375,3777.98388671875
1594013124.2165308,0.0,5.0,0.5,0.5,0.02290127014160156,-0.004,-0.0002,-0.006,-0.00034096247658956566,2.0,0.5,10.0,-0.0025534458384841078,-2.0,-0.5,-10.0,490.81169147673063,0.0008156937209894346,0.00016831251407167493,0.9999996531572654,2.25070501352499,-90.1569595336914,3776.9189453125
1594013124.2554243,0.0,5.0,0.5,0.5,0.022604199371337893,-0.004,-0.0002,-0.006,-8.030734476628947e-06,2.0,0.5,10.0,-0.0023059714447567258,-2.0,-0.5,-10.0,490.9022345220437,0.0008477115545632569,0.00012029415520826249,0.9999996334571511,2.2327803738683087,-90.27130889892578,3776.385986328125
1594013124.3142707,0.0,5.0,0.5,0.5,0.023553558044433598,-0.004,-0.0002,-0.006,-0.00044115214855398746,2.0,0.5,10.0,-0.0025695653124064655,-2.0,-0.5,-10.0,491.0365854204865,0.000894353300819315,4.657551662877695e-05,0.9999995989813668,2.2061980896254454,-90.4306411743164,3775.58642578125
1594013124.391062,0.0,5.0,0.5,0.5,0.02407934310913086,-0.004,-0.0002,-0.006,-0.0006339512778342141,2.0,0.5,10.0,-0.002669687484075445,-2.0,-0.5,-10.0,491.16925808170345,0.0009395886917758377,-2.843220429790296e-05,0.9999995581822523,2.1800202139708933,-90.5748291015625,3774.78662109375
1594013124.4538932,0.0,5.0,0.5,0.5,0.024938210906982426,-0.004,-0.0002,-0.006,-0.00115352379207948,2.0,0.5,10.0,-0.0029399543000418493,-2.0,-0.5,-10.0,491.3438757444965,0.0009977907559436082,-0.00013157659596914055,0.9999994935504752,2.1455010721127548,-90.74330139160156,3773.719970703125
1594013124.5237107,0.0,5.0,0.5,0.5,0.02504630447387695,-0.004,-0.0002,-0.006,-0.0010963375721298192,2.0,0.5,10.0,-0.0028815978311110438,-2.0,-0.5,-10.0,491.47297700634226,0.0010393194508563975,-0.00020982562062670817,0.9999994378939859,2.1199917072115864,-90.85127258300781,3772.91943359375
1594013124.5905316,0.0,5.0,0.5,0.5,0.025349796600341798,-0.004,-0.0002,-0.006,-0.0013028563539041812,2.0,0.5,10.0,-0.002967756378935945,-2.0,-0.5,-10.0,491.6005516987061,0.0010791179700761636,-0.0002892963872381763,0.9999993759058086,2.094845999469243,-90.94292449951172,3772.11865234375
1594013124.6274352,0.0,5.0,0.5,0.5,0.025583497009277346,-0.004,-0.0002,-0.006,-0.0015054772405911484,2.0,0.5,10.0,-0.0030510049983697085,-2.0,-0.5,-10.0,491.7266332192812,0.0011172121344741747,-0.0003692962707211778,0.999999307728416,2.0699740717960498,-91.01793670654297,3771.31787109375
1594013124.6655843,0.0,5.0,0.5,0.5,0.02557114761352539,-0.004,-0.0002,-0.006,-0.0013868584600565984,2.0,0.5,10.0,-0.0029835272816971115,-2.0,-0.5,-10.0,491.80994308250956,0.0011413833323457242,-0.00042289514769805036,0.9999992592016169,2.0535462456903133,-91.05866241455078,3770.78369140625
1594013124.7014866,0.0,5.0,0.5,0.5,0.025685753479003908,-0.004,-0.0002,-0.006,-0.0015329373835969813,2.0,0.5,10.0,-0.0030410721206655038,-2.0,-0.5,-10.0,491.892552033416,0.0011644826599286184,-0.00047659852669328654,0.9999992084166762,2.037295948307579,-91.09185791015625,3770.24951171875
1594013124.7353964,0.0,5.0,0.5,0.5,0.02576634429931641,-0.004,-0.0002,-0.006,-0.001685229978798814,2.0,0.5,10.0,-0.0031019691308520115,-2.0,-0.5,-10.0,491.97454991342966,0.0011870802542957974,-0.0005309648597804078,0.9999991544580362,2.021222676995867,-91.11746978759766,3769.71484375
1594013124.8015924,0.0,5.0,0.5,0.5,0.025812242126464845,-0.004,-0.0002,-0.006,-0.0018280352795171373,2.0,0.5,10.0,-0.003150298814620788,-2.0,-0.5,-10.0,492.05578697822057,0.0012083916126937348,-0.000585256923355152,0.9999990986316158,2.005285722578689,-91.13550567626953,3769.18017578125
1594013124.836499,0.0,5.0,0.5,0.5,0.025848721618652346,-0.004,-0.0002,-0.006,-0.0022937139556604876,2.0,0.5,10.0,-0.0033174958034524497,-2.0,-0.5,-10.0,492.17673971445765,0.001238581326852444,-0.0006663670698520372,0.9999990109351234,1.9816350943779284,-91.14824676513672,3768.37841796875
1594013124.9005086,0.0,5.0,0.5,0.5,0.0257760986328125,-0.004,-0.0002,-0.006,-0.0021694075380200547,2.0,0.5,10.0,-0.003257932052165446,-2.0,-0.5,-10.0,492.25648017937783,0.0012573414926023135,-0.000720629396352402,0.9999989498922707,1.9659850271812411,-91.1471939086914,3767.843505859375
1594013124.943392,0.0,5.0,0.5,0.5,0.025634103546142577,-0.004,-0.0002,-0.006,-0.0026315878697268213,2.0,0.5,10.0,-0.0034071523800714406,-2.0,-0.5,-10.0,492.37496112810913,0.0012840860213825939,-0.0008014788744447096,0.9999988543766957,1.94277562509034,-91.13121795654297,3767.041015625
1594013124.980813,0.0,5.0,0.5,0.5,0.025535462341308594,-0.004,-0.0002,-0.006,-0.002503714261146713,2.0,0.5,10.0,-0.003350536418506376,-2.0,-0.5,-10.0,492.45305316336453,0.0013004622349630764,-0.0008554060459796419,0.9999987885385022,1.9274427917578196,-91.11099243164062,3766.505859375
1594013125.0346696,0.0,5.0,0.5,0.5,0.025383155517578127,-0.004,-0.0002,-0.006,-0.002638389798139444,2.0,0.5,10.0,-0.0033771527059553597,-2.0,-0.5,-10.0,492.5307481281925,0.0013152390086337827,-0.0009088783985691759,0.9999987220423867,1.9122366271616935,-91.0831069946289,3765.970703125
1594013125.1044843,0.0,5.0,0.5,0.5,0.024767520446777345,-0.004,-0.0002,-0.006,-0.003413780639898914,2.0,0.5,10.0,-0.003570801711380144,-2.0,-0.5,-10.0,492.6840340303024,0.0013427065661507798,-0.0010154730041598643,0.9999985829758234,1.8822705168634128,-91.00453186035156,3764.900146484375
1594013125.1463673,0.0,5.0,0.5,0.5,0.024732111358642575,-0.004,-0.0002,-0.006,-0.0030112640773796665,2.0,0.5,10.0,-0.0034555489693773376,-2.0,-0.5,-10.0,492.759960076306,0.0013550522421160577,-0.0010680663922195061,0.9999985115326937,1.8674383426893237,-90.95387268066406,3764.36474609375
1594013125.2093637,0.0,5.0,0.5,0.5,0.024133854675292967,-0.004,-0.0002,-0.006,-0.0034503229014283495,2.0,0.5,10.0,-0.0035366733158904763,-2.0,-0.5,-10.0,492.87249031011015,0.0013712103805058411,-0.0011457942374210918,0.9999984034675544,1.8454120570023123,-90.86386108398438,3763.561279296875
1594013125.244267,0.0,5.0,0.5,0.5,0.023976996765136722,-0.004,-0.0002,-0.006,-0.0033265338685936085,2.0,0.5,10.0,-0.0034944964587902685,-2.0,-0.5,-10.0,492.9467976948945,0.0013802993922365715,-0.0011974633735581522,0.9999983304261346,1.8308833559904183,-90.79462432861328,3763.025634765625
1594013125.3081007,0.0,5.0,0.5,0.5,0.02362042694091797,-0.004,-0.0002,-0.006,-0.0034491678176310405,2.0,0.5,10.0,-0.0035133595358761796,-2.0,-0.5,-10.0,493.02049208816607,0.0013886404120279196,-0.0012479634056180814,0.9999982571310533,1.8145896276489846,-90.71807098388672,3762.49267578125
1594013125.3459985,0.0,5.0,0.5,0.5,0.02278821044921875,-0.004,-0.0002,-0.006,-0.0038766798581646137,2.0,0.5,10.0,-0.0035577097419787185,-2.0,-0.5,-10.0,493.1298802261008,0.0013985360756986955,-0.0013229114920363912,0.9999981469992977,1.7908717355734014,-90.58975219726562,3761.69189453125
1594013125.410836,0.0,5.0,0.5,0.5,0.022602434234619138,-0.004,-0.0002,-0.006,-0.0037485003096858075,2.0,0.5,10.0,-0.0035292045182593367,-2.0,-0.5,-10.0,493.2020212140633,0.0014037405486608675,-0.001371950999919314,0.9999980736296075,1.775243422287914,-90.49530029296875,3761.158203125
1594013125.444744,0.0,5.0,0.5,0.5,0.021608790283203123,-0.004,-0.0002,-0.006,-0.0041499152962902455,2.0,0.5,10.0,-0.0035533478631465548,-2.0,-0.5,-10.0,493.3089996067574,0.001409479558803035,-0.0014435546653572575,0.9999979647565796,1.7525289797773076,-90.34056854248047,3760.3564453125
1594013125.481659,0.0,5.0,0.5,0.5,0.021404805908203126,-0.004,-0.0002,-0.006,-0.0040329920906355485,2.0,0.5,10.0,-0.003529742452298337,-2.0,-0.5,-10.0,493.3796749028843,0.0014117724766115713,-0.00149080547028885,0.9999978921965404,1.7379284004790603,-90.22891235351562,3759.8212890625
1594013125.5500546,0.0,5.0,0.5,0.5,0.020873706054687503,-0.004,-0.0002,-0.006,-0.004141211068111937,2.0,0.5,10.0,-0.003525335206976725,-2.0,-0.5,-10.0,493.44974067318253,0.0014128521783350152,-0.001536551891586921,0.9999978214261301,1.7235378047823855,-90.1105728149414,3759.285888671875
1594013125.585938,0.0,5.0,0.5,0.5,0.019668159179687502,-0.004,-0.0002,-0.006,-0.0045271649519357925,2.0,0.5,10.0,-0.0035154547151460777,-2.0,-0.5,-10.0,493.5536650643917,0.001412521833911576,-0.0016042214267663942,0.9999977156252322,1.702869523940051,-89.92095947265625,3758.481689453125
1594013125.6218493,0.0,5.0,0.5,0.5,0.019440478820800782,-0.004,-0.0002,-0.006,-0.004400872393060426,2.0,0.5,10.0,-0.003503842538973155,-2.0,-0.5,-10.0,493.6224192758091,0.0014109879685952965,-0.0016476352077488142,0.9999976472028196,1.6892325872180707,-89.78659057617188,3757.945556640625
1594013125.6841974,0.0,5.0,0.5,0.5,0.018818012084960936,-0.004,-0.0002,-0.006,-0.004508907384466077,2.0,0.5,10.0,-0.0034880094989644824,-2.0,-0.5,-10.0,493.6905630013207,0.0014081572619706773,-0.001690401404453263,0.99999757981518,1.6757551147537677,-89.64605712890625,3757.4091796875
1594013125.7200992,0.0,5.0,0.5,0.5,0.017418228759765626,-0.004,-0.0002,-0.006,-0.004856487147031971,2.0,0.5,10.0,-0.003439488157518356,-2.0,-0.5,-10.0,493.7916809991002,0.0014016009493235473,-0.001752735685391494,0.9999974817130272,1.6562200788602457,-89.4241943359375,3756.603759765625
1594013125.7886388,0.0,5.0,0.5,0.5,0.017170788421630858,-0.004,-0.0002,-0.006,-0.004735566362795892,2.0,0.5,10.0,-0.003437519780387902,-2.0,-0.5,-10.0,493.85848131403327,0.0013958845675355388,-0.0017922905528543745,0.9999974195970949,1.6438072299461957,-89.26907348632812,3756.06591796875
1594013125.8584507,0.0,5.0,0.5,0.5,0.014805932006835937,-0.004,-0.0002,-0.006,-0.005282115519222504,2.0,0.5,10.0,-0.0033108724880017886,-2.0,-0.5,-10.0,493.9907995687099,0.0013805367910320737,-0.0018685306756621746,0.9999973013519999,1.6193589535037827,-88.94241333007812,3754.990234375
1594013125.9262738,0.0,5.0,0.5,0.5,0.014146886596679687,-0.004,-0.0002,-0.006,-0.00519845396952541,2.0,0.5,10.0,-0.0032896665070430427,-2.0,-0.5,-10.0,494.08865006186534,0.001366054809218735,-0.0019228189022621428,0.9999972183269947,1.601240119241655,-88.68380737304688,3754.18310546875
1594013125.960181,0.0,5.0,0.5,0.5,0.01296484375,-0.004,-0.0002,-0.006,-0.005290216279384011,2.0,0.5,10.0,-0.0032240074202925023,-2.0,-0.5,-10.0,494.18534079380333,0.00134867192439275,-0.0019734106673239046,0.9999971433631092,1.5832652962541394,-88.4140625,3753.37646484375
1594013126.0343804,0.0,5.0,0.5,0.5,0.012690534820556642,-0.004,-0.0002,-0.006,-0.005201758238118657,2.0,0.5,10.0,-0.0032391912260518693,-2.0,-0.5,-10.0,494.24930269957986,0.0013357048693277524,-0.002005991234761732,0.9999970959416173,1.5713670161833377,-88.2286376953125,3752.83837890625
1594013126.0633426,0.0,5.0,0.5,0.5,0.01090388626098633,-0.004,-0.0002,-0.006,-0.005453833067870083,2.0,0.5,10.0,-0.003108845941202812,-2.0,-0.5,-10.0,494.34425412968267,0.001314353831399849,-0.002052001336087237,0.9999970308778535,1.5536709482348787,-87.94271850585938,3752.03125
1594013126.0974312,0.0,5.0,0.5,0.5,0.010620783081054687,-0.004,-0.0002,-0.006,-0.00536281806979956,2.0,0.5,10.0,-0.003124060850634905,-2.0,-0.5,-10.0,494.4069638024084,0.0012982396186915005,-0.0020806107980005295,0.9999969928117783,1.541960527775055,-87.7471923828125,3751.4931640625
1594013126.1692402,0.0,5.0,0.5,0.5,0.009758582153320313,-0.004,-0.0002,-0.006,-0.005433927088423366,2.0,0.5,10.0,-0.003080662958056341,-2.0,-0.5,-10.0,494.46930981078185,0.0012816707929497466,-0.0021083928121001148,0.9999969559952312,1.5303238465296163,-87.54800415039062,3750.955078125
1594013126.2001579,0.0,5.0,0.5,0.5,0.007858402709960938,-0.004,-0.0002,-0.006,-0.00563748045998359,2.0,0.5,10.0,-0.002910147898484106,-2.0,-0.5,-10.0,494.56197152787354,0.0012541926714324553,-0.002146587448128324,0.9999969095767599,1.512952724755553,-87.24295043945312,3750.148193359375
1594013126.2689724,0.0,5.0,0.5,0.5,0.007567298583984375,-0.004,-0.0002,-0.006,-0.005557816877021502,2.0,0.5,10.0,-0.0029426460533431772,-2.0,-0.5,-10.0,494.6230650995858,0.0012346439355335444,-0.0021698769043896784,0.9999968836394303,1.5014550866913727,-87.03561401367188,3749.610107421875
1594013126.305873,0.0,5.0,0.5,0.5,0.005601314086914063,-0.004,-0.0002,-0.006,-0.005734185404006452,2.0,0.5,10.0,-0.00274434780869879,-2.0,-0.5,-10.0,494.71383568365127,0.0012025241227882114,-0.002202244073443727,0.9999968520234327,1.484364266919537,-86.71939086914062,3748.802734375
1594013126.3377888,0.0,5.0,0.5,0.5,0.005309292602539063,-0.004,-0.0002,-0.006,-0.005668553063441398,2.0,0.5,10.0,-0.0027906789534090366,-2.0,-0.5,-10.0,494.77376836759504,0.001180424209412735,-0.0022220392129392243,0.999996834565201,1.4730644331967828,-86.50555419921875,3748.2646484375
1594013126.4078684,0.0,5.0,0.5,0.5,0.004383236083984375,-0.004,-0.0002,-0.006,-0.005706416729315249,2.0,0.5,10.0,-0.002715583742810663,-2.0,-0.5,-10.0,494.83351991162635,0.001156583483140054,-0.0022402175157696384,0.999996821865014,1.4618466814455682,-86.28952026367188,3747.7265625
1594013126.44477,0.0,5.0,0.5,0.5,0.0023582385253906255,-0.004,-0.0002,-0.006,-0.005830655053078637,2.0,0.5,10.0,-0.0024992961394086108,-2.0,-0.5,-10.0,494.9219094393775,0.0011195650414879768,-0.0022643968008856513,0.9999968095355335,1.445200443106505,-85.96218872070312,3746.9189453125
1594013126.4747152,0.0,5.0,0.5,0.5,0.0020710418701171875,-0.004,-0.0002,-0.006,-0.005776668176019393,2.0,0.5,10.0,-0.0025438948042686336,-2.0,-0.5,-10.0,494.9803476834204,0.0010933875075283509,-0.002278834856504218,0.9999968057026258,1.4341898783825844,-85.74197387695312,3746.380615234375
1594013126.5445375,0.0,5.0,0.5,0.5,0.00112793701171875,-0.004,-0.0002,-0.006,-0.00579352069948357,2.0,0.5,10.0,-0.0024648103135642262,-2.0,-0.5,-10.0,495.0383587561082,0.0010659921773441261,-0.002291134098051111,0.9999968071775142,1.423259781975625,-85.5205078125,3745.84228515625
1594013126.5814037,0.0,5.0,0.5,0.5,-0.0009291131591796875,-0.004,-0.0002,-0.006,-0.0058765251917523445,2.0,0.5,10.0,-0.0022111717067646967,-2.0,-0.5,-10.0,495.12442823674064,0.0010230610251825436,-0.00230730412052107,0.9999968148418444,1.4070421961031507,-85.186767578125,3745.03466796875
1594013126.6492221,0.0,5.0,0.5,0.5,-0.0012102410888671876,-0.004,-0.0002,-0.006,-0.005826539740364244,2.0,0.5,10.0,-0.0022720734830849105,-2.0,-0.5,-10.0,495.1814016296994,0.00099350679054753,-0.0023156691294531923,0.9999968253053307,1.3963172039016458,-84.96353149414062,3744.496337890625
1594013126.6831317,0.0,5.0,0.5,0.5,-0.0032760906982421878,-0.004,-0.0002,-0.006,-0.005869679377692921,2.0,0.5,10.0,-0.002003096091457872,-2.0,-0.5,-10.0,495.2659768779995,0.0009476641623927745,-0.002325371288685046,0.9999968472855327,1.380393300692492,-84.628173828125,3743.6884765625
1594013126.7220285,0.0,5.0,0.5,0.5,-0.0035495166015625,-0.004,-0.0002,-0.006,-0.005831737934774359,2.0,0.5,10.0,-0.0020586684843423024,-2.0,-0.5,-10.0,495.3219434864586,0.0009153702071251796,-0.002329549701799391,0.9999968676428795,1.36987203686334,-84.40484619140625,3743.14990234375
1594013126.784859,0.0,5.0,0.5,0.5,-0.004491170043945313,-0.004,-0.0002,-0.006,-0.005832341828129159,2.0,0.5,10.0,-0.0019689582017307053,-2.0,-0.5,-10.0,495.37739020504523,0.000882313028052919,-0.0023324167338517046,0.9999968906731163,1.3594317130900884,-84.18194580078125,3742.611328125
1594013126.8217602,0.0,5.0,0.5,0.5,-0.0065318481445312505,-0.004,-0.0002,-0.006,-0.005817617980357418,2.0,0.5,10.0,-0.0016701729651260626,-2.0,-0.5,-10.0,495.459827723098,0.0008312008220037119,-0.0023330365538292877,0.9999969330181128,1.343945742293132,-83.84921264648438,3741.803466796875
1594013126.8895817,0.0,5.0,0.5,0.5,-0.0067937762451171875,-0.004,-0.0002,-0.006,-0.005800401682601211,2.0,0.5,10.0,-0.0017455106771946565,-2.0,-0.5,-10.0,495.51426803448703,0.0007963405570826264,-0.0023316558900772144,0.9999969646066569,1.3337064512422248,-83.62869262695312,3741.2646484375
1594013126.9254835,0.0,5.0,0.5,0.5,-0.008804817504882812,-0.004,-0.0002,-0.006,-0.005746476115454238,2.0,0.5,10.0,-0.001421156649432766,-2.0,-0.5,-10.0,495.5950592815643,0.0007417618461934703,-0.0023256305464619573,0.9999970206115241,1.3184303052045883,-83.30059814453125,3740.456787109375
1594013126.9609194,0.0,5.0,0.5,0.5,-0.0090537890625,-0.004,-0.0002,-0.006,-0.005741902713022819,2.0,0.5,10.0,-0.0015052649212009125,-2.0,-0.5,-10.0,495.64846095314715,0.0007048627897469128,-0.0023199731693067235,0.9999970604421503,1.30823686113547,-83.08416748046875,3739.918212890625
1594013127.028733,0.0,5.0,0.5,0.5,-0.009951915893554689,-0.004,-0.0002,-0.006,-0.00571083409041438,2.0,0.5,10.0,-0.0014047606038977006,-2.0,-0.5,-10.0,495.70143751229625,0.0006673570692569366,-0.002312498226823315,0.9999971034890516,1.2981225620345171,-82.86981201171875,3739.379638671875
1594013127.063675,0.0,5.0,0.5,0.5,-0.01188713195800781,-0.004,-0.0002,-0.006,-0.005610621553262681,2.0,0.5,10.0,-0.001058401424776824,-2.0,-0.5,-10.0,495.7800898634596,0.0006089000168722467,-0.002297829046121282,0.9999971746072308,1.2831336152191688,-82.552978515625,3738.57177734375
1594013127.0985498,0.0,5.0,0.5,0.5,-0.012117359008789063,-0.004,-0.0002,-0.006,-0.005619399995530737,2.0,0.5,10.0,-0.0011511773094969072,-2.0,-0.5,-10.0,495.83221047895495,0.0005696428011463049,-0.002286375745201925,0.9999972239926622,1.2732310816013541,-82.34512329101562,3738.032958984375
1594013127.1663973,0.0,5.0,0.5,0.5,-0.012971546020507813,-0.004,-0.0002,-0.006,-0.0055768707186945165,2.0,0.5,10.0,-0.0010445745236317798,-2.0,-0.5,-10.0,495.88366108678747,0.0005298109891750979,-0.002273409277133823,0.9999972754515756,1.2634175273928463,-82.14022827148438,3737.494140625
1594013127.2002795,0.0,5.0,0.5,0.5,-0.014800968017578126,-0.004,-0.0002,-0.006,-0.0054250866154629904,2.0,0.5,10.0,-0.0006868911593029781,-2.0,-0.5,-10.0,495.9604228656972,0.0004685519203934322,-0.0022501717201892407,0.9999973585896753,1.2488865684236221,-81.83932495117188,3736.68603515625
1594013127.2714956,0.0,5.0,0.5,0.5,-0.015008528442382813,-0.004,-0.0002,-0.006,-0.005443635515507728,2.0,0.5,10.0,-0.0007748743551111975,-2.0,-0.5,-10.0,496.01098622218706,0.0004266963722541114,-0.002232683572662526,0.9999974165237979,1.2392869506445978,-81.64315795898438,3736.147216796875
1594013127.3034108,0.0,5.0,0.5,0.5,-0.01675034423828125,-0.004,-0.0002,-0.006,-0.005262607616414459,2.0,0.5,10.0,-0.0004230626035444789,-2.0,-0.5,-10.0,496.0861625223188,0.0003643975055732792,-0.0022034400129707795,0.9999975060301736,1.2250585881556022,-81.35635375976562,3735.3388671875
1594013127.3363216,0.0,5.0,0.5,0.5,-0.016937896728515624,-0.004,-0.0002,-0.006,-0.005288851867419371,2.0,0.5,10.0,-0.0005043912381243493,-2.0,-0.5,-10.0,496.1359039146919,0.0003212041833727017,-0.0021817973863983106,0.999997568291062,1.2156683154729933,-81.17050170898438,3734.7998046875
1594013127.4093444,0.0,5.0,0.5,0.5,-0.017685302734375002,-0.004,-0.0002,-0.006,-0.005222524642068751,2.0,0.5,10.0,-0.0003975664710952837,-2.0,-0.5,-10.0,496.18524515791796,0.000278287419176923,-0.0021588590059073635,0.9999976309391463,1.206361266354586,-80.98916625976562,3734.2607421875
1594013127.4404948,0.0,5.0,0.5,0.5,-0.019272302856445312,-0.004,-0.0002,-0.006,-0.004984100538957713,2.0,0.5,10.0,-1.4323962056647785e-05,-2.0,-0.5,-10.0,496.25843642058317,0.0002125177167064567,-0.0021205698949912986,0.9999977290071916,1.1926845468331413,-80.72628784179688,3733.4521484375
1594013127.5105343,0.0,5.0,0.5,0.5,-0.0194319482421875,-0.004,-0.0002,-0.006,-0.005038486959652867,2.0,0.5,10.0,-0.00012424735114528317,-2.0,-0.5,-10.0,496.30698673112784,0.00016892135154278963,-0.002094025351262155,0.9999977932592677,1.1837963373037688,-80.55731201171875,3732.91259765625
1594013127.546438,0.0,5.0,0.5,0.5,-0.020899340820312504,-0.004,-0.0002,-0.006,-0.004767610725872397,2.0,0.5,10.0,0.0002665014806659112,-2.0,-0.5,-10.0,496.378956977278,0.0001021054600792765,-0.002050242182321001,0.9999978930385149,1.1706165247329596,-80.31381225585938,3732.103515625
1594013127.5793567,0.0,5.0,0.5,0.5,-0.021035859985351565,-0.004,-0.0002,-0.006,-0.004823380717553308,2.0,0.5,10.0,0.00015887824082589383,-2.0,-0.5,-10.0,496.4264382647816,5.750579783298771e-05,-0.0020194353194426164,0.9999979592849546,1.161917069862512,-80.15853881835938,3731.56396484375
1594013127.6481733,0.0,5.0,0.5,0.5,-0.02164270202636719,-0.004,-0.0002,-0.006,-0.004730843934920233,2.0,0.5,10.0,0.000275999235040239,-2.0,-0.5,-10.0,496.4736153444974,1.271323395702378e-05,-0.00198716378693187,0.9999980255072796,1.1532792850882752,-80.00906372070312,3731.0244140625
1594013127.6850846,0.0,5.0,0.5,0.5,-0.022915855102539063,-0.004,-0.0002,-0.006,-0.004423680784850226,2.0,0.5,10.0,0.000662870683479915,-2.0,-0.5,-10.0,496.5437841702951,-5.469861599617719e-05,-0.0019358666035429223,0.999998124712519,1.1404466360462056,-79.79632568359375,3730.21533203125
1594013127.716,0.0,5.0,0.5,0.5,-0.023020618896484376,-0.004,-0.0002,-0.006,-0.004488577999563512,2.0,0.5,10.0,0.0005495442517107483,-2.0,-0.5,-10.0,496.5900778005598,-9.92510777414574e-05,-0.0018998366565975994,0.9999981903833137,1.1319648178355581,-79.66229248046875,3729.67578125
1594013127.7844267,0.0,5.0,0.5,0.5,-0.023532282104492187,-0.004,-0.0002,-0.006,-0.004382131236980199,2.0,0.5,10.0,0.0006706579095790237,-2.0,-0.5,-10.0,496.63606359099504,-0.00014427948630989899,-0.0018623279994114915,0.9999982554574045,1.1235446484854499,-79.53466796875,3729.13623046875
1594013127.8232913,0.0,5.0,0.5,0.5,-0.02459099365234375,-0.004,-0.0002,-0.006,-0.0040381311136856324,2.0,0.5,10.0,0.0010524847595827782,-2.0,-0.5,-10.0,496.70431063789874,-0.00021150257681773328,-0.001803825408205018,0.9999983507389183,1.1110361821056918,-79.35586547851562,3728.326904296875
1594013127.8532116,0.0,5.0,0.5,0.5,-0.024661343994140626,-0.004,-0.0002,-0.006,-0.0041112410376969635,2.0,0.5,10.0,0.0009457895414217944,-2.0,-0.5,-10.0,496.74950374127366,-0.0002564109392267197,-0.001762740625776373,0.9999984134981996,1.102769909668793,-79.24517822265625,3727.787353515625
1594013127.9243107,0.0,5.0,0.5,0.5,-0.025069392700195314,-0.004,-0.0002,-0.006,-0.003996916472232916,2.0,0.5,10.0,0.001064526255111719,-2.0,-0.5,-10.0,496.7944517530268,-0.00030150139088168696,-0.0017206267532143774,0.9999984742690797,1.0945662954113466,-79.14144897460938,3727.247802734375
1594013127.9936771,0.0,5.0,0.5,0.5,-0.026335403442382815,-0.004,-0.0002,-0.006,-0.003338921749448704,2.0,0.5,10.0,0.001713725429119363,-2.0,-0.5,-10.0,496.88309791113716,-0.00039103495214651274,-0.0016323653956047672,0.9999985912364485,1.0783512247844609,-78.95578002929688,3726.168701171875
