Timestamp,Input Throttle,horizon,dT,dt,Input Roll,Roll P,Roll I,Roll D,Input Pitch,Pitch P,Pitch I,Pitch D,Input Yaw,Yaw P,Yaw I,Yaw D,Altitude,Direction X,Direction Y,Direction Z,Vertical Velocity,Roll,Mass
1594103765.3003702,0.0,5.0,0.5,0.5,-0.000212890625,-0.004,-0.0001,-0.026,0.0008649385603682593,2.0,0.2,20.0,0.02452400320116916,-2.0,-0.2,-10.0,478.16792449669447,-0.01174360962919745,0.00041393768231438177,0.9999309557606827,-14.43453033783808,-89.92257690429688,6440.1796875
1594103765.3651953,0.0,5.0,0.5,0.5,-0.00024088653564453125,-0.004,-0.0001,-0.026,0.000858631374910089,2.0,0.2,20.0,0.02425231047317945,-2.0,-0.2,-10.0,477.2805358048063,-0.011787794547714166,0.0004149593757977926,0.9999304354345943,-15.017887231856053,-89.92489624023438,6440.1796875
1594103765.4001403,0.0,5.0,0.5,0.5,-0.0002222894287109375,-0.004,-0.0001,-0.026,0.0008534024071879993,2.0,0.2,20.0,0.024477316060026573,-2.0,-0.2,-10.0,476.36172388109844,-0.011823719454469167,0.0004152732719082549,0.9999300111539666,-14.987340853646984,-89.92755126953125,6438.6787109375
1594103765.4639342,0.0,5.0,0.5,0.5,-0.00023070434570312499,-0.004,-0.0001,-0.026,0.0008584533893306152,2.0,0.2,20.0,0.024594602616775905,-2.0,-0.2,-10.0,475.8085229275748,-0.01184372455740333,0.00041541070094978656,0.9999297743454576,-14.148184346128971,-89.92959594726562,6435.6767578125
1594103765.4988382,0.0,5.0,0.5,0.5,-0.0001838619995117188,-0.004,-0.0001,-0.026,0.0008702718774230451,2.0,0.2,20.0,0.02487118650490298,-2.0,-0.2,-10.0,475.01523148454726,-0.01186370459293005,0.0004156951943545169,0.9999295373729277,-12.835365556156924,-89.93295288085938,6431.0439453125
1594103765.5696883,0.0,5.0,0.5,0.5,-0.00019673950195312504,-0.004,-0.0001,-0.026,0.000861008132491854,2.0,0.2,20.0,0.02496128657833865,-2.0,-0.2,-10.0,474.52771986299194,-0.011868090121000405,0.00041515484068525897,0.9999294855555256,-11.955411992194062,-89.93545532226562,6427.9453125
1594103765.6035566,0.0,5.0,0.5,0.5,-0.00014342987060546875,-0.004,-0.0001,-0.026,0.000866223187488927,2.0,0.2,20.0,0.025081221264191853,-2.0,-0.2,-10.0,473.8393602127908,-0.011861959134678468,0.000414523244539723,0.9999295585669857,-10.714009355364592,-89.93942260742188,6423.49072265625
1594103765.6724188,0.0,5.0,0.5,0.5,-0.00016204101562500002,-0.004,-0.0001,-0.026,0.0008632984347322973,2.0,0.2,20.0,0.02522035393962317,-2.0,-0.2,-10.0,473.46415536501445,-0.011848674437138332,0.000413439283605262,0.9999297165211369,-9.922340885448783,-89.9422607421875,6420.6103515625
1594103765.7103136,0.0,5.0,0.5,0.5,-0.00010365844726562501,-0.004,-0.0001,-0.026,0.0008628042941732255,2.0,0.2,20.0,0.025187392995023535,-2.0,-0.2,-10.0,472.88842060009483,-0.01181510931974302,0.0004120555497452439,0.9999301142589848,-8.815829831866072,-89.94668579101562,6416.4892578125
1594103765.7437184,0.0,5.0,0.5,0.5,-0.0001267745971679688,-0.004,-0.0001,-0.026,0.0008637332727409057,2.0,0.2,20.0,0.02537716234584978,-2.0,-0.2,-10.0,472.55719643074553,-0.011783260652282874,0.0004104652402167172,0.999930490727574,-8.112563231344714,-89.94976806640625,6413.8271484375
1594103765.8125157,0.0,5.0,0.5,0.5,-0.00011311676025390624,-0.004,-0.0001,-0.026,0.0008685980663056084,2.0,0.2,20.0,0.025461728119833535,-2.0,-0.2,-10.0,472.2504855529405,-0.01174412847614426,0.0004088674810435279,0.9999309517530292,-7.442838117550982,-89.95291137695312,6411.248046875
1594103765.8494165,0.0,5.0,0.5,0.5,-4.897064208984379e-05,-0.004,-0.0001,-0.026,0.0008202011257327069,2.0,0.2,20.0,0.024975083876850948,-2.0,-0.2,-10.0,471.85614317655563,-0.011670963777701956,0.0004052197210430156,0.9999318098757921,-6.523226785748065,-89.957763671875,6407.5869140625
1594103765.8793366,0.0,5.0,0.5,0.5,-7.409362792968752e-05,-0.004,-0.0001,-0.026,0.0008443714381912345,2.0,0.2,20.0,0.02500778465833752,-2.0,-0.2,-10.0,471.61230827262625,-0.011612912978740604,0.0004030110803858964,0.9999324866380815,-5.929815968737527,-89.96112060546875,6405.1953125
1594103766.0299323,0.0,5.0,0.5,0.5,-6.03302001953125e-05,-0.004,-0.0001,-0.026,0.0008272620901462529,2.0,0.2,20.0,0.02478812584495597,-2.0,-0.2,-10.0,471.3934095411096,-0.011546583755950562,0.000400236675051491,0.9999332558796966,-5.364835101015005,-89.9644775390625,6402.87353515625
1594103766.0578578,0.0,5.0,0.5,0.5,6.5469360351562195e-06,-0.004,-0.0001,-0.026,0.0007790949221278974,2.0,0.2,20.0,0.024086368597616325,-2.0,-0.2,-10.0,471.10728289268445,-0.011433324867682977,0.0003955388662247411,0.9999345591744868,-4.589438986410272,-89.9696044921875,6399.56787109375
1594103766.1097472,0.0,5.0,0.5,0.5,-2.20172119140625e-05,-0.004,-0.0001,-0.026,0.0007927677016300541,2.0,0.2,20.0,0.024180907610356666,-2.0,-0.2,-10.0,470.93889185320586,-0.011347538011397098,0.00039190794483972993,0.9999355378169348,-4.089262460105075,-89.97308349609375,6397.4052734375
1594103766.145816,0.0,5.0,0.5,0.5,-6.809387207031258e-06,-0.004,-0.0001,-0.026,0.0007914318413871354,2.0,0.2,20.0,0.023913677189368356,-2.0,-0.2,-10.0,470.78955661552027,-0.01125464734959251,0.0003885675198385376,0.9999365889536791,-3.6134298011727286,-89.97659301757812,6395.302734375
1594103766.2117949,0.0,5.0,0.5,0.5,5.9785461425781235e-05,-0.004,-0.0001,-0.026,0.0007191378133869117,2.0,0.2,20.0,0.02298005230027581,-2.0,-0.2,-10.0,470.59906616818625,-0.011100448576972786,0.00038226827376899,0.9999383150536622,-2.9611077580813627,-89.98184204101562,6392.298828125
1594103766.276605,0.0,5.0,0.5,0.5,8.30084228515625e-05,-0.004,-0.0001,-0.026,0.0007013341348935298,2.0,0.2,20.0,0.02244765171773593,-2.0,-0.2,-10.0,470.4459595247172,-0.010928829927678302,0.00037576076560137146,0.999940207952585,-2.3513497760773707,-89.98715209960938,6389.400390625
1594103766.3459873,0.0,5.0,0.5,0.5,0.00010465332031250001,-0.004,-0.0001,-0.026,0.000662026831125722,2.0,0.2,20.0,0.021880962598281626,-2.0,-0.2,-10.0,470.3285054033622,-0.010740067425631813,0.00036809114871785777,0.9999422560631184,-1.7661291269666295,-89.99246215820312,6386.56201171875
1594103766.3755672,0.0,5.0,0.5,0.5,0.00012586273193359375,-0.004,-0.0001,-0.026,0.0006419126046396071,2.0,0.2,20.0,0.02128026536663467,-2.0,-0.2,-10.0,470.2444874079665,-0.010534445893333579,0.0003602430086121118,0.9999444462942405,-1.2230794221666272,-89.99775695800781,6383.8271484375
1594103766.4419343,0.0,5.0,0.5,0.5,9.347427368164062e-05,-0.004,-0.0001,-0.026,0.0006775493132718654,2.0,0.2,20.0,0.021553651976268726,-2.0,-0.2,-10.0,470.2058572282549,-0.010387892971525906,0.00035477239024692847,0.9999459814490796,-0.8789956862891561,-90.00125122070312,6382.048828125
1594103766.4790025,0.0,5.0,0.5,0.5,0.00015915573120117187,-0.004,-0.0001,-0.026,0.0005867432788882125,2.0,0.2,20.0,0.020197168691502232,-2.0,-0.2,-10.0,470.17206259199884,-0.010154863714299264,0.0003457174150164104,0.9999483782788054,-0.4144730546524107,-90.00645446777344,6379.505859375
1594103766.544309,0.0,5.0,0.5,0.5,0.00012777923583984376,-0.004,-0.0001,-0.026,0.0006311080667553693,2.0,0.2,20.0,0.0205264691841613,-2.0,-0.2,-10.0,470.1642933420371,-0.009990544456439387,0.0003395542857693279,0.9999500356139555,-0.12104400454427289,-90.00990295410156,6377.85107421875
1594103766.5802507,0.0,5.0,0.5,0.5,0.00019283920288085937,-0.004,-0.0001,-0.026,0.0005388713224678753,2.0,0.2,20.0,0.019021445874767496,-2.0,-0.2,-10.0,470.1734089180827,-0.009730786531272524,0.00032981402752189605,0.9999526003847333,0.2849831263336475,-90.01504516601562,6375.45166015625
1594103766.6121643,0.0,5.0,0.5,0.5,0.00016030410766601562,-0.004,-0.0001,-0.026,0.0005875934191922837,2.0,0.2,20.0,0.019406147857674524,-2.0,-0.2,-10.0,470.1924966019578,-0.009549217656103075,0.0003232336379105246,0.9999543529392588,0.5415568025393512,-90.01840209960938,6373.88671875
1594103766.677137,0.0,5.0,0.5,0.5,0.00017395614624023437,-0.004,-0.0001,-0.026,0.0005599470779373371,2.0,0.2,20.0,0.018926212113450344,-2.0,-0.2,-10.0,470.2214205688797,-0.009360912815368676,0.0003160572448494432,0.9999561357475042,0.7846188526050641,-90.0217514038086,6372.35546875
1594103766.746719,0.0,5.0,0.5,0.5,0.00023472572326660156,-0.004,-0.0001,-0.026,0.0004621772010331651,2.0,0.2,20.0,0.01723966970960218,-2.0,-0.2,-10.0,470.2818186322693,-0.009066603138659703,0.00030515508427553326,0.999958850947328,1.1150339859083944,-90.02666473388672,6370.1416015625
1594103766.7766383,0.0,5.0,0.5,0.5,0.0002529962158203125,-0.004,-0.0001,-0.026,0.0004294793867170183,2.0,0.2,20.0,0.016439602578065714,-2.0,-0.2,-10.0,470.36136206099764,-0.008758062556171375,0.00029382786782078434,0.9999616042656069,1.4277897901954417,-90.0315170288086,6367.970703125
1594103766.8435457,0.0,5.0,0.5,0.5,0.00022249504089355467,-0.004,-0.0001,-0.026,0.00047913749671502613,2.0,0.2,20.0,0.016923905029032602,-2.0,-0.2,-10.0,470.42455275007524,-0.00854492188729752,0.0002858620695870862,0.9999634506284802,1.6287169513564868,-90.0346908569336,6366.54248046875
1594103766.878486,0.0,5.0,0.5,0.5,0.0002807023620605469,-0.004,-0.0001,-0.026,0.0003766275262584416,2.0,0.2,20.0,0.01505584521713126,-2.0,-0.2,-10.0,470.5333236354636,-0.00821529158814142,0.0002740356444258166,0.999966216373627,1.8988091042875583,-90.03936767578125,6364.4765625
1594103766.9104438,0.0,5.0,0.5,0.5,0.00025061614990234374,-0.004,-0.0001,-0.026,0.0004307696738512914,2.0,0.2,20.0,0.015585297068000683,-2.0,-0.2,-10.0,470.6142784690019,-0.007988585916925776,0.00026582372586450673,0.999968055406169,2.0688233416222093,-90.04240417480469,6363.12353515625
1594103766.976828,0.0,5.0,0.5,0.5,0.0002615715026855469,-0.004,-0.0001,-0.026,0.00041486378183111625,2.0,0.2,20.0,0.01502394568694987,-2.0,-0.2,-10.0,470.70183867320884,-0.007756884087582838,0.00025771621268456474,0.9999698817122471,2.2290299962603903,-90.0453872680664,6361.794921875
1594103767.043609,0.0,5.0,0.5,0.5,0.00031486305236816403,-0.004,-0.0001,-0.026,0.0002963871221321711,2.0,0.2,20.0,0.013011677008633928,-2.0,-0.2,-10.0,470.8441705504665,-0.007400106805981922,0.0002450404445367853,0.9999725888115337,2.445070692674872,-90.04973602294922,6359.8603515625
1594103767.076124,0.0,5.0,0.5,0.5,0.00032876541137695313,-0.004,-0.0001,-0.026,0.00025996493457004647,2.0,0.2,20.0,0.012115983655781764,-2.0,-0.2,-10.0,470.9992270137882,-0.007032468687994241,0.00023194738664164606,0.9999752449858756,2.648786965848029,-90.053955078125,6357.95703125
1594103767.1496098,0.0,5.0,0.5,0.5,0.0003011698913574219,-0.004,-0.0001,-0.026,0.00033050865324289096,2.0,0.2,20.0,0.012733697211272793,-2.0,-0.2,-10.0,471.10905508627184,-0.006782076915700889,0.00022334010907744902,0.9999769765109121,2.7792592995169025,-90.05667877197266,6356.701171875
1594103767.1795228,0.0,5.0,0.5,0.5,0.0003488396453857422,-0.004,-0.0001,-0.026,0.0001980172647109283,2.0,0.2,20.0,0.010587208926054758,-2.0,-0.2,-10.0,471.2828524860088,-0.006399154982922263,0.00020958378774839256,0.9999795032350115,2.9528594018389613,-90.06061553955078,6354.87109375
1594103767.214461,0.0,5.0,0.5,0.5,0.00032263221740722655,-0.004,-0.0001,-0.026,0.00027379079214305785,2.0,0.2,20.0,0.01123000469721426,-2.0,-0.2,-10.0,471.40424776729196,-0.006138555949590778,0.000200619086384439,0.9999811387635449,3.061518383271586,-90.06314086914062,6353.66796875
1594103767.2860823,0.0,5.0,0.5,0.5,0.00033058059692382815,-0.004,-0.0001,-0.026,0.00025097442184937905,2.0,0.2,20.0,0.010616512999178738,-2.0,-0.2,-10.0,471.52978246856946,-0.005875145858960028,0.0001915272828564877,0.9999827228399679,3.1632771701591205,-90.06558227539062,6352.4814453125
1594103767.3179972,0.0,5.0,0.5,0.5,0.00037227256774902346,-0.004,-0.0001,-0.026,0.00012385488833294297,2.0,0.2,20.0,0.008374869785232391,-2.0,-0.2,-10.0,471.725080107688,-0.005473638710100893,0.0001775768468393888,0.9999850037604238,3.298479335392433,-90.06907653808594,6350.74560546875
1594103767.3868499,0.0,5.0,0.5,0.5,0.0003485990905761719,-0.004,-0.0001,-0.026,0.0001939550548056735,2.0,0.2,20.0,0.009065446760541374,-2.0,-0.2,-10.0,471.85957139136735,-0.005201716305956024,0.00016817944459328454,0.9999864568398648,3.3847479786600414,-90.07130432128906,6349.59765625
1594103767.4237154,0.0,5.0,0.5,0.5,0.0003864398193359375,-0.004,-0.0001,-0.026,7.335915296123878e-05,2.0,0.2,20.0,0.00677943066892055,-2.0,-0.2,-10.0,472.0675408602692,-0.004789635587003873,0.00015425095264919958,0.9999885177328723,3.5017911301972604,-90.0744857788086,6347.9052734375
1594103767.4546313,0.0,5.0,0.5,0.5,0.0003637808990478516,-0.004,-0.0001,-0.026,0.0001465562829449723,2.0,0.2,20.0,0.007494651893968821,-2.0,-0.2,-10.0,472.20972218282986,-0.004511168340514306,0.00014501725931130596,0.999989814113223,3.5746925767148703,-90.07647705078125,6346.7900390625
1594103767.5247796,0.0,5.0,0.5,0.5,0.00036953918457031254,-0.004,-0.0001,-0.026,0.00011222677931395098,2.0,0.2,20.0,0.00685149181991093,-2.0,-0.2,-10.0,472.3547947277548,-0.004230925155179957,0.00013516501425124103,0.9999910404612383,3.6425191933209957,-90.07838439941406,6345.6875
1594103767.562678,0.0,5.0,0.5,0.5,0.0003996566009521484,-0.004,-0.0001,-0.026,-5.106172337835248e-06,2.0,0.2,20.0,0.004501677239748796,-2.0,-0.2,-10.0,472.5768989707576,-0.0038068532551391587,0.00012097499860363312,0.9999927465903657,3.73136165731367,-90.0810317993164,6344.064453125
1594103767.591601,0.0,5.0,0.5,0.5,0.0003807623291015625,-0.004,-0.0001,-0.026,6.184363652562248e-05,2.0,0.2,20.0,0.005255760588889415,-2.0,-0.2,-10.0,472.7278418566566,-0.0035216763099216366,0.00011121904149781765,0.9999937926938811,3.7875442536063337,-90.08268737792969,6342.99072265625
1594103767.6615655,0.0,5.0,0.5,0.5,0.00038512702941894534,-0.004,-0.0001,-0.026,4.632584201455799e-05,2.0,0.2,20.0,0.004604438093220263,-2.0,-0.2,-10.0,472.8808217938058,-0.0032351859819442375,0.0001017465635307367,0.9999947615959291,3.839650971604537,-90.08425903320312,6341.92578125
1594103767.696665,0.0,5.0,0.5,0.5,0.00040835845947265626,-0.004,-0.0001,-0.026,-8.431311774912561e-05,2.0,0.2,20.0,0.002220219281846173,-2.0,-0.2,-10.0,473.1140411294764,-0.0028030324226835275,8.729511922978444e-05,0.9999960676866683,3.9073087743388135,-90.08638763427734,6340.35546875
1594103767.7654948,0.0,5.0,0.5,0.5,0.000392157211303711,-0.004,-0.0001,-0.026,-1.0713050062071761e-05,2.0,0.2,20.0,0.00300156324017444,-2.0,-0.2,-10.0,473.2715777386911,-0.00251357565903847,7.760592200301633e-05,0.9999968379523643,3.9499569284582403,-90.08768463134766,6339.31396484375
1594103767.798624,0.0,5.0,0.5,0.5,0.0004110702514648437,-0.004,-0.0001,-0.026,-0.00013321798874550193,2.0,0.2,20.0,0.0006088795382479598,-2.0,-0.2,-10.0,473.51096493087243,-0.0020785739978402516,6.333271945748348e-05,0.9999978377572133,4.006081138518096,-90.08943176269531,6337.771484375
1594103767.8646498,0.0,5.0,0.5,0.5,0.00039674743652343754,-0.004,-0.0001,-0.026,-5.976646986610633e-05,2.0,0.2,20.0,0.001401497913113912,-2.0,-0.2,-10.0,473.67228586017154,-0.0017877825859343333,5.3799644480955146e-05,0.9999984004682326,4.040244582487704,-90.09046173095703,6336.75146484375
1594103767.8995914,0.0,5.0,0.5,0.5,0.0004102141571044922,-0.004,-0.0001,-0.026,-0.0001872161928379179,2.0,0.2,20.0,-0.0009901792418609864,-2.0,-0.2,-10.0,473.9164681384573,-0.001351839869298196,3.9444025094585525e-05,0.9999990854861501,4.0843561194497475,-90.091796875,6335.23828125
1594103767.9344645,0.0,5.0,0.5,0.5,0.0003981039428710938,-0.004,-0.0001,-0.026,-0.00011344695685934151,2.0,0.2,20.0,-0.00018556359964495622,-2.0,-0.2,-10.0,474.08065844140947,-0.0010613352351489269,2.9850979040143536e-05,0.9999994363380599,4.1108381254238715,-90.09254455566406,6334.2373046875
1594103768.00428,0.0,5.0,0.5,0.5,0.0006038157653808593,-0.004,-0.0001,-0.026,-0.009651729014776629,2.0,0.2,20.0,-0.0008233740321505478,-2.0,-0.2,-10.0,474.2457907424541,-0.0007718468924913456,-0.00041232355065988843,0.9999996171207588,4.134518000345941,-90.10004425048828,6333.2431640625
1594103768.0391886,0.0,5.0,0.5,0.5,0.0008507822418212891,-0.004,-0.0001,-0.026,-0.020568742571670906,2.0,0.2,20.0,-0.0031859504918258772,-2.0,-0.2,-10.0,474.4950137655251,-0.0003394903657415647,-0.0013100305679142835,0.999999084282682,4.162913372114198,-90.1147689819336,6331.7685546875
1594103768.1120257,0.0,5.0,0.5,0.5,0.0009432064056396484,-0.004,-0.0001,-0.026,-0.024371365485801287,2.0,0.2,20.0,-0.002373992698317994,-2.0,-0.2,-10.0,474.6621089230757,-5.2635347724733596e-05,-0.0022976734382728257,0.9999973589596581,4.1802297049406025,-90.13059997558594,6330.78955078125
1594103768.1429093,0.0,5.0,0.5,0.5,0.001529317855834961,-0.004,-0.0001,-0.026,-0.0508036946629159,2.0,0.2,20.0,-0.004698193543180846,-2.0,-0.2,-10.0,474.9137307192432,0.00037431216942420184,-0.004394810198940555,0.9999902727195475,4.20106648808603,-90.1638412475586,6329.333984375
1594103768.1768572,0.0,5.0,0.5,0.5,0.001519112091064453,-0.004,-0.0001,-0.026,-0.048769432916143995,2.0,0.2,20.0,-0.003892245891381965,-2.0,-0.2,-10.0,475.08218851685524,0.0006569236324794605,-0.006204743941273885,0.9999805346125314,4.212841204845212,-90.1922836303711,6328.369140625
1594103768.2476282,0.0,5.0,0.5,0.5,0.0017808827209472656,-0.004,-0.0001,-0.026,-0.05960344832704048,2.0,0.2,20.0,-0.0045009123675482775,-2.0,-0.2,-10.0,475.25099429057445,0.0009373887979474305,-0.008336873462926294,0.9999648083023246,4.222551785037587,-90.22562408447266,6327.4091796875
1594103768.2795775,0.0,5.0,0.5,0.5,0.002685353546142578,-0.004,-0.0001,-0.026,-0.10076782649408488,2.0,0.2,20.0,-0.006757896097980717,-2.0,-0.2,-10.0,475.5047749540536,0.0013534401392784655,-0.012138631599853294,0.9999254081293626,4.231810481305872,-90.28462219238281,6325.982421875
1594103768.3125412,0.0,5.0,0.5,0.5,0.0025099372863769532,-0.004,-0.0001,-0.026,-0.089492179447005,2.0,0.2,20.0,-0.005957194099937084,-2.0,-0.2,-10.0,475.674198124907,0.0016277044003221608,-0.01507115325462938,0.9998850988578442,4.236795118242195,-90.32984161376953,6325.033203125
1594103768.3877747,0.0,5.0,0.5,0.5,0.0028275624084472656,-0.004,-0.0001,-0.026,-0.10242108135580341,2.0,0.2,20.0,-0.006538182682852173,-2.0,-0.2,-10.0,475.8437760095112,0.0018989811881244035,-0.018311009434008377,0.9998305360429611,4.240034805936758,-90.3795394897461,6324.08984375
1594103768.4176621,0.0,5.0,0.5,0.5,0.004020747451782226,-0.004,-0.0001,-0.026,-0.15767217467572953,2.0,0.2,20.0,-0.008709132291801777,-2.0,-0.2,-10.0,476.0981820381712,0.0023005396102763684,-0.023751064335750378,0.9997152566908342,4.240538810912864,-90.46228790283203,6322.6845703125
1594103768.4875162,0.0,5.0,0.5,0.5,0.0036887057495117183,-0.004,-0.0001,-0.026,-0.1374851602135595,2.0,0.2,20.0,-0.007928856064042197,-2.0,-0.2,-10.0,476.2678609788418,0.0025645454850139987,-0.027757358211494658,0.9996114005810329,4.239861889125911,-90.52281188964844,6321.75
1594103768.5243838,0.0,5.0,0.5,0.5,0.00506067024230957,-0.004,-0.0001,-0.026,-0.20200908204857576,2.0,0.2,20.0,-0.010021216474054882,-2.0,-0.2,-10.0,476.52210178994574,0.002953353094167239,-0.03430748996861671,0.9994069610711918,4.235630925553699,-90.62085723876953,6320.3564453125
1594103768.5562985,0.0,5.0,0.5,0.5,0.004621120529174805,-0.004,-0.0001,-0.026,-0.1758282361428251,2.0,0.2,20.0,-0.009260550900752642,-2.0,-0.2,-10.0,476.6914444800932,0.003208482564919904,-0.039042119061738365,0.9992324146958002,4.231467129413621,-90.69100952148438,6319.4306640625
1594103768.6261473,0.0,5.0,0.5,0.5,0.005011474990844727,-0.004,-0.0001,-0.026,-0.19204014799624763,2.0,0.2,20.0,-0.00978424661250719,-2.0,-0.2,-10.0,476.8604780638125,0.0034592965700055967,-0.044049828370983195,0.9990233460173629,4.2259914482491485,-90.76463317871094,6318.5068359375
1594103768.6640112,0.0,5.0,0.5,0.5,0.00639504638671875,-0.004,-0.0001,-0.026,-0.2598698624259443,2.0,0.2,20.0,-0.011774877672765343,-2.0,-0.2,-10.0,477.11364367441274,0.0038290525219308843,-0.05164941020058103,0.9986579378259187,4.214465694543462,-90.87435913085938,6317.130859375
1594103768.6949608,0.0,5.0,0.5,0.5,0.0057563288116455075,-0.004,-0.0001,-0.026,-0.2226991711112599,2.0,0.2,20.0,-0.011034216205782986,-2.0,-0.2,-10.0,477.281932892045,0.004070173811471008,-0.056827230743857676,0.9983757306400877,4.205972263441867,-90.94793701171875,6316.21484375
1594103768.7647479,0.0,5.0,0.5,0.5,0.0060008718872070314,-0.004,-0.0001,-0.026,-0.23307648445780077,2.0,0.2,20.0,-0.011529671430569908,-2.0,-0.2,-10.0,477.4499456194462,0.004307174846464149,-0.061961954246878365,0.9980692182763428,4.196361565358982,-91.01961517333984,6315.3017578125
1594103768.8026474,0.0,5.0,0.5,0.5,0.007229001235961914,-0.004,-0.0001,-0.026,-0.2980504416544282,2.0,0.2,20.0,-0.013391508065376485,-2.0,-0.2,-10.0,477.70105893036816,0.004654905870680339,-0.06953795246524658,0.9975684462823973,4.1792139524875855,-91.12242889404297,6313.9375
1594103768.8325655,0.0,5.0,0.5,0.5,0.006519794540405273,-0.004,-0.0001,-0.026,-0.25656499248194187,2.0,0.2,20.0,-0.012688962813318978,-2.0,-0.2,-10.0,477.86789490899537,0.0048810909507384405,-0.07449000606573138,0.9972098144059042,4.167077210557701,-91.18762969970703,6313.0302734375
1594103768.9084065,0.0,5.0,0.5,0.5,0.0066991858673095695,-0.004,-0.0001,-0.026,-0.2655174449802302,2.0,0.2,20.0,-0.013140124826127173,-2.0,-0.2,-10.0,478.0341956636403,0.005102205168916518,-0.07934773081915637,0.9968339405920452,4.153998083983743,-91.24984741210938,6312.125
1594103768.9413548,0.0,5.0,0.5,0.5,0.007720855407714843,-0.004,-0.0001,-0.026,-0.32633493056844065,2.0,0.2,20.0,-0.014863612525709188,-2.0,-0.2,-10.0,478.2825633166358,0.005425421549765684,-0.08647773297038557,0.9962390107305125,4.132111047386993,-91.33756256103516,6310.771484375
1594103768.9742308,0.0,5.0,0.5,0.5,0.0070876607513427736,-0.004,-0.0001,-0.026,-0.28696937068969564,2.0,0.2,20.0,-0.014199681021038999,-2.0,-0.2,-10.0,478.44740859174635,0.005634672781642887,-0.09111682731814288,0.995824268755346,4.116914071782005,-91.39220428466797,6309.8701171875
1594103769.0445442,0.0,5.0,0.5,0.5,0.007213233108520508,-0.004,-0.0001,-0.026,-0.29508122343661913,2.0,0.2,20.0,-0.014605913882951883,-2.0,-0.2,-10.0,478.6116139526712,0.0058384326805541705,-0.09565126154337376,0.995397784239545,4.100934212753125,-91.44348907470703,6308.97119140625
1594103769.0814075,0.0,5.0,0.5,0.5,0.008008859100341796,-0.004,-0.0001,-0.026,-0.3512799411164651,2.0,0.2,20.0,-0.01616284111983448,-2.0,-0.2,-10.0,478.8567050244892,0.006133593282527733,-0.10227649878586607,0.9947370993531655,4.0751173795111715,-91.51420593261719,6307.6259765625
1594103769.1123614,0.0,5.0,0.5,0.5,0.007465176849365234,-0.004,-0.0001,-0.026,-0.3143321204979538,2.0,0.2,20.0,-0.015547923089139767,-2.0,-0.2,-10.0,479.0191434895387,0.006323860120426938,-0.10656706200509504,0.9942854067564199,4.057389178431741,-91.55712127685547,6306.72998046875
1594103769.1821415,0.0,5.0,0.5,0.5,0.007534946975708008,-0.004,-0.0001,-0.026,-0.32151793248713884,2.0,0.2,20.0,-0.015901841902973925,-2.0,-0.2,-10.0,479.1809595123632,0.006507751040498296,-0.11074427670226204,0.9938276280895434,4.039016848344845,-91.5964126586914,6305.8349609375
1594103769.2210376,0.0,5.0,0.5,0.5,0.008087925262451173,-0.004,-0.0001,-0.026,-0.37263439221730293,2.0,0.2,20.0,-0.017289223155814333,-2.0,-0.2,-10.0,479.42208708950784,0.006772545949579416,-0.11681620455473186,0.9931304581850202,4.009978518544323,-91.648681640625,6304.49658203125
1594103769.2509575,0.0,5.0,0.5,0.5,0.007643883285522461,-0.004,-0.0001,-0.026,-0.3383221006750281,2.0,0.2,20.0,-0.016717968156948787,-2.0,-0.2,-10.0,479.5819465017412,0.006941494838736361,-0.12072662185023025,0.9926615225876518,3.990182081442334,-91.67897033691406,6303.60498046875
1594103769.3197727,0.0,5.0,0.5,0.5,0.007655933685302734,-0.004,-0.0001,-0.026,-0.34452770796113,2.0,0.2,20.0,-0.01702232635955404,-2.0,-0.2,-10.0,479.7409543064423,0.0071038377816374934,-0.12451708456879253,0.9921920333984043,3.9698693301902237,-91.70543670654297,6302.7138671875
1594103769.3576703,0.0,5.0,0.5,0.5,0.007953973693847656,-0.004,-0.0001,-0.026,-0.3901983262926509,2.0,0.2,20.0,-0.018210758937942273,-2.0,-0.2,-10.0,479.9779208053369,0.007334455037535958,-0.1299934178020973,0.9914877291713861,3.938247527300857,-91.7381362915039,6301.37939453125
1594103769.4244924,0.0,5.0,0.5,0.5,0.007619760513305664,-0.004,-0.0001,-0.026,-0.35879398784941224,2.0,0.2,20.0,-0.017700778987805033,-2.0,-0.2,-10.0,480.13481379277073,0.00748041733849221,-0.13349839109678813,0.991020798435134,3.916807047046485,-91.75517272949219,6300.4912109375
1594103769.4584014,0.0,5.0,0.5,0.5,0.007724125823974609,-0.004,-0.0001,-0.026,-0.4000577920156355,2.0,0.2,20.0,-0.018742447529608602,-2.0,-0.2,-10.0,480.368482756312,0.007685433308124839,-0.13851761186485684,0.990330149656226,3.8838153079115916,-91.77327728271484,6299.1591796875
1594103769.5282147,0.0,5.0,0.5,0.5,0.007473740386962891,-0.004,-0.0001,-0.026,-0.3709766373784714,2.0,0.2,20.0,-0.018263880001989474,-2.0,-0.2,-10.0,480.5231753111584,0.007812981387972966,-0.14171557754818756,0.9898765844296019,3.8614339754048963,-91.7804946899414,6298.271484375
1594103769.5621243,0.0,5.0,0.5,0.5,0.007385588226318359,-0.004,-0.0001,-0.026,-0.40799646359464165,2.0,0.2,20.0,-0.019148163014230144,-2.0,-0.2,-10.0,480.7535381988855,0.007989670791020764,-0.14626366180103703,0.9892133775870618,3.8271909098238504,-91.78369903564453,6296.94140625
1594103769.5970316,0.0,5.0,0.5,0.5,0.007220970535278321,-0.004,-0.0001,-0.026,-0.38118900227245833,2.0,0.2,20.0,-0.018718709660422196,-2.0,-0.2,-10.0,480.9059110907838,0.00809803071822911,-0.14913977454987806,0.9887829638225458,3.8040401949711433,-91.78089904785156,6296.0556640625
1594103769.6668203,0.0,5.0,0.5,0.5,0.0070904721069335935,-0.004,-0.0001,-0.026,-0.3848363211309939,2.0,0.2,20.0,-0.018870612367117925,-2.0,-0.2,-10.0,481.05743107106537,0.008198032265464374,-0.15188150725826263,0.9883647100235483,3.7806297711376056,-91.7740478515625,6295.169921875
1594103769.7007642,0.0,5.0,0.5,0.5,0.0067405181121826165,-0.004,-0.0001,-0.026,-0.41599400806646125,2.0,0.2,20.0,-0.019528419076435787,-2.0,-0.2,-10.0,481.2828434961848,0.008333366978561971,-0.1557528525533553,0.9877609042254575,3.745186919599518,-91.75638580322266,6293.841796875
1594103769.7356365,0.0,5.0,0.5,0.5,0.006700243835449219,-0.004,-0.0001,-0.026,-0.39255395555927947,2.0,0.2,20.0,-0.019160478132385785,-2.0,-0.2,-10.0,481.4318970461609,0.008412882792424164,-0.15817140348220526,0.987375830433169,3.7212414859374134,-91.73970031738281,6292.95654296875
1594103769.806447,0.0,5.0,0.5,0.5,0.006515090637207032,-0.004,-0.0001,-0.026,-0.3951674158762359,2.0,0.2,20.0,-0.01924581510439342,-2.0,-0.2,-10.0,481.5800248258747,0.008483805071720482,-0.16045483908499236,0.9870067221988482,3.6971234774089443,-91.71904754638672,6292.07177734375
1594103769.8413627,0.0,5.0,0.5,0.5,0.005908247375488281,-0.004,-0.0001,-0.026,-0.4202388508267093,2.0,0.2,20.0,-0.019640947932299514,-2.0,-0.2,-10.0,481.80053119407967,0.00857353476130945,-0.1636376296266238,0.9864832591949427,3.6606351681172593,-91.68091583251953,6290.7451171875
1594103769.9141681,0.0,5.0,0.5,0.5,0.005992498779296876,-0.004,-0.0001,-0.026,-0.4002917240072029,2.0,0.2,20.0,-0.01934661226060345,-2.0,-0.2,-10.0,481.9461360948626,0.008621716397119296,-0.1655938023437434,0.9861563560773255,3.6361948161648865,-91.65069580078125,6289.8603515625
1594103769.944124,0.0,5.0,0.5,0.5,0.005200865631103516,-0.004,-0.0001,-0.026,-0.4207129833493323,2.0,0.2,20.0,-0.019551253150550896,-2.0,-0.2,-10.0,482.16283445013687,0.008677019002692075,-0.16827120259190625,0.9857025472826478,3.5993812975051735,-91.59815216064453,6288.53369140625
1594103769.9799912,0.0,5.0,0.5,0.5,0.005377123413085938,-0.004,-0.0001,-0.026,-0.4033962940175841,2.0,0.2,20.0,-0.019319347430575066,-2.0,-0.2,-10.0,482.30614405765664,0.008702126387847127,-0.16989103185631388,0.9854244315477099,3.574768113900574,-91.55854797363281,6287.6494140625
1594103770.0508356,0.0,5.0,0.5,0.5,0.005103877334594727,-0.004,-0.0001,-0.026,-0.4041647066324997,2.0,0.2,20.0,-0.019266291490427235,-2.0,-0.2,-10.0,482.44836363755167,0.008717145972130894,-0.17137291771162777,0.9851676681870473,3.5501230224091866,-91.51519012451172,6286.7646484375
1594103770.0807214,0.0,5.0,0.5,0.5,0.004077693710327148,-0.004,-0.0001,-0.026,-0.41837245252961475,2.0,0.2,20.0,-0.01917981050295573,-2.0,-0.2,-10.0,482.6598617784912,0.008721243084776224,-0.17334306670640873,0.9848228882108061,3.513170225261991,-91.44349670410156,6285.4375
1594103770.1156278,0.0,5.0,0.5,0.5,0.004371652450561523,-0.004,-0.0001,-0.026,-0.40465185157166583,2.0,0.2,20.0,-0.019029723720538495,-2.0,-0.2,-10.0,482.7997107587289,0.008711111426168318,-0.17448844457434234,0.9846206880051565,3.4885306058630787,-91.39127349853516,6284.552734375
1594103770.1889896,0.0,5.0,0.5,0.5,0.004053417358398438,-0.004,-0.0001,-0.026,-0.4043834751939706,2.0,0.2,20.0,-0.018894481396010628,-2.0,-0.2,-10.0,482.9384940878954,0.008690543051683234,-0.17549694649409942,0.9844416164672813,3.4639266071925507,-91.33553314208984,6283.66796875
1594103770.2188723,0.0,5.0,0.5,0.5,0.00280634994506836,-0.004,-0.0001,-0.026,-0.41241345426774373,2.0,0.2,20.0,-0.018507537217178127,-2.0,-0.2,-10.0,483.1449208651902,0.008640562097921087,-0.1767608162936494,0.9842159084823993,3.427179119172735,-91.24579620361328,6282.3408203125
1594103770.289719,0.0,5.0,0.5,0.5,0.0032160837554931643,-0.004,-0.0001,-0.026,-0.40235601177226815,2.0,0.2,20.0,-0.01844910890569439,-2.0,-0.2,-10.0,483.28126333653927,0.008593662811653158,-0.17743573289543554,0.9840948682171548,3.4027365013703235,-91.18184661865234,6281.455078125
1594103770.3265831,0.0,5.0,0.5,0.5,0.0018185150909423831,-0.004,-0.0001,-0.026,-0.405903566321986,2.0,0.2,20.0,-0.017831193460159857,-2.0,-0.2,-10.0,483.48401398258284,0.008502904023068785,-0.17819510874585517,0.983958436033874,3.366278882259715,-91.08001708984375,6280.126953125
1594103770.3572226,0.0,5.0,0.5,0.5,0.0023136199951171886,-0.004,-0.0001,-0.026,-0.3985094062941148,2.0,0.2,20.0,-0.017851988766980853,-2.0,-0.2,-10.0,483.6180022690678,0.008429122359380625,-0.1785361181730432,0.9838972529710365,3.3420923964078804,-91.00846862792969,6279.2412109375
1594103770.4280655,0.0,5.0,0.5,0.5,0.0019328843688964845,-0.004,-0.0001,-0.026,-0.3965091821217161,2.0,0.2,20.0,-0.017561765344317633,-2.0,-0.2,-10.0,483.7508310326375,0.008343773344481454,-0.17874344172098758,0.9838603373894649,3.318036392662494,-90.9339828491211,6278.35546875
1594103770.4649658,0.0,5.0,0.5,0.5,0.0003584631347656256,-0.004,-0.0001,-0.026,-0.3939890053184915,2.0,0.2,20.0,-0.016622659209790353,-2.0,-0.2,-10.0,483.94855320686474,0.008194945730285223,-0.17880784396521854,0.9838498858062584,3.282298179568837,-90.81716918945312,6277.0263671875
1594103770.495852,0.0,5.0,0.5,0.5,0.0009503840637207035,-0.004,-0.0001,-0.026,-0.39021726624935427,2.0,0.2,20.0,-0.016739568814170894,-2.0,-0.2,-10.0,484.07918023806997,0.008081510486582679,-0.1786868425821869,0.9838728075702998,3.258616237953762,-90.73590850830078,6276.1396484375
1594103770.5665696,0.0,5.0,0.5,0.5,0.0005406442260742191,-0.004,-0.0001,-0.026,-0.387274549757653,2.0,0.2,20.0,-0.016364868149117556,-2.0,-0.2,-10.0,484.2088019401999,0.00795681545388536,-0.17843643246174393,0.98391926938045,3.2351074014464714,-90.65208435058594,6275.2529296875
1594103770.603474,0.0,5.0,0.5,0.5,-0.0011893615722656245,-0.004,-0.0001,-0.026,-0.3788357743006988,2.0,0.2,20.0,-0.015096492201953278,-2.0,-0.2,-10.0,484.4015000312356,0.007748478977092057,-0.17782057586261119,0.9840324201333159,3.2002633904564064,-90.52203369140625,6273.92236328125
1594103770.635424,0.0,5.0,0.5,0.5,-0.0005040384674072263,-0.004,-0.0001,-0.026,-0.3786702613928358,2.0,0.2,20.0,-0.015320833970891231,-2.0,-0.2,-10.0,484.5288972236449,0.007595164781257594,-0.17725015370278013,0.9841365232955671,3.1772203061426167,-90.43245697021484,6273.03515625
1594103770.7051997,0.0,5.0,0.5,0.5,-0.0009347763824462888,-0.004,-0.0001,-0.026,-0.37482933592814166,2.0,0.2,20.0,-0.014857096945694252,-2.0,-0.2,-10.0,484.6552275022259,0.0074305838297465026,-0.1765554067570761,0.9842626553764968,3.154380498374543,-90.34076690673828,6272.1474609375
1594103770.7430995,0.0,5.0,0.5,0.5,-0.0027912235260009765,-0.004,-0.0001,-0.026,-0.36062038490454373,2.0,0.2,20.0,-0.013254128412283565,-2.0,-0.2,-10.0,484.843200266012,0.0071618689561499934,-0.17527814395039668,0.9844929049446517,3.1205940366741753,-90.19972229003906,6270.81591796875
1594103770.809024,0.0,5.0,0.5,0.5,-0.0020244334411621094,-0.004,-0.0001,-0.026,-0.3640035115609795,2.0,0.2,20.0,-0.013591919491254989,-2.0,-0.2,-10.0,484.96728572039865,0.0069684754744930265,-0.1742727358732034,0.9846727648720818,3.0982905210332254,-90.1033706665039,6269.927734375
1594103770.8438892,0.0,5.0,0.5,0.5,-0.003954030227661133,-0.004,-0.0001,-0.026,-0.3459233924669616,2.0,0.2,20.0,-0.011760659673553312,-2.0,-0.2,-10.0,485.1519429150503,0.006657266635884707,-0.1725404707286384,0.9849799321619088,3.06529232951851,-89.95587158203125,6268.595703125
1594103770.8829288,0.0,5.0,0.5,0.5,-0.0031288475799560547,-0.004,-0.0001,-0.026,-0.3517395782855015,2.0,0.2,20.0,-0.012183653544933917,-2.0,-0.2,-10.0,485.2738873680355,0.006436128519198651,-0.17123550690482603,0.9852091034012685,3.043602251867916,-89.85589599609375,6267.70703125
1594103770.9128523,0.0,5.0,0.5,0.5,-0.003577067413330078,-0.004,-0.0001,-0.026,-0.3464477227012074,2.0,0.2,20.0,-0.011570441229212358,-2.0,-0.2,-10.0,485.3950195084326,0.006203925137025613,-0.16981546266099792,0.9854563511156268,3.0221107835391154,-89.75466918945312,6266.818359375
1594103770.9831817,0.0,5.0,0.5,0.5,-0.004022812042236328,-0.004,-0.0001,-0.026,-0.3408848595085613,2.0,0.2,20.0,-0.010933695884616644,-2.0,-0.2,-10.0,485.51519241009373,0.005960678574153871,-0.16827983082267411,0.985721242973503,3.0008973485896626,-89.65243530273438,6265.9287109375
1594103771.0210788,0.0,5.0,0.5,0.5,-0.006031022262573242,-0.004,-0.0001,-0.026,-0.31599635609292187,2.0,0.2,20.0,-0.00870124803410555,-2.0,-0.2,-10.0,485.6940113158198,0.005575470504072209,-0.16576196718872296,0.9861500313656046,2.9695365350243446,-89.49725341796875,6264.5947265625
1594103771.0509994,0.0,5.0,0.5,0.5,-0.005145353775024414,-0.004,-0.0001,-0.026,-0.32607724362793294,2.0,0.2,20.0,-0.009261563861140003,-2.0,-0.2,-10.0,485.81224643136375,0.005305125672840051,-0.163942744650607,0.986455590545272,2.9488968349797617,-89.39266967773438,6263.70556640625
1594103771.1198425,0.0,5.0,0.5,0.5,-0.005593292922973633,-0.004,-0.0001,-0.026,-0.319817049114448,2.0,0.2,20.0,-0.008545905057500683,-2.0,-0.2,-10.0,485.9296216717921,0.005024272335350396,-0.1620169678937177,0.9867751814886846,2.9285045342346563,-89.2874755859375,6262.81640625
1594103771.1886942,0.0,5.0,0.5,0.5,-0.007624945373535156,-0.004,-0.0001,-0.026,-0.2900068283727652,2.0,0.2,20.0,-0.00601821610505306,-2.0,-0.2,-10.0,486.1041231462732,0.004583871962148226,-0.15892510006811372,0.9872800011578147,2.8984229692231165,-89.12896728515625,6261.48193359375
1594103771.259469,0.0,5.0,0.5,0.5,-0.009887917861938475,-0.004,-0.0001,-0.026,-0.2526865181672045,2.0,0.2,20.0,-0.0028978406168419686,-2.0,-0.2,-10.0,486.3340376056731,0.0039615848802414914,-0.1544339609506655,0.9879951708132609,2.8591170329844484,-88.91656494140625,6259.7021484375
1594103771.3262897,0.0,5.0,0.5,0.5,-0.009150932540893554,-0.004,-0.0001,-0.026,-0.2623622874306981,2.0,0.2,20.0,-0.003175959034714692,-2.0,-0.2,-10.0,486.504452233552,0.0034715226536017867,-0.1508098641585984,0.9885566920530813,2.830264416368492,-88.75747680664062,6258.36669921875
1594103771.3611963,0.0,5.0,0.5,0.5,-0.009760460815429688,-0.004,-0.0001,-0.026,-0.25011195139669873,2.0,0.2,20.0,-0.0018959247271842531,-2.0,-0.2,-10.0,486.6730837976793,0.002962296193809315,-0.1469797271385507,0.9891350689423246,2.801937865839712,-88.5997314453125,6257.03125
1594103771.3971374,0.0,5.0,0.5,0.5,-0.008790013427734375,-0.004,-0.0001,-0.026,-0.2675596216049589,2.0,0.2,20.0,-0.0027254427350317948,-2.0,-0.2,-10.0,486.7846210389398,0.0026132255953730094,-0.14431409735123743,0.9895284798113116,2.7833578841073847,-88.49581909179688,6256.1416015625
1594103771.4659164,0.0,5.0,0.5,0.5,-0.009187220153808594,-0.004,-0.0001,-0.026,-0.2598684173887691,2.0,0.2,20.0,-0.0018633575024697988,-2.0,-0.2,-10.0,486.8954458072549,0.002256864498835631,-0.1415656713616291,0.9899262938494789,2.7650215693076183,-88.39297485351562,6255.2509765625
1594103771.4978683,0.0,5.0,0.5,0.5,-0.011096283874511718,-0.004,-0.0001,-0.026,-0.22001677630636046,2.0,0.2,20.0,0.0012374230296348316,-2.0,-0.2,-10.0,487.0602606985485,0.0017080769751094133,-0.13728134567760236,0.9905306227482287,2.7379577920589773,-88.24066162109375,6253.91552734375
1594103771.571632,0.0,5.0,0.5,0.5,-0.010160511474609375,-0.004,-0.0001,-0.026,-0.2399295493282662,2.0,0.2,20.0,0.0003219561402236417,-2.0,-0.2,-10.0,487.169229862513,0.0013341306154535718,-0.1343198106341602,0.9909371365362711,2.7201873979368365,-88.14031982421875,6253.025390625
1594103771.6025503,0.0,5.0,0.5,0.5,-0.012008248291015624,-0.004,-0.0001,-0.026,-0.19766343462993252,2.0,0.2,20.0,0.0035425381434768316,-2.0,-0.2,-10.0,487.33142696053255,0.0007611957152836357,-0.12973490279615632,0.9915484232136899,2.6939337490991653,-87.99221801757812,6251.68994140625
1594103771.6364596,0.0,5.0,0.5,0.5,-0.011078405151367189,-0.004,-0.0001,-0.026,-0.21918784479073705,2.0,0.2,20.0,0.00258316434901407,-2.0,-0.2,-10.0,487.43859498004895,0.0003712709979431798,-0.1265762850796934,0.991956806626816,2.6766945499821477,-87.89532470703125,6250.79931640625
1594103771.709296,0.0,5.0,0.5,0.5,-0.011431376953125003,-0.004,-0.0001,-0.026,-0.21064646621311311,2.0,0.2,20.0,0.0035102128882365273,-2.0,-0.2,-10.0,487.5451832485851,-2.316530921339292e-05,-0.12334878875012059,0.9923633788976933,2.6596616655803156,-87.800048828125,6249.9091796875
1594103771.7391853,0.0,5.0,0.5,0.5,-0.013152368774414063,-0.004,-0.0001,-0.026,-0.16499707339101854,2.0,0.2,20.0,0.006874899260190114,-2.0,-0.2,-10.0,487.70639107120223,-0.000624574367387733,-0.11837207087797555,0.9929691146973904,2.634433998347124,-87.66055297851562,6248.57373046875
1594103771.811024,0.0,5.0,0.5,0.5,-0.012260815124511718,-0.004,-0.0001,-0.026,-0.18890044406324907,2.0,0.2,20.0,0.005830404921265037,-2.0,-0.2,-10.0,487.79951035173144,-0.0010310637888765446,-0.11496708228846571,0.99336876682204,2.6177779444573974,-87.56979370117188,6247.68359375
1594103771.8459353,0.0,5.0,0.5,0.5,-0.013878099670410156,-0.004,-0.0001,-0.026,-0.1414902881337889,2.0,0.2,20.0,0.009236271986724796,-2.0,-0.2,-10.0,487.942447643145,-0.0016461229181680703,-0.10974921537563596,0.9939579467984401,2.593036596261724,-87.4376220703125,6246.349609375
1594103771.8788111,0.0,5.0,0.5,0.5,-0.013012157287597657,-0.004,-0.0001,-0.026,-0.1667828349892561,2.0,0.2,20.0,0.008154601990234767,-2.0,-0.2,-10.0,488.06065844616387,-0.0020608523276835437,-0.10618920714082372,0.994343806323792,2.5767526803492715,-87.35232543945312,6245.45947265625
1594103771.9486246,0.0,5.0,0.5,0.5,-0.013289705505371095,-0.004,-0.0001,-0.026,-0.1577951225537929,2.0,0.2,20.0,0.009090617249378229,-2.0,-0.2,-10.0,488.1724791090237,-0.0024766713106699656,-0.10257896262593737,0.9947217814674642,2.5607223763560607,-87.26953125,6244.5703125
1594103771.9845283,0.0,5.0,0.5,0.5,-0.014728918457031248,-0.004,-0.0001,-0.026,-0.10781190117023728,2.0,0.2,20.0,0.012553793342678966,-2.0,-0.2,-10.0,488.31545565114357,-0.0031038959112512027,-0.09706040001200242,0.9952736531123902,2.5370545259980677,-87.15017700195312,6243.2353515625
1594103772.0154457,0.0,5.0,0.5,0.5,-0.013928177795410154,-0.004,-0.0001,-0.026,-0.13499706347269055,2.0,0.2,20.0,0.01141650653767447,-2.0,-0.2,-10.0,488.40865592006594,-0.0035237892231745915,-0.09331577860005089,0.9956303271665528,2.521441313759872,-87.07379150390625,6242.345703125
1594103772.084262,0.0,5.0,0.5,0.5,-0.01416015655517578,-0.004,-0.0001,-0.026,-0.12579804132138017,2.0,0.2,20.0,0.012345756843973054,-2.0,-0.2,-10.0,488.5270283733262,-0.003943041308904584,-0.08953071633870276,0.9959762563721661,2.505796252344443,-87.00021362304688,6241.45654296875
1594103772.123157,0.0,5.0,0.5,0.5,-0.015401888122558594,-0.004,-0.0001,-0.026,-0.07381543219632816,2.0,0.2,20.0,0.015799822183139217,-2.0,-0.2,-10.0,488.67017350613605,-0.004572416430236444,-0.08376345403766342,0.9964751761964111,2.482888137225424,-86.8953857421875,6240.1220703125
1594103772.156069,0.0,5.0,0.5,0.5,-0.01467214141845703,-0.004,-0.0001,-0.026,-0.10257885308743142,2.0,0.2,20.0,0.014627353061829043,-2.0,-0.2,-10.0,488.76341320655774,-0.004990950458856847,-0.07986683728726146,0.9967930470841214,2.4678039962576417,-86.82919311523438,6239.232421875
1594103772.224885,0.0,5.0,0.5,0.5,-0.014850490112304687,-0.004,-0.0001,-0.026,-0.09326590840496612,2.0,0.2,20.0,0.015534902770514569,-2.0,-0.2,-10.0,488.8568387309788,-0.005407078316514904,-0.07594067180265932,0.9970976771962915,2.4527170377688368,-86.76620483398438,6238.34423828125
1594103772.2607884,0.0,5.0,0.5,0.5,-0.01587218994140625,-0.004,-0.0001,-0.026,-0.039852955156218756,2.0,0.2,20.0,0.01892090827854567,-2.0,-0.2,-10.0,489.0187409922946,-0.006028047816983998,-0.06998214294087368,0.997530030780487,2.430301925002304,-86.6778564453125,6237.0107421875
1594103772.291748,0.0,5.0,0.5,0.5,-0.015225591735839844,-0.004,-0.0001,-0.026,-0.06988813679308833,2.0,0.2,20.0,0.017731361515747758,-2.0,-0.2,-10.0,489.11219530703966,-0.006438065197094904,-0.06597142944942408,0.9978007425397707,2.4155379046535743,-86.62313842773438,6236.1220703125
1594103772.3615298,0.0,5.0,0.5,0.5,-0.015346407470703123,-0.004,-0.0001,-0.026,-0.06058483320842342,2.0,0.2,20.0,0.0185940074313254,-2.0,-0.2,-10.0,489.187041335972,-0.006843646936353919,-0.06194224682691805,0.9980562722385165,2.4009095528367443,-86.57196044921875,6235.23388671875
1594103772.399471,0.0,5.0,0.5,0.5,-0.016124718933105468,-0.004,-0.0001,-0.026,-0.006256628260246977,2.0,0.2,20.0,0.021847741489334587,-2.0,-0.2,-10.0,489.34917486226186,-0.007444804899556079,-0.055850114181826276,0.9984114080006721,2.3789022025508264,-86.50192260742188,6233.9013671875
1594103772.4652631,0.0,5.0,0.5,0.5,-0.01557758544921875,-0.004,-0.0001,-0.026,-0.03727943042972215,2.0,0.2,20.0,0.02067230861563811,-2.0,-0.2,-10.0,489.44282897305675,-0.007839536906768363,-0.05176441991985,0.9986285528120297,2.3643776542741035,-86.459716796875,6233.01318359375
1594103772.4982014,0.0,5.0,0.5,0.5,-0.016167131652832033,-0.004,-0.0001,-0.026,0.01701510597678048,2.0,0.2,20.0,0.02376922414381515,-2.0,-0.2,-10.0,489.5864716746146,-0.008418663805134157,-0.04562339709965977,0.998923236158226,2.342878557780504,-86.40371704101562,6231.68115234375
1594103772.5673819,0.0,5.0,0.5,0.5,-0.015693790893554688,-0.004,-0.0001,-0.026,-0.014381900184028976,2.0,0.2,20.0,0.02262137892196156,-2.0,-0.2,-10.0,489.6802329819184,-0.008797457660981254,-0.04151114243543307,0.9990993092743126,2.3285491710276434,-86.37118530273438,6230.79345703125
1594103772.6003246,0.0,5.0,0.5,0.5,-0.016085640258789065,-0.004,-0.0001,-0.026,0.039885153562466025,2.0,0.2,20.0,0.02555826280654986,-2.0,-0.2,-10.0,489.8240091870539,-0.009349768837316065,-0.035349699001207456,0.9993312666994928,2.307133501656508,-86.33013916015625,6229.4619140625
1594103772.6723764,0.0,5.0,0.5,0.5,-0.015695174560546876,-0.004,-0.0001,-0.026,0.008095562210607213,2.0,0.2,20.0,0.02443576836864827,-2.0,-0.2,-10.0,489.9178193275584,-0.009708524693758143,-0.031237380717938166,0.9994648421000877,2.2929106084578583,-86.30776977539062,6228.57421875
1594103772.703331,0.0,5.0,0.5,0.5,-0.01588599670410156,-0.004,-0.0001,-0.026,0.062063124863014546,2.0,0.2,20.0,0.027178495325922106,-2.0,-0.2,-10.0,490.03682860184927,-0.010228185863507858,-0.025090047118556044,0.9996328694823566,2.2715207027345086,-86.28219604492188,6227.244140625
1594103772.7372046,0.0,5.0,0.5,0.5,-0.015582975463867187,-0.004,-0.0001,-0.026,0.030187410438793534,2.0,0.2,20.0,0.026101651265330653,-2.0,-0.2,-10.0,490.1557746332837,-0.010563464654005011,-0.020996685979022437,0.9997237380358646,2.257177605229191,-86.27029418945312,6226.357421875
1594103772.8110423,0.0,5.0,0.5,0.5,-0.01550556915283203,-0.004,-0.0001,-0.026,0.03895463120355616,2.0,0.2,20.0,0.026734346030335882,-2.0,-0.2,-10.0,490.23112409352325,-0.010888029181774707,-0.016921470778286176,0.9997975368279501,2.2428510717085266,-86.2626953125,6225.47021484375
1594103772.8449492,0.0,5.0,0.5,0.5,-0.015417803955078125,-0.004,-0.0001,-0.026,0.09241550343224667,2.0,0.2,20.0,0.029190746219873123,-2.0,-0.2,-10.0,490.3502121021738,-0.011355783030736423,-0.010831280911468314,0.9998768571907122,2.2214886157824982,-86.2591552734375,6224.14111328125
1594103772.876832,0.0,5.0,0.5,0.5,-0.015241915893554687,-0.004,-0.0001,-0.026,0.06054881192630755,2.0,0.2,20.0,0.028187401757341614,-2.0,-0.2,-10.0,490.44437724375166,-0.011654445639502924,-0.006789695160917899,0.9999090328307159,2.207156371015189,-86.26205444335938,6223.2548828125
1594103772.9472647,0.0,5.0,0.5,0.5,-0.015102713012695314,-0.004,-0.0001,-0.026,0.0690225263463827,2.0,0.2,20.0,0.028724135219937084,-2.0,-0.2,-10.0,490.5384634619113,-0.011941042867458052,-0.002774957840433113,0.9999248527285546,2.1929692210063365,-86.269287109375,6222.369140625
1594103772.9792905,0.0,5.0,0.5,0.5,-0.014731448364257814,-0.004,-0.0001,-0.026,0.12141538361998894,2.0,0.2,20.0,0.030844815705648607,-2.0,-0.2,-10.0,490.6829202681547,-0.01234976142129547,0.0032117609978265962,0.9999185806775118,2.171869332134131,-86.28799438476562,6221.0390625
1594103773.0482893,0.0,5.0,0.5,0.5,-0.014686157836914062,-0.004,-0.0001,-0.026,0.08978419027919318,2.0,0.2,20.0,0.029924470874518876,-2.0,-0.2,-10.0,490.7585849548923,-0.012607112984205571,0.007172055555210629,0.9998948056277303,2.1578154012187323,-86.30575561523438,6220.1533203125
1594103773.0861888,0.0,5.0,0.5,0.5,-0.014103987426757813,-0.004,-0.0001,-0.026,0.14069546178251238,2.0,0.2,20.0,0.03176758994222545,-2.0,-0.2,-10.0,490.8781672702171,-0.012968816450067496,0.013042214586628218,0.999830840911882,2.13663241642922,-86.340576171875,6218.82373046875
1594103773.1181006,0.0,5.0,0.5,0.5,-0.014155946044921874,-0.004,-0.0001,-0.026,0.10954931964045321,2.0,0.2,20.0,0.030926263946711035,-2.0,-0.2,-10.0,490.97245265566744,-0.01319409375930498,0.01691899641456167,0.9997698052302814,2.12245519998387,-86.3690185546875,6217.9375
1594103773.1840608,0.0,5.0,0.5,0.5,-0.013910643615722657,-0.004,-0.0001,-0.026,0.11727512705581786,2.0,0.2,20.0,0.031278656108749144,-2.0,-0.2,-10.0,491.04806761292275,-0.013405381582063482,0.020750738070533653,0.9996948047350088,2.108372251481559,-86.40182495117188,6217.0517578125
1594103773.2189307,0.0,5.0,0.5,0.5,-0.013051293029785157,-0.004,-0.0001,-0.026,0.1663757463594989,2.0,0.2,20.0,0.032727813016471236,-2.0,-0.2,-10.0,491.1678722766228,-0.013696922517141481,0.02642431246686724,0.9995569768773628,2.0873416687184183,-86.4588623046875,6215.72265625
1594103773.2857845,0.0,5.0,0.5,0.5,-0.013234160766601563,-0.004,-0.0001,-0.026,0.13591623512374712,2.0,0.2,20.0,0.032002737515663765,-2.0,-0.2,-10.0,491.26231016474776,-0.01387422790820063,0.03015447413604916,0.9994489549194244,2.073287182370072,-86.50213623046875,6214.8369140625
1594103773.3196611,0.0,5.0,0.5,0.5,-0.012170609130859374,-0.004,-0.0001,-0.026,0.1831563591770586,2.0,0.2,20.0,0.033156809514673105,-2.0,-0.2,-10.0,496.163731137407,-0.014113178069456656,0.03565001225144294,0.9992646770657171,2.052351690946377,-86.57501220703125,6213.5068359375
1594103773.3575602,0.0,5.0,0.5,0.5,-0.012455475463867188,-0.004,-0.0001,-0.026,0.15353521488193622,2.0,0.2,20.0,0.03252400215567371,-2.0,-0.2,-10.0,496.2581532044569,-0.014254973598855528,0.03925728462187453,0.9991274499941502,2.038430035657828,-86.62857055664062,6212.62109375
1594103773.422386,0.0,5.0,0.5,0.5,-0.012112149658203125,-0.004,-0.0001,-0.026,0.16035475293866067,2.0,0.2,20.0,0.03268011430116774,-2.0,-0.2,-10.0,496.3341093370691,-0.014381811672213503,0.042804741252315454,0.9989799385469897,2.024425937620171,-86.68630981445312,6211.73486328125
1594103773.45732,0.0,5.0,0.5,0.5,-0.010790291442871094,-0.004,-0.0001,-0.026,0.20511766856348737,2.0,0.2,20.0,0.03342178427128908,-2.0,-0.2,-10.0,496.45357381913345,-0.014545247949514001,0.04802294371830592,0.9987403229261927,1.9462327706913802,-86.7802734375,6210.54052734375
1594103773.524151,0.0,5.0,0.5,0.5,-0.0112014453125,-0.004,-0.0001,-0.026,0.176628663723562,2.0,0.2,20.0,0.03292269739527712,-2.0,-0.2,-10.0,496.52950714109465,-0.014636195130049722,0.051431071937645664,0.9985692898499631,1.8940088652052824,-86.84783935546875,6209.744140625
1594103773.5590203,0.0,5.0,0.5,0.5,-0.009690714416503907,-0.004,-0.0001,-0.026,0.21907256601117625,2.0,0.2,20.0,0.03335727082663775,-2.0,-0.2,-10.0,496.6496973168105,-0.014744817096199802,0.056418403135225684,0.9982983292365417,1.817121488833008,-86.95657348632812,6208.546875
1594103773.6308649,0.0,5.0,0.5,0.5,-0.010199935302734376,-0.004,-0.0001,-0.026,0.19170458411188612,2.0,0.2,20.0,0.032963766888335785,-2.0,-0.2,-10.0,496.7257044421276,-0.014799583405389484,0.05966890851165015,0.9981085079729834,1.7677052389837447,-87.03363037109375,6207.744140625
1594103773.6607478,0.0,5.0,0.5,0.5,-0.008518179321289062,-0.004,-0.0001,-0.026,0.2317864969720462,2.0,0.2,20.0,0.03309934495579187,-2.0,-0.2,-10.0,496.82728491851594,-0.014853844352592085,0.06440695497286414,0.9978131626006306,1.6977490817320309,-87.15625,6206.529296875
1594103773.6966844,0.0,5.0,0.5,0.5,-0.009116042785644532,-0.004,-0.0001,-0.026,0.20555840099793063,2.0,0.2,20.0,0.03280649832408543,-2.0,-0.2,-10.0,496.89685741078574,-0.014872243818001169,0.0674823962870513,0.9976096143057039,1.6528766141655948,-87.24234008789062,6205.71533203125
1594103773.8282983,0.0,5.0,0.5,0.5,-0.00865673095703125,-0.004,-0.0001,-0.026,0.21082021806742252,2.0,0.2,20.0,0.03269572904833064,-2.0,-0.2,-10.0,496.9729442021344,-0.01487638706402774,0.07048009999963455,0.9974022501538499,1.609729179164778,-87.33200073242188,6204.8974609375
1594103773.8532293,0.0,5.0,0.5,0.5,-0.0067590280151367185,-0.004,-0.0001,-0.026,0.24763314415452992,2.0,0.2,20.0,0.03243552034797874,-2.0,-0.2,-10.0,497.0671331930207,-0.014856485445427512,0.0748419403551573,0.9970847350170821,1.549711624250948,-87.47268676757812,6203.6591796875
1594103773.9175906,0.0,5.0,0.5,0.5,-0.0074690454101562515,-0.004,-0.0001,-0.026,0.2231323818152346,2.0,0.2,20.0,0.03228220313296082,-2.0,-0.2,-10.0,497.12794589891564,-0.01482588548304921,0.07765794972829755,0.9968698189651649,1.510685950312566,-87.57064819335938,6202.8310546875
1594103773.9514647,0.0,5.0,0.5,0.5,-0.006968901977539064,-0.004,-0.0001,-0.026,0.22773216496607843,2.0,0.2,20.0,0.032072844155944275,-2.0,-0.2,-10.0,497.1873006435344,-0.014781987413175591,0.08039212960609393,0.9966537003119557,1.4731163367479676,-87.67190551757812,6202.0
1594103773.9857736,0.0,5.0,0.5,0.5,-0.006467041625976562,-0.004,-0.0001,-0.026,0.2322919685489031,2.0,0.2,20.0,0.03183143793245269,-2.0,-0.2,-10.0,497.24519359413534,-0.014724621543421672,0.08305084112298833,0.996436522468525,1.4375933262701444,-87.77606201171875,6201.16357421875
1594103774.0503235,0.0,5.0,0.5,0.5,-0.005952567138671875,-0.004,-0.0001,-0.026,0.23663140825698695,2.0,0.2,20.0,0.03156597864368056,-2.0,-0.2,-10.0,497.30168164835777,-0.01465439608857255,0.08563325530925552,0.9962189489567136,1.403421986283559,-87.88314819335938,6200.32373046875
1594103774.0833597,0.0,5.0,0.5,0.5,-0.0037441549682617195,-0.004,-0.0001,-0.026,0.2675185619406101,2.0,0.2,20.0,0.030719614325364165,-2.0,-0.2,-10.0,497.3838625634089,-0.014525314181407711,0.089353773206598,0.9958940297349289,1.3547220628847947,-88.04922485351562,6199.05810546875
1594103774.1510506,0.0,5.0,0.5,0.5,-0.004625318298339844,-0.004,-0.0001,-0.026,0.246132057030251,2.0,0.2,20.0,0.030788391974985854,-2.0,-0.2,-10.0,497.4371372262249,-0.014423843234430139,0.09173400709910087,0.9956790771568371,1.3230437070549568,-88.16342163085938,6198.2119140625
1594103774.1829147,0.0,5.0,0.5,0.5,-0.0022959661865234373,-0.004,-0.0001,-0.026,0.2740793277727088,2.0,0.2,20.0,0.029702990942381307,-2.0,-0.2,-10.0,497.51472208090127,-0.014249460259516716,0.09513903649095388,0.9953620027999288,1.2781135288369851,-88.33966064453125,6196.9375
1594103774.2530286,0.0,5.0,0.5,0.5,-0.0032573376464843755,-0.004,-0.0001,-0.026,0.2542502851730857,2.0,0.2,20.0,0.029870589501779638,-2.0,-0.2,-10.0,497.565017026267,-0.01411911496719385,0.09730525938218458,0.9951544287642541,1.2492663791721523,-88.4599609375,6196.0849609375
1594103774.2838368,0.0,5.0,0.5,0.5,-0.0008294509887695313,-0.004,-0.0001,-0.026,0.27917363232699766,2.0,0.2,20.0,0.028560303752203427,-2.0,-0.2,-10.0,497.63828954158816,-0.013902558625878123,0.10038032064203109,0.9948520041149121,1.2083519609347102,-88.64474487304688,6194.80029296875
1594103774.3502686,0.0,5.0,0.5,0.5,-0.0018523953247070318,-0.004,-0.0001,-0.026,0.2609586165032649,2.0,0.2,20.0,0.02881614145166172,-2.0,-0.2,-10.0,497.6858366345987,-0.013745037863800123,0.10232069359477425,0.994656498292957,1.1820669270685005,-88.77035522460938,6193.94140625
1594103774.3870075,0.0,5.0,0.5,0.5,0.0006588723754882815,-0.004,-0.0001,-0.026,0.28282030673593317,2.0,0.2,20.0,0.02731989294119635,-2.0,-0.2,-10.0,497.75530039612204,-0.013490935598832389,0.10505340151398966,0.9943750688181038,1.1447596238060753,-88.96249389648438,6192.64794921875
1594103774.4510133,0.0,5.0,0.5,0.5,-0.0004190060424804692,-0.004,-0.0001,-0.026,0.26631968089788427,2.0,0.2,20.0,0.02765527308778079,-2.0,-0.2,-10.0,497.8003948540427,-0.013309356973381675,0.10676274803719628,0.9941954418767475,1.1207818061223496,-89.09262084960938,6191.783203125
1594103774.484305,0.0,5.0,0.5,0.5,0.0021600814819335936,-0.004,-0.0001,-0.026,0.28511715204875965,2.0,0.2,20.0,0.02597823789588351,-2.0,-0.2,-10.0,497.86627999320626,-0.013020742903580964,0.10914715663930472,0.9939403193611748,1.086725272206102,-89.2908935546875,6190.48193359375
1594103774.5505674,0.0,5.0,0.5,0.5,0.0010328958129882811,-0.004,-0.0001,-0.026,0.2703953394034593,2.0,0.2,20.0,0.026396027362391643,-2.0,-0.2,-10.0,497.9090662993258,-0.012817886765355783,0.1106219035977839,0.9937799033102214,1.0648300437842244,-89.42465209960938,6189.6123046875
1594103774.5843174,0.0,5.0,0.5,0.5,0.003662507629394531,-0.004,-0.0001,-0.026,0.28608313778622474,2.0,0.2,20.0,0.024574066571346247,-2.0,-0.2,-10.0,497.97169617924374,-0.012500070766453044,0.11265294744262838,0.9935557667606393,1.033710724032077,-89.62771606445312,6188.30419921875
1594103774.6546304,0.0,5.0,0.5,0.5,0.002495614318847656,-0.004,-0.0001,-0.026,0.2731483077359664,2.0,0.2,20.0,0.025054835221354894,-2.0,-0.2,-10.0,498.01247156469617,-0.01227866356055974,0.11389022304998796,0.9934174608465418,1.013698403121218,-89.7642822265625,6187.4306640625
1594103774.6836183,0.0,5.0,0.5,0.5,0.005159022827148437,-0.004,-0.0001,-0.026,0.2856749241299571,2.0,0.2,20.0,0.023101228586909255,-2.0,-0.2,-10.0,498.0721718289424,-0.011934932302234634,0.11556426869644998,0.9932283006396847,0.9852421096098908,-89.97088623046875,6186.11572265625
1594103774.7541459,0.0,5.0,0.5,0.5,0.003956463012695312,-0.004,-0.0001,-0.026,0.27456894192359366,2.0,0.2,20.0,0.023652348942159406,-2.0,-0.2,-10.0,498.11102213396225,-0.011698273829830028,0.11656274260912121,0.9931144331973242,0.9669407778230011,-90.10931396484375,6185.2373046875
1594103774.7900493,0.0,5.0,0.5,0.5,0.006636271362304687,-0.004,-0.0001,-0.026,0.2839328668589507,2.0,0.2,20.0,0.021602687342097752,-2.0,-0.2,-10.0,498.16799880412873,-0.011334288038049992,0.11787857231476861,0.992963330694393,0.9409051609759912,-90.31806182861328,6183.91748046875
1594103774.8199704,0.0,5.0,0.5,0.5,0.005407917861938476,-0.004,-0.0001,-0.026,0.2746623514788557,2.0,0.2,20.0,0.02220421163566065,-2.0,-0.2,-10.0,498.2051626982866,-0.01108537402034325,0.11863748657383218,0.9928757531847945,0.9241601521209389,-90.45747375488281,6183.03564453125
1594103774.890274,0.0,5.0,0.5,0.5,0.005991820907592774,-0.004,-0.0001,-0.026,0.2743916084300894,2.0,0.2,20.0,0.02160359172176271,-2.0,-0.2,-10.0,498.24162875534967,-0.010832326785835232,0.1193002686771469,0.9927991270090669,0.9080042616676421,-90.59719848632812,6182.15283203125
1594103774.9285097,0.0,5.0,0.5,0.5,0.008656529159545899,-0.004,-0.0001,-0.026,0.27940285187037384,2.0,0.2,20.0,0.01944733588821913,-2.0,-0.2,-10.0,498.29522170266137,-0.01044619711897158,0.1201176299572976,0.9927047053072696,0.8852624284815251,-90.80657196044922,6180.8251953125
1594103774.9608328,0.0,5.0,0.5,0.5,0.00741758041381836,-0.004,-0.0001,-0.026,0.27271387514084,2.0,0.2,20.0,0.02011071813603548,-2.0,-0.2,-10.0,498.33021047117654,-0.010184476183660583,0.12054450046798298,0.9926556804107802,0.8704770621057114,-90.94615936279297,6179.93896484375
1594103775.0303602,0.0,5.0,0.5,0.5,0.007987676162719726,-0.004,-0.0001,-0.026,0.27172114408488063,2.0,0.2,20.0,0.019508337873475494,-2.0,-0.2,-10.0,498.3645914342487,-0.009920904160221287,0.12087707920803638,0.9926179060357404,0.8562149012316893,-91.08558654785156,6179.0517578125
1594103775.0687654,0.0,5.0,0.5,0.5,0.01061941307067871,-0.004,-0.0001,-0.026,0.2724066185889832,2.0,0.2,20.0,0.017285986230481942,-2.0,-0.2,-10.0,498.4152231969638,-0.009520893141447636,0.12120125856226208,0.9925822925665725,0.8361078197523177,-91.29359436035156,6177.71875
1594103775.0989804,0.0,5.0,0.5,0.5,0.009369027786254883,-0.004,-0.0001,-0.026,0.26827902824445826,2.0,0.2,20.0,0.018004290409219737,-2.0,-0.2,-10.0,498.44827877637,-0.009252374603406084,0.12130057813124373,0.9925726992564446,0.8230488726776335,-91.43163299560547,6176.8291015625
1594103775.1695108,0.0,5.0,0.5,0.5,0.009916569824218749,-0.004,-0.0001,-0.026,0.2666041103532299,2.0,0.2,20.0,0.01739649642755957,-2.0,-0.2,-10.0,498.4808172910707,-0.008983003471495034,0.1213079993306428,0.9925742667161122,0.8104523186799799,-91.56896209716797,6175.93798828125
1594103775.2074084,0.0,5.0,0.5,0.5,0.012480920944213866,-0.004,-0.0001,-0.026,0.26302799406345134,2.0,0.2,20.0,0.015161760226539294,-2.0,-0.2,-10.0,498.5287625823403,-0.008577219392868702,0.12114697356180276,0.99259752271719,0.7926870700605317,-91.7729263305664,6174.599609375
1594103775.2717154,0.0,5.0,0.5,0.5,0.011235624694824219,-0.004,-0.0001,-0.026,0.2614573533018886,2.0,0.2,20.0,0.015913331648632602,-2.0,-0.2,-10.0,498.5600992158288,-0.00830689870324947,0.12092502625464743,0.992626885319578,0.7811637208896591,-91.90763092041016,6173.70703125
1594103775.3056688,0.0,5.0,0.5,0.5,0.01373766540527344,-0.004,-0.0001,-0.026,0.2549326487600263,2.0,0.2,20.0,0.013697768209473264,-2.0,-0.2,-10.0,498.60635072062723,-0.007902046824194832,0.12042390899265805,0.9926911099626691,0.7647608178101574,-92.10724639892578,6172.36572265625
1594103775.3744493,0.0,5.0,0.5,0.5,0.012494519577026367,-0.004,-0.0001,-0.026,0.25516840221616827,2.0,0.2,20.0,0.0144575951177456,-2.0,-0.2,-10.0,498.6366106054047,-0.0076332947126655755,0.11997743989120249,0.9927472723352014,0.7542299852977132,-92.2382583618164,6171.47119140625
1594103775.442395,0.0,5.0,0.5,0.5,0.01680603515625,-0.004,-0.0001,-0.026,0.23870822915767614,2.0,0.2,20.0,0.010684976165639007,-2.0,-0.2,-10.0,498.6959833734436,-0.007100281427170929,0.11882275359520775,0.9928900942358663,0.7344331137454772,-92.4949722290039,6169.6787109375
1594103775.510226,0.0,5.0,0.5,0.5,0.015771069793701173,-0.004,-0.0001,-0.026,0.23767312150222325,2.0,0.2,20.0,0.01120532957607037,-2.0,-0.2,-10.0,498.73952127888333,-0.006705042999614338,0.11772716559302111,0.9930233415583979,0.7203884584853112,-92.6823959350586,6168.33349609375
1594103775.5461297,0.0,5.0,0.5,0.5,0.016394389190673826,-0.004,-0.0001,-0.026,0.2313064866170192,2.0,0.2,20.0,0.01042459448622304,-2.0,-0.2,-10.0,498.78221179172397,-0.006316415441136645,0.11644434521886486,0.9931771329236918,0.7069332047773518,-92.86502838134766,6166.9873046875
1594103775.6186743,0.0,5.0,0.5,0.5,0.015212095108032227,-0.004,-0.0001,-0.026,0.23578133968193776,2.0,0.2,20.0,0.011165991952012138,-2.0,-0.2,-10.0,498.8102776046144,-0.0060603497457528,0.11548557704893654,0.9932906692678802,0.6984189954792772,-92.98330688476562,6166.0888671875
1594103775.6505508,0.0,5.0,0.5,0.5,0.017317325363159178,-0.004,-0.0001,-0.026,0.21989964028761488,2.0,0.2,20.0,0.009122113467998155,-2.0,-0.2,-10.0,498.8517266048584,-0.005682406031591256,0.11389727026881732,0.9934762815925724,0.686481303332934,-93.15542602539062,6164.740234375
