Timestamp,Input Throttle,horizon,dT,dt,Input Roll,Roll P,Roll I,Roll D,Input Pitch,Pitch P,Pitch I,Pitch D,Input Yaw,Yaw P,Yaw I,Yaw D,Altitude,Direction X,Direction Y,Direction Z,Vertical Velocity,Roll,Mass
1594015661.9082084,0.0,5.0,0.5,0.5,8.870925903320312e-05,-0.0001,-1e-05,-0.006,-0.008388469108859098,2.0,0.5,10.0,-0.003878105070435455,-2.0,-0.5,-10.0,475.02654368581716,0.0018017798124315995,-0.0033252051925898663,0.9999928482743938,-13.971150834466716,-90.4810562133789,3893.01171875
1594015661.946106,0.0,5.0,0.5,0.5,6.492197418212891e-05,-0.0001,-1e-05,-0.006,-0.007449940858931546,2.0,0.5,10.0,-0.00382617273906622,-2.0,-0.5,-10.0,474.4695985506987,0.0018128234893967196,-0.003377977710433393,0.9999926514417915,-14.359189073540875,-90.48373413085938,3893.01171875
1594015661.9852061,0.0,5.0,0.5,0.5,6.683698272705079e-05,-0.0001,-1e-05,-0.006,-0.007750751088142192,2.0,0.5,10.0,-0.003952689943322045,-2.0,-0.5,-10.0,473.899927555467,0.0018250162226831521,-0.0034329474206104132,0.999992442065336,-14.747152129971028,-90.48660278320312,3893.01171875
1594015662.0211112,0.0,5.0,0.5,0.5,6.90997085571289e-05,-0.0001,-1e-05,-0.006,-0.00807680691502587,2.0,0.5,10.0,-0.00410927775419489,-2.0,-0.5,-10.0,473.3598522240063,0.0018406215837334032,-0.003491622883745693,0.999992210310572,-13.647133264616743,-90.48971557617188,3890.81201171875
1594015662.058026,0.0,5.0,0.5,0.5,7.055225372314453e-05,-0.0001,-1e-05,-0.006,-0.008370741368925828,2.0,0.5,10.0,-0.004211024403523143,-2.0,-0.5,-10.0,472.8610414416762,0.001854435682120411,-0.003550465212167816,0.9999919776003596,-12.517557144755054,-90.49293518066406,3888.56982421875
1594015662.0929315,0.0,5.0,0.5,0.5,7.206523895263673e-05,-0.0001,-1e-05,-0.006,-0.00868094608896718,2.0,0.5,10.0,-0.004338725706327841,-2.0,-0.5,-10.0,472.3678561488632,0.0018688623906678071,-0.0036105572741389983,0.999991735580617,-11.358319594894892,-90.49626922607422,3886.28466796875
1594015662.1669185,0.0,5.0,0.5,0.5,7.340684509277344e-05,-0.0001,-1e-05,-0.006,-0.008977162911213993,2.0,0.5,10.0,-0.004462604480210458,-2.0,-0.5,-10.0,472.0013475912856,0.0018834209523197396,-0.0036702747389933056,0.9999914908682257,-10.257551317431695,-90.49968719482422,3884.0869140625
1594015662.204813,0.0,5.0,0.5,0.5,8.546430206298828e-05,-0.0001,-1e-05,-0.006,-0.009638943451859502,2.0,0.5,10.0,-0.004663558226910748,-2.0,-0.5,-10.0,471.45443762047216,0.0019044516452867085,-0.0037598948600132153,0.999991118087842,-8.72905283976939,-90.50494384765625,3880.97265625
1594015662.2407215,0.0,5.0,0.5,0.5,7.607010650634765e-05,-0.0001,-1e-05,-0.006,-0.009638903855846419,2.0,0.5,10.0,-0.004717849740374799,-2.0,-0.5,-10.0,471.1527323384071,0.001918566300359159,-0.003818908765945328,0.9999908674778928,-7.751703822466843,-90.50849151611328,3878.958984375
1594015662.280615,0.0,5.0,0.5,0.5,7.707298278808595e-05,-0.0001,-1e-05,-0.006,-0.009929016569388561,2.0,0.5,10.0,-0.004829232832675818,-2.0,-0.5,-10.0,470.85636980785057,0.001931616411026456,-0.003876350960492495,0.9999906213366562,-6.835091219518393,-90.5120620727539,3877.035400390625
1594015662.3175159,0.0,5.0,0.5,0.5,7.78490219116211e-05,-0.0001,-1e-05,-0.006,-0.010218782735045038,2.0,0.5,10.0,-0.0049367569535186985,-2.0,-0.5,-10.0,470.6236346269725,0.0019434034449401668,-0.003932215174084455,0.9999903803871689,-6.002952042527187,-90.51561737060547,3875.237060546875
1594015662.3925412,0.0,5.0,0.5,0.5,7.819257354736329e-05,-0.0001,-1e-05,-0.006,-0.010330906122330551,2.0,0.5,10.0,-0.0049548559769769865,-2.0,-0.5,-10.0,470.4487663883483,0.001954144126687664,-0.003985583092761987,0.9999901481755422,-5.224971958330965,-90.5191650390625,3873.51904296875
1594015662.5331645,0.0,5.0,0.5,0.5,8.900757598876953e-05,-0.0001,-1e-05,-0.006,-0.010731564128975028,2.0,0.5,10.0,-0.0050128899932507034,-2.0,-0.5,-10.0,470.22765012201853,0.0019673420268446758,-0.004060912836453935,0.999989819224318,-4.15753536022033,-90.52442169189453,3871.08984375
1594015662.5630832,0.0,5.0,0.5,0.5,7.863432312011719e-05,-0.0001,-1e-05,-0.006,-0.010570809305225394,2.0,0.5,10.0,-0.004968277498017159,-2.0,-0.5,-10.0,470.09671956300735,0.001974029544855384,-0.004107674864985407,0.9999896150533562,-3.4767123303497223,-90.52788543701172,3869.51611328125
1594015662.597993,0.0,5.0,0.5,0.5,7.855347442626954e-05,-0.0001,-1e-05,-0.006,-0.010652640460852202,2.0,0.5,10.0,-0.004967397200616064,-2.0,-0.5,-10.0,469.99148118612356,0.001978973251909541,-0.004150895601808702,0.9999894268093895,-2.839861514949541,-90.5312728881836,3868.007568359375
1594015662.6348925,0.0,5.0,0.5,0.5,7.86047821044922e-05,-0.0001,-1e-05,-0.006,-0.010728446354616122,2.0,0.5,10.0,-0.004964400018399011,-2.0,-0.5,-10.0,469.9101157026598,0.001982324336062463,-0.004190728247018271,0.9999892540357554,-2.263814212347393,-90.53460693359375,3866.5888671875
1594015662.6937008,0.0,5.0,0.5,0.5,7.860420989990234e-05,-0.0001,-1e-05,-0.006,-0.010800008785419878,2.0,0.5,10.0,-0.0049549425476520335,-2.0,-0.5,-10.0,469.85061758419033,0.001983856025521839,-0.004227468274872894,0.9999890963541828,-1.7265521194935052,-90.53787994384766,3865.2275390625
1594015662.7603824,0.0,5.0,0.5,0.5,8.813794708251953e-05,-0.0001,-1e-05,-0.006,-0.011040789943757155,2.0,0.5,10.0,-0.004931782041332749,-2.0,-0.5,-10.0,469.7991597240325,0.001982783911739703,-0.004275828421547022,0.9999888928679501,-0.9918007484996477,-90.54265594482422,3863.290771484375
1594015662.7952914,0.0,5.0,0.5,0.5,8.730361938476563e-05,-0.0001,-1e-05,-0.006,-0.011065636889336901,2.0,0.5,10.0,-0.0048839138052075015,-2.0,-0.5,-10.0,469.7899356505368,0.001977575079467265,-0.004316049399400716,0.9999887303936915,-0.3055855244436656,-90.54721069335938,3861.42626953125
1594015662.8662992,0.0,5.0,0.5,0.5,7.78384017944336e-05,-0.0001,-1e-05,-0.006,-0.010954468396379058,2.0,0.5,10.0,-0.00487103065031286,-2.0,-0.5,-10.0,469.805999143864,0.0019719149197527292,-0.004338231420559577,0.9999886455853841,0.13125516635889142,-90.55013275146484,3860.2138671875
1594015662.9002087,0.0,5.0,0.5,0.5,8.617343902587891e-05,-0.0001,-1e-05,-0.006,-0.011066802231400665,2.0,0.5,10.0,-0.004784794857734811,-2.0,-0.5,-10.0,469.859691386926,0.0019598438934894193,-0.004364153089193482,0.999988556524387,0.7018697031402144,-90.55436706542969,3858.5205078125
1594015662.9341154,0.0,5.0,0.5,0.5,7.746737670898438e-05,-0.0001,-1e-05,-0.006,-0.010974242694181418,2.0,0.5,10.0,-0.004785705055784691,-2.0,-0.5,-10.0,469.9135135137476,0.0019497920529051957,-0.004376241443640512,0.9999885233450319,1.0554484535584565,-90.55709838867188,3857.431640625
1594015662.9959419,0.0,5.0,0.5,0.5,7.721997070312501e-05,-0.0001,-1e-05,-0.006,-0.01097761568751989,2.0,0.5,10.0,-0.004742414738978147,-2.0,-0.5,-10.0,469.9806677112356,0.0019378261263252245,-0.004384968411995915,0.9999885083749362,1.3834662580160073,-90.55973815917969,3856.38037109375
1594015663.0328808,0.0,5.0,0.5,0.5,8.477939605712892e-05,-0.0001,-1e-05,-0.006,-0.010977985326903854,2.0,0.5,10.0,-0.004609995310541747,-2.0,-0.5,-10.0,470.10381233354565,0.0019169425513910461,-0.004390921457342657,0.9999885225041387,1.8129431054106397,-90.56356811523438,3854.8955078125
1594015663.11167,0.0,5.0,0.5,0.5,7.672792053222656e-05,-0.0001,-1e-05,-0.006,-0.010930573744641216,2.0,0.5,10.0,-0.0046234230473007135,-2.0,-0.5,-10.0,470.1996987517923,0.0019008964128152462,-0.004390751169141566,0.9999885538829925,2.0849871307948677,-90.56600952148438,3853.9267578125
1594015663.182559,0.0,5.0,0.5,0.5,9.70186996459961e-05,-0.0001,-1e-05,-0.006,-0.010753276037103488,2.0,0.5,10.0,-0.0042254019363713695,-2.0,-0.5,-10.0,470.48229032207746,0.0018546815249208604,-0.004374835055148627,0.9999887104236134,2.6746206848880156,-90.57173156738281,3851.638671875
1594015663.2214546,0.0,5.0,0.5,0.5,7.570801544189452e-05,-0.0001,-1e-05,-0.006,-0.010777626869351579,2.0,0.5,10.0,-0.004432734733642359,-2.0,-0.5,-10.0,470.6107484019594,0.0018339786964945448,-0.004362833751141308,0.9999888010391919,2.882686885199711,-90.57386016845703,3850.7646484375
1594015663.2952564,0.0,5.0,0.5,0.5,8.158811187744141e-05,-0.0001,-1e-05,-0.006,-0.010621010085587615,2.0,0.5,10.0,-0.004231236197616454,-2.0,-0.5,-10.0,470.81877895991784,0.0018005592836747367,-0.004339217243003761,0.9999889645291012,3.1757894839904943,-90.57691192626953,3849.4814453125
1594015663.369055,0.0,5.0,0.5,0.5,8.048482513427735e-05,-0.0001,-1e-05,-0.006,-0.010495147180690625,2.0,0.5,10.0,-0.004123609062554019,-2.0,-0.5,-10.0,471.0421230660286,0.0017645001143532977,-0.004308784124058319,0.9999891604006108,3.416939384457483,-90.57972717285156,3848.2744140625
1594015663.4109473,0.0,5.0,0.5,0.5,7.963538360595704e-05,-0.0001,-1e-05,-0.006,-0.010355961014787819,2.0,0.5,10.0,-0.004012908509179439,-2.0,-0.5,-10.0,471.2792388597736,0.0017261135728255251,-0.00427185461642581,0.9999893858387047,3.6415905912919744,-90.58235168457031,3847.091796875
1594015663.4813414,0.0,5.0,0.5,0.5,7.867349243164063e-05,-0.0001,-1e-05,-0.006,-0.010209348374339554,2.0,0.5,10.0,-0.0039014452445904945,-2.0,-0.5,-10.0,471.5286231201608,0.0016858603551154993,-0.004229138876711921,0.9999896360759067,3.8383071688878463,-90.58477020263672,3845.95068359375
1594015663.5202427,0.0,5.0,0.5,0.5,7.768918609619142e-05,-0.0001,-1e-05,-0.006,-0.010046583453194922,2.0,0.5,10.0,-0.0037803272733298306,-2.0,-0.5,-10.0,471.7884110286832,0.001643364440828647,-0.004180541242740301,0.9999899111632239,4.002297842353494,-90.58698272705078,3844.857177734375
1594015663.5611322,0.0,5.0,0.5,0.5,7.27744598388672e-05,-0.0001,-1e-05,-0.006,-0.010090721176282477,2.0,0.5,10.0,-0.0038413218486068068,-2.0,-0.5,-10.0,471.96717337693553,0.0016143108419130038,-0.004144536775524998,0.9999901083587887,4.1063928453939536,-90.58834838867188,3844.13623046875
1594015663.5985525,0.0,5.0,0.5,0.5,7.233462524414063e-05,-0.0001,-1e-05,-0.006,-0.00998461240537069,2.0,0.5,10.0,-0.0037552817591522433,-2.0,-0.5,-10.0,472.1495078095468,0.0015842774823804718,-0.0041066924537548925,0.9999903125240508,4.196113500699249,-90.58961486816406,3843.436279296875
1594015663.6668782,0.0,5.0,0.5,0.5,7.192884826660157e-05,-0.0001,-1e-05,-0.006,-0.009868370777467259,2.0,0.5,10.0,-0.003672692234836722,-2.0,-0.5,-10.0,472.32916406472214,0.0015537533268646124,-0.004066653004136134,0.9999905240470747,4.273288885534993,-90.59078979492188,3842.7548828125
1594015663.7077692,0.0,5.0,0.5,0.5,7.472386169433594e-05,-0.0001,-1e-05,-0.006,-0.009467031460502975,2.0,0.5,10.0,-0.003394866674501516,-2.0,-0.5,-10.0,472.5911356053548,0.0015066108300982566,-0.004001192262061001,0.9999908602503766,4.373054442149847,-90.59239959716797,3841.756103515625
1594015663.7486236,0.0,5.0,0.5,0.5,7.094966888427735e-05,-0.0001,-1e-05,-0.006,-0.009552955646817615,2.0,0.5,10.0,-0.0034601001872300915,-2.0,-0.5,-10.0,472.76888938981574,0.001474211836748769,-0.003955358837495809,0.9999910908782773,4.434640508998562,-90.5933609008789,3841.09765625
1594015663.7940953,0.0,5.0,0.5,0.5,7.059990692138671e-05,-0.0001,-1e-05,-0.006,-0.009412118446206881,2.0,0.5,10.0,-0.003374254479397966,-2.0,-0.5,-10.0,472.9489537826739,0.0014415578952204596,-0.003907125695780777,0.9999913281022151,4.48973195650546,-90.59424591064453,3840.44873046875
1594015663.8589277,0.0,5.0,0.5,0.5,7.23346176147461e-05,-0.0001,-1e-05,-0.006,-0.008961885582380424,2.0,0.5,10.0,-0.003081272606720453,-2.0,-0.5,-10.0,473.22246332641225,0.0013914269603423019,-0.003831212387146141,0.9999916928368249,4.556818999787731,-90.59539794921875,3839.498046875
1594015663.9054,0.0,5.0,0.5,0.5,6.944043731689454e-05,-0.0001,-1e-05,-0.006,-0.009058925772406162,2.0,0.5,10.0,-0.0031589582715085764,-2.0,-0.5,-10.0,473.4070558103267,0.0013576794581512265,-0.003778027861356557,0.9999919415735148,4.597830638960913,-90.59605407714844,3838.8701171875
1594015663.9502802,0.0,5.0,0.5,0.5,6.910089874267578e-05,-0.0001,-1e-05,-0.006,-0.008905721732922513,2.0,0.5,10.0,-0.003067053505615888,-2.0,-0.5,-10.0,473.59307464561425,0.0013234329513120825,-0.0037229980313877213,0.9999921938749731,4.63365619606995,-90.59664154052734,3838.24951171875
1594015664.01914,0.0,5.0,0.5,0.5,6.991614532470703e-05,-0.0001,-1e-05,-0.006,-0.00839281243352784,2.0,0.5,10.0,-0.002765055610820855,-2.0,-0.5,-10.0,473.87431309500244,0.0012712378185623908,-0.003636506318319653,0.9999925798605734,4.674710050397458,-90.59735107421875,3837.337646484375
1594015664.0619812,0.0,5.0,0.5,0.5,6.892706298828126e-05,-0.0001,-1e-05,-0.006,-0.008150373195347583,2.0,0.5,10.0,-0.0026368680614857107,-2.0,-0.5,-10.0,474.15757599729113,0.0012186101064191616,-0.0035464934330996607,0.9999929686621489,4.709159759911436,-90.59788513183594,3836.435546875
1594015664.1018746,0.0,5.0,0.5,0.5,6.731459045410157e-05,-0.0001,-1e-05,-0.006,-0.008277975115676923,2.0,0.5,10.0,-0.0027181433963655095,-2.0,-0.5,-10.0,474.34772427834105,0.0011831753772710116,-0.0034846080360372176,0.9999932287785062,4.729435723653768,-90.59814453125,3835.837890625
1594015664.1417677,0.0,5.0,0.5,0.5,6.68836669921875e-05,-0.0001,-1e-05,-0.006,-0.008098388732487218,2.0,0.5,10.0,-0.0026263222283682093,-2.0,-0.5,-10.0,474.5383829625789,0.0011476659310857343,-0.0034206633582931968,0.9999934909413659,4.744303604263462,-90.59832763671875,3835.24853515625
1594015664.1861117,0.0,5.0,0.5,0.5,6.649066162109375e-05,-0.0001,-1e-05,-0.006,-0.007925222171892782,2.0,0.5,10.0,-0.002533404716256104,-2.0,-0.5,-10.0,474.72947051911615,0.0011120236307377398,-0.0033556372036479885,0.9999937515316795,4.754135685655402,-90.59844207763672,3834.66650390625
1594015664.2299924,0.0,5.0,0.5,0.5,6.590313720703125e-05,-0.0001,-1e-05,-0.006,-0.007739550647889228,2.0,0.5,10.0,-0.00243776749048744,-2.0,-0.5,-10.0,474.9208060367964,0.0010759960582976912,-0.00328866592718674,0.9999940134365314,4.76076401256329,-90.59845733642578,3834.08935546875
1594015664.2698884,0.0,5.0,0.5,0.5,6.553744506835938e-05,-0.0001,-1e-05,-0.006,-0.007561643988294451,2.0,0.5,10.0,-0.002348053511006142,-2.0,-0.5,-10.0,475.11238621221855,0.0010401561487177553,-0.0032208088622957556,0.9999942722163258,4.7644958854222645,-90.5984115600586,3833.516357421875
1594015664.314768,0.0,5.0,0.5,0.5,6.511817932128907e-05,-0.0001,-1e-05,-0.006,-0.007372041881216596,2.0,0.5,10.0,-0.00225382248794588,-2.0,-0.5,-10.0,475.3040278784465,0.0010041094794232149,-0.0031513207861029683,0.9999945304557704,4.765627898792368,-90.59829711914062,3832.947265625
1594015664.3566563,0.0,5.0,0.5,0.5,6.464424133300782e-05,-0.0001,-1e-05,-0.006,-0.007187134832528021,2.0,0.5,10.0,-0.0021623632419017517,-2.0,-0.5,-10.0,475.4956093863584,0.0009680628073445833,-0.0030808380168892775,0.9999947856321625,4.7643196552201275,-90.59810638427734,3832.3818359375
1594015664.397547,0.0,5.0,0.5,0.5,6.416182708740233e-05,-0.0001,-1e-05,-0.006,-0.006993428043563996,2.0,0.5,10.0,-0.0020707890736679224,-2.0,-0.5,-10.0,475.68691635271534,0.0009320161359712656,-0.00300886510114948,0.9999950390260571,4.760747704711685,-90.59783935546875,3831.81982421875
1594015664.4384375,0.0,5.0,0.5,0.5,6.367092895507814e-05,-0.0001,-1e-05,-0.006,-0.006805119387066443,2.0,0.5,10.0,-0.0019802510597474966,-2.0,-0.5,-10.0,475.87831564527005,0.0008960633120640521,-0.0029361708372008456,0.999995287974576,4.7550750503247405,-90.59749603271484,3831.2607421875
1594015664.4763362,0.0,5.0,0.5,0.5,6.335750579833985e-05,-0.0001,-1e-05,-0.006,-0.006609025125508415,2.0,0.5,10.0,-0.0018904933791425696,-2.0,-0.5,-10.0,476.06931817159057,0.00086018604586804,-0.0028621691599518095,0.9999955340238608,4.74744641127895,-90.59710693359375,3830.704833984375
1594015664.5172248,0.0,5.0,0.5,0.5,6.280588531494141e-05,-0.0001,-1e-05,-0.006,-0.00641967063815051,2.0,0.5,10.0,-0.0018035281613081344,-2.0,-0.5,-10.0,476.25989429908805,0.0008245346561374567,-0.00278757290610257,0.9999957747810209,4.738106634942308,-90.59663391113281,3830.1513671875
1594015664.5581172,0.0,5.0,0.5,0.5,6.243129730224611e-05,-0.0001,-1e-05,-0.006,-0.006221054009757484,2.0,0.5,10.0,-0.0017136158721144138,-2.0,-0.5,-10.0,476.45004337921273,0.000788826810267217,-0.0027117622885701794,0.999996012040825,4.727079122395306,-90.59610748291016,3829.6005859375
1594015664.6010034,0.0,5.0,0.5,0.5,6.191104125976562e-05,-0.0001,-1e-05,-0.006,-0.006022128130224432,2.0,0.5,10.0,-0.0016249450976405203,-2.0,-0.5,-10.0,476.6398571075406,0.0007531762038392699,-0.0026349633717892788,0.9999962448397669,4.714327838014207,-90.59550476074219,3829.05224609375
1594015664.6408944,0.0,5.0,0.5,0.5,6.147551727294922e-05,-0.0001,-1e-05,-0.006,-0.005829204161392376,2.0,0.5,10.0,-0.0015397673500555733,-2.0,-0.5,-10.0,476.8289691511309,0.0007178644171293121,-0.002557890084701935,0.9999964709282693,4.700097529650212,-90.59484100341797,3828.50634765625
1594015664.6837847,0.0,5.0,0.5,0.5,6.107975006103516e-05,-0.0001,-1e-05,-0.006,-0.005626625927592677,2.0,0.5,10.0,-0.001454515603830664,-2.0,-0.5,-10.0,477.01747120253276,0.0006828258311904731,-0.00247982572532286,0.9999966921011572,4.684494318507333,-90.59412384033203,3827.96240234375
1594015664.7256706,0.0,5.0,0.5,0.5,6.063143157958985e-05,-0.0001,-1e-05,-0.006,-0.005424687949584801,2.0,0.5,10.0,-0.0013697403819468202,-2.0,-0.5,-10.0,477.205485423794,0.0006480512840741506,-0.002401031357410362,0.9999969075341952,4.667626647416596,-90.59334564208984,3827.420166015625
1594015664.7685559,0.0,5.0,0.5,0.5,6.012980651855468e-05,-0.0001,-1e-05,-0.006,-0.005222458635817896,2.0,0.5,10.0,-0.0012861244593321782,-2.0,-0.5,-10.0,477.3926759985043,0.0006135880770732827,-0.0023216431472889236,0.9999971167372276,4.649591915888211,-90.59249877929688,3826.8798828125
1594015664.8094442,0.0,5.0,0.5,0.5,5.980681610107423e-05,-0.0001,-1e-05,-0.006,-0.005024333367452803,2.0,0.5,10.0,-0.0012037692084135416,-2.0,-0.5,-10.0,477.5790732256137,0.0005794827783721369,-0.0022421391784473023,0.9999973185022119,4.6304799266617,-90.59161376953125,3826.34130859375
1594015664.8543267,0.0,5.0,0.5,0.5,5.9246696472167965e-05,-0.0001,-1e-05,-0.006,-0.0048189441981775286,2.0,0.5,10.0,-0.0011188385360032342,-2.0,-0.5,-10.0,477.76467728230637,0.0005454530290769861,-0.002161964798317604,0.9999975141915123,4.6103728943765505,-90.59065246582031,3825.80419921875
1594015664.8972113,0.0,5.0,0.5,0.5,5.8817947387695315e-05,-0.0001,-1e-05,-0.006,-0.004618050091303186,2.0,0.5,10.0,-0.0010413894714169437,-2.0,-0.5,-10.0,477.9495185146807,0.0005121016921279491,-0.0020816374977986737,0.9999977022659525,4.589351026167686,-90.58963775634766,3825.2685546875
1594015664.9410925,0.0,5.0,0.5,0.5,5.85228500366211e-05,-0.0001,-1e-05,-0.006,-0.00441242411942452,2.0,0.5,10.0,-0.0009588668687186665,-2.0,-0.5,-10.0,478.1334749001544,0.0004788823792528121,-0.002000814798301981,0.9999978837036655,4.567488740057184,-90.58859252929688,3824.734130859375
1594015665.017887,0.0,5.0,0.5,0.5,5.445444488525392e-05,-0.0001,-1e-05,-0.006,-0.0037258792162451967,2.0,0.5,10.0,-0.0006875923603484701,-2.0,-0.5,-10.0,478.4076866667019,0.00043003362731303433,-0.0018795286322389627,0.9999981412198725,4.533353412163656,-90.58689880371094,3823.934814453125
1594015665.0942078,0.0,5.0,0.5,0.5,5.362431335449219e-05,-0.0001,-1e-05,-0.006,-0.0034367395122655384,2.0,0.5,10.0,-0.0005823665880449155,-2.0,-0.5,-10.0,478.6797615244286,0.00038205249126689904,-0.0017578294920895226,0.9999983820343764,4.49824857069394,-90.58509826660156,3823.13671875
1594015665.1675284,0.0,5.0,0.5,0.5,4.873338317871094e-05,-0.0001,-1e-05,-0.006,-0.002670889747463842,2.0,0.5,10.0,-0.0003012110140400042,-2.0,-0.5,-10.0,479.0393451366108,0.0003201849288637619,-0.0015962474527302635,0.9999986747369622,4.450267799935919,-90.58252716064453,3822.074951171875
1594015665.3302774,0.0,5.0,0.5,0.5,5.1721710205078126e-05,-0.0001,-1e-05,-0.006,-0.002787061035449518,2.0,0.5,10.0,-0.0003625625499435723,-2.0,-0.5,-10.0,479.3063556548441,0.00027539825272088474,-0.0014752835382295692,0.999998873846508,4.412907974800452,-90.58049011230469,3821.28076171875
1594015665.3662145,0.0,5.0,0.5,0.5,5.5367134094238284e-05,-0.0001,-1e-05,-0.006,-0.002988452301373288,2.0,0.5,10.0,-0.00043802757516124807,-2.0,-0.5,-10.0,479.46571638283785,0.0002460623896135834,-0.0013954484740855268,0.9999989960879243,4.3877912049362155,-90.57908630371094,3820.751708984375
1594015665.4030821,0.0,5.0,0.5,0.5,5.488671875000001e-05,-0.0001,-1e-05,-0.006,-0.002776509883476996,2.0,0.5,10.0,-0.00036716902281129624,-2.0,-0.5,-10.0,479.64152529719286,0.00021738591138858863,-0.0013154473144879873,0.9999991111704691,4.361678547865927,-90.57762908935547,3820.22412109375
1594015665.5940282,0.0,5.0,0.5,0.5,5.4539970397949225e-05,-0.0001,-1e-05,-0.006,-0.002576725785661004,2.0,0.5,10.0,-0.0003009764513249939,-2.0,-0.5,-10.0,479.81620525359176,0.00018962364093425403,-0.001236323489308709,0.9999992177732463,4.335004307956349,-90.57614135742188,3819.69775390625
1594015665.6290953,0.0,5.0,0.5,0.5,4.93960189819336e-05,-0.0001,-1e-05,-0.006,-0.0019061419819973897,2.0,0.5,10.0,-6.803906533157987e-05,-2.0,-0.5,-10.0,480.0763490278041,0.0001487013797955152,-0.0011186958833920865,0.9999993632035075,4.2945793238724095,-90.57383728027344,3818.908447265625
1594015665.6640034,0.0,5.0,0.5,0.5,5.366310882568359e-05,-0.0001,-1e-05,-0.006,-0.0020919492951987618,2.0,0.5,10.0,-0.00014022839894909023,-2.0,-0.5,-10.0,480.2481924176682,0.0001222684051866982,-0.0010405037750405386,0.9999994512010151,4.267349146379042,-90.57227325439453,3818.3828125
1594015665.7268336,0.0,5.0,0.5,0.5,4.8090782165527356e-05,-0.0001,-1e-05,-0.006,-0.0014363682276148629,2.0,0.5,10.0,7.5350776328224e-05,-2.0,-0.5,-10.0,480.5040948104579,8.390030043516303e-05,-0.0009250499862937493,0.9999995686215382,4.225953474231179,-90.56982421875,3817.59521484375
1594015665.7981985,0.0,5.0,0.5,0.5,4.7501335144042975e-05,-0.0001,-1e-05,-0.006,-0.0011693127552752085,2.0,0.5,10.0,0.00015396173546420927,-2.0,-0.5,-10.0,480.7576166659128,4.7021725209291825e-05,-0.0008110662263598213,0.9999996699802125,4.184038647545461,-90.56732177734375,3816.808837890625
1594015665.8351061,0.0,5.0,0.5,0.5,4.681266021728515e-05,-0.0001,-1e-05,-0.006,-0.0009117879755025659,2.0,0.5,10.0,0.00022651987554383533,-2.0,-0.5,-10.0,481.00842376146466,1.1838950439862578e-05,-0.0006990712881249909,0.9999997555795569,4.141978612542737,-90.56475067138672,3816.0224609375
1594015665.904566,0.0,5.0,0.5,0.5,5.1607986450195314e-05,-0.0001,-1e-05,-0.006,-0.0010978737822296006,2.0,0.5,10.0,0.00016300914219738422,-2.0,-0.5,-10.0,481.17428523884155,-1.0644911002344887e-05,-0.0006256608160064039,0.9999998042175955,4.1138042430044965,-90.5630111694336,3815.498779296875
1594015665.9424634,0.0,5.0,0.5,0.5,4.5690185546875e-05,-0.0001,-1e-05,-0.006,-0.00048191779095502663,2.0,0.5,10.0,0.0003426304188866818,-2.0,-0.5,-10.0,481.4208806488896,-4.2971444262183796e-05,-0.0005171998676210497,0.9999998653288669,4.071175348815392,-90.56033325195312,3814.7138671875
1594015665.9823875,0.0,5.0,0.5,0.5,5.0661178588867193e-05,-0.0001,-1e-05,-0.006,-0.0006684754215388343,2.0,0.5,10.0,0.00028145417818457044,-2.0,-0.5,-10.0,481.58390411536675,-6.348566151611082e-05,-0.0004463542284761074,0.9999998983687316,4.042687843332304,-90.55851745605469,3814.1904296875
1594015666.0521705,0.0,5.0,0.5,0.5,4.468815612792969e-05,-0.0001,-1e-05,-0.006,-8.398422536335065e-05,2.0,0.5,10.0,0.0004455508450187244,-2.0,-0.5,-10.0,481.8262882301351,-9.296578125085577e-05,-0.0003425631555307377,0.999999937003922,3.9998244515272257,-90.55575561523438,3813.40625
1594015666.093578,0.0,5.0,0.5,0.5,4.9928276062011725e-05,-0.0001,-1e-05,-0.006,-0.00025909090538853174,2.0,0.5,10.0,0.0003863118528001146,-2.0,-0.5,-10.0,481.9864737642929,-0.00011130283295892807,-0.0002747165020740166,0.9999999560712606,3.9712005194519686,-90.55390167236328,3812.88330078125
1594015666.1654181,0.0,5.0,0.5,0.5,4.362399291992187e-05,-0.0001,-1e-05,-0.006,0.0003016091184303442,2.0,0.5,10.0,0.000534991375906979,-2.0,-0.5,-10.0,482.22461614676286,-0.00013771980933333875,-0.00017545931798865387,0.9999999751236406,3.9282895681792462,-90.5510482788086,3812.099609375
1594015666.2043202,0.0,5.0,0.5,0.5,4.312970733642579e-05,-0.0001,-1e-05,-0.006,0.0005119691746661552,2.0,0.5,10.0,0.0005765876767002231,-2.0,-0.5,-10.0,482.4600425380049,-0.0001620068930900811,-7.914514558704835e-05,0.9999999837449061,3.8854294777918317,-90.54816436767578,3811.3154296875
1594015666.2411807,0.0,5.0,0.5,0.5,4.858808135986329e-05,-0.0001,-1e-05,-0.006,0.00034377197396444847,2.0,0.5,10.0,0.000529405131320439,-2.0,-0.5,-10.0,482.6156198318349,-0.0001771297703628978,-1.6905429600242168e-05,0.9999999841696253,3.8569098033087927,-90.54622650146484,3810.79296875
1594015666.312989,0.0,5.0,0.5,0.5,4.827761840820313e-05,-0.0001,-1e-05,-0.006,0.0004933236577719645,2.0,0.5,10.0,0.0005619671087043817,-2.0,-0.5,-10.0,482.7700073579326,-0.0001913580409105817,4.363970505316637e-05,0.999999980738838,3.8284392854173217,-90.54427337646484,3810.270263671875
1594015666.350917,0.0,5.0,0.5,0.5,4.182299041748047e-05,-0.0001,-1e-05,-0.006,0.0009944169233403635,2.0,0.5,10.0,0.0006693228868018196,-2.0,-0.5,-10.0,482.99966570257675,-0.0002111679988496053,0.00013229048134748595,0.999999968953652,3.7858864778671237,-90.54129791259766,3809.486328125
1594015666.3877888,0.0,5.0,0.5,0.5,4.7459022521972664e-05,-0.0001,-1e-05,-0.006,0.0008338820795945035,2.0,0.5,10.0,0.000625174564603733,-2.0,-0.5,-10.0,483.151215365855,-0.00022306807466024496,0.00018932421724112862,0.9999999571984864,3.7575889439408967,-90.53929901123047,3808.9638671875
1594015666.4635875,0.0,5.0,0.5,0.5,4.0999153137207035e-05,-0.0001,-1e-05,-0.006,0.0012881941712168325,2.0,0.5,10.0,0.0007179849410427092,-2.0,-0.5,-10.0,483.37650995806325,-0.00023983390602378478,0.00027131590048249353,0.9999999344336877,3.7152921899607496,-90.5362777709961,3808.1796875
1594015666.4994898,0.0,5.0,0.5,0.5,4.053335571289063e-05,-0.0001,-1e-05,-0.006,0.0014524660524807506,2.0,0.5,10.0,0.0007353513183588078,-2.0,-0.5,-10.0,483.5991497085197,-0.00025443237001240284,0.0003500461442551927,0.9999999063659286,3.673220665068304,-90.53323364257812,3807.3955078125
1594015666.5762799,0.0,5.0,0.5,0.5,4.630030822753906e-05,-0.0001,-1e-05,-0.006,0.0013078665404423423,2.0,0.5,10.0,0.0007015608505403869,-2.0,-0.5,-10.0,483.7463038696442,-0.0002629862730659816,0.0004002863865095276,0.9999998853045079,3.6452587863964485,-90.53118896484375,3806.87255859375
1594015666.6111908,0.0,5.0,0.5,0.5,3.978846740722656e-05,-0.0001,-1e-05,-0.006,0.0017033431298037242,2.0,0.5,10.0,0.0007554764591431446,-2.0,-0.5,-10.0,483.9647329407744,-0.00027389907427829735,0.0004720144310764207,0.999999851090826,3.603600221787812,-90.52811431884766,3806.088134765625
1594015666.646098,0.0,5.0,0.5,0.5,4.564494323730469e-05,-0.0001,-1e-05,-0.006,0.0015719441757588784,2.0,0.5,10.0,0.0007312272827832152,-2.0,-0.5,-10.0,484.1091715194052,-0.000280294826253069,0.0005177265098236343,0.9999998266970206,3.5759653354263183,-90.52605438232422,3805.56494140625
1594015666.7278798,0.0,5.0,0.5,0.5,3.903807067871094e-05,-0.0001,-1e-05,-0.006,0.0019245663170624502,2.0,0.5,10.0,0.0007690508016714154,-2.0,-0.5,-10.0,484.32360162807163,-0.00028818251690222984,0.0005823168129390588,0.9999997889289609,3.534789207826911,-90.52294921875,3804.7802734375
1594015666.799687,0.0,5.0,0.5,0.5,3.227991485595703e-05,-0.0001,-1e-05,-0.006,0.0022692342145594095,2.0,0.5,10.0,0.0007835901588421165,-2.0,-0.5,-10.0,484.6056124892784,-0.0002954414737748717,0.0006621082988328003,0.9999997371634336,3.4803733663213334,-90.51879119873047,3803.733154296875
1594015666.875483,0.0,5.0,0.5,0.5,3.807294464111328e-05,-0.0001,-1e-05,-0.006,0.00215661178375151,2.0,0.5,10.0,0.0007533261547243857,-2.0,-0.5,-10.0,484.8144279095577,-0.00029847563872804575,0.0007163867773084556,0.9999996988510939,3.4398790543527094,-90.51565551757812,3802.94775390625
1594015666.9133823,0.0,5.0,0.5,0.5,3.782383728027344e-05,-0.0001,-1e-05,-0.006,0.0022491600493674225,2.0,0.5,10.0,0.0007429198784000305,-2.0,-0.5,-10.0,485.02086223871447,-0.0002996905965044218,0.0007665280853717641,0.9999996613100629,3.3997756246199,-90.51253509521484,3802.161865234375
1594015666.953274,0.0,5.0,0.5,0.5,4.376583862304687e-05,-0.0001,-1e-05,-0.006,0.002147662979392457,2.0,0.5,10.0,0.000733339150769076,-2.0,-0.5,-10.0,485.1570000888314,-0.0002995358231919272,0.0007972117629098395,0.9999996373657822,3.3731728923834896,-90.51044464111328,3801.6376953125
1594015667.025109,0.0,5.0,0.5,0.5,3.7152053833007814e-05,-0.0001,-1e-05,-0.006,0.0023742761727751915,2.0,0.5,10.0,0.0007108808378663773,-2.0,-0.5,-10.0,485.3592540434329,-0.00029721670373740813,0.000839133062199844,0.999999603758889,3.333689345790887,-90.50730895996094,3800.851318359375
1594015667.0629957,0.0,5.0,0.5,0.5,4.3278480529785154e-05,-0.0001,-1e-05,-0.006,0.002287797728460612,2.0,0.5,10.0,0.0007076021339339964,-2.0,-0.5,-10.0,485.49285896436777,-0.00029477178387380374,0.0008644950364081437,0.9999995828788768,3.3076027257301996,-90.50523376464844,3800.32666015625
1594015667.0979025,0.0,5.0,0.5,0.5,4.294988250732422e-05,-0.0001,-1e-05,-0.006,0.0023392107112624994,2.0,0.5,10.0,0.0006968158798813259,-2.0,-0.5,-10.0,485.6253656090703,-0.00029166741525865506,0.0008877708930979135,0.9999995633963848,3.281627917948403,-90.50314331054688,3799.80224609375
1594015667.1357994,0.0,5.0,0.5,0.5,4.275933074951172e-05,-0.0001,-1e-05,-0.006,0.002386531304161455,2.0,0.5,10.0,0.0006795974327721447,-2.0,-0.5,-10.0,485.75683471385855,-0.0002875260660611299,0.0009090796376368497,0.9999995454513837,3.2558755650100206,-90.50106048583984,3799.27734375
1594015667.1736991,0.0,5.0,0.5,0.5,4.247745513916016e-05,-0.0001,-1e-05,-0.006,0.0024277345070618595,2.0,0.5,10.0,0.0006592201306092096,-2.0,-0.5,-10.0,485.88738736964297,-0.00028232005408385254,0.0009284494199669951,0.9999995291384199,3.230289973581064,-90.49897003173828,3798.75244140625
1594015667.212594,0.0,5.0,0.5,0.5,4.224132537841797e-05,-0.0001,-1e-05,-0.006,0.002458800307957446,2.0,0.5,10.0,0.0006435900133615268,-2.0,-0.5,-10.0,486.01678079064004,-0.0002766707625495196,0.0009454683765244845,0.9999995147713014,3.204877660161948,-90.49687957763672,3798.22705078125
1594015667.2854114,0.0,5.0,0.5,0.5,3.572340393066406e-05,-0.0001,-1e-05,-0.006,0.002568840388238741,2.0,0.5,10.0,0.0005770099595916417,-2.0,-0.5,-10.0,486.2091156017268,-0.0002664626474332213,0.000967307715497561,0.9999994966565939,3.167095196601429,-90.49375915527344,3797.43896484375
1594015667.356387,0.0,5.0,0.5,0.5,3.529325103759766e-05,-0.0001,-1e-05,-0.006,0.0025709375218963366,2.0,0.5,10.0,0.0005376165728541039,-2.0,-0.5,-10.0,486.3991020251997,-0.0002547938477179348,0.0009844102615438211,0.9999994830081326,3.1296694279121864,-90.4906234741211,3796.650390625
1594015667.4320152,0.0,5.0,0.5,0.5,2.8718383789062503e-05,-0.0001,-1e-05,-0.006,0.002589394764981799,2.0,0.5,10.0,0.0004345483970095335,-2.0,-0.5,-10.0,486.6490985901328,-0.000236662840764024,0.0009990837223218458,0.9999994729110687,3.080212070375925,-90.48646545410156,3795.5986328125
1594015667.4719121,0.0,5.0,0.5,0.5,3.465239715576172e-05,-0.0001,-1e-05,-0.006,0.00252902395370277,2.0,0.5,10.0,0.0004247249563571555,-2.0,-0.5,-10.0,486.83392639865633,-0.00022099766389698514,0.0010053117235429886,0.9999994702540453,3.0435769601062668,-90.48335266113281,3794.8095703125
1594015667.5103238,0.0,5.0,0.5,0.5,4.0736450195312505e-05,-0.0001,-1e-05,-0.006,0.0024914257648954007,2.0,0.5,10.0,0.00044474074735272387,-2.0,-0.5,-10.0,486.9559337553801,-0.00020993857475447904,0.0010065014589906887,0.9999994714401642,3.019279730439909,-90.48129272460938,3794.283203125
1594015667.548223,0.0,5.0,0.5,0.5,4.0504440307617193e-05,-0.0001,-1e-05,-0.006,0.0024765364742015857,2.0,0.5,10.0,0.00040842254139041267,-2.0,-0.5,-10.0,487.0769962564809,-0.00019805980884296024,0.001005554762652659,0.9999994748158278,2.9952871891167234,-90.47923278808594,3793.756591796875
1594015667.620373,0.0,5.0,0.5,0.5,4.027244567871094e-05,-0.0001,-1e-05,-0.006,0.002459520488890025,2.0,0.5,10.0,0.00037009698616531536,-2.0,-0.5,-10.0,487.19702076737303,-0.0001853700075438983,0.0010027601014023187,0.9999994800549346,2.9715389455787413,-90.4771728515625,3793.229736328125
1594015667.657275,0.0,5.0,0.5,0.5,3.3711135864257815e-05,-0.0001,-1e-05,-0.006,0.0023970036910505002,2.0,0.5,10.0,0.000256543501601779,-2.0,-0.5,-10.0,487.3754401457263,-0.00016577528861319682,0.000994742362172473,0.9999994915029641,2.9362772124381036,-90.47407531738281,3792.43896484375
1594015667.7001595,0.0,5.0,0.5,0.5,3.979682159423828e-05,-0.0001,-1e-05,-0.006,0.00238350933923619,2.0,0.5,10.0,0.0002698119159392889,-2.0,-0.5,-10.0,487.49314497807063,-0.00015105935227177113,0.0009865794554775108,0.999999501920901,2.912920333245844,-90.47203063964844,3791.911865234375
1594015667.7689738,0.0,5.0,0.5,0.5,3.328260803222656e-05,-0.0001,-1e-05,-0.006,0.0022801630494771203,2.0,0.5,10.0,0.00014484301586243032,-2.0,-0.5,-10.0,487.6680846903473,-0.0001289289165717285,0.0009709226339371592,0.9999995203431716,2.8782567623922874,-90.46895599365234,3791.12060546875
1594015667.8118587,0.0,5.0,0.5,0.5,3.927656555175781e-05,-0.0001,-1e-05,-0.006,0.0022865823797391747,2.0,0.5,10.0,0.00017402719738984177,-2.0,-0.5,-10.0,487.7835313322721,-0.00011353449297388474,0.0009583041674361513,0.9999995343814124,2.855393439711416,-90.4669189453125,3790.5927734375
1594015667.882672,0.0,5.0,0.5,0.5,3.2856292724609375e-05,-0.0001,-1e-05,-0.006,0.002132790964679012,2.0,0.5,10.0,2.7845219488968506e-05,-2.0,-0.5,-10.0,487.9549611642724,-8.91611757941894e-05,0.000935010342213887,0.999999558902875,2.8213806528168863,-90.4638671875,3789.80078125
1594015667.9624581,0.0,5.0,0.5,0.5,2.633463287353516e-05,-0.0001,-1e-05,-0.006,0.0019147902531638293,2.0,0.5,10.0,-0.0001465448572567103,-2.0,-0.5,-10.0,488.1804225349333,-5.500770788198565e-05,0.0008976379282329429,0.9999995956100691,2.7765777237724736,-90.45980072021484,3788.744384765625
1594015668.0362618,0.0,5.0,0.5,0.5,2.5994400024414068e-05,-0.0001,-1e-05,-0.006,0.001741473035650057,2.0,0.5,10.0,-0.00024847664117592916,-2.0,-0.5,-10.0,488.4023421520833,-1.8809065682222775e-05,0.0008524738392647123,0.9999996364672201,2.7323734603475653,-90.45574951171875,3787.6875
1594015668.1140516,0.0,5.0,0.5,0.5,2.5701293945312498e-05,-0.0001,-1e-05,-0.006,0.0015586075561026588,2.0,0.5,10.0,-0.0003467064856008188,-2.0,-0.5,-10.0,488.62075355206616,1.8699837360425575e-05,0.0008002351330133964,0.9999996796369727,2.6888304798044143,-90.45172119140625,3786.6298828125
1594015668.182869,0.0,5.0,0.5,0.5,3.1365539550781246e-05,-0.0001,-1e-05,-0.006,0.0015552909005772109,2.0,0.5,10.0,-0.0003347959562195048,-2.0,-0.5,-10.0,488.7821426487062,4.8012052397044264e-05,0.0007572859328684178,0.9999997121063879,2.6566481625344034,-90.44869232177734,3785.836181640625
1594015668.2676423,0.0,5.0,0.5,0.5,1.907151031494141e-05,-0.0001,-1e-05,-0.006,0.001007823577081563,2.0,0.5,10.0,-0.0006563918059355942,-2.0,-0.5,-10.0,489.0471688179532,9.821325298206726e-05,0.0006769071092470661,0.999999766075434,2.6038432113274492,-90.4437026977539,3784.5126953125
1594015668.3404477,0.0,5.0,0.5,0.5,3.0592758178710936e-05,-0.0001,-1e-05,-0.006,0.0011627339825882011,2.0,0.5,10.0,-0.000538629737272146,-2.0,-0.5,-10.0,489.20373652363196,0.00012905248416210757,0.0006241916774888063,0.9999997968650823,2.5727342037207936,-90.44068908691406,3783.7177734375
1594015668.387323,0.0,5.0,0.5,0.5,3.0351089477539064e-05,-0.0001,-1e-05,-0.006,0.0009984976152220357,2.0,0.5,10.0,-0.0006154992378751601,-2.0,-0.5,-10.0,489.35825983516406,0.00015992918614249522,0.0005681197482625914,0.9999998258312883,2.541890375092284,-90.43769073486328,3782.9228515625
1594015668.4701037,0.0,5.0,0.5,0.5,2.3966804504394534e-05,-0.0001,-1e-05,-0.006,0.0005845226529403533,2.0,0.5,10.0,-0.0008274713562038475,-2.0,-0.5,-10.0,489.5615645481739,0.00020202832874348278,0.0004886388091640009,0.9999998602083245,2.5015023191957084,-90.43370056152344,3781.8623046875
1594015668.5538776,0.0,5.0,0.5,0.5,2.3532531738281252e-05,-0.0001,-1e-05,-0.006,0.0003375409269780553,2.0,0.5,10.0,-0.0009330805579242583,-2.0,-0.5,-10.0,489.7616958573926,0.0002445327258655266,0.00040383239868820546,0.9999998885615636,2.46183299367145,-90.4297103881836,3780.80078125
1594015668.6247032,0.0,5.0,0.5,0.5,2.9146415710449217e-05,-0.0001,-1e-05,-0.006,0.0003574740220671816,2.0,0.5,10.0,-0.0009083379595239679,-2.0,-0.5,-10.0,489.9097779338481,0.0002763992268553747,0.0003371317802522529,0.9999999049728105,2.432438505381949,-90.42671203613281,3780.00439453125
1594015668.6785564,0.0,5.0,0.5,0.5,3.490607452392579e-05,-0.0001,-1e-05,-0.006,0.00044292292706512963,2.0,0.5,10.0,-0.0008641596605635436,-2.0,-0.5,-10.0,490.0074329037452,0.0002977499510891729,0.00029115983431362826,0.999999913285455,2.412981229842402,-90.42471313476562,3779.47314453125
1594015668.7653263,0.0,5.0,0.5,0.5,2.8527908325195312e-05,-0.0001,-1e-05,-0.006,2.6039895012924612e-05,2.0,0.5,10.0,-0.0010510356022473833,-2.0,-0.5,-10.0,490.15255762194283,0.0003296453928452782,0.00022063661875175444,0.9999999213266956,2.384285131841464,-90.42170715332031,3778.67626953125
1594015668.8520076,0.0,5.0,0.5,0.5,2.1910461425781253e-05,-0.0001,-1e-05,-0.006,-0.0004740395073190189,2.0,0.5,10.0,-0.0012602354794666447,-2.0,-0.5,-10.0,490.34341060894076,0.00037220635716643985,0.00012282664400800164,0.9999999231880187,2.3465806742303306,-90.41767120361328,3777.61279296875
1594015669.001777,0.0,5.0,0.5,0.5,-3.379173278808595e-06,-0.0001,-1e-05,-0.006,-0.001994805813336437,2.0,0.5,10.0,-0.0018608798704483735,-2.0,-0.5,-10.0,490.7161129495362,0.0004562545828500269,-8.258965840905475e-05,0.9999998925053463,2.272644437177158,-90.40956115722656,3775.48486328125
1594015669.089546,0.0,5.0,0.5,0.5,2.0110748291015626e-05,-0.0001,-1e-05,-0.006,-0.001270824371002445,2.0,0.5,10.0,-0.0015324304758833952,-2.0,-0.5,-10.0,490.8981162562268,0.0004972229774957138,-0.0001899386419317796,0.9999998583463015,2.2363220677504754,-90.40544128417969,3774.4208984375
1594015669.1683378,0.0,5.0,0.5,0.5,1.3331153869628903e-05,-0.0001,-1e-05,-0.006,-0.0018597786558477716,2.0,0.5,10.0,-0.0017356276589659526,-2.0,-0.5,-10.0,491.1215450176969,0.0005466338644385258,-0.000324863794641249,0.9999997978274461,2.192003365410998,-90.40028381347656,3773.0888671875
1594015669.2561014,0.0,5.0,0.5,0.5,2.5200996398925783e-05,-0.0001,-1e-05,-0.006,-0.0015405650700851246,2.0,0.5,10.0,-0.0016064642438773714,-2.0,-0.5,-10.0,491.25342251360416,0.000575306063215669,-0.00040674589195171103,0.9999997517903257,2.1659964945570715,-90.39716339111328,3772.28955078125
1594015669.3398738,0.0,5.0,0.5,0.5,1.167780303955078e-05,-0.0001,-1e-05,-0.006,-0.0024123940187696937,2.0,0.5,10.0,-0.0018909246293090395,-2.0,-0.5,-10.0,491.46992546494585,0.0006211738573281224,-0.0005435714452665839,0.9999996593365035,2.1233971224528583,-90.39188385009766,3770.956298828125
1594015669.4256458,0.0,5.0,0.5,0.5,2.3813262939453126e-05,-0.0001,-1e-05,-0.006,-0.0020889286463397936,2.0,0.5,10.0,-0.0017698995135756424,-2.0,-0.5,-10.0,491.59786816861015,0.0006475651530749478,-0.0006263364159330254,0.999999594180951,2.0982621863619366,-90.38868713378906,3770.15576171875
1594015669.4964545,0.0,5.0,0.5,0.5,1.661128997802735e-05,-0.0001,-1e-05,-0.006,-0.0026281175792269838,2.0,0.5,10.0,-0.001928420804447624,-2.0,-0.5,-10.0,491.7661062878324,0.0006810887053232615,-0.0007359472658347375,0.9999994972497723,2.0652480099296717,-90.38436889648438,3769.08837890625
1594015669.57325,0.0,5.0,0.5,0.5,2.2606086730957035e-05,-0.0001,-1e-05,-0.006,-0.002572989432487205,2.0,0.5,10.0,-0.0019028631947606337,-2.0,-0.5,-10.0,491.8903258686187,0.0007052089918959909,-0.0008182244658324868,0.9999994165943304,2.0408253155789673,-90.38111114501953,3768.287109375
1594015669.6211226,0.0,5.0,0.5,0.5,2.186439514160157e-05,-0.0001,-1e-05,-0.006,-0.0027858375106840716,2.0,0.5,10.0,-0.001956660303154611,-2.0,-0.5,-10.0,492.013415405876,0.0007280945770694018,-0.0008999037044297414,0.9999993300255803,2.01666055571533,-90.37779235839844,3767.486083984375
1594015669.7048948,0.0,5.0,0.5,0.5,2.1395523071289063e-05,-0.0001,-1e-05,-0.006,-0.0030032352009477996,2.0,0.5,10.0,-0.002009689372986118,-2.0,-0.5,-10.0,492.1349778716685,0.0007499247822656026,-0.000981417292769508,0.9999992372161682,1.99283083428652,-90.37445831298828,3766.6845703125
1594015669.8136227,0.0,5.0,0.5,0.5,-7.370071411132811e-06,-0.0001,-1e-05,-0.006,-0.004471604817750158,2.0,0.5,10.0,-0.0023653818471734305,-2.0,-0.5,-10.0,492.41303079843055,0.0007961838326734661,-0.001167108401382937,0.9999990019741439,1.9383123203567412,-90.36647033691406,3764.8134765625
1594015669.9303226,0.0,5.0,0.5,0.5,4.912124633789071e-06,-0.0001,-1e-05,-0.006,-0.004218543778980532,2.0,0.5,10.0,-0.0022639248642799784,-2.0,-0.5,-10.0,492.60695078084245,0.000824861920897967,-0.0012962437439009344,0.9999988196767874,1.9002167299802404,-90.36063385009766,3763.4765625
1594015670.008115,0.0,5.0,0.5,0.5,1.0892250061035159e-05,-0.0001,-1e-05,-0.006,-0.004178588504433153,2.0,0.5,10.0,-0.002237588963596247,-2.0,-0.5,-10.0,492.7595030386001,0.0008452005070972308,-0.0013959173185287793,0.9999986685245847,1.8703887986007075,-90.35588073730469,3762.406494140625
1594015670.0772433,0.0,5.0,0.5,0.5,1.735343170166016e-05,-0.0001,-1e-05,-0.006,-0.004101135627442498,2.0,0.5,10.0,-0.002204329229139626,-2.0,-0.5,-10.0,492.8722155264113,0.0008581336567141543,-0.001468061501286564,0.9999985541999826,1.848341431539204,-90.3522720336914,3761.603515625
1594015670.1540494,0.0,5.0,0.5,0.5,8.989448547363286e-06,-0.0001,-1e-05,-0.006,-0.004537717940706346,2.0,0.5,10.0,-0.002275868618843126,-2.0,-0.5,-10.0,493.0207099268446,0.0008736944488973051,-0.0015601413646511434,0.9999984013071883,1.819388091137904,-90.34735870361328,3760.53271484375
1594015670.2278512,0.0,5.0,0.5,0.5,7.988197326660154e-06,-0.0001,-1e-05,-0.006,-0.004731980088320221,2.0,0.5,10.0,-0.002286704967462389,-2.0,-0.5,-10.0,493.1666995160049,0.0008865126356366645,-0.0016488273884253469,0.9999982477302597,1.7885068070640917,-90.34236907958984,3759.46484375
1594015670.304766,0.0,5.0,0.5,0.5,1.4703048706054694e-05,-0.0001,-1e-05,-0.006,-0.004662980918849355,2.0,0.5,10.0,-0.0022670892147197592,-2.0,-0.5,-10.0,493.27459062531125,0.0008945641973469044,-0.0017127220983958929,0.9999981331672129,1.765159337859061,-90.33856964111328,3758.664306640625
1594015670.3775697,0.0,5.0,0.5,0.5,5.99330902099609e-06,-0.0001,-1e-05,-0.006,-0.005046594591664247,2.0,0.5,10.0,-0.0022851239735363375,-2.0,-0.5,-10.0,493.4161579692736,0.0009018872474567206,-0.0017938656009702507,0.9999979843207678,1.7351166754822958,-90.33341217041016,3757.595703125
1594015670.4503753,0.0,5.0,0.5,0.5,4.731773376464844e-06,-0.0001,-1e-05,-0.006,-0.005193586077482664,2.0,0.5,10.0,-0.0022806580478477115,-2.0,-0.5,-10.0,493.55561874085106,0.0009067981360093455,-0.001869669305537343,0.9999978410245837,1.7068218887300688,-90.32814025878906,3756.525146484375
1594015670.520189,0.0,5.0,0.5,0.5,3.5964584350585955e-06,-0.0001,-1e-05,-0.006,-0.005339256975586626,2.0,0.5,10.0,-0.0022573466921691513,-2.0,-0.5,-10.0,493.69266777765006,0.0009082033320010699,-0.0019409376108473018,0.9999977039613134,1.6794154173548652,-90.3227767944336,3755.45361328125
1594015670.5909991,0.0,5.0,0.5,0.5,1.0827033996582028e-05,-0.0001,-1e-05,-0.006,-0.0052691058435659155,2.0,0.5,10.0,-0.002256556817473715,-2.0,-0.5,-10.0,493.7941512395628,0.0009086490118123227,-0.0019904839362785507,0.9999976061624711,1.659290597874004,-90.31869506835938,3754.6494140625
1594015670.6898437,0.0,5.0,0.5,0.5,-7.081153869628907e-06,-0.0001,-1e-05,-0.006,-0.005723437218078622,2.0,0.5,10.0,-0.0022066966946448835,-2.0,-0.5,-10.0,493.9606044702232,0.0009043967965062189,-0.002066202757285252,0.9999974564330654,1.6279664076415747,-90.31175231933594,3753.306396484375
1594015670.7646437,0.0,5.0,0.5,0.5,8.743682861328122e-06,-0.0001,-1e-05,-0.006,-0.005501851878844756,2.0,0.5,10.0,-0.0021954413533709066,-2.0,-0.5,-10.0,494.0590963922441,0.0008995839433299332,-0.002107628167298913,0.9999973743226717,1.6097636210056159,-90.30752563476562,3752.499755859375
1594015670.856402,0.0,5.0,0.5,0.5,-9.877670288085934e-06,-0.0001,-1e-05,-0.006,-0.005846931932633209,2.0,0.5,10.0,-0.0021111164029983844,-2.0,-0.5,-10.0,494.22066393273417,0.0008883195555010153,-0.002167940551589459,0.9999972554572998,1.579804886341321,-90.30032348632812,3751.155517578125
1594015670.9002857,0.0,5.0,0.5,0.5,6.47663116455078e-06,-0.0001,-1e-05,-0.006,-0.005666508851194572,2.0,0.5,10.0,-0.002114806033436012,-2.0,-0.5,-10.0,494.3163184095174,0.0008791142602684409,-0.0022002494523354326,0.9999971930262929,1.5620629135895208,-90.29592895507812,3750.34912109375
1594015670.9700966,0.0,5.0,0.5,0.5,-3.415191650390626e-06,-0.0001,-1e-05,-0.006,-0.00581616450378946,2.0,0.5,10.0,-0.002035343562538471,-2.0,-0.5,-10.0,494.442074760329,0.0008647987257857873,-0.0022369777236413,0.9999971240227783,1.5386384409809069,-90.28999328613281,3749.2734375
1594015671.044896,0.0,5.0,0.5,0.5,1.3716880798339848e-05,-0.0001,-1e-05,-0.006,-0.005666217475998583,2.0,0.5,10.0,-0.0020764699321693045,-2.0,-0.5,-10.0,494.50429773447104,0.0008563867858105242,-0.0022526384043502165,0.9999970961067298,1.52701770987894,-90.28697204589844,3748.735595703125
1594015671.1137087,0.0,5.0,0.5,0.5,-5.438720703124998e-06,-0.0001,-1e-05,-0.006,-0.005850386188123226,2.0,0.5,10.0,-0.0019336265040935002,-2.0,-0.5,-10.0,494.6272154317703,0.0008376322893728894,-0.002278786713009891,0.9999970527472891,1.5039591142662605,-90.28086853027344,3747.66015625
1594015671.1556041,0.0,5.0,0.5,0.5,2.8804702758789107e-06,-0.0001,-1e-05,-0.006,-0.0058036396344832595,2.0,0.5,10.0,-0.0019304736041998744,-2.0,-0.5,-10.0,494.7182613010518,0.0008220085296757409,-0.0022946609194561237,0.9999970294122088,1.4868634486138763,-90.27623748779297,3746.853271484375
1594015671.226413,0.0,5.0,0.5,0.5,1.90007019042969e-06,-0.0001,-1e-05,-0.006,-0.0058075997357508145,2.0,0.5,10.0,-0.0018755367275275713,-2.0,-0.5,-10.0,494.80833003716543,0.0008047639468984819,-0.002306448634875619,0.9999970163203911,1.4699288379513593,-90.27153015136719,3746.04638671875
1594015671.2672992,0.0,5.0,0.5,0.5,1.0825569152832034e-05,-0.0001,-1e-05,-0.006,-0.005775792867878236,2.0,0.5,10.0,-0.0018957333567667988,-2.0,-0.5,-10.0,494.8677448774688,0.0007925075111252959,-0.002312098196135699,0.9999970130624273,1.4587614110408467,-90.26837158203125,3745.508544921875
1594015671.3382537,0.0,5.0,0.5,0.5,4.5343780517578347e-07,-0.0001,-1e-05,-0.006,-0.005796095404413473,2.0,0.5,10.0,-0.0017719669899280647,-2.0,-0.5,-10.0,494.9560717489803,0.0007724638736639422,-0.002317157982480964,0.9999970170347751,1.4421636569068983,-90.2635726928711,3744.701416015625
1594015671.3761842,0.0,5.0,0.5,0.5,-4.0040588378906187e-07,-0.0001,-1e-05,-0.006,-0.005778101147252177,2.0,0.5,10.0,-0.0017140837123827755,-2.0,-0.5,-10.0,495.04351636220235,0.0007514869564958829,-0.0023188293029002614,0.9999970291445961,1.4257424652111923,-90.25872039794922,3743.89453125
1594015671.4155726,0.0,5.0,0.5,0.5,8.699195861816409e-06,-0.0001,-1e-05,-0.006,-0.005758999117500853,2.0,0.5,10.0,-0.001739280159533025,-2.0,-0.5,-10.0,495.10119206260424,0.0007367229668968295,-0.00231775022937206,0.999997042632199,1.4148811583199425,-90.25544738769531,3743.3564453125
1594015671.4903727,0.0,5.0,0.5,0.5,8.187400817871096e-06,-0.0001,-1e-05,-0.006,-0.005740999526712573,2.0,0.5,10.0,-0.001697538771850704,-2.0,-0.5,-10.0,495.15834747080225,0.0007215728457099424,-0.0023147268285421078,0.9999970606818491,1.4041132965456213,-90.25215148925781,3742.818115234375
1594015671.5302742,0.0,5.0,0.5,0.5,-2.4711532592773433e-06,-0.0001,-1e-05,-0.006,-0.005687036299002529,2.0,0.5,10.0,-0.0015550546519128492,-2.0,-0.5,-10.0,495.24350182979833,0.0006977304906200422,-0.0023072334031404495,0.999997094918873,1.3881344296543814,-90.2471694946289,3742.0107421875
1594015671.5701673,0.0,5.0,0.5,0.5,6.947235107421876e-06,-0.0001,-1e-05,-0.006,-0.005683231980560296,2.0,0.5,10.0,-0.0015824081371436222,-2.0,-0.5,-10.0,495.2997734688688,0.0006808374361275472,-0.002300379123437635,0.9999971223539965,1.3775678099126727,-90.24382019042969,3741.47265625
1594015671.6100602,0.0,5.0,0.5,0.5,6.522613525390627e-06,-0.0001,-1e-05,-0.006,-0.0056448104052218805,2.0,0.5,10.0,-0.0015330500816259696,-2.0,-0.5,-10.0,495.3554946007207,0.000663378175047676,-0.0022912665060775576,0.9999971550095506,1.367082879144407,-90.24046325683594,3740.934326171875
1594015671.6531541,0.0,5.0,0.5,0.5,5.774200439453127e-06,-0.0001,-1e-05,-0.006,-0.005612939833460954,2.0,0.5,10.0,-0.0014864704490038674,-2.0,-0.5,-10.0,495.4107582846191,0.0006456732135722965,-0.002280964778159634,0.9999971901489434,1.3566892236004289,-90.23704528808594,3740.39599609375
1594015671.7185588,0.0,5.0,0.5,0.5,-5.217750549316407e-06,-0.0001,-1e-05,-0.006,-0.005478837275955568,2.0,0.5,10.0,-0.001321664344054821,-2.0,-0.5,-10.0,495.4930461953627,0.0006179199674141574,-0.0022612618590246505,0.9999972524310848,1.341250226392646,-90.23188781738281,3739.58837890625
1594015671.7833874,0.0,5.0,0.5,0.5,-6.052375793457034e-06,-0.0001,-1e-05,-0.006,-0.005404470956652762,2.0,0.5,10.0,-0.0012477682519213367,-2.0,-0.5,-10.0,495.5744449029444,0.0005894127711857692,-0.0022388338447029764,0.9999973201042096,1.3259851307858606,-90.2266845703125,3738.78076171875
1594015671.8192906,0.0,5.0,0.5,0.5,-6.847084045410152e-06,-0.0001,-1e-05,-0.006,-0.005301857414508388,2.0,0.5,10.0,-0.0011645375160453065,-2.0,-0.5,-10.0,495.6548703989247,0.0005595671077555245,-0.0022118979723871864,0.9999973971926186,1.3107972120794087,-90.22144317626953,3737.97314453125
1594015671.9030614,0.0,5.0,0.5,0.5,3.0114517211914095e-06,-0.0001,-1e-05,-0.006,-0.005325820634614482,2.0,0.5,10.0,-0.0012111725063538054,-2.0,-0.5,-10.0,495.7079362870427,0.0005394690406139806,-0.00219188693050826,0.9999974522991737,1.3006626046274268,-90.21791076660156,3737.43505859375
1594015671.9708838,0.0,5.0,0.5,0.5,-1.9116455078125e-05,-0.0001,-1e-05,-0.006,-0.004991054389000743,2.0,0.5,10.0,-0.0008990623516143745,-2.0,-0.5,-10.0,495.8130637269933,0.0004975948797505827,-0.0021478428016929764,0.999997569582364,1.280667748534945,-90.2108154296875,3736.3583984375
1594015672.0483124,0.0,5.0,0.5,0.5,-2.0429092407226562e-05,-0.0001,-1e-05,-0.006,-0.004809974548830134,2.0,0.5,10.0,-0.0007851444748431406,-2.0,-0.5,-10.0,495.9164810201619,0.0004542029563299243,-0.002096757321948019,0.9999976986515556,1.2609839419411655,-90.20362854003906,3735.281494140625
1594015672.1181262,0.0,5.0,0.5,0.5,-2.1382461547851563e-05,-0.0001,-1e-05,-0.006,-0.004622483967181518,2.0,0.5,10.0,-0.000676859663466834,-2.0,-0.5,-10.0,496.01840179564897,0.0004101333270704335,-0.0020394700799673117,0.9999978361738823,1.2416287251608198,-90.1964111328125,3734.20458984375
1594015672.1590202,0.0,5.0,0.5,0.5,-3.2802581787109633e-07,-0.0001,-1e-05,-0.006,-0.004816363879003318,2.0,0.5,10.0,-0.0008355266478232632,-2.0,-0.5,-10.0,496.06878311699256,0.00038782920623201694,-0.0020090030514817604,0.999997906745432,1.2320795645673428,-90.1927719116211,3733.666015625
1594015672.1989093,0.0,5.0,0.5,0.5,-7.42996215820314e-07,-0.0001,-1e-05,-0.006,-0.004716552242410991,2.0,0.5,10.0,-0.0007642894979880941,-2.0,-0.5,-10.0,496.11876802216284,0.0003645268773383038,-0.001976510291660923,0.9999979802615715,1.2226163096791514,-90.18913269042969,3733.12744140625
1594015672.2703092,0.0,5.0,0.5,0.5,-1.2374221801757811e-05,-0.0001,-1e-05,-0.006,-0.004418076482416175,2.0,0.5,10.0,-0.0005652961677755961,-2.0,-0.5,-10.0,496.1929959068075,0.0003297707061496237,-0.0019258714960373935,0.9999980911333091,1.2086262284495992,-90.18365478515625,3732.3193359375
1594015672.309205,0.0,5.0,0.5,0.5,-1.3208099365234373e-05,-0.0001,-1e-05,-0.006,-0.004257736028256659,2.0,0.5,10.0,-0.00047455875564428275,-2.0,-0.5,-10.0,496.26643276633695,0.00029456203959570866,-0.001871790350513335,0.999998204815433,1.194814744929054,-90.17813873291016,3731.51123046875
1594015672.382011,0.0,5.0,0.5,0.5,-1.4046150207519533e-05,-0.0001,-1e-05,-0.006,-0.004098895739708374,2.0,0.5,10.0,-0.000384127688617715,-2.0,-0.5,-10.0,496.33919554471504,0.00025903288658114235,-0.0018151088364830599,0.9999983191395251,1.1812650272891136,-90.1725845336914,3730.70263671875
1594015672.4548173,0.0,5.0,0.5,0.5,-1.4655670166015626e-05,-0.0001,-1e-05,-0.006,-0.0039285891665421825,2.0,0.5,10.0,-0.00029180623590536195,-2.0,-0.5,-10.0,496.4110135000665,0.00022310838752882695,-0.0017554475478948975,0.9999984343120513,1.1681256588123121,-90.16703033447266,3729.89404296875
1594015672.5296166,0.0,5.0,0.5,0.5,-2.671417236328125e-05,-0.0001,-1e-05,-0.006,-0.0034981914553666965,2.0,0.5,10.0,-5.833563503181995e-05,-2.0,-0.5,-10.0,496.5056105350377,0.00017511733291338018,-0.0016717652082421895,0.9999985872665061,1.1508465763731641,-90.15959930419922,3728.815673828125
1594015672.568506,0.0,5.0,0.5,0.5,-1.6253074645996095e-05,-0.0001,-1e-05,-0.006,-0.0035186365413890303,2.0,0.5,10.0,-8.101445973341341e-05,-2.0,-0.5,-10.0,496.5755977742374,0.00013853282157439317,-0.0016059008562095693,0.9999987009447049,1.1380610347417184,-90.15401458740234,3728.0068359375
1594015672.606437,0.0,5.0,0.5,0.5,-5.652374267578127e-06,-0.0001,-1e-05,-0.006,-0.0036081578207435806,2.0,0.5,10.0,-0.0001446367483837549,-2.0,-0.5,-10.0,496.6217958686175,0.00011484367808849991,-0.0015607320942347793,0.99999877546238,1.129608981994323,-90.1502685546875,3727.4677734375
1594015672.6492941,0.0,5.0,0.5,0.5,-5.894180297851564e-06,-0.0001,-1e-05,-0.006,-0.0034821659602549473,2.0,0.5,10.0,-7.486065610537291e-05,-2.0,-0.5,-10.0,496.66781357629225,9.070204781972963e-05,-0.0015148255759972066,0.9999988485376435,1.1212245858686105,-90.14655303955078,3726.928466796875
1594015672.6861954,0.0,5.0,0.5,0.5,-6.594825744628905e-06,-0.0001,-1e-05,-0.006,-0.0033409183202241883,2.0,0.5,10.0,-1.1622603728776232e-05,-2.0,-0.5,-10.0,496.71340313600376,6.664514856124928e-05,-0.0014669855262298749,0.9999989217553635,1.112904404485318,-90.14279174804688,3726.38916015625
1594015672.7530181,0.0,5.0,0.5,0.5,-6.881317138671875e-06,-0.0001,-1e-05,-0.006,-0.003215930888303709,2.0,0.5,10.0,5.83115362336416e-05,-2.0,-0.5,-10.0,496.7586881266907,4.210815442260902e-05,-0.0014189616051189413,0.9999989923869257,1.1046460506849174,-90.13905334472656,3725.849853515625
1594015672.7959018,0.0,5.0,0.5,0.5,-1.8753906250000002e-05,-0.0001,-1e-05,-0.006,-0.002773376012104962,2.0,0.5,10.0,0.0002627642171601289,-2.0,-0.5,-10.0,496.82601978292223,5.9663472420169364e-06,-0.0013443852173705261,0.9999990962959866,1.0923717820493364,-90.13343811035156,3725.041015625
1594015672.9046128,0.0,5.0,0.5,0.5,-1.9505264282226563e-05,-0.0001,-1e-05,-0.006,-0.0025803776939173147,2.0,0.5,10.0,0.00034784134807450985,-2.0,-0.5,-10.0,496.89243561704643,-2.989240148922653e-05,-0.0012685778938923214,0.9999991949079615,1.0802295168093585,-90.12779998779297,3724.23193359375
1594015672.97642,0.0,5.0,0.5,0.5,-4.287713623046875e-05,-0.0001,-1e-05,-0.006,-0.0017396042298033947,2.0,0.5,10.0,0.000718245224287275,-2.0,-0.5,-10.0,497.0018174330471,-8.928978827847261e-05,-0.001137854054220245,0.9999993486575304,1.060286349370811,-90.1184310913086,3722.8837890625
1594015673.0173106,0.0,5.0,0.5,0.5,-2.1017379760742186e-05,-0.0001,-1e-05,-0.006,-0.0020531346312696297,2.0,0.5,10.0,0.0005639612424195434,-2.0,-0.5,-10.0,497.0664004175924,-0.00012447926763528499,-0.001057866949541796,0.9999994327110535,1.0484985774691253,-90.11280822753906,3722.07470703125
1594015673.0591986,0.0,5.0,0.5,0.5,-1.0045600891113281e-05,-0.0001,-1e-05,-0.006,-0.0021672680835740474,2.0,0.5,10.0,0.0005085129949957158,-2.0,-0.5,-10.0,497.1091539846966,-0.00014773486458412587,-0.0010036287358282613,0.9999994854517529,1.0407119663545221,-90.10908508300781,3721.53564453125
1594015673.1260204,0.0,5.0,0.5,0.5,-2.182402038574219e-05,-0.0001,-1e-05,-0.006,-0.001687140669293927,2.0,0.5,10.0,0.0007002347545339096,-2.0,-0.5,-10.0,497.17260812362656,-0.00018174612451343647,-0.0009212035085120303,0.9999995591761238,1.02888746758199,-90.10350036621094,3720.72705078125
1594015673.2018163,0.0,5.0,0.5,0.5,-2.2246849060058596e-05,-0.0001,-1e-05,-0.006,-0.0014825308499164076,2.0,0.5,10.0,0.0007854053230110269,-2.0,-0.5,-10.0,497.23529962520115,-0.00021585189288558912,-0.0008383179064157843,0.9999996253154537,1.0169223479689393,-90.09794616699219,3719.918701171875
1594015673.2432954,0.0,5.0,0.5,0.5,-2.2668434143066407e-05,-0.0001,-1e-05,-0.006,-0.0012668498328600422,2.0,0.5,10.0,0.0008566909911522411,-2.0,-0.5,-10.0,497.2973840875784,-0.0002488359406617588,-0.0007542832123634614,0.9999996845687054,1.0051843941502168,-90.09242248535156,3719.1103515625
1594015673.28219,0.0,5.0,0.5,0.5,-1.2105499267578123e-05,-0.0001,-1e-05,-0.006,-0.0013934341445868148,2.0,0.5,10.0,0.0008016311420748958,-2.0,-0.5,-10.0,497.3383966415422,-0.0002703195847667819,-0.0006979719198122305,0.9999997198812214,0.9976632667568717,-90.08872985839844,3718.571044921875
1594015673.3554935,0.0,5.0,0.5,0.5,-2.3465560913085937e-05,-0.0001,-1e-05,-0.006,-0.000905609818747007,2.0,0.5,10.0,0.0009815844648698208,-2.0,-0.5,-10.0,497.3993492363952,-0.0003018147120316781,-0.000613598038892961,0.9999997662026359,0.9864686286529973,-90.08324432373047,3717.76220703125
1594015673.4263206,0.0,5.0,0.5,0.5,-3.5053199768066406e-05,-0.0001,-1e-05,-0.006,-0.00033994906235955066,2.0,0.5,10.0,0.001178629526244182,-2.0,-0.5,-10.0,497.47941939427983,-0.00034304806125672884,-0.0004995037566205567,0.9999998164069954,0.9717629050693024,-90.07595825195312,3716.68359375
1594015673.50112,0.0,5.0,0.5,0.5,-2.443715667724609e-05,-0.0001,-1e-05,-0.006,-0.00041402863662563447,2.0,0.5,10.0,0.0011422301394376324,-2.0,-0.5,-10.0,497.5387563528493,-0.00037292167667498055,-0.00041411882533551824,0.9999998447174988,0.960918702028713,-90.07054138183594,3715.874755859375
1594015673.5440118,0.0,5.0,0.5,0.5,-2.4803405761718753e-05,-0.0001,-1e-05,-0.006,-0.00020022169054914347,2.0,0.5,10.0,0.0012087253355592248,-2.0,-0.5,-10.0,497.59751105541363,-0.00040192833388704905,-0.00032870771654393196,0.9999998652024167,0.9502371151617284,-90.0651626586914,3715.065673828125
1594015673.609873,0.0,5.0,0.5,0.5,-2.511531066894531e-05,-0.0001,-1e-05,-0.006,4.355647561397023e-06,2.0,0.5,10.0,0.0012711782306764497,-2.0,-0.5,-10.0,497.65559617069084,-0.00043000229555017246,-0.000243855124115383,0.9999998778163447,0.9396726029327036,-90.05982971191406,3714.2568359375
1594015673.6876254,0.0,5.0,0.5,0.5,-2.5422348022460942e-05,-0.0001,-1e-05,-0.006,0.00021021963433484733,2.0,0.5,10.0,0.0013280074831510831,-2.0,-0.5,-10.0,497.7130700170528,-0.00045686002202601606,-0.0001593810141330814,0.9999998829382996,0.9292142066819451,-90.0545425415039,3713.44775390625
1594015673.7235937,0.0,5.0,0.5,0.5,-2.572637176513672e-05,-0.0001,-1e-05,-0.006,0.00040873118979522995,2.0,0.5,10.0,0.00138508075743857,-2.0,-0.5,-10.0,497.76984345843084,-0.0004827095454571684,-7.596099169986142e-05,0.9999998806107041,0.9188888904623858,-90.04930114746094,3712.638671875
1594015673.7973497,0.0,5.0,0.5,0.5,-2.6025474548339845e-05,-0.0001,-1e-05,-0.006,0.0006188165135431203,2.0,0.5,10.0,0.0014382564144890028,-2.0,-0.5,-10.0,497.8261270922376,-0.0005074281054833992,7.540960153428721e-06,0.9999998712299175,0.9086971812155944,-90.04410552978516,3711.829833984375
1594015673.837281,0.0,5.0,0.5,0.5,-2.6133483886718748e-05,-0.0001,-1e-05,-0.006,0.0008070099290433189,2.0,0.5,10.0,0.0014889225447037773,-2.0,-0.5,-10.0,497.8817097080173,-0.0005310341821373319,8.928429271214866e-05,0.9999998550154958,0.8986397639484285,-90.03898620605469,3711.020751953125
1594015673.873146,0.0,5.0,0.5,0.5,-1.6134429931640627e-05,-0.0001,-1e-05,-0.006,0.0006791718245057172,2.0,0.5,10.0,0.0014470808798573897,-2.0,-0.5,-10.0,497.91847843909636,-0.000546043281272262,0.00014323569652846676,0.9999998406601225,0.8920056979801495,-90.03559875488281,3710.4814453125
1594015673.909051,0.0,5.0,0.5,0.5,-1.634014892578125e-05,-0.0001,-1e-05,-0.006,0.0008276313873262273,2.0,0.5,10.0,0.0014868050143058784,-2.0,-0.5,-10.0,497.95494440116454,-0.0005607123596866382,0.00019706179820902145,0.999999823384133,0.8854288347169168,-90.03224182128906,3709.942138671875
1594015673.984288,0.0,5.0,0.5,0.5,-1.658722686767578e-05,-0.0001,-1e-05,-0.006,0.0009624513774078573,2.0,0.5,10.0,0.0015157448363144425,-2.0,-0.5,-10.0,497.9911650068825,-0.0005742695033341031,0.00024977413279502793,0.9999998039136907,0.878908879734598,-90.0289077758789,3709.40283203125
