Timestamp,Input Throttle,horizon,dT,dt,Input Roll,Roll P,Roll I,Roll D,Input Pitch,Pitch P,Pitch I,Pitch D,Input Yaw,Yaw P,Yaw I,Yaw D,Altitude,Direction X,Direction Y,Direction Z,Drag X,Drag Y,Drag Z,Vertical Velocity,Roll,Mass
1594283844.3981123,0.0,10.0,0.5,0.5,0.019260253906250004,-0.14,-0.011,-0.56,-0.009735811190476997,10.0,1.0,100.0,0.0460278221117464,-10.0,-1.0,-100.0,12466.682058600243,-0.00131140532481458,-0.0007468288727737397,0.999998861230706,28.220158785628357,1.3495357681666622,126.37726407434957,-30.14815696796295,-90.12213134765625,5625.0322265625
1594283844.4350593,0.0,10.0,0.5,0.5,0.0182741455078125,-0.14,-0.011,-0.56,-0.008202904239272042,10.0,1.0,100.0,0.02265262897011236,-10.0,-1.0,-100.0,12465.47795741458,-0.0013969274629008082,-0.0007528282602669876,0.9999987409208443,28.41261982929383,1.3589812128996872,128.84922370528687,-30.5219970092421,-90.12361907958984,5625.0322265625
1594283844.4933722,0.0,10.0,0.5,0.5,0.018127075958251953,-0.14,-0.011,-0.56,-0.008175873248805761,10.0,1.0,100.0,0.023039248014220227,-10.0,-1.0,-100.0,12464.248465493787,-0.001476919645686632,-0.0007573521232927314,0.9999986225621122,28.605376139222784,1.368445831735094,131.3453634883328,-30.895819565365674,-90.12440490722656,5625.0322265625
1594283844.52662,0.0,10.0,0.5,0.5,0.015564794158935549,-0.14,-0.011,-0.56,-0.008054272684625021,10.0,1.0,100.0,0.02391069307455221,-10.0,-1.0,-100.0,12462.990653682384,-0.001556219385453411,-0.000759670764438771,0.9999985005396529,28.797535179945577,1.3778868680848904,133.86161532570745,-31.269624303269254,-90.12117767333984,5625.0322265625
1594283844.5608177,0.0,10.0,0.5,0.5,0.011967163085937501,-0.14,-0.011,-0.56,-0.008071471877430623,10.0,1.0,100.0,0.02483570125575511,-10.0,-1.0,-100.0,12461.718192610424,-0.0016353044783564605,-0.0007612443665384591,0.9999983731418154,28.98850165869513,1.3872755774898509,136.39510481784066,-31.643411378377216,-90.11326599121094,5625.0322265625
1594283844.6040814,0.0,10.0,0.5,0.5,0.007710346984863282,-0.14,-0.011,-0.56,-0.007848634152482157,10.0,1.0,100.0,0.02515522739594785,-10.0,-1.0,-100.0,12460.443779071327,-0.0017086181600170247,-0.0007599570760690636,0.9999982515430844,29.178330830845546,1.3966143193048126,138.94591999327096,-32.017180717199686,-90.10067749023438,5625.0322265625
1594283844.6344335,0.0,10.0,0.5,0.5,0.00320149383544922,-0.14,-0.011,-0.56,-0.007644564129014276,10.0,1.0,100.0,0.02564228378351364,-10.0,-1.0,-100.0,12459.169365474721,-0.0017781414576317565,-0.0007562407599052969,0.9999981331546922,29.367142908104697,1.405908595593121,141.51447707299403,-32.390932277046176,-90.0840072631836,5625.0322265625
1594283844.6941683,0.0,10.0,0.5,0.5,-0.0012455879211425783,-0.14,-0.011,-0.56,-0.007438788863971589,10.0,1.0,100.0,0.026149476601812445,-10.0,-1.0,-100.0,12457.870537453331,-0.0018443388070318366,-0.0007503041148379343,0.9999980177270853,29.555000476256584,1.4151611767081094,144.10093685269536,-32.76466570806185,-90.0641860961914,5625.0322265625
1594283844.7312686,0.0,10.0,0.5,0.5,-0.005391902160644532,-0.14,-0.011,-0.56,-0.007183972556106936,10.0,1.0,100.0,0.02658425110255085,-10.0,-1.0,-100.0,12456.52776466601,-0.001906794039395866,-0.0007419085582371643,0.9999979068519007,29.742087387886546,1.4243806893013777,146.7060733602542,-33.1383810410712,-90.04230499267578,5625.0322265625
1594283844.760583,0.0,10.0,0.5,0.5,-0.009001525115966798,-0.14,-0.011,-0.56,-0.006948080088047231,10.0,1.0,100.0,0.026967521501468333,-10.0,-1.0,-100.0,12455.209405281697,-0.001965322350590237,-0.000731457294746615,0.9999978012367248,29.928624692414914,1.4335776636967636,149.33089083908297,-33.51207798734293,-90.01957702636719,5625.0322265625
1594283844.8024862,0.0,10.0,0.5,0.5,-0.011958963775634768,-0.14,-0.011,-0.56,-0.006657687862499763,10.0,1.0,100.0,0.027348326130969686,-10.0,-1.0,-100.0,12453.825616513728,-0.002020205109807323,-0.0007186512556186417,0.9999977011532012,30.114761780971953,1.44275915194304,151.97607356098504,-33.8857568859481,-89.99713897705078,5625.0322265625
1594283844.835907,0.0,10.0,0.5,0.5,-0.014233753967285157,-0.14,-0.011,-0.56,-0.0063137034610438025,10.0,1.0,100.0,0.027509156123529853,-10.0,-1.0,-100.0,12452.482843392529,-0.002070916254677955,-0.0007039078869592073,0.9999976079069154,30.300712997648176,1.4519355091103399,154.6426794370238,-34.25941713517667,-89.97613525390625,5625.0322265625
1594283844.8941672,0.0,10.0,0.5,0.5,-0.01566490707397461,-0.14,-0.011,-0.56,-0.005922078758159348,10.0,1.0,100.0,0.027650792441436416,-10.0,-1.0,-100.0,12451.095148390392,-0.002117692181276064,-0.0006869890730365063,0.9999975217098486,30.48661759088956,1.4611135420418033,157.33142735800718,-34.633058711867065,-89.95751953125,5625.0322265625
1594283844.9290762,0.0,10.0,0.5,0.5,-0.016190277862548827,-0.14,-0.011,-0.56,-0.005565543660290705,10.0,1.0,100.0,0.027727597236766197,-10.0,-1.0,-100.0,12449.708429883118,-0.0021603314558358983,-0.0006684310713536597,0.999997443080683,30.672655385919064,1.4703020221125465,160.0432757528726,-35.00668164029827,-89.942138671875,5625.0322265625
1594283844.9609094,0.0,10.0,0.5,0.5,-0.015870252990722658,-0.14,-0.011,-0.56,-0.0051692605805911795,10.0,1.0,100.0,0.027747287364034846,-10.0,-1.0,-100.0,12448.280695687863,-0.0021987242410742057,-0.0006480405324566081,0.999997372824139,30.85893613944964,1.4795064230714472,162.7788539848235,-35.380285834983674,-89.93057250976562,5625.0322265625
1594283845.0058627,0.0,10.0,0.5,0.5,-0.014699755859375,-0.14,-0.011,-0.56,-0.0047507489438507215,10.0,1.0,100.0,0.027748454992198513,-10.0,-1.0,-100.0,12446.86663325259,-0.0022331251881262297,-0.0006258019402471769,0.9999973107582969,31.04553531640889,1.4887307125528633,165.53864375651054,-35.75387089946391,-89.92327880859375,5625.0322265625
1594283845.0347848,0.0,10.0,0.5,0.5,-0.012882565307617187,-0.14,-0.011,-0.56,-0.004370681996179258,10.0,1.0,100.0,0.027676880340717393,-10.0,-1.0,-100.0,12445.43792254664,-0.0022632712731345058,-0.0006022518433832461,0.9999972574441698,31.232525814016707,1.4979786375608917,168.32311798708764,-36.12743698603658,-89.92031860351562,5625.0322265625
1594283845.0948858,0.0,10.0,0.5,0.5,-0.010422241973876954,-0.14,-0.011,-0.56,-0.003942781835803991,10.0,1.0,100.0,0.02759782896924301,-10.0,-1.0,-100.0,12443.963313255575,-0.0022895171290236234,-0.0005770926528821902,0.9999972125338079,31.41989099325365,1.507249753059746,171.13228496027088,-36.50098354401027,-89.92172241210938,5625.0322265625
1594283845.1319609,0.0,10.0,0.5,0.5,-0.007541232299804688,-0.14,-0.011,-0.56,-0.0035362173353177184,10.0,1.0,100.0,0.02744685019115544,-10.0,-1.0,-100.0,12442.50628217135,-0.0023115997561020327,-0.0005506820855694967,0.9999971766239184,31.607629954816595,1.5165443464444652,173.9662370520264,-36.87451061366025,-89.92718505859375,5625.0322265625
1594283845.1609309,0.0,10.0,0.5,0.5,-0.0043823417663574225,-0.14,-0.011,-0.56,-0.0031873300555503126,10.0,1.0,100.0,0.027306216576069246,-10.0,-1.0,-100.0,12441.0101885224,-0.002330028379020979,-0.0005236746186261332,0.9999971483622574,31.795627190263883,1.5258571620906545,176.82442553095618,-37.24801818450611,-89.93624877929688,5625.0322265625
1594283845.2022846,0.0,10.0,0.5,0.5,-0.0011329383850097663,-0.14,-0.011,-0.56,-0.002758859644210633,10.0,1.0,100.0,0.027104181977939772,-10.0,-1.0,-100.0,12439.507258944795,-0.0023446134434839073,-0.0004954160837346424,0.9999971286712301,31.983866090668158,1.5351877075462783,179.70683461310506,-37.62150578588723,-89.94827270507812,5625.0322265625
1594283845.2378874,0.0,10.0,0.5,0.5,0.0020133819580078127,-0.14,-0.011,-0.56,-0.00235394497024477,10.0,1.0,100.0,0.026879994701343196,-10.0,-1.0,-100.0,12437.991634248756,-0.0023555396101778035,-0.0004662484051353102,0.9999971170186289,32.172171487691344,1.5445277949221783,182.61254133974757,-37.99497349446168,-89.96246337890625,5625.0322265625
1594283845.2736387,0.0,10.0,0.5,0.5,0.004989065551757813,-0.14,-0.011,-0.56,-0.0019778692997705818,10.0,1.0,100.0,0.026594003915214406,-10.0,-1.0,-100.0,12436.467219883692,-0.002362613824247902,-0.0004365295180241737,0.9999971137447835,32.360470640172274,1.5538741242605132,185.54117295973262,-38.36842132891727,-89.97808837890625,5625.0322265625
1594283845.345544,0.0,10.0,0.5,0.5,0.0075623504638671875,-0.14,-0.011,-0.56,-0.0016048009667693638,10.0,1.0,100.0,0.026310380856073803,-10.0,-1.0,-100.0,12434.925227786647,-0.0023662438804621937,-0.0004063485081276861,0.9999971178812408,32.5485449079381,1.5632163684806843,188.49149717252948,-38.74184886668469,-89.99423217773438,5625.0322265625
1594283845.3874333,0.0,10.0,0.5,0.5,0.014985375976562501,-0.14,-0.011,-0.56,0.00045200006617947784,10.0,1.0,100.0,0.02590123531095231,-10.0,-1.0,-100.0,12432.556086975732,-0.0023656372334971486,-0.0003604512920706406,0.9999971369135742,32.830066011426595,1.5772140310836165,192.95664348705924,-39.30195223579886,-90.01766967773438,5625.0322265625
1594283845.4325974,0.0,10.0,0.5,0.5,0.011894995117187501,-0.14,-0.011,-0.56,-0.0006923131933200591,10.0,1.0,100.0,0.02550208144196902,-10.0,-1.0,-100.0,12430.969173042802,-0.002361305325635966,-0.0003293908427782186,0.9999971578653771,33.01712555270453,1.5865244491620376,195.95846687223099,-39.67532879049919,-90.03186798095703,5625.0322265625
1594283845.4697857,0.0,10.0,0.5,0.5,0.012613655853271486,-0.14,-0.011,-0.56,-0.00038817760184855837,10.0,1.0,100.0,0.025124963979608672,-10.0,-1.0,-100.0,12429.382258757018,-0.002353822359615697,-0.00029865866631488406,0.9999971851576887,33.203655825131904,1.5958161409125817,198.9800789980716,-40.04868492437907,-90.04408264160156,5625.0322265625
1594283845.5529304,0.0,10.0,0.5,0.5,0.012158060455322268,-0.14,-0.011,-0.56,-9.80092437758047e-05,10.0,1.0,100.0,0.024760353360074032,-10.0,-1.0,-100.0,12427.770930902683,-0.0023436227020683363,-0.0002683584237085261,0.9999972177043228,33.38940006948216,1.605076709060322,202.01987406537333,-40.42202028827517,-90.05300903320312,5625.0322265625
1594283845.5968113,0.0,10.0,0.5,0.5,0.012580185699462891,-0.14,-0.011,-0.56,0.0018925493172061102,10.0,1.0,100.0,0.02355135695238711,-10.0,-1.0,-100.0,12425.332453857642,-0.0023233102227980867,-0.00022299742917488663,0.9999972762471683,33.66650686920031,1.6189070254344988,206.61320881160898,-40.98198418150186,-90.060546875,5625.0322265625
1594283845.63574,0.0,10.0,0.5,0.5,0.009258713531494142,-0.14,-0.011,-0.56,0.0006583413559417919,10.0,1.0,100.0,0.023749888534640815,-10.0,-1.0,-100.0,12423.676203986746,-0.0023066385192395335,-0.00019327812893433965,0.9999973210275648,33.85024281829459,1.6280867920009237,209.69773037629287,-41.355267454299174,-90.0616226196289,5625.0322265625
1594283845.6756003,0.0,10.0,0.5,0.5,0.007405657958984375,-0.14,-0.011,-0.56,0.0008639864600907625,10.0,1.0,100.0,0.023391872814602976,-10.0,-1.0,-100.0,12422.002375757787,-0.002288249000240306,-0.00016469144275948065,0.999997368393158,34.03317371025201,1.6372338062291303,212.79994512764472,-41.72852966420909,-90.05963897705078,5625.0322265625
1594283845.7179482,0.0,10.0,0.5,0.5,0.005130242156982422,-0.14,-0.011,-0.56,0.001153388897519483,10.0,1.0,100.0,0.022931897697957896,-10.0,-1.0,-100.0,12420.322688238695,-0.002267400904129002,-0.00013637327375205243,0.9999974201444074,34.21540914529786,1.6463531787049301,215.92044044669888,-42.10177068461104,-90.05462646484375,5625.0322265625
1594283845.763831,0.0,10.0,0.5,0.5,0.0028956535339355466,-0.14,-0.011,-0.56,0.0013745102121922688,10.0,1.0,100.0,0.022528567187717348,-10.0,-1.0,-100.0,12418.624445550377,-0.002244861574576583,-0.0001089191764586226,0.9999974743633726,34.39700133222897,1.65544722757115,219.05946216309368,-42.47499049001434,-90.04727935791016,5625.0322265625
1594283845.8009446,0.0,10.0,0.5,0.5,0.0006881332397460933,-0.14,-0.011,-0.56,0.0015802100524300545,10.0,1.0,100.0,0.022152607336232553,-10.0,-1.0,-100.0,12416.924250677112,-0.002221060505651496,-8.238873522749337e-05,0.9999975300481129,34.57801561494417,1.6645189401602773,222.2173491548798,-42.84818896558159,-90.03813934326172,5625.0322265625
1594283845.8418345,0.0,10.0,0.5,0.5,-0.0013869819641113288,-0.14,-0.011,-0.56,0.0017778984667405466,10.0,1.0,100.0,0.021724121212357957,-10.0,-1.0,-100.0,12415.197687922278,-0.002195659826752385,-5.676749377173524e-05,0.9999975879247793,34.75867712075867,1.6735790707993918,225.39549611961272,-43.2213659835979,-90.02779388427734,5625.0322265625
1594283845.883722,0.0,10.0,0.5,0.5,-0.0032247528076171884,-0.14,-0.011,-0.56,0.00195139323103952,10.0,1.0,100.0,0.02131817258825846,-10.0,-1.0,-100.0,12413.45745322248,-0.00216903238335842,-3.217430713496345e-05,0.9999976471288989,34.93900990083624,1.6826287242871538,228.59403381029477,-43.59452148497842,-90.01687622070312,5625.0322265625
1594283845.9286022,0.0,10.0,0.5,0.5,-0.004780397796630861,-0.14,-0.011,-0.56,0.002120490458581113,10.0,1.0,100.0,0.020932888371874243,-10.0,-1.0,-100.0,12411.690851628431,-0.0021414978264352115,-8.549814065377581e-06,0.999997706954351,35.11919231840404,1.6916764846583658,231.81411657221457,-43.967655136167174,-90.00594329833984,5625.0322265625
1594283845.9655821,0.0,10.0,0.5,0.5,-0.0059524169921875,-0.14,-0.011,-0.56,0.0022415113788797495,10.0,1.0,100.0,0.02051967874214316,-10.0,-1.0,-100.0,12409.920343266684,-0.0021129029821739943,1.3763452680370355e-05,0.9999977677232861,35.29932471304721,1.7007271908686898,235.05641719461275,-44.34076708640803,-89.9955825805664,5625.0322265625
1594283846.0076888,0.0,10.0,0.5,0.5,-0.006734427642822267,-0.14,-0.011,-0.56,0.0023748409502570627,10.0,1.0,100.0,0.020145117290278784,-10.0,-1.0,-100.0,12408.136163696414,-0.0020837123103012974,3.500385321049051e-05,0.9999978284565113,35.47950361288795,1.709785605991252,238.32161458375148,-44.713856895397306,-89.98626708984375,5625.0322265625
1594283846.049579,0.0,10.0,0.5,0.5,-0.007068210601806641,-0.14,-0.011,-0.56,0.00251794188421732,10.0,1.0,100.0,0.019779093490123127,-10.0,-1.0,-100.0,12406.344171468401,-0.0020540656630633368,5.5379679198979014e-05,0.9999978888714431,35.659862660028466,1.7188582588078887,241.6106535703637,-45.0869247479649,-89.97845458984375,5625.0322265625
1594283846.0935564,0.0,10.0,0.5,0.5,-0.006993069458007813,-0.14,-0.011,-0.56,0.0025531783355079163,10.0,1.0,100.0,0.019436690413818326,-10.0,-1.0,-100.0,12404.529718297534,-0.00202423102202258,7.399743619285278e-05,0.9999979485044701,35.84047694140255,1.7279489425505885,244.92411660329327,-45.45997015961137,-89.97244262695312,5625.0322265625
1594283846.1294596,0.0,10.0,0.5,0.5,-0.006520748138427735,-0.14,-0.011,-0.56,0.002638638377232618,10.0,1.0,100.0,0.019101336646363543,-10.0,-1.0,-100.0,12402.70159311383,-0.0019942999668070465,9.148258940391501e-05,0.9999980071973035,36.021426190152866,1.7370616354882196,248.26262835840024,-45.83299330420346,-89.96844482421875,5625.0322265625
1594283846.1713471,0.0,10.0,0.5,0.5,-0.005679878997802735,-0.14,-0.011,-0.56,0.002660918649968374,10.0,1.0,100.0,0.018777660639182632,-10.0,-1.0,-100.0,12400.864678846207,-0.0019643956810343004,0.00010737358947233667,0.9999980648083877,36.2027262595734,1.7461973494401533,251.6264004040475,-46.20599383114663,-89.96658325195312,5625.0322265625
1594283846.2116997,0.0,10.0,0.5,0.5,-0.004533903503417969,-0.14,-0.011,-0.56,0.0026906372549723805,10.0,1.0,100.0,0.018500211203578646,-10.0,-1.0,-100.0,12399.009209954645,-0.0019349426680931698,0.00012189349252009191,0.9999981205676576,36.384413729684226,1.7553580318529614,255.0157823371512,-46.57897153292835,-89.96685791015625,5625.0322265625
1594283846.2549849,0.0,10.0,0.5,0.5,-0.0031639488220214854,-0.14,-0.011,-0.56,0.002723463527105386,10.0,1.0,100.0,0.018183309225799926,-10.0,-1.0,-100.0,12397.128350579529,-0.0019055463818373885,0.000135206113921308,0.999998175304482,36.5665390341947,1.7645463323882968,258.4312379604413,-46.951926414622,-89.96914672851562,5625.0322265625
1594283846.2961361,0.0,10.0,0.5,0.5,-0.0016690124511718756,-0.14,-0.011,-0.56,0.0027070025242814967,10.0,1.0,100.0,0.017944768768843787,-10.0,-1.0,-100.0,12395.228936468717,-0.0018769176751279087,0.00014698433007156634,0.9999982277862534,36.74902363257744,1.7737586320772876,261.8723168520491,-47.324858283241234,-89.97320556640625,5625.0322265625
1594283846.336271,0.0,10.0,0.5,0.5,-8.069763183593754e-05,-0.14,-0.011,-0.56,0.0026656391098703416,10.0,1.0,100.0,0.01771022099423642,-10.0,-1.0,-100.0,12393.33147537848,-0.0018490248844485243,0.00015715289677060293,0.9999982782034896,36.93191551224768,1.7829974421095318,265.33946565220765,-47.697767030201824,-89.97879028320312,5625.0322265625
1594283846.3791583,0.0,10.0,0.5,0.5,0.0015044242858886715,-0.14,-0.011,-0.56,0.002636411350042493,10.0,1.0,100.0,0.01751394871019791,-10.0,-1.0,-100.0,12391.407647183514,-0.0018221493930141762,0.00016598070257962304,0.999998326109597,37.11508519302883,1.7922566903425894,268.8318588147789,-48.070652438194905,-89.98556518554688,5625.0322265625
1594283846.4220426,0.0,10.0,0.5,0.5,0.002954586791992188,-0.14,-0.011,-0.56,0.002579254219568369,10.0,1.0,100.0,0.017274912705234836,-10.0,-1.0,-100.0,12389.482842136407,-0.0017958083949279771,0.00017334799099269542,0.9999983725100171,37.29858670148132,1.8015391095139672,272.3499747478858,-48.44351425339255,-89.99307250976562,5625.0322265625
1594283846.4619358,0.0,10.0,0.5,0.5,0.004274786376953125,-0.14,-0.011,-0.56,0.00249792651382498,10.0,1.0,100.0,0.017146616906033585,-10.0,-1.0,-100.0,12387.516045450815,-0.001770957438416306,0.00017918041573620114,0.9999984158008103,37.48228500824688,1.8108382554147489,275.8929133033838,-48.816352451106795,-90.0009536743164,5625.0322265625
1594283846.50186,0.0,10.0,0.5,0.5,0.005349492645263673,-0.14,-0.011,-0.56,0.0023866956648477453,10.0,1.0,100.0,0.01701154572918326,-10.0,-1.0,-100.0,12385.548271662323,-0.0017473951110930992,0.00018335888438819763,0.9999984564937314,37.66618393564738,1.8201544167561252,279.4607820481119,-49.189166961725405,-90.00875854492188,5625.0322265625
1594283846.5427198,0.0,10.0,0.5,0.5,0.006172368621826173,-0.14,-0.011,-0.56,0.0023115605877775153,10.0,1.0,100.0,0.01687936600725383,-10.0,-1.0,-100.0,12383.58049828047,-0.0017250248487007615,0.00018637502660010568,0.9999984947756775,37.85018270618373,1.829482772370675,283.0529026936911,-49.56195740647661,-90.01612091064453,5625.0322265625
1594283846.587599,0.0,10.0,0.5,0.5,0.006694783020019532,-0.14,-0.011,-0.56,0.0021807489604161318,10.0,1.0,100.0,0.016803263496322426,-10.0,-1.0,-100.0,12381.58831074764,-0.0017042412010793565,0.00018784151160110388,0.9999985301376673,38.03425923728009,1.8388222281750233,286.6691619600049,-49.93472391026662,-90.0226821899414,5625.0322265625
1594283846.6300068,0.0,10.0,0.5,0.5,0.006927390289306641,-0.14,-0.011,-0.56,0.0020690249710131467,10.0,1.0,100.0,0.01673569309184435,-10.0,-1.0,-100.0,12379.573662075214,-0.0016849692036373285,0.0001880858544964126,0.9999985627502141,38.21835491527841,1.8481699396042233,290.30916962197216,-50.307466184896654,-90.0281753540039,5625.0322265625
1594283846.6738875,0.0,10.0,0.5,0.5,0.00795080261230469,-0.14,-0.011,-0.56,0.0018218950296223703,10.0,1.0,100.0,0.015799101954125844,-10.0,-1.0,-100.0,12376.555107712513,-0.0016591619896784583,0.00018600117369588952,0.9999986062915565,38.494487239057506,1.862204584014022,295.81344024634194,-50.86653393651294,-90.033935546875,5625.0322265625
1594283846.715775,0.0,10.0,0.5,0.5,0.006211614990234375,-0.14,-0.011,-0.56,0.001652553062823053,10.0,1.0,100.0,0.01669712895800679,-10.0,-1.0,-100.0,12374.501396544045,-0.001644088753744002,0.0001825203595792615,0.9999986318283081,38.678532707934465,1.8715679529111666,299.5122478550458,-51.23921495967569,-90.03595733642578,5625.0322265625
1594283846.7606554,0.0,10.0,0.5,0.5,0.005484896087646485,-0.14,-0.011,-0.56,0.0015131105834248074,10.0,1.0,100.0,0.016776196700919704,-10.0,-1.0,-100.0,12372.421318458975,-0.0016313162723040537,0.00017805601872460862,0.9999986535507306,38.86255312775674,1.8809372393484325,303.2346058999218,-51.61187125984303,-90.03643798828125,5625.0322265625
1594283846.7995517,0.0,10.0,0.5,0.5,0.004440673065185548,-0.14,-0.011,-0.56,0.001326337804779045,10.0,1.0,100.0,0.01679354234071298,-10.0,-1.0,-100.0,12370.36565427843,-0.00162006053009508,0.00017228058984909543,0.999998672860758,39.04656521648841,1.89031311444801,306.98067531224393,-51.98450280471735,-90.03524017333984,5625.0322265625
1594283846.8404725,0.0,10.0,0.5,0.5,0.0033609771728515627,-0.14,-0.011,-0.56,0.0011741110653893426,10.0,1.0,100.0,0.01687814531772932,-10.0,-1.0,-100.0,12368.260185776628,-0.0016107808722988152,0.00016564059334302298,0.9999986889732283,39.23055394795665,1.8996947722267155,310.75037905334005,-52.35710944110541,-90.03266143798828,5625.0322265625
1594283846.9162402,0.0,10.0,0.5,0.5,0.0022637779235839847,-0.14,-0.011,-0.56,0.0009840251911415326,10.0,1.0,100.0,0.017008398419823385,-10.0,-1.0,-100.0,12366.179130925215,-0.0016036971457054562,0.00015788318620584037,0.9999987016133394,39.41458972854352,1.9090855404138574,314.54431555693486,-52.72969091995162,-90.02896881103516,5625.0322265625
1594283846.9551368,0.0,10.0,0.5,0.5,-0.0006042701721191406,-0.14,-0.011,-0.56,0.00021537265766586157,10.0,1.0,100.0,0.016941436472208752,-10.0,-1.0,-100.0,12362.98479488166,-0.0015968007040901885,0.00014386260871274132,0.9999987147647047,39.69078135816629,1.9231911415880072,320.28118007724845,-53.28851572603983,-90.0218734741211,5625.0322265625
1594283846.997257,0.0,10.0,0.5,0.5,-0.0004029235839843751,-0.14,-0.011,-0.56,0.0004520063026858608,10.0,1.0,100.0,0.01737192043755248,-10.0,-1.0,-100.0,12360.833427496254,-0.0015945816063130725,0.00013330374983344713,0.999998719768986,39.875113862271796,1.9326132992470253,324.13739806875816,-53.66103361365074,-90.01646423339844,5625.0322265625
1594283847.0373845,0.0,10.0,0.5,0.5,-0.0012933540344238282,-0.14,-0.011,-0.56,0.00027554701560527544,10.0,1.0,100.0,0.017562302759736182,-10.0,-1.0,-100.0,12358.667412161827,-0.0015944135778468078,0.00012214885849405315,0.9999987214616822,40.05962072626573,1.9420506501064447,328.01909288105594,-54.033526023571426,-90.0108642578125,5625.0322265625
1594283847.082264,0.0,10.0,0.5,0.5,-0.0018446838378906251,-0.14,-0.011,-0.56,3.7774191668883206e-05,10.0,1.0,100.0,0.017775257241822974,-10.0,-1.0,-100.0,12356.51995128009,-0.0015962966178266584,0.00010990619765255237,0.9999987198780484,40.24440888173013,1.9515084847502426,331.92723207080525,-54.40599250556948,-90.005615234375,5625.0322265625
1594283847.120172,0.0,10.0,0.5,0.5,-0.0022625663757324223,-0.14,-0.011,-0.56,-0.00013349557071450405,10.0,1.0,100.0,0.017991966240010603,-10.0,-1.0,-100.0,12354.322685600608,-0.0016000591655971471,9.729058055392438e-05,0.9999987151717793,40.42953905038744,1.9609897521986202,335.86240203666256,-54.778432943315416,-90.0008544921875,5625.0322265625
1594283847.1620598,0.0,10.0,0.5,0.5,-0.002479467010498047,-0.14,-0.011,-0.56,-0.0003619016314712505,10.0,1.0,100.0,0.01829179349272931,-10.0,-1.0,-100.0,12352.11370140221,-0.0016062590957078354,8.382606499660302e-05,0.9999987064516176,40.615052436386534,1.9704965971074524,339.8250625828342,-55.15084731368926,-89.99678802490234,5625.0322265625
1594283847.2029831,0.0,10.0,0.5,0.5,-0.0025043952941894536,-0.14,-0.011,-0.56,-0.0005834866130427334,10.0,1.0,100.0,0.018525446438402766,-10.0,-1.0,-100.0,12349.921318625566,-0.0016140539040946163,6.966090947073618e-05,0.9999986949878247,40.80094748619184,1.9800290264443652,343.81531098613766,-55.52323551247835,-89.99356079101562,5625.0322265625
1594283847.2458358,0.0,10.0,0.5,0.5,-0.0023251197814941407,-0.14,-0.011,-0.56,-0.0007818798185238671,10.0,1.0,100.0,0.018798352311969913,-10.0,-1.0,-100.0,12347.684990382055,-0.001623636749086127,5.507846176944136e-05,0.9999986803841643,40.98723339969393,1.9895875931298674,347.83333545731426,-55.89559729350383,-89.99130249023438,5625.0322265625
1594283847.2847703,0.0,10.0,0.5,0.5,-0.0019632949829101565,-0.14,-0.011,-0.56,-0.0010229633861053894,10.0,1.0,100.0,0.019120716645723023,-10.0,-1.0,-100.0,12345.403740558773,-0.0016352757600952641,3.9736569724868276e-05,0.9999986621462018,41.173948979185184,1.9991743636065666,351.879590514872,-56.26793238311217,-89.99008178710938,5625.0322265625
1594283847.3356185,0.0,10.0,0.5,0.5,-0.0014547126770019531,-0.14,-0.011,-0.56,-0.001208701341509588,10.0,1.0,100.0,0.01942652474824381,-10.0,-1.0,-100.0,12343.167412409675,-0.0016486144847739446,2.421532647487108e-05,0.9999986407410255,41.36106597222042,2.0087880964569957,355.9539557543997,-56.64024058642363,-89.98989868164062,5625.0322265625
1594283847.3764846,0.0,10.0,0.5,0.5,-0.0008183685302734376,-0.14,-0.011,-0.56,-0.0014166000851271014,10.0,1.0,100.0,0.019782334427000274,-10.0,-1.0,-100.0,12340.888116008718,-0.0016639343976168324,8.336632996288023e-06,0.9999986156254523,41.54862094515611,2.0184306908605434,360.05686302226655,-57.01252195552725,-89.99072265625,5625.0322265625
1594283847.418403,0.0,10.0,0.5,0.5,-9.640884399414072e-05,-0.14,-0.011,-0.56,-0.0016102604239355215,10.0,1.0,100.0,0.020100842020526553,-10.0,-1.0,-100.0,12338.58147546975,-0.0016806960840573997,-7.735885995485433e-06,0.9999985875994172,41.7365633648782,2.0280998639483765,364.1880013697757,-57.38477598924139,-89.99246215820312,5625.0322265625
1594283847.4582663,0.0,10.0,0.5,0.5,0.0006761390686035157,-0.14,-0.011,-0.56,-0.0018014716342691858,10.0,1.0,100.0,0.020475222393429804,-10.0,-1.0,-100.0,12336.303155081929,-0.0016992591528681774,-2.395733277665013e-05,0.9999985559711462,41.92490318590445,2.0377961812496697,368.34756764741496,-57.75700281649091,-89.9949951171875,5625.0322265625
1594283847.5001547,0.0,10.0,0.5,0.5,0.0014512245178222658,-0.14,-0.011,-0.56,-0.0019979692281011712,10.0,1.0,100.0,0.020826089005931993,-10.0,-1.0,-100.0,12333.953545901924,-0.0017192290522870667,-4.035762052957181e-05,0.9999985213102708,42.11351180562722,2.0475135887403697,372.5345561165037,-58.12920208268149,-89.99815368652344,5625.0322265625
1594283847.5414965,0.0,10.0,0.5,0.5,0.002200310516357422,-0.14,-0.011,-0.56,-0.0021868563894717036,10.0,1.0,100.0,0.021233299134432858,-10.0,-1.0,-100.0,12331.628350368235,-0.0017409736598047371,-5.684752557361261e-05,0.9999984828883867,42.3024686412753,2.0572560325941938,376.7497659969028,-58.50137373634027,-90.00176239013672,5625.0322265625
1594283847.583713,0.0,10.0,0.5,0.5,0.0028667449951171875,-0.14,-0.011,-0.56,-0.0023949734497980537,10.0,1.0,100.0,0.02160183347174354,-10.0,-1.0,-100.0,12329.28167103394,-0.0017639636928925278,-7.359019606559149e-05,0.9999984415070722,42.49164226686087,2.0670171909802826,380.9921276602681,-58.873517638057294,-90.00559997558594,5625.0322265625
1594283847.6219637,0.0,10.0,0.5,0.5,0.003456424713134766,-0.14,-0.011,-0.56,-0.002520834406777721,10.0,1.0,100.0,0.02200170012472191,-10.0,-1.0,-100.0,12326.913507187855,-0.0017883555065474274,-8.981189042987636e-05,0.9999983968579182,42.68103659253559,2.07679738524934,385.26177346740394,-59.245633433706026,-90.0094985961914,5625.0322265625
1594283847.6641018,0.0,10.0,0.5,0.5,0.0039022705078125006,-0.14,-0.011,-0.56,-0.0026973283073937456,10.0,1.0,100.0,0.02238795559358128,-10.0,-1.0,-100.0,12324.538507363759,-0.0018138828399483734,-0.00010601840003946226,0.9999983492932085,42.870588501873186,2.086593587991789,389.5582173728566,-59.61772104898304,-90.01322937011719,5625.0322265625
1594283847.7083218,0.0,10.0,0.5,0.5,0.004229734802246094,-0.14,-0.011,-0.56,-0.002882071264001768,10.0,1.0,100.0,0.02278807213047969,-10.0,-1.0,-100.0,12322.144952933071,-0.001840553978747526,-0.00012228462032478702,0.9999982987023143,43.06021971603198,2.0964019606545437,393.880808838394,-59.989780375268666,-90.01664733886719,5625.0322265625
1594283847.748215,0.0,10.0,0.5,0.5,0.004390335083007813,-0.14,-0.011,-0.56,-0.0030101390795888713,10.0,1.0,100.0,0.02318666422205876,-10.0,-1.0,-100.0,12319.710382577614,-0.0018682374164714268,-0.00013808905418946532,0.999998245308645,43.24999111317268,2.10622557543424,398.2301893164033,-60.36181116347914,-90.01956939697266,5625.0322265625
1594283847.7887745,0.0,10.0,0.5,0.5,0.004426177215576172,-0.14,-0.011,-0.56,-0.003187669957114024,10.0,1.0,100.0,0.023614211760218884,-10.0,-1.0,-100.0,12317.292414053576,-0.001897091316629431,-0.00015392308897061577,0.999998188674469,43.439729656511695,2.11605599641151,402.60482802988435,-60.7338132326762,-90.02191162109375,5625.0322265625
1594283847.8290184,0.0,10.0,0.5,0.5,0.0043077445983886724,-0.14,-0.011,-0.56,-0.0032770126653343676,10.0,1.0,100.0,0.024019108318147294,-10.0,-1.0,-100.0,12314.855890846113,-0.0019267910519187726,-0.00016898236364460393,0.9999981294588521,43.62950192839092,2.125896427614931,407.00538437863275,-61.1057866217213,-90.02356719970703,5625.0322265625
1594283847.8719032,0.0,10.0,0.5,0.5,0.004077067565917969,-0.14,-0.011,-0.56,-0.0034256949687196375,10.0,1.0,100.0,0.024411600187115103,-10.0,-1.0,-100.0,12312.416437899927,-0.001957135196474371,-0.00018387768294477825,0.9999980679035436,43.81926247493536,2.1357446785100516,411.43149356512214,-61.4777308382363,-90.0245132446289,5625.0322265625
1594283847.9167833,0.0,10.0,0.5,0.5,0.0037186073303222657,-0.14,-0.011,-0.56,-0.003548006178352968,10.0,1.0,100.0,0.024831490622954807,-10.0,-1.0,-100.0,12309.938898800174,-0.0019883035354474523,-0.00019838542025963233,0.9999980036441453,44.00899394360552,2.145599924856607,415.8830506319736,-61.84964593918643,-90.02471160888672,5625.0322265625
1594283847.9536843,0.0,10.0,0.5,0.5,0.0033002807617187506,-0.14,-0.011,-0.56,-0.0036335376572590953,10.0,1.0,100.0,0.02524572880108193,-10.0,-1.0,-100.0,12307.451594414772,-0.0020201595775121723,-0.0002122081696270735,0.999997936959359,44.19866975784341,2.1554607679489255,420.3598301668667,-62.22153184117144,-90.02423095703125,5625.0322265625
1594283847.9936154,0.0,10.0,0.5,0.5,0.0028037559509277343,-0.14,-0.011,-0.56,-0.00372990543140987,10.0,1.0,100.0,0.025622624069846334,-10.0,-1.0,-100.0,12304.946711839526,-0.002052292130998224,-0.00022550913914061484,0.9999978686190473,44.388280004337595,2.16532676071464,424.8617905593904,-62.59338836656085,-90.02310180664062,5625.0322265625
1594283848.037502,0.0,10.0,0.5,0.5,0.0022964271545410156,-0.14,-0.011,-0.56,-0.003827281740575268,10.0,1.0,100.0,0.026048977424411136,-10.0,-1.0,-100.0,12302.422298149322,-0.002085117366083309,-0.00023834806065163328,0.9999977977354609,44.57783866071811,2.175198602908136,429.3891106863668,-62.96521529569274,-90.02144622802734,5625.0322265625
1594283848.0803776,0.0,10.0,0.5,0.5,0.001794738006591797,-0.14,-0.011,-0.56,-0.003890210534361437,10.0,1.0,100.0,0.02641608119493319,-10.0,-1.0,-100.0,12299.917415688862,-0.002118026012384009,-0.0002504568545413227,0.9999977256160011,44.76740316434753,2.1850790456797204,433.94237986440686,-63.33701254984469,-90.0193862915039,5625.0322265625
1594283848.119244,0.0,10.0,0.5,0.5,0.0012994964599609376,-0.14,-0.011,-0.56,-0.003989678260564034,10.0,1.0,100.0,0.0268228447784516,-10.0,-1.0,-100.0,12297.369564260938,-0.0021513643205325985,-0.0002622377933569714,0.9999976514286923,44.956898769203264,2.1949644798015377,438.5209278250182,-63.70877987319359,-90.01702117919922,5625.0322265625
1594283848.1601336,0.0,10.0,0.5,0.5,0.000872661590576172,-0.14,-0.011,-0.56,-0.004049361627596438,10.0,1.0,100.0,0.027187328093991492,-10.0,-1.0,-100.0,12294.794369093841,-0.0021847028032255106,-0.0002733630836414628,0.9999975761702055,45.14634626670143,2.204855990895604,443.1250069419387,-64.08051709141107,-90.01451873779297,5625.0322265625
1594283848.2030172,0.0,10.0,0.5,0.5,0.0005114234924316406,-0.14,-0.011,-0.56,-0.004031588798310419,10.0,1.0,100.0,0.027562457137844203,-10.0,-1.0,-100.0,12292.226986641763,-0.002218133082993406,-0.00028319243633435296,0.9999974998407096,45.33576263893201,2.2147543959595364,447.7548201302213,-64.45222423665955,-90.01200866699219,5625.0322265625
1594283848.2459023,0.0,10.0,0.5,0.5,0.00023991012573242173,-0.14,-0.011,-0.56,-0.004132929152449098,10.0,1.0,100.0,0.027904340505697976,-10.0,-1.0,-100.0,12289.653744684649,-0.0022513404208843782,-0.00029293196986791045,0.9999974228252644,45.5252037304546,2.2246625406434726,452.41098073511404,-64.82390083881887,-90.00962829589844,5625.0322265625
1594283848.2838008,0.0,10.0,0.5,0.5,6.756439208984366e-05,-0.14,-0.011,-0.56,-0.004144379982271436,10.0,1.0,100.0,0.028263579516762893,-10.0,-1.0,-100.0,12287.035580664175,-0.0022844996741867925,-0.00030177750825478096,0.9999973449922624,45.71463290335546,2.2345786438132285,457.0931700542826,-65.19554696194237,-90.00749969482422,5625.0322265625
1594283848.3266869,0.0,10.0,0.5,0.5,7.192993164062541e-06,-0.14,-0.011,-0.56,-0.004165942845452032,10.0,1.0,100.0,0.0286423938220558,-10.0,-1.0,-100.0,12284.397885787184,-0.002317790612257366,-0.0003099077511578414,0.9999972658981942,45.90404544531633,2.244502611877636,461.801402409261,-65.56716218456248,-90.0057373046875,5625.0322265625
1594283848.3676085,0.0,10.0,0.5,0.5,3.865890502929674e-05,-0.14,-0.011,-0.56,-0.004179720342735501,10.0,1.0,100.0,0.028951872124544382,-10.0,-1.0,-100.0,12281.781674602302,-0.0023505690068197746,-0.0003173227471078386,0.9999971870618529,46.09350145778472,2.254437410574141,466.5363254694514,-65.93874652637307,-90.00440216064453,5625.0322265625
1594283848.4104621,0.0,10.0,0.5,0.5,0.0001663833618164063,-0.14,-0.011,-0.56,-0.004180768441750622,10.0,1.0,100.0,0.029257778388763964,-10.0,-1.0,-100.0,12279.119565847446,-0.0023828481411609535,-0.00032397762198299097,0.9999971085324382,46.28297408891411,2.2643818787526557,471.29774006359486,-66.31030006752104,-90.00354766845703,5625.0322265625
1594283848.4483604,0.0,10.0,0.5,0.5,0.0003830635070800781,-0.14,-0.011,-0.56,-0.004180169710521944,10.0,1.0,100.0,0.029572636832764294,-10.0,-1.0,-100.0,12276.457456837408,-0.0024147546527709713,-0.00032993254841937573,0.99999703004783,46.47239768162224,2.27433286570803,476.085021125673,-66.6818223587006,-90.00320434570312,5625.0322265625
1594283848.4890394,0.0,10.0,0.5,0.5,0.0006834320068359375,-0.14,-0.011,-0.56,-0.004175076951558796,10.0,1.0,100.0,0.02986205131314812,-10.0,-1.0,-100.0,12273.79632416938,-0.0024460919428865788,-0.00033521656147299895,0.9999969521273873,46.66186521480743,2.284295099256953,480.89918674321996,-67.0533132265675,-90.00338745117188,5625.0322265625
1594283848.5329275,0.0,10.0,0.5,0.5,0.0010225837707519532,-0.14,-0.011,-0.56,-0.004123324199834583,10.0,1.0,100.0,0.030154239372499975,-10.0,-1.0,-100.0,12271.090269833105,-0.0024769384017762366,-0.0003394726758634075,0.9999968747623446,46.851244036403806,2.294262161823954,485.7389178890089,-67.42477244976988,-90.00404357910156,5625.0322265625
1594283848.5748155,0.0,10.0,0.5,0.5,0.0014206008911132814,-0.14,-0.011,-0.56,-0.004101457038111327,10.0,1.0,100.0,0.03040371594479699,-10.0,-1.0,-100.0,12268.387144878623,-0.0025069526295320404,-0.0003430728648549253,0.9999967987396373,47.04067074719432,2.304240818691611,490.6056732047583,-67.79620013296825,-90.00515747070312,5625.0322265625
1594283848.612715,0.0,10.0,0.5,0.5,0.0018065742492675782,-0.14,-0.011,-0.56,-0.004057593303880718,10.0,1.0,100.0,0.03070040618389309,-10.0,-1.0,-100.0,12265.655700033181,-0.002536642520732457,-0.00034588363018946914,0.9999967228992485,47.23000388641402,2.3142243231644266,495.49804826008796,-68.16759580639497,-90.0066146850586,5625.0322265625
1594283848.6555994,0.0,10.0,0.5,0.5,0.002212933349609375,-0.14,-0.011,-0.56,-0.00401983415404022,10.0,1.0,100.0,0.03092699412832874,-10.0,-1.0,-100.0,12262.932067336049,-0.0025654036672843063,-0.0003480386144097271,0.9999966487809581,47.419261936662906,2.3242136410295084,500.4162701616353,-68.53895947495535,-90.00836944580078,5625.0322265625
1594283848.6954932,0.0,10.0,0.5,0.5,0.0025907295227050784,-0.14,-0.011,-0.56,-0.003958343514433941,10.0,1.0,100.0,0.03115977320496692,-10.0,-1.0,-100.0,12260.176208249992,-0.0025933808255314255,-0.00034938858820941196,0.9999965761458928,47.60843428224262,2.3342083050576456,505.36026373386477,-68.91029100321695,-90.01031494140625,5625.0322265625
1594283848.743372,0.0,10.0,0.5,0.5,0.002924942016601563,-0.14,-0.011,-0.56,-0.003917639700963007,10.0,1.0,100.0,0.03139667120954065,-10.0,-1.0,-100.0,12257.408630299848,-0.0026206874229328,-0.00035020251965034004,0.9999965046717046,47.79745825424582,2.3442053374829293,510.3294013491616,-69.28159025840662,-90.01234436035156,5625.0322265625
1594283848.779273,0.0,10.0,0.5,0.5,0.0032056472778320315,-0.14,-0.011,-0.56,-0.0038740496250835327,10.0,1.0,100.0,0.03158485828543324,-10.0,-1.0,-100.0,12254.60980220267,-0.0026469470332506407,-0.00035050955229910444,0.9999964354008752,47.98638814278112,2.354207481896437,515.3242998280706,-69.65285694113898,-90.01435852050781,5625.0322265625
1594283848.8201668,0.0,10.0,0.5,0.5,0.0034238136291503906,-0.14,-0.011,-0.56,-0.003765723511771533,10.0,1.0,100.0,0.031772012613361406,-10.0,-1.0,-100.0,12251.816833986086,-0.002672251374678542,-0.0003497737202176982,0.9999963683588734,48.17512629902342,2.3642100072024337,520.3439455989835,-70.02409095487603,-90.01626586914062,5625.0322265625
1594283848.8610573,0.0,10.0,0.5,0.5,0.003581999206542969,-0.14,-0.011,-0.56,-0.003687178925743913,10.0,1.0,100.0,0.03197930433277666,-10.0,-1.0,-100.0,12249.017029146897,-0.0026968766977590298,-0.00034836728927231897,0.9999963027413196,48.3637023925488,2.374214419724689,525.3886815333342,-70.39529202343226,-90.01799774169922,5625.0322265625
1594283848.905984,0.0,10.0,0.5,0.5,0.0036538139343261725,-0.14,-0.011,-0.56,-0.003647080315605472,10.0,1.0,100.0,0.032127985340787285,-10.0,-1.0,-100.0,12246.180115242722,-0.002720358526045944,-0.00034670742401084935,0.999996239714656,48.55206083538116,2.384217998700678,530.457923763365,-70.7664602096936,-90.01946258544922,5625.0322265625
1594283848.9438486,0.0,10.0,0.5,0.5,0.0036682922363281256,-0.14,-0.011,-0.56,-0.0035513102452095413,10.0,1.0,100.0,0.03229191673570071,-10.0,-1.0,-100.0,12243.33734204364,-0.002742946594821298,-0.0003443173723490614,0.999996178837462,48.74019824467176,2.394220601176331,535.5516504662573,-71.13759529647722,-90.0206298828125,5625.0322265625
1594283848.9847364,0.0,10.0,0.5,0.5,0.0036042922973632814,-0.14,-0.011,-0.56,-0.00347545348180227,10.0,1.0,100.0,0.03240269181335506,-10.0,-1.0,-100.0,12240.475037660566,-0.0027642464233293457,-0.0003414505869014738,0.9999961211690813,48.92808771474187,2.404220963568356,540.6695881774788,-71.50869693125327,-90.02144622802734,5625.0322265625
1594283849.0256572,0.0,10.0,0.5,0.5,0.003496172332763672,-0.14,-0.011,-0.56,-0.003364644845933797,10.0,1.0,100.0,0.03254456354265671,-10.0,-1.0,-100.0,12237.614685979555,-0.002784665743335952,-0.0003378385418757294,0.9999960657431696,49.115779989286814,2.4142215736747343,545.8123073438502,-71.87976522101675,-90.02191925048828,5625.0322265625
1594283849.070507,0.0,10.0,0.5,0.5,0.0033175422668457032,-0.14,-0.011,-0.56,-0.0032851401583369353,10.0,1.0,100.0,0.03268148824814497,-10.0,-1.0,-100.0,12234.727968002087,-0.0028042480559167565,-0.00033383940840900274,0.9999960123640946,49.30319348107791,2.4242184211703766,550.9789147069085,-72.25079996319948,-90.02201843261719,5625.0322265625
1594283849.1088119,0.0,10.0,0.5,0.5,0.0031114562988281253,-0.14,-0.011,-0.56,-0.0031863281061717697,10.0,1.0,100.0,0.03277686852065713,-10.0,-1.0,-100.0,12231.821718018153,-0.0028227001203870237,-0.00032931844951593223,0.9999959619485417,49.49044969478659,2.4342174656013498,556.170775865598,-72.62180108179373,-90.02178192138672,5625.0322265625
1594283849.1496913,0.0,10.0,0.5,0.5,0.002904038238525391,-0.14,-0.011,-0.56,-0.0031047350994632492,10.0,1.0,100.0,0.032886944244692205,-10.0,-1.0,-100.0,12228.920350905042,-0.0028402669407649895,-0.00032448497786005746,0.9999959137882538,49.67740608287779,2.444211868644137,561.386339179166,-72.99276805334695,-90.02127838134766,5625.0322265625
1594283849.191963,0.0,10.0,0.5,0.5,0.002656449890136719,-0.14,-0.011,-0.56,-0.0029816636643189504,10.0,1.0,100.0,0.032923614490263924,-10.0,-1.0,-100.0,12225.988710390287,-0.002856370525597581,-0.0003189954610732143,0.9999958696861283,49.864192511507504,2.4542078994270753,566.6270550230868,-73.36370105380882,-90.0205078125,5625.0322265625
1594283849.2358017,0.0,10.0,0.5,0.5,0.002421820068359375,-0.14,-0.011,-0.56,-0.0028957637741380314,10.0,1.0,100.0,0.033053065122218776,-10.0,-1.0,-100.0,12223.03167934774,-0.002871996587106484,-0.00031325273234828117,0.9999958267454566,50.05077178296194,2.464203803411071,571.8925364270889,-73.73459977616565,-90.01954650878906,5625.0322265625
1594283849.2737029,0.0,10.0,0.5,0.5,0.002221418762207031,-0.14,-0.011,-0.56,-0.002798620867819734,10.0,1.0,100.0,0.03307458777294995,-10.0,-1.0,-100.0,12220.08246085816,-0.002886216171473563,-0.000307182153438966,0.9999957876887963,50.23713921344299,2.4741993858418203,577.1827491674144,-74.10546419325772,-90.01848602294922,5625.0322265625
1594283849.3145933,0.0,10.0,0.5,0.5,0.0020254226684570317,-0.14,-0.011,-0.56,-0.002732160112122496,10.0,1.0,100.0,0.033155718730939115,-10.0,-1.0,-100.0,12217.108828085591,-0.0028997084937219773,-0.0003010966976840076,0.999995750506686,50.4233597419956,2.4841978563353577,582.4984586983794,-74.47629409571255,-90.0173568725586,5625.0322265625
1594283849.3578517,0.0,10.0,0.5,0.5,0.0018970687866210936,-0.14,-0.011,-0.56,-0.0026192035460274017,10.0,1.0,100.0,0.033201106848796486,-10.0,-1.0,-100.0,12214.112734046299,-0.0029122238150486248,-0.000294579051602569,0.9999957160786408,50.609401106988024,2.4941976818462415,587.8393226110193,-74.84708929388589,-90.01627349853516,5625.0322265625
1594283849.4011183,0.0,10.0,0.5,0.5,0.001794010162353516,-0.14,-0.011,-0.56,-0.002511344140048258,10.0,1.0,100.0,0.033226560407688066,-10.0,-1.0,-100.0,12211.093203320052,-0.00292367888749893,-0.0002877185954021294,0.9999956846505752,50.795299199482365,2.50420073202975,593.2057960637337,-75.21784953642465,-90.01526641845703,5625.0322265625
1594283849.4729276,0.0,10.0,0.5,0.5,0.001742351531982422,-0.14,-0.011,-0.56,-0.0024111662729846637,10.0,1.0,100.0,0.03326113618660551,-10.0,-1.0,-100.0,12208.073672239087,-0.0029342619763855758,-0.0002806199564206965,0.9999956556701105,50.98107511777341,2.5142080672694505,598.5981485670651,-75.58857476430943,-90.01439666748047,5625.0322265625
1594283849.5141933,0.0,10.0,0.5,0.5,0.0017565071105957034,-0.14,-0.011,-0.56,-0.0023459421286469765,10.0,1.0,100.0,0.03329662189139958,-10.0,-1.0,-100.0,12205.057070687064,-0.0029440695670233364,-0.0002736257183849195,0.9999956287821216,51.16674020847294,2.5242203111175527,604.016552569822,-75.95926483974321,-90.01373291015625,5625.0322265625
1594283849.5590422,0.0,10.0,0.5,0.5,0.0017879814147949218,-0.14,-0.011,-0.56,-0.002235518531638673,10.0,1.0,100.0,0.033289657712776206,-10.0,-1.0,-100.0,12202.015078500379,-0.0029527951373328094,-0.00026631820900688676,0.9999956050280863,51.35229659931178,2.5342376619036426,609.4610761566706,-76.32991963439025,-90.01325988769531,5625.0322265625
1594283849.5979378,0.0,10.0,0.5,0.5,0.001904644775390625,-0.14,-0.011,-0.56,-0.002124996894795966,10.0,1.0,100.0,0.033291610196540755,-10.0,-1.0,-100.0,12198.92718840274,-0.0029606269556329665,-0.00025872754945602245,0.9999955838642913,51.53773840535701,2.5442599238990318,614.9316948812889,-76.70053893911623,-90.0130615234375,5625.0322265625
1594283849.6373527,0.0,10.0,0.5,0.5,0.0020333930969238284,-0.14,-0.011,-0.56,-0.0020884397088291842,10.0,1.0,100.0,0.03332798227169732,-10.0,-1.0,-100.0,12195.866641445667,-0.0029679680274846527,-0.00025155439129045145,0.9999955639332487,51.723163729691564,2.554291983732923,620.4296162393977,-77.07112249790146,-90.01309967041016,5625.0322265625
1594283849.6792395,0.0,10.0,0.5,0.5,0.002212164306640625,-0.14,-0.011,-0.56,-0.0019820745890949953,10.0,1.0,100.0,0.033306538444747055,-10.0,-1.0,-100.0,12192.754336777376,-0.002974345333012195,-0.00024412769284215134,0.9999955468258396,51.90847823094836,2.5643293034541905,625.9537722112948,-77.441670296135,-90.01339721679688,5625.0322265625
1594283849.7221208,0.0,10.0,0.5,0.5,0.0023965927124023436,-0.14,-0.011,-0.56,-0.0019074542818958884,10.0,1.0,100.0,0.03330054835945569,-10.0,-1.0,-100.0,12189.648868291639,-0.0029799953838564883,-0.00023676062331416493,0.9999955317759773,52.093724858823514,2.574374066228228,631.5047196875628,-77.81218202583334,-90.01390838623047,5625.0322265625
1594283849.7628176,0.0,10.0,0.5,0.5,0.002607316589355469,-0.14,-0.011,-0.56,-0.0018316747783624588,10.0,1.0,100.0,0.03329943718247243,-10.0,-1.0,-100.0,12186.537539841607,-0.002985036438276559,-0.00022943840237489593,0.9999955184476986,52.27890873606099,2.5844266328886505,637.0825795439473,-78.18265747971434,-90.0146255493164,5625.0322265625
1594283849.8027096,0.0,10.0,0.5,0.5,0.002827548217773438,-0.14,-0.011,-0.56,-0.0017578428761819529,10.0,1.0,100.0,0.0332692254424269,-10.0,-1.0,-100.0,12183.40668053797,-0.00298926699198116,-0.00022217578267874597,0.9999955074502945,52.46405230025136,2.5944881381132587,642.6876628211761,-78.55309665253026,-90.01551818847656,5625.0322265625
1594283849.8445976,0.0,10.0,0.5,0.5,0.0030317955017089846,-0.14,-0.011,-0.56,-0.0016730626707316511,10.0,1.0,100.0,0.03327201607736503,-10.0,-1.0,-100.0,12180.23382941878,-0.002993068280051205,-0.0002148684931499013,0.9999954976767653,52.64913216421687,2.604557508710988,648.3197435955659,-78.9234992032776,-90.01652526855469,5625.0322265625
1594283849.888893,0.0,10.0,0.5,0.5,0.003227577209472656,-0.14,-0.011,-0.56,-0.001625477736925668,10.0,1.0,100.0,0.033256740092199075,-10.0,-1.0,-100.0,12177.07757940155,-0.0029963220426201444,-0.00020785913972749012,0.9999954894142249,52.83416205507925,2.6146354948027355,653.9790428104492,-79.29386513106199,-90.01760864257812,5625.0322265625
1594283849.9287646,0.0,10.0,0.5,0.5,0.0034094856262207036,-0.14,-0.011,-0.56,-0.0015759649878277027,10.0,1.0,100.0,0.03326803434431195,-10.0,-1.0,-100.0,12173.903751139529,-0.002999326265369084,-0.0002011030305486741,0.9999954817895553,53.01912245055273,2.624721225557902,659.6653819235478,-79.66419405294045,-90.01873016357422,5625.0322265625
1594283849.9680254,0.0,10.0,0.5,0.5,0.0035452926635742192,-0.14,-0.011,-0.56,-0.001497886210024014,10.0,1.0,100.0,0.03322745594791031,-10.0,-1.0,-100.0,12170.686954660807,-0.0030016382490841544,-0.00019431723575865896,0.9999954761940844,53.204002643906556,2.634814209612397,665.3786757666065,-80.03448596401637,-90.01981353759766,5625.0322265625
1594283850.0101404,0.0,10.0,0.5,0.5,0.0036721305847167976,-0.14,-0.011,-0.56,-0.0014588823657961905,10.0,1.0,100.0,0.0332043898197707,-10.0,-1.0,-100.0,12167.488712244318,-0.00300348595755863,-0.00018785920643225428,0.9999954718802587,53.38891199074437,2.6449197966005644,671.1203215429169,-80.40474073694057,-90.0208511352539,5625.0322265625
1594283850.053237,0.0,10.0,0.5,0.5,0.0037405136108398435,-0.14,-0.011,-0.56,-0.0014085462045243823,10.0,1.0,100.0,0.033211257068685614,-10.0,-1.0,-100.0,12164.244571652962,-0.0030051891593419924,-0.0001815950949812552,0.9999954679203991,53.57373033180312,2.655032211066898,676.8889035950801,-80.77495801630214,-90.02176666259766,5625.0322265625
1594283850.0941603,0.0,10.0,0.5,0.5,0.003792771911621094,-0.14,-0.011,-0.56,-0.0013880459102256896,10.0,1.0,100.0,0.03316938760812245,-10.0,-1.0,-100.0,12161.00140753761,-0.003006323055747332,-0.00017577768125609446,0.9999954655516651,53.7584789640949,2.6651525053861715,682.6847316789111,-81.14513770483883,-90.0225601196289,5625.0322265625
1594283850.1340206,0.0,10.0,0.5,0.5,0.0037964424133300786,-0.14,-0.011,-0.56,-0.0013050343315417524,10.0,1.0,100.0,0.03318634375068266,-10.0,-1.0,-100.0,12157.760196891148,-0.0030074789467547927,-0.00016979660898299077,0.9999954631094566,53.9432224100526,2.6752839699874875,688.5086955510027,-81.51527964591058,-90.02318572998047,5625.0322265625
1594283850.1759088,0.0,10.0,0.5,0.5,0.003782080841064454,-0.14,-0.011,-0.56,-0.0013106539416960893,10.0,1.0,100.0,0.03312981099412426,-10.0,-1.0,-100.0,12154.472110859933,-0.003007990837553864,-0.00016447123429460064,0.9999954624598726,54.12790651638525,2.685423850624697,694.3601440790341,-81.88538355860601,-90.02365112304688,5625.0322265625
1594283850.2187943,0.0,10.0,0.5,0.5,0.0037289901733398444,-0.14,-0.011,-0.56,-0.0012722034418486225,10.0,1.0,100.0,0.03316617591657366,-10.0,-1.0,-100.0,12151.185978156282,-0.0030087659153941256,-0.00015933949564116018,0.9999954609589944,54.312579880856916,2.6955746857152403,700.2397813650092,-82.25544937631733,-90.02393341064453,5625.0322265625
1594283850.2576907,0.0,10.0,0.5,0.5,0.0036549339294433595,-0.14,-0.011,-0.56,-0.0012702928814340626,10.0,1.0,100.0,0.03316049512810551,-10.0,-1.0,-100.0,12147.899845116073,-0.003009401161787005,-0.00015471403384975248,0.9999954597738008,54.49727348284564,2.70573799041752,706.1480641661306,-82.6254767928451,-90.02404022216797,5625.0322265625
1594283850.2985797,0.0,10.0,0.5,0.5,0.003582023620605469,-0.14,-0.011,-0.56,-0.0012344706312822085,10.0,1.0,100.0,0.033149675560132014,-10.0,-1.0,-100.0,12144.587345333304,-0.003009865450724649,-0.00015023809763736512,0.9999954590589312,54.681916601020234,2.7159102581451666,712.0841391341412,-82.99546586230736,-90.02400970458984,5625.0322265625
1594283850.340468,0.0,10.0,0.5,0.5,0.0034779808044433595,-0.14,-0.011,-0.56,-0.0012167047395079793,10.0,1.0,100.0,0.03315330020009735,-10.0,-1.0,-100.0,12141.259220413398,-0.003010308170660279,-0.000146059939375511,0.9999954583452926,54.8665930807701,2.7260957130006642,718.0491683192243,-83.36541632663558,-90.0238265991211,5625.0322265625
1594283850.3833845,0.0,10.0,0.5,0.5,0.0033725028991699224,-0.14,-0.011,-0.56,-0.0012218855646310154,10.0,1.0,100.0,0.0331482365497805,-10.0,-1.0,-100.0,12137.90179845679,-0.0030106546265940702,-0.00014235875126691956,0.999995457836037,55.05124375770653,2.73629144889214,724.0424464712476,-83.73532802316754,-90.02352142333984,5625.0322265625
1594283850.4225764,0.0,10.0,0.5,0.5,0.0032964729309082033,-0.14,-0.011,-0.56,-0.0011845867012986048,10.0,1.0,100.0,0.03318155379276334,-10.0,-1.0,-100.0,12134.547306573368,-0.00301126427385417,-0.0001387021892147161,0.9999954565142662,55.23592531866794,2.746500308340412,730.0647860183612,-84.10520061659166,-90.02316284179688,5625.0322265625
1594283850.4648643,0.0,10.0,0.5,0.5,0.003211430358886719,-0.14,-0.011,-0.56,-0.0012529000709045031,10.0,1.0,100.0,0.03318605520376162,-10.0,-1.0,-100.0,12131.173283002689,-0.0030118523493576125,-0.0001360437607247825,0.9999954551084324,55.42072290319725,2.7567266162335162,736.1174108469006,-84.47503395912102,-90.02275085449219,5625.0322265625
1594283850.5052984,0.0,10.0,0.5,0.5,0.0031388130187988282,-0.14,-0.011,-0.56,-0.0012218078551004563,10.0,1.0,100.0,0.033202724808543235,-10.0,-1.0,-100.0,12127.77386935288,-0.0030125324478678336,-0.00013338576134867562,0.999995453417909,55.605508118540584,2.766964032410624,742.1986967572476,-84.84482779359523,-90.0223159790039,5625.0322265625
1594283850.5491498,0.0,10.0,0.5,0.5,0.0030936836242675785,-0.14,-0.011,-0.56,-0.0012270266463685678,10.0,1.0,100.0,0.0332497101335359,-10.0,-1.0,-100.0,12124.375431538443,-0.0030135722136569493,-0.0001310553799454771,0.9999954505931518,55.7904082654066,2.7772188741968296,748.3104041254077,-85.21458212917918,-90.02190399169922,5625.0322265625
1594283850.5878038,0.0,10.0,0.5,0.5,0.0030719795227050783,-0.14,-0.011,-0.56,-0.0012523010480998808,10.0,1.0,100.0,0.033260740951763706,-10.0,-1.0,-100.0,12120.951603763853,-0.003014612196115578,-0.00012920183798470632,0.9999954476997343,55.97540679025571,2.787490478789569,754.4524279963441,-85.58429649129758,-90.02154541015625,5625.0322265625
1594283850.6304512,0.0,10.0,0.5,0.5,0.003072867584228516,-0.14,-0.011,-0.56,-0.001274511910726913,10.0,1.0,100.0,0.03332677126351808,-10.0,-1.0,-100.0,12117.507267767913,-0.0030161518908588605,-0.00012775077985907853,0.9999954432433728,56.160444731644155,2.7977758526382988,760.6240352287059,-85.95397103884335,-90.0212631225586,5625.0322265625
1594283850.6703446,0.0,10.0,0.5,0.5,0.00309449691772461,-0.14,-0.011,-0.56,-0.0012879762770987,10.0,1.0,100.0,0.03333907970619611,-10.0,-1.0,-100.0,12114.065861633979,-0.0030176567937630406,-0.00012658275645350777,0.9999954388517384,56.345641019959196,2.8080810921526718,766.826952103246,-86.3236053126158,-90.02107238769531,5625.0322265625
1594283850.7132294,0.0,10.0,0.5,0.5,0.003160659790039063,-0.14,-0.011,-0.56,-0.001334118877319968,10.0,1.0,100.0,0.03343114744033646,-10.0,-1.0,-100.0,12110.623478856753,-0.003019854361593593,-0.00012596596906626974,0.9999954322956727,56.53091526476168,2.8184021749507457,773.0601632887312,-86.69319920263275,-90.0210189819336,5625.0322265625
1594283850.7531996,0.0,10.0,0.5,0.5,0.0032139801025390627,-0.14,-0.011,-0.56,-0.001341913759594895,10.0,1.0,100.0,0.033477767288843836,-10.0,-1.0,-100.0,12107.136174105806,-0.0030222668865070084,-0.00012549818139725367,0.9999954250660714,56.71632639725533,2.8287421746146943,779.3245855422756,-87.0627525008003,-90.02105712890625,5625.0322265625
1594283850.7931023,0.0,10.0,0.5,0.5,0.0033177452087402347,-0.14,-0.011,-0.56,-0.0013647292626439741,10.0,1.0,100.0,0.033536832629206585,-10.0,-1.0,-100.0,12103.622502461309,-0.0030249861770535505,-0.00012529902605130184,0.9999954168688888,56.90187382806337,2.839101076558544,785.6202936643355,-87.43226501231288,-90.021240234375,5625.0322265625
1594283850.8359802,0.0,10.0,0.5,0.5,0.003420979309082032,-0.14,-0.011,-0.56,-0.0014232574856905328,10.0,1.0,100.0,0.03362239564177095,-10.0,-1.0,-100.0,12100.113713342813,-0.00302822307625512,-0.000125665559332874,0.9999954070260362,57.087553764468375,2.849478840095518,791.9473638103227,-87.80173661419015,-90.02153778076172,5625.0322265625
1594283850.8792155,0.0,10.0,0.5,0.5,0.003535616302490235,-0.14,-0.011,-0.56,-0.0014944792118184447,10.0,1.0,100.0,0.03371142920370504,-10.0,-1.0,-100.0,12096.602971323184,-0.003031959690817401,-0.00012665809312626774,0.9999953955784799,57.273357408259514,2.8598750295697783,798.3057548059752,-88.17116701985154,-90.02194213867188,5625.0322265625
1594283850.9171119,0.0,10.0,0.5,0.5,0.003660764312744141,-0.14,-0.011,-0.56,-0.0014953299683997008,10.0,1.0,100.0,0.033773938758526315,-10.0,-1.0,-100.0,12093.072697834461,-0.003035906602425614,-0.00012757666315063576,0.9999953834869921,57.45933888464753,2.8702924722593597,804.6963398841579,-88.54055598579082,-90.02244567871094,5625.0322265625
1594283850.9580028,0.0,10.0,0.5,0.5,0.0037741271972656257,-0.14,-0.011,-0.56,-0.0015382854418281376,10.0,1.0,100.0,0.03386883094144989,-10.0,-1.0,-100.0,12089.517033643555,-0.0030403361108646055,-0.00012880751211140888,0.9999953698717599,57.64541154633015,2.880726887215338,811.1180071572838,-88.9099033933544,-90.02301025390625,5625.0322265625
1594283851.0008886,0.0,10.0,0.5,0.5,0.0038971092224121097,-0.14,-0.011,-0.56,-0.0016126853713330403,10.0,1.0,100.0,0.03398378031215083,-10.0,-1.0,-100.0,12085.935002476443,-0.0030453836001816904,-0.00013060487222382362,0.9999953542797562,57.83163741680386,2.8911814239533,817.5717244079594,-89.27920898958519,-90.02363586425781,5625.0322265625
1594283851.0437741,0.0,10.0,0.5,0.5,0.004003015899658203,-0.14,-0.011,-0.56,-0.0016488410311321484,10.0,1.0,100.0,0.03407398704417293,-10.0,-1.0,-100.0,12082.362737124087,-0.00305076431403009,-0.00013256624829306607,0.9999953376207762,58.017966650268015,2.901653648600228,824.0568904700286,-89.64847261354905,-90.02428436279297,5625.0322265625
1594283851.0826697,0.0,10.0,0.5,0.5,0.004102469635009765,-0.14,-0.011,-0.56,-0.0017000625041677054,10.0,1.0,100.0,0.034189134284979994,-10.0,-1.0,-100.0,12078.782658907236,-0.0030566711993330895,-0.0001348105895032152,0.9999953192826875,58.20446930142323,2.912147194941523,830.5746262887998,-90.01769408870358,-90.02494049072266,5625.0322265625
1594283851.1228352,0.0,10.0,0.5,0.5,0.004198582458496094,-0.14,-0.011,-0.56,-0.001790521071657228,10.0,1.0,100.0,0.03432829805776841,-10.0,-1.0,-100.0,12075.157659010845,-0.003063270752628829,-0.00013766577045957397,0.9999952986991648,58.391120606529924,2.922660841337765,837.1246745464498,-90.38687308556248,-90.02559661865234,5625.0322265625
1594283851.165721,0.0,10.0,0.5,0.5,0.004258091735839844,-0.14,-0.011,-0.56,-0.0017842133881449107,10.0,1.0,100.0,0.03444299345560849,-10.0,-1.0,-100.0,12071.515081312507,-0.0030702735625225607,-0.00014019341075033968,0.9999952768718754,58.577882639790374,2.93319277597165,843.7066107872328,-90.75600933095626,-90.02619934082031,5625.0322265625
1594283851.2086062,0.0,10.0,0.5,0.5,0.004310745239257813,-0.14,-0.011,-0.56,-0.0018715796882267481,10.0,1.0,100.0,0.034571849383932554,-10.0,-1.0,-100.0,12067.891058044392,-0.0030777675284325216,-0.00014327214535236787,0.9999952533988016,58.76476275094209,2.943743407121833,850.3206374000374,-91.12510285574577,-90.02674865722656,5625.0322265625
1594283851.2475019,0.0,10.0,0.5,0.5,0.004350984191894532,-0.14,-0.011,-0.56,-0.0019287637619929195,10.0,1.0,100.0,0.034721500623744725,-10.0,-1.0,-100.0,12064.222112736432,-0.0030858927074840703,-0.0001465745110072668,0.9999952278796689,58.95176233059288,2.954312855401724,856.9668804786518,-91.494153275626,-90.02723693847656,5625.0322265625
1594283851.288507,0.0,10.0,0.5,0.5,0.004366866302490234,-0.14,-0.011,-0.56,-0.0020097736254995097,10.0,1.0,100.0,0.03486494385527869,-10.0,-1.0,-100.0,12060.556097378721,-0.0030945308363346698,-0.00015029410676934904,0.9999952006337752,59.13887036270707,2.9649006422388524,863.6452883083545,-91.86316048368154,-90.02764129638672,5625.0322265625
1594283851.330127,0.0,10.0,0.5,0.5,0.004370999145507813,-0.14,-0.011,-0.56,-0.0020231470916192507,10.0,1.0,100.0,0.03502941395285608,-10.0,-1.0,-100.0,12056.867620710982,-0.0031038219805899934,-0.0001537756471417459,0.9999951713094234,59.3260994423752,2.975507406071028,870.3561384478711,-92.2321242851216,-90.02796173095703,5625.0322265625
1594283851.3730164,0.0,10.0,0.5,0.5,0.004368521881103516,-0.14,-0.011,-0.56,-0.0020818753536734264,10.0,1.0,100.0,0.03516337523220336,-10.0,-1.0,-100.0,12053.157660016208,-0.0031134245639269317,-0.00015745075987715274,0.9999951408865659,59.51348265329466,2.9861349095546488,877.1000411308935,-92.60104435813602,-90.02820587158203,5625.0322265625
1594283851.4121673,0.0,10.0,0.5,0.5,0.0043389892578125,-0.14,-0.011,-0.56,-0.0021870110026341134,10.0,1.0,100.0,0.035322190648918464,-10.0,-1.0,-100.0,12049.447699449374,-0.0031235315176096836,-0.00016172151076555998,0.9999951086865432,59.70092245156552,2.9967783205677123,883.8756656745726,-92.9699204671608,-90.02835083007812,5625.0322265625
1594283851.4520915,0.0,10.0,0.5,0.5,0.004316404724121095,-0.14,-0.011,-0.56,-0.0021984502674710837,10.0,1.0,100.0,0.03547928652682425,-10.0,-1.0,-100.0,12045.735785334138,-0.003134076758104576,-0.0001656797170366829,0.9999950750444252,59.888495675521334,3.00744157998259,890.684267160243,-93.33875256884167,-90.02842712402344,5625.0322265625
1594283851.495943,0.0,10.0,0.5,0.5,0.004299599456787109,-0.14,-0.011,-0.56,-0.0022855606572266675,10.0,1.0,100.0,0.0356668658825913,-10.0,-1.0,-100.0,12041.978949438082,-0.0031452928686577473,-0.00017003989585480573,0.9999950390972967,60.07612118390811,3.0181205867932612,897.5247170373054,-93.70754035852812,-90.02845764160156,5625.0322265625
1594283851.5388272,0.0,10.0,0.5,0.5,0.004265016174316407,-0.14,-0.011,-0.56,-0.0023671140066988208,10.0,1.0,100.0,0.03583900810937265,-10.0,-1.0,-100.0,12038.218207374797,-0.0031569736969774384,-0.00017471306222434463,0.9999950014837187,60.26392799307193,3.028821956583639,904.3990691304117,-94.07628360654635,-90.02842712402344,5625.0322265625
1594283851.5767276,0.0,10.0,0.5,0.5,0.00424249496459961,-0.14,-0.011,-0.56,-0.0024044839369794326,10.0,1.0,100.0,0.03599893595378384,-10.0,-1.0,-100.0,12034.443793427432,-0.003168961336813306,-0.00017926744257032668,0.999994962760928,60.45185119599843,3.0395424172023793,911.3064501545464,-94.44498216362408,-90.02836608886719,5625.0322265625
1594283851.6171627,0.0,10.0,0.5,0.5,0.004230992889404298,-0.14,-0.011,-0.56,-0.0024686680085104994,10.0,1.0,100.0,0.03621018083427869,-10.0,-1.0,-100.0,12030.661567198345,-0.003181689883055602,-0.00018395575805166552,0.999994921491988,60.63982721067191,3.050278844954687,918.2460090354123,-94.81363579367132,-90.0282974243164,5625.0322265625
