Timestamp,Input Throttle,horizon,dT,dt,Input Roll,Roll P,Roll I,Roll D,Input Pitch,Pitch P,Pitch I,Pitch D,Input Yaw,Yaw P,Yaw I,Yaw D,Altitude,Direction X,Direction Y,Direction Z,Drag X,Drag Y,Drag Z,Vertical Velocity,Roll,Mass
1594284468.3184237,0.0,10.0,0.5,0.5,-0.18071655273437504,-0.14,-0.011,-0.56,-0.0126808333072162,10.0,1.0,100.0,0.1725455409299779,-10.0,-1.0,-100.0,19917.815746427164,-0.013547767710635017,-0.0009331146332033443,0.999907789392172,35.30259286818087,1.9644416801156888,131.9776366215444,-60.861016463283605,-88.69256591796875,4892.3046875
1594284468.358419,0.0,10.0,0.5,0.5,-0.18338947143554687,-0.14,-0.011,-0.56,-0.010382123473014579,10.0,1.0,100.0,0.14735586593564054,-10.0,-1.0,-100.0,19915.370355161605,-0.013643435092982534,-0.0009418206848184425,0.9999064804533777,35.4229840533577,1.9713613047848575,133.24541399427318,-61.22602317570281,-88.69412231445312,4892.3046875
1594284468.4149003,0.0,10.0,0.5,0.5,-0.17903247985839843,-0.14,-0.011,-0.56,-0.010230474941003547,10.0,1.0,100.0,0.14587059810165104,-10.0,-1.0,-100.0,19912.910364152864,-0.013704499882904933,-0.0009475004535549602,0.9999056400110212,35.54385970903445,1.9783105791123847,134.5209723951729,-61.59102175641292,-88.70364379882812,4892.3046875
1594284468.4489021,0.0,10.0,0.5,0.5,-0.14945322265625002,-0.14,-0.011,-0.56,-0.010008260489089444,10.0,1.0,100.0,0.14438226337468002,-10.0,-1.0,-100.0,19910.435773356236,-0.01373402437633201,-0.0009497823842493435,0.9999052327535108,35.670112513587824,1.9855627630100008,135.82298137389384,-61.95601198022913,-88.75555419921875,4892.3046875
1594284468.4849494,0.0,10.0,0.5,0.5,-0.10758053588867189,-0.14,-0.011,-0.56,-0.009885056305847765,10.0,1.0,100.0,0.14295256867234757,-10.0,-1.0,-100.0,19907.94658319652,-0.013735382123629665,-0.0009498733901381774,0.999905214017039,35.805801373804556,1.993346213978027,137.16736502585195,-62.32099335069114,-88.85885620117188,4892.3046875
1594284468.5225973,0.0,10.0,0.5,0.5,-0.05884800109863281,-0.14,-0.011,-0.56,-0.009493954612702832,10.0,1.0,100.0,0.1389258880948676,-10.0,-1.0,-100.0,19905.442794018774,-0.013687523541265324,-0.0009455371315629467,0.9999058743996058,35.95149809086116,2.0016955774748637,138.5569860650956,-62.685965611395666,-89.01290893554688,4892.3046875
1594284468.5570197,0.0,10.0,0.5,0.5,-0.008010583496093751,-0.14,-0.011,-0.56,-0.00910239703975807,10.0,1.0,100.0,0.13466056919172248,-10.0,-1.0,-100.0,19902.924406501348,-0.013592796909504363,-0.0009371758848027274,0.9999071744784802,36.10593020078291,2.0105427005062606,139.98760797318113,-63.050928196786145,-89.2103271484375,4892.3046875
1594284468.6195712,0.0,10.0,0.5,0.5,0.04101884765625001,-0.14,-0.011,-0.56,-0.008692847260277907,10.0,1.0,100.0,0.12998898990688376,-10.0,-1.0,-100.0,19900.39142085379,-0.013451855799032679,-0.0009249995934937969,0.9999090918435104,36.266573410956724,2.0197492284393994,141.44999338483754,-63.415880700653,-89.43954467773438,4892.3046875
1594284468.6488125,0.0,10.0,0.5,0.5,0.08520337219238283,-0.14,-0.011,-0.56,-0.00829299765785832,10.0,1.0,100.0,0.12499207616895677,-10.0,-1.0,-100.0,19897.84383692534,-0.013266072068441782,-0.0009094543326514148,0.999911588204023,36.430153043413924,2.029134387635689,142.93173131006893,-63.780822931447084,-89.68692016601562,4892.3046875
1594284468.68709,0.0,10.0,0.5,0.5,0.12201230468750002,-0.14,-0.011,-0.56,-0.007898902782897132,10.0,1.0,100.0,0.11967232641833955,-10.0,-1.0,-100.0,19895.28165597841,-0.01303675634101859,-0.0008909128199926464,0.9999146209844378,36.59303953156079,2.038496770040268,144.41870332312257,-64.14575474054641,-89.93789672851562,4892.3046875
1594284468.7162588,0.0,10.0,0.5,0.5,0.14972673645019535,-0.14,-0.011,-0.56,-0.007495971983731095,10.0,1.0,100.0,0.11409878153174505,-10.0,-1.0,-100.0,19892.70487795316,-0.012765767311354813,-0.0008695839713831723,0.9999181361534898,36.751750565136774,2.047642348949059,145.89704007291056,-64.51067590223042,-90.1783676147461,4892.3046875
1594284468.7593215,0.0,10.0,0.5,0.5,0.16872760391235353,-0.14,-0.011,-0.56,-0.007025477986491889,10.0,1.0,100.0,0.10691272653168678,-10.0,-1.0,-100.0,19890.11350329907,-0.012454796784750194,-0.0008459746460013123,0.9999220781460666,36.90308487326175,2.0563919310757863,147.35367098580235,-64.8755867921187,-90.39555358886719,4892.3046875
1594284468.8170469,0.0,10.0,0.5,0.5,0.17715954208374024,-0.14,-0.011,-0.56,-0.006514168121604854,10.0,1.0,100.0,0.09949861106578732,-10.0,-1.0,-100.0,19887.507532668882,-0.01210577583660894,-0.0008199504841904822,0.999926386226805,37.044319485174896,2.0645922788069844,148.77715009718892,-65.2404873875133,-90.57867431640625,4892.3046875
1594284468.849717,0.0,10.0,0.5,0.5,0.17522412033081056,-0.14,-0.011,-0.56,-0.00610833515893721,10.0,1.0,100.0,0.09191463854251589,-10.0,-1.0,-100.0,19884.886966282735,-0.011720992246311054,-0.0007927187192194439,0.9999309925878855,37.173388517556056,2.072126192174163,150.15843338812888,-65.6053780311358,-90.7194595336914,4892.3046875
1594284468.885988,0.0,10.0,0.5,0.5,0.1635234848022461,-0.14,-0.011,-0.56,-0.005590797863579775,10.0,1.0,100.0,0.08422521484343401,-10.0,-1.0,-100.0,19882.251804614556,-0.011303115159803161,-0.0007634004698925505,0.9999358263445745,37.288883624129554,2.0789126718303446,151.49095456999947,-65.97025908865463,-90.81228637695312,4892.3046875
1594284468.92326,0.0,10.0,0.5,0.5,0.14319590911865238,-0.14,-0.011,-0.56,-0.005131436537708951,10.0,1.0,100.0,0.07641457368311041,-10.0,-1.0,-100.0,19879.60204769869,-0.010854432222396522,-0.0007327410247422268,0.9999408204447502,37.39002014795686,2.084905216296256,152.77056478730984,-66.33513093328446,-90.85443878173828,4892.3046875
1594284468.958014,0.0,10.0,0.5,0.5,0.11587512588500978,-0.14,-0.011,-0.56,-0.004669078897211118,10.0,1.0,100.0,0.06857848988032667,-10.0,-1.0,-100.0,19876.93769658648,-0.010377877055018697,-0.0007008590016072438,0.9999459027689902,37.476785052819494,2.090100245668697,153.9962129410059,-66.69999399011131,-90.84623718261719,4892.3046875
1594284469.019294,0.0,10.0,0.5,0.5,0.08346823654174806,-0.14,-0.011,-0.56,-0.0041660489518785294,10.0,1.0,100.0,0.06073194552062833,-10.0,-1.0,-100.0,19874.25875087583,-0.009876235517636585,-0.0006675171782389589,0.9999510059962023,37.54985567276707,2.094532716704899,155.16969791319607,-67.0648488345592,-90.79080963134766,4892.3046875
1594284469.0505993,0.0,10.0,0.5,0.5,0.04805124664306642,-0.14,-0.011,-0.56,-0.0037068713491195376,10.0,1.0,100.0,0.052908120121926944,-10.0,-1.0,-100.0,19871.56521140714,-0.009352322634829558,-0.0006332661628020317,0.9999560655525327,37.610395970591384,2.0982649558605253,156.29490344129692,-67.42969570626352,-90.6937484741211,4892.3046875
1594284469.0828733,0.0,10.0,0.5,0.5,0.011836675262451163,-0.14,-0.011,-0.56,-0.003208918229248264,10.0,1.0,100.0,0.0451436085017808,-10.0,-1.0,-100.0,19868.85707812931,-0.00880900968067058,-0.000597853109651313,0.9999610212003792,37.660209269652185,2.1013952781444822,157.378492392793,-67.79453521262863,-90.56278228759766,4892.3046875
1594284469.1246197,0.0,10.0,0.5,0.5,-0.02314138641357423,-0.14,-0.011,-0.56,-0.00273206372518491,10.0,1.0,100.0,0.037473692177095716,-10.0,-1.0,-100.0,19866.1343516903,-0.008249205707265598,-0.000561590801941303,0.9999658170262474,37.70146685529137,2.104042986165556,158.42883961838788,-68.15936744518572,-90.40705871582031,4892.3046875
1594284469.159829,0.0,10.0,0.5,0.5,-0.05491298904418947,-0.14,-0.011,-0.56,-0.002233810798062084,10.0,1.0,100.0,0.029953305215422985,-10.0,-1.0,-100.0,19863.39703208499,-0.0076760318150677605,-0.0005243754893851245,0.99997040134492,37.73664500563949,2.1063449744059852,159.4558131864102,-68.52419256107927,-90.23673248291016,4892.3046875
1594284469.216805,0.0,10.0,0.5,0.5,-0.08188136291503907,-0.14,-0.011,-0.56,-0.0017590267790651621,10.0,1.0,100.0,0.02255386616339574,-10.0,-1.0,-100.0,19860.645119623514,-0.007092041344387372,-0.00048651953157645954,0.9999747328049419,37.768354439886885,2.1084462002199436,160.470081039415,-68.88901068311665,-90.06219482421875,4892.3046875
1594284469.250579,0.0,10.0,0.5,0.5,-0.10277785949707033,-0.14,-0.011,-0.56,-0.0012439899126257688,10.0,1.0,100.0,0.015319906632679028,-10.0,-1.0,-100.0,19857.878614548245,-0.006499935588482523,-0.0004477259901942369,0.9999787749641406,37.799204638520735,2.110492144957405,161.48254790828477,-69.25382193077427,-89.89352416992188,4892.3046875
1594284469.285997,0.0,10.0,0.5,0.5,-0.1167259391784668,-0.14,-0.011,-0.56,-0.0008100764307451894,10.0,1.0,100.0,0.008321712106162692,-10.0,-1.0,-100.0,19855.097517449874,-0.005902784093471447,-0.0004088280961287794,0.9999824948465516,37.831728666574115,2.1126246169806335,162.50403397016348,-69.61862620154487,-89.73995971679688,4892.3046875
1594284469.316953,0.0,10.0,0.5,0.5,-0.12329734420776368,-0.14,-0.011,-0.56,-0.000313608215406388,10.0,1.0,100.0,0.0015445102991920381,-10.0,-1.0,-100.0,19852.30182829895,-0.005303217564367401,-0.00036927536536052327,0.9999858696597514,37.868212450879206,2.1149721602034104,163.54452948918996,-69.9834233888692,-89.60940551757812,4892.3046875
1594284469.3587112,0.0,10.0,0.5,0.5,-0.12256483001708987,-0.14,-0.011,-0.56,0.0001083446835924008,10.0,1.0,100.0,-0.005013579595611578,-10.0,-1.0,-100.0,19849.491547498037,-0.0047035846431000795,-0.00032981282527064844,0.9999888836957167,37.91053515766943,2.117641050275041,164.6124713183932,-70.34821298733253,-89.50796508789062,4892.3046875
1594284469.4190748,0.0,10.0,0.5,0.5,-0.11486822814941407,-0.14,-0.011,-0.56,0.0005154150357864315,10.0,1.0,100.0,-0.011240967278994478,-10.0,-1.0,-100.0,19846.66667507612,-0.004107009637928051,-0.00029057446396566795,0.9999915239832359,37.960159146176956,2.1207146432146105,165.71465551793926,-70.71299508773888,-89.43991088867188,4892.3046875
1594284469.4502642,0.0,10.0,0.5,0.5,-0.10108016891479493,-0.14,-0.011,-0.56,0.0008929897970046197,10.0,1.0,100.0,-0.017220232629236186,-10.0,-1.0,-100.0,19843.827212004107,-0.003515556517205562,-0.00025181340378122334,0.9999937887069019,38.018011785898835,2.1242466036806067,166.85566388341687,-71.07776920667798,-89.40728759765625,4892.3046875
1594284469.4847531,0.0,10.0,0.5,0.5,-0.08228226318359376,-0.14,-0.011,-0.56,0.0012629229303908695,10.0,1.0,100.0,-0.022857585336109647,-10.0,-1.0,-100.0,19840.973158056266,-0.002931929352047745,-0.00021355982309096306,0.999995679081903,38.0844602475515,2.128259410267598,168.03769496539374,-71.44253499847215,-89.41006469726562,4892.3046875
1594284469.5256,0.0,10.0,0.5,0.5,-0.05979109725952149,-0.14,-0.011,-0.56,0.0016198547459175521,10.0,1.0,100.0,-0.02819657277077316,-10.0,-1.0,-100.0,19838.10451371211,-0.0023581657527969907,-0.00017588836349190237,0.9999972040548744,38.15945267615705,2.1327520887818063,169.26112409069412,-71.80729237230602,-89.44622802734375,4892.3046875
1594284469.56086,0.0,10.0,0.5,0.5,-0.03506370925903321,-0.14,-0.011,-0.56,0.0019318603325180882,10.0,1.0,100.0,-0.03317269612665303,-10.0,-1.0,-100.0,19835.22127945663,-0.0017966804865650959,-0.00013915580619497814,0.9999983762861272,38.24238526424924,2.13769271647496,170.52386248051334,-72.17204086163379,-89.51199340820312,4892.3046875
1594284469.6174967,0.0,10.0,0.5,0.5,-0.009649374389648434,-0.14,-0.011,-0.56,0.002194994261728471,10.0,1.0,100.0,-0.03784460204807898,-10.0,-1.0,-100.0,19832.323455377948,-0.0012491123282763216,-0.00010372064537148914,0.999999214479901,38.33225163559193,2.1430266112540806,171.82195998267466,-72.53678009579758,-89.60205078125,4892.3046875
1594284469.6510963,0.0,10.0,0.5,0.5,0.01501353454589844,-0.14,-0.011,-0.56,0.0024236809089617384,10.0,1.0,100.0,-0.042095025355074395,-10.0,-1.0,-100.0,19829.411041910877,-0.0007179946352375786,-6.977589227183758e-05,0.9999997398074805,38.42778715089975,2.148684309884652,173.15020850122238,-72.90151008003416,-89.71005249023438,4892.3046875
1594284469.6872954,0.0,10.0,0.5,0.5,0.0375369354248047,-0.14,-0.011,-0.56,0.0026975850859363697,10.0,1.0,100.0,-0.04601386881402183,-10.0,-1.0,-100.0,19826.484039651696,-0.0002047908291694219,-3.677057884322352e-05,0.9999999783543203,38.52753730083415,2.154585408520803,174.50242384568364,-73.26623028985509,-89.82891845703125,4892.3046875
1594284469.7178612,0.0,10.0,0.5,0.5,0.056775415039062506,-0.14,-0.011,-0.56,0.0028746714058649593,10.0,1.0,100.0,-0.04952579724344419,-10.0,-1.0,-100.0,19823.542448929045,0.000288504713647013,-5.494106924483154e-06,0.9999999583674216,38.62992857948356,2.160642410290689,175.87174251045093,-73.63094093572207,-89.95135498046875,4892.3046875
1594284469.7580671,0.0,10.0,0.5,0.5,0.07185736999511719,-0.14,-0.011,-0.56,0.003074573950980706,10.0,1.0,100.0,-0.05267238992446291,-10.0,-1.0,-100.0,19820.586270104977,0.0007604772112366563,2.4425634995027565e-05,0.9999997105388577,38.7333773027845,2.166766879589824,177.2511096533251,-73.99564179177813,-90.0703125,4892.3046875
1594284469.8195057,0.0,10.0,0.5,0.5,0.0820804443359375,-0.14,-0.011,-0.56,0.00322559757293306,10.0,1.0,100.0,-0.05543235593511971,-10.0,-1.0,-100.0,19817.615503532812,0.001209666389274724,5.267630743027173e-05,0.9999992669659478,38.83651312663538,2.1728819129962713,178.63430167169412,-74.36033295333047,-90.17919921875,4892.3046875
1594284469.8506007,0.0,10.0,0.5,0.5,0.08717359924316406,-0.14,-0.011,-0.56,0.003365366448451937,10.0,1.0,100.0,-0.05778734083744812,-10.0,-1.0,-100.0,19814.630149451434,0.0016345957993057687,7.931731690212355e-05,0.9999986609017716,38.93807959220182,2.1789166507666993,180.0154941917442,-74.72501442319741,-90.27242279052734,4892.3046875
1594284469.8845038,0.0,10.0,0.5,0.5,0.08711481094360352,-0.14,-0.011,-0.56,0.0034894609192157745,10.0,1.0,100.0,-0.05977560472773412,-10.0,-1.0,-100.0,19811.630208478076,0.002034288432594308,0.00010436352004649341,0.9999979253872624,39.03710706444382,2.1848160066438402,181.39007853846132,-75.08968632022476,-90.3455581665039,4892.3046875
1594284469.9266906,0.0,10.0,0.5,0.5,0.08215279541015626,-0.14,-0.011,-0.56,0.003588130827008206,10.0,1.0,100.0,-0.06137201595850122,-10.0,-1.0,-100.0,19808.61568086862,0.002407643457877552,0.00012774077357299951,0.9999970934634134,39.13286135214397,2.1905378324764615,182.75445331820936,-75.45434887262104,-90.3955078125,4892.3046875
1594284469.9623868,0.0,10.0,0.5,0.5,0.072854443359375,-0.14,-0.011,-0.56,0.0036817700040699683,10.0,1.0,100.0,-0.06259350031495176,-10.0,-1.0,-100.0,19805.58656718093,0.002753828966638529,0.0001495680609912348,0.9999961970204775,39.225051252836145,2.196064656654604,184.10702811023623,-75.81900217196471,-90.42069244384766,4892.3046875
1594284470.0175493,0.0,10.0,0.5,0.5,0.059974922943115246,-0.14,-0.011,-0.56,0.003750247095224428,10.0,1.0,100.0,-0.06340215171679048,-10.0,-1.0,-100.0,19802.542867473443,0.003071757615116857,0.00016977109232086543,0.9999952677302678,39.31357848879842,2.2013897536095333,185.44709582430102,-76.18364659347121,-90.42101287841797,4892.3046875
1594284470.0509002,0.0,10.0,0.5,0.5,0.04442894287109375,-0.14,-0.011,-0.56,0.003740318988683585,10.0,1.0,100.0,-0.06387632663853623,-10.0,-1.0,-100.0,19799.48458245711,0.0033611662767099406,0.0001877986000722562,0.9999943336304192,39.3987181114603,2.206527320487445,186.7757100182208,-76.54828222220569,-90.39777374267578,4892.3046875
1594284470.0877948,0.0,10.0,0.5,0.5,0.027229351043701173,-0.14,-0.011,-0.56,0.0037988507369026573,10.0,1.0,100.0,-0.06398323315994921,-10.0,-1.0,-100.0,19796.411712063593,0.0036215286093420006,0.00020448519165519927,0.9999934213365296,39.481025668143715,2.2115073234718365,188.09528398913264,-76.91290920583609,-90.35353088378906,4892.3046875
1594284470.118104,0.0,10.0,0.5,0.5,0.009430570220947267,-0.14,-0.011,-0.56,0.003824261435053778,10.0,1.0,100.0,-0.0637278398774181,-10.0,-1.0,-100.0,19793.324256986496,0.003852421409676762,0.00021966650328606824,0.9999925552702428,39.561234462832594,2.216369884471348,189.4091383614399,-77.27752764871076,-90.29188537597656,4892.3046875
1594284470.1598024,0.0,10.0,0.5,0.5,-0.007893515777587894,-0.14,-0.011,-0.56,0.003769159853965629,10.0,1.0,100.0,-0.0631203690842653,-10.0,-1.0,-100.0,19790.222217388568,0.004053561569410584,0.0002327620807495018,0.9999917571962366,39.64036039659485,2.221171122417311,190.72201956066002,-77.64213778201749,-90.21728515625,4892.3046875
1594284470.2212074,0.0,10.0,0.5,0.5,-0.023826206207275394,-0.14,-0.011,-0.56,0.003734063050110748,10.0,1.0,100.0,-0.06219583287940402,-10.0,-1.0,-100.0,19787.10559375363,0.004225017672435161,0.00024415869254871116,0.9999910447660022,39.71950161897693,2.22597203406857,192.03916893826147,-78.00673953324048,-90.13461303710938,4892.3046875
1594284470.2510827,0.0,10.0,0.5,0.5,-0.03752149124145508,-0.14,-0.011,-0.56,0.003655777552003753,10.0,1.0,100.0,-0.060939148178168874,-10.0,-1.0,-100.0,19783.974386076326,0.004366721222188856,0.0002536334874878211,0.9999904336621533,39.799831678056755,2.230838091787602,193.36629662861506,-78.37133298884085,-90.04898071289062,4892.3046875
1594284470.2851102,0.0,10.0,0.5,0.5,-0.04832452850341797,-0.14,-0.011,-0.56,0.0035270273651661346,10.0,1.0,100.0,-0.05940156006180344,-10.0,-1.0,-100.0,19780.82859517634,0.004479080806886273,0.0002609180119425012,0.9999899348278044,39.88252438968071,2.2358350694650015,194.70922577342327,-78.73591816900974,-89.96539306640625,4892.3046875
1594284470.32528,0.0,10.0,0.5,0.5,-0.0558093605041504,-0.14,-0.011,-0.56,0.0034139496252701034,10.0,1.0,100.0,-0.05753114377215034,-10.0,-1.0,-100.0,19777.66822102468,0.004561999560910449,0.000266370005182341,0.9999895585490014,39.9686842204732,2.2410251339698455,196.0735502878468,-79.10049487896727,-89.888427734375,4892.3046875
1594284470.3631191,0.0,10.0,0.5,0.5,-0.0596654884338379,-0.14,-0.011,-0.56,0.0032987540668634866,10.0,1.0,100.0,-0.05542033139123874,-10.0,-1.0,-100.0,19774.49326406466,0.004616232537375928,0.00027015310374976304,0.9999893086500783,40.05929085800076,2.2464637026297902,197.46435328186456,-79.46506287631942,-89.8221435546875,4892.3046875
1594284470.419279,0.0,10.0,0.5,0.5,-0.059905191040039066,-0.14,-0.011,-0.56,0.003129054177406089,10.0,1.0,100.0,-0.05301637352678101,-10.0,-1.0,-100.0,19771.30372459942,0.0046419879866942595,0.00027193993523166263,0.999989188939662,40.155192448380156,2.2521990059717045,198.8861577741114,-79.8296223403779,-89.76971435546875,4892.3046875
1594284470.4521036,0.0,10.0,0.5,0.5,-0.05674649734497071,-0.14,-0.011,-0.56,0.0029505847135927825,10.0,1.0,100.0,-0.05042412188089329,-10.0,-1.0,-100.0,19768.099602890434,0.004640408625319602,0.0002718489970506224,0.9999891962945965,40.257012958053274,2.2582669250262684,200.3424545594239,-80.19417285339526,-89.73330688476562,4892.3046875
1594284470.4890008,0.0,10.0,0.5,0.5,-0.050440667724609374,-0.14,-0.011,-0.56,0.002712289500157919,10.0,1.0,100.0,-0.04756075241303177,-10.0,-1.0,-100.0,19764.88089963561,0.004611779263136073,0.0002695235964030158,0.9999893293675984,40.365097189823246,2.264687800005977,201.8353981115761,-80.55871419114571,-89.7142333984375,4892.3046875
1594284470.5186815,0.0,10.0,0.5,0.5,-0.0416163070678711,-0.14,-0.011,-0.56,0.0025316337848741983,10.0,1.0,100.0,-0.04449472459434865,-10.0,-1.0,-100.0,19761.6476150261,0.004556979362205023,0.0002657081453073871,0.9999895816148656,40.47960696204694,2.2714717526696937,203.36625534328087,-80.92324616294584,-89.71258544921875,4892.3046875
1594284470.5595744,0.0,10.0,0.5,0.5,-0.030863156127929683,-0.14,-0.011,-0.56,0.002283359034936766,10.0,1.0,100.0,-0.04123292314718331,-10.0,-1.0,-100.0,19758.39974928205,0.004476868022791176,0.00025994065418281947,0.9999899449912297,40.600424492670314,2.2786132125208196,204.93489630343493,-81.28776847426263,-89.7275390625,4892.3046875
1594284470.6225767,0.0,10.0,0.5,0.5,-0.01886220397949219,-0.14,-0.011,-0.56,0.0020596072536020397,10.0,1.0,100.0,-0.03782710030137949,-10.0,-1.0,-100.0,19755.13730294665,0.00437269268249548,0.0002526386655361393,0.9999904078201994,40.727194238423145,2.2860932518530905,206.53997800858508,-81.65228100131627,-89.75741577148438,4892.3046875
1594284470.651569,0.0,10.0,0.5,0.5,-0.006421286010742187,-0.14,-0.011,-0.56,0.0017891184494906866,10.0,1.0,100.0,-0.03425823626472844,-10.0,-1.0,-100.0,19751.86027644796,0.004245409359157056,0.00024353379584452007,0.9999909585544579,40.859402179708844,2.2938839271173426,208.1793145988255,-82.0167835191848,-89.7996826171875,4892.3046875
1594284470.685406,0.0,10.0,0.5,0.5,0.0057800720214843775,-0.14,-0.011,-0.56,0.0015577439015195967,10.0,1.0,100.0,-0.0305495200494799,-10.0,-1.0,-100.0,19748.56867012859,0.004096091928586258,0.00023316241813571388,0.9999915837976836,40.996297286959276,2.301943883907133,209.84946121309704,-82.38127567317721,-89.851318359375,4892.3046875
1594284470.7276063,0.0,10.0,0.5,0.5,0.0170492431640625,-0.14,-0.011,-0.56,0.001285707381573434,10.0,1.0,100.0,-0.026721567429160695,-10.0,-1.0,-100.0,19745.262484472245,0.003925897412317449,0.0002212860660316584,0.9999922691511094,41.13708698695892,2.3102292134738445,211.5466856786687,-82.74575737490832,-89.90890502929688,4892.3046875
1594284470.762465,0.0,10.0,0.5,0.5,0.026800161743164064,-0.14,-0.011,-0.56,0.0010165657281148634,10.0,1.0,100.0,-0.02280892442901536,-10.0,-1.0,-100.0,19741.941719684168,0.0037361839176613854,0.00020808362539575793,0.9999929987909606,41.28089480441656,2.3186911291713765,213.26674944930434,-83.11022850906822,-89.9688720703125,4892.3046875
1594284470.8190067,0.0,10.0,0.5,0.5,0.03452915954589844,-0.14,-0.011,-0.56,0.0007865530089605803,10.0,1.0,100.0,-0.018813121228885635,-10.0,-1.0,-100.0,19738.606376691023,0.003528191664899889,0.00019404680871476767,0.999993757085219,41.42679969697963,2.327278123032773,215.00509878337584,-83.47468909451142,-90.02765655517578,4892.3046875
1594284470.852864,0.0,10.0,0.5,0.5,0.0399985954284668,-0.14,-0.011,-0.56,0.000476113931712993,10.0,1.0,100.0,-0.01474908060856707,-10.0,-1.0,-100.0,19735.256455328665,0.0033031745170427184,0.00017853470478117745,0.9999945285667663,41.573975765903015,2.3359438237072734,216.75758838151415,-83.83913887706605,-90.08209228515625,4892.3046875
1594284470.888628,0.0,10.0,0.5,0.5,0.04292437362670899,-0.14,-0.011,-0.56,0.00020022986407737552,10.0,1.0,100.0,-0.010662469741774892,-10.0,-1.0,-100.0,19731.89195635554,0.0030626781330274316,0.00016200958631056204,0.9999952968667138,41.72159790787371,2.344641734109708,218.52000063720047,-84.20357794355021,-90.1292724609375,4892.3046875
1594284470.919369,0.0,10.0,0.5,0.5,0.04331576156616211,-0.14,-0.011,-0.56,-4.629467119968188e-05,10.0,1.0,100.0,-0.006524000693850444,-10.0,-1.0,-100.0,19728.51288032683,0.00280783088451432,0.00014484335920756793,0.9999960475452516,41.86899019336942,2.3533335327724245,220.28882184474497,-84.568006373424,-90.16692352294922,4892.3046875
1594284470.9598205,0.0,10.0,0.5,0.5,0.0413001220703125,-0.14,-0.011,-0.56,-0.0003251125887683596,10.0,1.0,100.0,-0.002401192386347145,-10.0,-1.0,-100.0,19725.119227358373,0.0025402616271411804,0.00012681286694158513,0.9999967654894503,42.01556323381622,2.361985661838033,222.06093371572473,-84.9324240138697,-90.19345092773438,4892.3046875
1594284471.0220518,0.0,10.0,0.5,0.5,0.03708301086425781,-0.14,-0.011,-0.56,-0.0005924949880312233,10.0,1.0,100.0,0.0017075303852508335,-10.0,-1.0,-100.0,19721.710997840622,0.002261425373783481,0.00010811178651306677,0.999997437130276,42.16095513415688,2.370577229533425,223.8343686272217,-85.29683086803102,-90.20791625976562,4892.3046875
1594284471.052999,0.0,10.0,0.5,0.5,0.031042764282226562,-0.14,-0.011,-0.56,-0.0008447796330445824,10.0,1.0,100.0,0.005786338352127076,-10.0,-1.0,-100.0,19718.288192339707,0.00197277713222189,8.894869560431325e-05,0.9999980501173571,42.304888898141115,2.379092029851491,225.6075756593075,-85.66122722480927,-90.21015167236328,4892.3046875
1594284471.0863543,0.0,10.0,0.5,0.5,0.023609453582763677,-0.14,-0.011,-0.56,-0.0011436658557321257,10.0,1.0,100.0,0.009824672226638312,-10.0,-1.0,-100.0,19714.850811592652,0.0016757235430584644,6.895108829941438e-05,0.9999985935971883,42.44729321872626,2.3875254493809663,227.38008235788828,-86.02561299569237,-90.20067596435547,4892.3046875
1594284471.1195145,0.0,10.0,0.5,0.5,0.015286471557617191,-0.14,-0.011,-0.56,-0.001378131721419254,10.0,1.0,100.0,0.013813285295842435,-10.0,-1.0,-100.0,19711.39885551459,0.0013716150417221562,4.878922045220179e-05,0.9999990581454511,42.58818668608883,2.395877889890099,229.1518883530699,-86.38998828691113,-90.18065643310547,4892.3046875
1594284471.1635478,0.0,10.0,0.5,0.5,0.006576914215087892,-0.14,-0.011,-0.56,-0.0016691172970396532,10.0,1.0,100.0,0.017706620700489135,-10.0,-1.0,-100.0,19707.932324780966,0.0010620808844383563,2.797174158144077e-05,0.999999435600729,42.727851748103774,2.404164706479621,230.92442547886483,-86.75435313917531,-90.15177154541016,4892.3046875
1594284471.2196465,0.0,10.0,0.5,0.5,-0.001970828247070313,-0.14,-0.011,-0.56,-0.001895344072074658,10.0,1.0,100.0,0.021530642381776502,-10.0,-1.0,-100.0,19704.45121978596,0.0007483533652897649,7.153891820261903e-06,0.999999719957992,42.86647853999639,2.4123961161083454,232.69864821652556,-87.11870755837506,-90.11616516113281,4892.3046875
1594284471.2525587,0.0,10.0,0.5,0.5,-0.009955896759033203,-0.14,-0.011,-0.56,-0.0021304030000342785,10.0,1.0,100.0,0.02525155983965409,-10.0,-1.0,-100.0,19700.955540902214,0.00043184713308271294,-1.3738422837811337e-05,0.9999999066596504,43.00452316976526,2.4205974299228656,234.4769797079031,-87.48305148145337,-90.07613372802734,4892.3046875
1594284471.288989,0.0,10.0,0.5,0.5,-0.01686995239257813,-0.14,-0.011,-0.56,-0.002402850353767051,10.0,1.0,100.0,0.028841098151158505,-10.0,-1.0,-100.0,19697.445288832532,0.00011409232586622558,-3.5033436535794954e-05,0.9999999928777998,43.14242422722662,2.4287931084406433,236.2617914394652,-87.84738513249725,-90.03424072265625,4892.3046875
1594284471.3209045,0.0,10.0,0.5,0.5,-0.022438964843750003,-0.14,-0.011,-0.56,-0.0026420492346781654,10.0,1.0,100.0,0.03233330905768398,-10.0,-1.0,-100.0,19693.920463639195,-0.00020384252001975708,-5.638794515783896e-05,0.9999999776343133,43.28057465990847,2.4370051918232907,238.05524464119642,-88.21170824080198,-89.992919921875,4892.3046875
1594284471.3609164,0.0,10.0,0.5,0.5,-0.026385861968994145,-0.14,-0.011,-0.56,-0.0028069529890481634,10.0,1.0,100.0,0.03566623905549162,-10.0,-1.0,-100.0,19690.381065711612,-0.0005204356768011434,-7.711732230454675e-05,0.9999998615998029,43.419459972029024,2.4452610631640104,239.86004803233902,-88.57602087958642,-89.95449829101562,4892.3046875
1594284471.4220436,0.0,10.0,0.5,0.5,-0.02858840713500977,-0.14,-0.011,-0.56,-0.003049364190293709,10.0,1.0,100.0,0.03884472756497065,-10.0,-1.0,-100.0,19686.82709560974,-0.0008343605355031746,-9.798055773174414e-05,0.9999996471210914,43.55944294767856,2.4535813906698154,241.67828119383128,-88.94032279342056,-89.92098999023438,4892.3046875
1594284471.4520354,0.0,10.0,0.5,0.5,-0.029023654937744142,-0.14,-0.011,-0.56,-0.003272070199559379,10.0,1.0,100.0,0.04189730385229513,-10.0,-1.0,-100.0,19683.258553833584,-0.0011446831133813467,-0.00011878437880047984,0.9999993377952013,43.70086577279309,2.4619857348446232,243.51193674576513,-89.30461404702054,-89.89401245117188,4892.3046875
1594284471.4859085,0.0,10.0,0.5,0.5,-0.027722238159179693,-0.14,-0.011,-0.56,-0.0034402676058656097,10.0,1.0,100.0,0.044750677554258114,-10.0,-1.0,-100.0,19679.675440716557,-0.0014499002539742547,-0.00013903716248901912,0.9999989392283978,43.84391196929609,2.470484892915996,245.3621577677664,-89.66889429589833,-89.87478637695312,4892.3046875
1594284471.5198555,0.0,10.0,0.5,0.5,-0.02491909561157227,-0.14,-0.011,-0.56,-0.0036029908430501517,10.0,1.0,100.0,0.04746849504634022,-10.0,-1.0,-100.0,19676.07775667275,-0.0017492363373530695,-0.00015873900595228847,0.9999984574858924,43.988744242611325,2.4790885009090777,247.2299827174849,-90.0331635133492,-89.86392211914062,4892.3046875
1594284471.5636003,0.0,10.0,0.5,0.5,-0.020764329528808596,-0.14,-0.011,-0.56,-0.0037633704895686454,10.0,1.0,100.0,0.05000558401594214,-10.0,-1.0,-100.0,19672.465502261417,-0.0020415873570764865,-0.00017791910749960645,0.9999979001307225,44.135335647921515,2.4877955768642925,249.11539740762234,-90.39742166661765,-89.86166381835938,4892.3046875
1594284471.5947592,0.0,10.0,0.5,0.5,-0.015653150177001952,-0.14,-0.011,-0.56,-0.003934813317313841,10.0,1.0,100.0,0.052344784708253704,-10.0,-1.0,-100.0,19668.838677727967,-0.0023258049556265027,-0.0001967269611138691,0.9999972759611955,44.28358499358663,2.496601023270266,251.01796916423095,-90.76166854107503,-89.86761474609375,4892.3046875
1594284471.652842,0.0,10.0,0.5,0.5,-0.009859661102294923,-0.14,-0.011,-0.56,-0.004064608314353967,10.0,1.0,100.0,0.05449366115391751,-10.0,-1.0,-100.0,19665.197283680667,-0.0026009251417044464,-0.00021481961814271433,0.9999965945146708,44.43325156335643,2.505491754425946,252.93645199446664,-91.12590408920752,-89.88104248046875,4892.3046875
1594284471.6888373,0.0,10.0,0.5,0.5,-0.0037723815917968754,-0.14,-0.011,-0.56,-0.004185339801978752,10.0,1.0,100.0,0.05645294560638487,-10.0,-1.0,-100.0,19661.541320687393,-0.0028660890129115647,-0.0002321822460607036,0.9999958658040415,44.58401334455937,2.514450122838731,254.86911872532565,-91.4901280916831,-89.90078735351562,4892.3046875
1594284471.7197134,0.0,10.0,0.5,0.5,0.002263070678710937,-0.14,-0.011,-0.56,-0.004304878252370935,10.0,1.0,100.0,0.058255339303834475,-10.0,-1.0,-100.0,19657.87078895571,-0.003120823219132325,-0.00024887394025378194,0.9999950992500898,44.73548925509582,2.5234550368177597,256.8138689231224,-91.85434052227444,-89.9254150390625,4892.3046875
1594284471.761605,0.0,10.0,0.5,0.5,0.007879733276367188,-0.14,-0.011,-0.56,-0.004402588447960077,10.0,1.0,100.0,0.05983626621235207,-10.0,-1.0,-100.0,19654.18568909855,-0.003364120032411256,-0.00026476149493912177,0.9999943062826699,44.88724354072285,2.5324822315210493,258.7682514899705,-92.21854130079294,-89.9532470703125,4892.3046875
1594284471.7957723,0.0,10.0,0.5,0.5,0.01280023193359375,-0.14,-0.011,-0.56,-0.004490085177987979,10.0,1.0,100.0,0.06120534747770802,-10.0,-1.0,-100.0,19650.48602171114,-0.003595159979299329,-0.0002798295656781984,0.9999934982389324,45.038710333538766,2.541499993477128,260.7290197672621,-92.58273011821733,-89.9825439453125,4892.3046875
1594284471.8526907,0.0,10.0,0.5,0.5,0.016798605346679686,-0.14,-0.011,-0.56,-0.004504871590934265,10.0,1.0,100.0,0.062383316697679256,-10.0,-1.0,-100.0,19646.771786979167,-0.0038133952880665917,-0.0002934969164605557,0.9999926859112206,45.18944668035843,2.550483386024001,262.69358508732506,-92.94690722283464,-90.0115966796875,4892.3046875
1594284471.886608,0.0,10.0,0.5,0.5,0.01967620849609375,-0.14,-0.011,-0.56,-0.004622930448843304,10.0,1.0,100.0,0.06338352621092741,-10.0,-1.0,-100.0,19643.042985437787,-0.004018457735089373,-0.0003068362135730899,0.9999918788915085,45.33899194886663,2.559406379296187,264.6592140767375,-93.31107241317947,-90.03876495361328,4892.3046875
1594284471.920545,0.0,10.0,0.5,0.5,0.0213316520690918,-0.14,-0.011,-0.56,-0.004664927687147066,10.0,1.0,100.0,0.06418802419607608,-10.0,-1.0,-100.0,19639.299617892248,-0.004209856707264966,-0.00031919209579535146,0.9999910875717394,45.486868287862904,2.5682418554186373,266.6230286599294,-93.6752257862423,-90.06260681152344,4892.3046875
1594284471.9643526,0.0,10.0,0.5,0.5,0.021769168853759766,-0.14,-0.011,-0.56,-0.004707821028068883,10.0,1.0,100.0,0.06481761643702064,-10.0,-1.0,-100.0,19635.54168446397,-0.004387342411096899,-0.0003306687890150212,0.9999903208955173,45.63273543149567,2.5769703317648487,268.58291175204073,-94.03936734710125,-90.08199310302734,4892.3046875
1594284471.9955075,0.0,10.0,0.5,0.5,0.020971186828613285,-0.14,-0.011,-0.56,-0.00469524310883351,10.0,1.0,100.0,0.06522716895221692,-10.0,-1.0,-100.0,19631.769185735146,-0.00455028375103315,-0.0003408489384202944,0.999989589315702,45.77630130259971,2.5855750034143528,270.5370012148129,-94.40349708755024,-90.09601593017578,4892.3046875
1594284472.0528767,0.0,10.0,0.5,0.5,0.01911610488891602,-0.14,-0.011,-0.56,-0.004763908325668266,10.0,1.0,100.0,0.06545553327125798,-10.0,-1.0,-100.0,19627.98212219111,-0.004698466027697927,-0.0003505968289623984,0.9999889006878278,45.917320609367714,2.5940415621836994,272.4836771712799,-94.76761514669234,-90.1042251586914,4892.3046875
1594284472.0900483,0.0,10.0,0.5,0.5,0.016297183227539064,-0.14,-0.011,-0.56,-0.004760235864076621,10.0,1.0,100.0,0.06553135246700005,-10.0,-1.0,-100.0,19624.180494169705,-0.004831959598367204,-0.000359301727794551,0.9999882614654574,46.05567121483137,2.602362684453281,274.4220360164381,-95.1317215016681,-90.10641479492188,4892.3046875
1594284472.1202207,0.0,10.0,0.5,0.5,0.012781765747070314,-0.14,-0.011,-0.56,-0.004738681948423104,10.0,1.0,100.0,0.06542106330877961,-10.0,-1.0,-100.0,19620.36430216045,-0.004950527606095947,-0.00036690376433444515,0.9999876787531181,46.19136713803633,2.610538702829898,276.3519744368679,-95.49581625932923,-90.10282135009766,4892.3046875
1594284472.1868672,0.0,10.0,0.5,0.5,0.008772811126708985,-0.14,-0.011,-0.56,-0.004710126938884265,10.0,1.0,100.0,0.06511369990635762,-10.0,-1.0,-100.0,19616.53354662913,-0.005053859123657364,-0.0003734478158075589,0.9999871594399037,46.324406911493526,2.6185690858609028,278.27329680854496,-95.85989938663639,-90.09394073486328,4892.3046875
1594284472.2240124,0.0,10.0,0.5,0.5,-0.0011276626586914067,-0.14,-0.011,-0.56,-0.004991422859758971,10.0,1.0,100.0,0.06890576806592127,-10.0,-1.0,-100.0,19610.760108058108,-0.0051807340873535525,-0.000381855383408461,0.9999865069993605,46.51936271610763,2.6303619443719852,281.1409883196431,-96.40600254524705,-90.07247161865234,4892.3046875
1594284472.2622151,0.0,10.0,0.5,0.5,-0.002042383575439453,-0.14,-0.011,-0.56,-0.004639713103848834,10.0,1.0,100.0,0.06366239891534854,-10.0,-1.0,-100.0,19606.89294605842,-0.005246966540155741,-0.0003862085145212524,0.999986159996782,46.64651978013847,2.638069327256594,283.04455510758,-96.77005703287162,-90.05384826660156,4892.3046875
1594284472.2961235,0.0,10.0,0.5,0.5,-0.006061153411865235,-0.14,-0.011,-0.56,-0.004597414085538983,10.0,1.0,100.0,0.06270045060141309,-10.0,-1.0,-100.0,19603.01122251351,-0.005297129629620054,-0.000389697086640918,0.9999858941774465,46.77165727948552,2.6456658113019715,284.9427625249076,-97.13410008598768,-90.03314208984375,4892.3046875
1594284472.3567467,0.0,10.0,0.5,0.5,-0.00894484100341797,-0.14,-0.011,-0.56,-0.0044947024109679035,10.0,1.0,100.0,0.06176673956410894,-10.0,-1.0,-100.0,19599.114937278675,-0.005333081727071637,-0.000391859445278088,0.9999857022405207,46.89513682211744,2.6531716573607147,286.83767912284355,-97.4981318703789,-90.01246643066406,4892.3046875
1594284472.386848,0.0,10.0,0.5,0.5,-0.011253718566894532,-0.14,-0.011,-0.56,-0.004436743480596784,10.0,1.0,100.0,0.0606594991365652,-10.0,-1.0,-100.0,19595.20409124135,-0.0053546785163046725,-0.00039323226526352076,0.9999855862893087,47.01734178972729,2.660608523484336,288.7315448236438,-97.86215209430685,-89.99270629882812,4892.3046875
1594284472.4209886,0.0,10.0,0.5,0.5,-0.012761846160888672,-0.14,-0.011,-0.56,-0.004346847648866346,10.0,1.0,100.0,0.05942242019813441,-10.0,-1.0,-100.0,19591.278684732853,-0.005362186392435145,-0.0003936061727106843,0.9999855459111766,47.13855186705038,2.6679922450233056,290.62599583611205,-98.22616096681314,-89.97488403320312,4892.3046875
1594284472.4633138,0.0,10.0,0.5,0.5,-0.013446238708496094,-0.14,-0.011,-0.56,-0.0042984921793028305,10.0,1.0,100.0,0.058104658358471506,-10.0,-1.0,-100.0,19587.338718299055,-0.005356293987973728,-0.00039345853227180976,0.9999855775485452,47.259040199442936,2.6753383588143094,292.52265277945213,-98.59015834190654,-89.9598388671875,4892.3046875
1594284472.4981852,0.0,10.0,0.5,0.5,-0.01329744644165039,-0.14,-0.011,-0.56,-0.004181598984856888,10.0,1.0,100.0,0.05665478405204123,-10.0,-1.0,-100.0,19583.38419217267,-0.005337158555713732,-0.00039222268310213395,0.9999856803474327,47.37904407672329,2.6826604560593794,294.4229428929602,-98.95414416113164,-89.9482421875,4892.3046875
1594284472.5534873,0.0,10.0,0.5,0.5,-0.012339234161376954,-0.14,-0.011,-0.56,-0.004082410266353762,10.0,1.0,100.0,0.055155161737506994,-10.0,-1.0,-100.0,19579.415106988396,-0.005305670506293109,-0.00039016754009302973,0.9999858487147553,47.49873071909679,2.6899681993861644,296.3278774001558,-99.31811852477003,-89.94058227539062,4892.3046875
1594284472.5862854,0.0,10.0,0.5,0.5,-0.01070617370605469,-0.14,-0.011,-0.56,-0.0039707418235587,10.0,1.0,100.0,0.053543466427333215,-10.0,-1.0,-100.0,19575.43146313785,-0.005262070374090784,-0.0003872629117177448,0.9999860802245275,47.61823437650479,2.697269467845476,298.23828210227845,-99.68208124566372,-89.93704223632812,4892.3046875
1594284472.6235087,0.0,10.0,0.5,0.5,-0.00846909408569336,-0.14,-0.011,-0.56,-0.0038627521995863705,10.0,1.0,100.0,0.05187067778113683,-10.0,-1.0,-100.0,19571.43326115713,-0.005207037437804673,-0.0003836280574350917,0.9999863697024249,47.73755072117718,2.7045642530113847,300.1541185761492,-100.04603229741475,-89.93765258789062,4892.3046875
1594284472.6638865,0.0,10.0,0.5,0.5,-0.0058402954101562515,-0.14,-0.011,-0.56,-0.003762586858919943,10.0,1.0,100.0,0.05015881484197458,-10.0,-1.0,-100.0,19567.420501534012,-0.005141421193233596,-0.00037941143892296077,0.9999867108292358,47.85676499616779,2.7118576416489093,302.0759160746055,-100.40997164682739,-89.94210815429688,4892.3046875
1594284472.6954663,0.0,10.0,0.5,0.5,-0.0029468521118164058,-0.14,-0.011,-0.56,-0.0036345342561944784,10.0,1.0,100.0,0.048335274652443416,-10.0,-1.0,-100.0,19563.39318464091,-0.005065288374034081,-0.0003744202139558814,0.9999871012484067,47.97581487681975,2.7191463407040533,304.0032762324515,-100.77389922573147,-89.94998168945312,4892.3046875
1594284472.7570035,0.0,10.0,0.5,0.5,2.9298400878906977e-05,-0.14,-0.011,-0.56,-0.0035011203597318974,10.0,1.0,100.0,0.04650041567321454,-10.0,-1.0,-100.0,19559.351310950122,-0.0049796069488193375,-0.00036868377117495405,0.9999875337157521,48.09466161949984,2.726428370190938,305.9359457545824,-101.13781485239372,-89.96066284179688,4892.3046875
1594284472.788008,0.0,10.0,0.5,0.5,0.0028989501953124996,-0.14,-0.011,-0.56,-0.003377545715829936,10.0,1.0,100.0,0.04461532157053229,-10.0,-1.0,-100.0,19555.29488122498,-0.00488489886567087,-0.0003623664861332778,0.9999880031548388,48.213131575248504,2.733694049696237,307.8728066292393,-101.50171883891626,-89.973388671875,4892.3046875
1594284472.8211102,0.0,10.0,0.5,0.5,0.005513809204101563,-0.14,-0.011,-0.56,-0.0032669841501231445,10.0,1.0,100.0,0.04275598564235111,-10.0,-1.0,-100.0,19551.223895450006,-0.004782324626780284,-0.00035564645438817427,0.9999885013772726,48.33113641626001,2.740938503014299,309.813271286117,-101.86561079574325,-89.98733520507812,4892.3046875
1594284472.8620524,0.0,10.0,0.5,0.5,0.0077363677978515635,-0.14,-0.011,-0.56,-0.003128832832078562,10.0,1.0,100.0,0.04081430382084327,-10.0,-1.0,-100.0,19547.13835453498,-0.0046719508128348205,-0.0003483159223816044,0.9999890257155928,48.448560424146805,2.7481551832558924,311.75656253313116,-102.22949087782995,-90.00164794921875,4892.3046875
1594284472.898954,0.0,10.0,0.5,0.5,0.009487069702148437,-0.14,-0.011,-0.56,-0.0029902971555391556,10.0,1.0,100.0,0.03885829823027972,-10.0,-1.0,-100.0,19543.038258760003,-0.004554451243129402,-0.00034043342587062827,0.9999895704850909,48.56519479305253,2.7553322523517596,313.70129602865643,-102.59335908239964,-90.01553344726562,4892.3046875
1594284472.9549527,0.0,10.0,0.5,0.5,0.010655908203125002,-0.14,-0.011,-0.56,-0.0029112080348595607,10.0,1.0,100.0,0.036980816099663666,-10.0,-1.0,-100.0,19538.923608501325,-0.004431276985221225,-0.00033259560908831866,0.9999901265334779,48.68099105553401,2.7624668930991554,315.64710443410917,-102.95721534121316,-90.02820587158203,4892.3046875
1594284472.987391,0.0,10.0,0.5,0.5,0.011223332977294923,-0.14,-0.011,-0.56,-0.0027467809754788105,10.0,1.0,100.0,0.0350306918060949,-10.0,-1.0,-100.0,19534.794404292246,-0.00430236688765505,-0.0003240278677745801,0.9999906922792356,48.795826484056825,2.769552030582036,317.59313367930315,-103.3210596618508,-90.03901672363281,4892.3046875
1594284473.023924,0.0,10.0,0.5,0.5,0.011204126739501954,-0.14,-0.011,-0.56,-0.002617101632001328,10.0,1.0,100.0,0.03315108622452749,-10.0,-1.0,-100.0,19530.650646798313,-0.004168961024113765,-0.00031511759531587994,0.9999912601942481,48.90963420906137,2.7765837072300905,319.5388821519402,-103.68489198681627,-90.04747772216797,4892.3046875
1594284473.06206,0.0,10.0,0.5,0.5,0.010618910217285157,-0.14,-0.011,-0.56,-0.0025211259088577876,10.0,1.0,100.0,0.03126878411561257,-10.0,-1.0,-100.0,19526.492336555384,-0.004031514834825817,-0.0003062071232904105,0.9999918265292644,49.02239604251149,2.783560659018405,321.4841567601122,-104.04871251492227,-90.05323791503906,4892.3046875
1594284473.0960224,0.0,10.0,0.5,0.5,0.009528842163085938,-0.14,-0.011,-0.56,-0.002401739874543489,10.0,1.0,100.0,0.029422779373279025,-10.0,-1.0,-100.0,19522.319473537733,-0.003890790898141384,-0.0002970879159695197,0.9999923867134975,49.13411670286464,2.7904829844115016,323.42892285188424,-104.41252098617242,-90.05611419677734,4892.3046875
1594284473.1585844,0.0,10.0,0.5,0.5,0.008018848419189454,-0.14,-0.011,-0.56,-0.0022716780147768977,10.0,1.0,100.0,0.027625282260288507,-10.0,-1.0,-100.0,19518.132058384945,-0.0037475868887427975,-0.0002876856490417285,0.9999929363897921,49.244877765243395,2.7973550683714836,325.37364619572634,-104.7763175538111,-90.05609130859375,4892.3046875
1594284473.1880944,0.0,10.0,0.5,0.5,0.006208689117431641,-0.14,-0.011,-0.56,-0.0021613770646118774,10.0,1.0,100.0,0.02585749056939601,-10.0,-1.0,-100.0,19513.93009210739,-0.0036024506103360383,-0.00027820903239872104,0.9999934724533628,49.35473355963423,2.804179763630696,327.31862127693626,-105.14010234256871,-90.05333709716797,4892.3046875
1594284473.2222962,0.0,10.0,0.5,0.5,0.004218080139160156,-0.14,-0.011,-0.56,-0.0020925956541780755,10.0,1.0,100.0,0.02415738454204843,-10.0,-1.0,-100.0,19509.713574677822,-0.0034562188917679473,-0.0002690451475863475,0.9999939910647868,49.463893170394066,2.810968764839523,329.26518154359206,-105.50387519540168,-90.04816436767578,4892.3046875
1594284473.2630181,0.0,10.0,0.5,0.5,0.002161579132080078,-0.14,-0.011,-0.56,-0.0019382395727606284,10.0,1.0,100.0,0.02251766243802645,-10.0,-1.0,-100.0,19505.48250655306,-0.0033095799518831305,-0.0002593898345683964,0.999994489683546,49.5724754178782,2.8177286382115025,331.2140745501692,-105.8676360939221,-90.0409927368164,4892.3046875
1594284473.2990346,0.0,10.0,0.5,0.5,0.00017009887695312517,-0.14,-0.011,-0.56,-0.0018360668194410431,10.0,1.0,100.0,0.02092951596649404,-10.0,-1.0,-100.0,19501.236888484214,-0.0031630726484838676,-0.0002497642759653657,0.9999949662819443,49.680654674463824,2.824469171174504,333.1664357593718,-106.23138520536378,-90.0323486328125,4892.3046875
1594284473.354578,0.0,10.0,0.5,0.5,-0.0016677886962890632,-0.14,-0.011,-0.56,-0.0017848337457659468,10.0,1.0,100.0,0.019438124124782262,-10.0,-1.0,-100.0,19496.9767209047,-0.0030175909728277447,-0.00024063043942911447,0.9999954181103592,49.78867753417235,2.831204261396811,335.1238991111408,-106.59512245565902,-90.02278137207031,4892.3046875
1594284473.3884861,0.0,10.0,0.5,0.5,-0.0032428169250488283,-0.14,-0.011,-0.56,-0.0016613646990871628,10.0,1.0,100.0,0.018000555780951936,-10.0,-1.0,-100.0,19492.70200403768,-0.002873551270025897,-0.0002312881104896782,0.9999958445958205,49.89674839339335,2.8379455179420496,337.0878447974415,-106.95884779429805,-90.01288604736328,4892.3046875
1594284473.4254591,0.0,10.0,0.5,0.5,-0.004453964233398438,-0.14,-0.011,-0.56,-0.0015734371895831526,10.0,1.0,100.0,0.016617830465319533,-10.0,-1.0,-100.0,19488.41273844894,-0.0027313347788072216,-0.0002220800520558678,0.9999962452383391,50.00506594531292,2.84470424840453,339.05963143427294,-107.32256098381767,-90.00328063964844,4892.3046875
1594284473.4638596,0.0,10.0,0.5,0.5,-0.005297258758544922,-0.14,-0.011,-0.56,-0.0014818909489972823,10.0,1.0,100.0,0.015385016024601938,-10.0,-1.0,-100.0,19484.108924769564,-0.002592146588461272,-0.00021296143087731406,0.9999966177060264,50.11389161175058,2.8514953545554382,341.0410622178717,-107.6862621480581,-89.99446105957031,4892.3046875
1594284473.4957755,0.0,10.0,0.5,0.5,-0.0057101188659667975,-0.14,-0.011,-0.56,-0.001438723488640777,10.0,1.0,100.0,0.014179903172595267,-10.0,-1.0,-100.0,19479.790563387913,-0.0024559648151706794,-0.00020436411261394525,0.9999969632314571,50.22336229820185,2.8583267256954015,343.03311883650167,-108.04995146363413,-89.98690795898438,4892.3046875
1594284473.5577395,0.0,10.0,0.5,0.5,-0.005722158813476564,-0.14,-0.011,-0.56,-0.001354966719874882,10.0,1.0,100.0,0.013100754315004242,-10.0,-1.0,-100.0,19475.457654675352,-0.0023236571462765592,-0.00019587123793424327,0.9999972811222663,50.333697365384985,2.865210988919546,345.0373620075373,-108.41362848600373,-89.98095703125,4892.3046875
1594284473.5883572,0.0,10.0,0.5,0.5,-0.005313473510742187,-0.14,-0.011,-0.56,-0.0012739902978950385,10.0,1.0,100.0,0.012079751299486133,-10.0,-1.0,-100.0,19471.110199496616,-0.0021953900832703457,-0.00018749776112661333,0.9999975725505398,50.444950025488026,2.8721513429623635,347.05423168047236,-108.777293317272,-89.97689819335938,4892.3046875
1594284473.621269,0.0,10.0,0.5,0.5,-0.004555881500244141,-0.14,-0.011,-0.56,-0.0012467276976116447,10.0,1.0,100.0,0.011174602585621954,-10.0,-1.0,-100.0,19466.748198085115,-0.0020718341836178096,-0.0001797201324546208,0.999997837599557,50.557310882154326,2.8791588280318554,349.0851216294486,-109.14094582883199,-89.974853515625,4892.3046875
1594284473.662411,0.0,10.0,0.5,0.5,-0.0035128662109375004,-0.14,-0.011,-0.56,-0.0011666451026435425,10.0,1.0,100.0,0.01036797738281635,-10.0,-1.0,-100.0,19462.371650922578,-0.0019534362136428623,-0.00017200274190321915,0.9999980772491595,50.6708128070382,2.886235508064924,351.1303508922458,-109.50458600002159,-89.97482299804688,4892.3046875
1594284473.697479,0.0,10.0,0.5,0.5,-0.002244100189208984,-0.14,-0.011,-0.56,-0.0011560703551953223,10.0,1.0,100.0,0.009616759212603599,-10.0,-1.0,-100.0,19457.9805585352,-0.001840205297334831,-0.00016497024105483854,0.999998293213185,50.785510957938044,2.8933847340317467,353.190398932301,-109.86821370061708,-89.97671508789062,4892.3046875
1594284473.7543278,0.0,10.0,0.5,0.5,-0.000844115447998047,-0.14,-0.011,-0.56,-0.0010937010772215914,10.0,1.0,100.0,0.009015467494401422,-10.0,-1.0,-100.0,19453.574921323336,-0.0017330044190267363,-0.0001580871505155591,0.9999984858509218,50.90143379274949,2.9006083313495035,355.2655642159837,-110.23182880325953,-89.98031616210938,4892.3046875
1594284473.7883565,0.0,10.0,0.5,0.5,0.000617351531982422,-0.14,-0.011,-0.56,-0.001062519659105264,10.0,1.0,100.0,0.008513987087074616,-10.0,-1.0,-100.0,19449.15474004019,-0.0016321579682744075,-0.00015162136739598712,0.9999986565347614,51.0185687222675,2.9079057633246426,357.3558600771813,-110.59543124733472,-89.9853515625,4892.3046875
1594284473.8242543,0.0,10.0,0.5,0.5,0.002061062622070313,-0.14,-0.011,-0.56,-0.0010554369551585923,10.0,1.0,100.0,0.008068818147969321,-10.0,-1.0,-100.0,19444.72001475701,-0.0015375609256911072,-0.00014575141883603712,0.9999988073307506,51.136844943043336,2.91527316121305,359.4608907079453,-110.95902097227587,-89.99148559570312,4892.3046875
1594284473.8621116,0.0,10.0,0.5,0.5,0.003350120544433594,-0.14,-0.011,-0.56,-0.001026819887577996,10.0,1.0,100.0,0.0077535528889279975,-10.0,-1.0,-100.0,19440.270746522234,-0.001449782815399655,-0.00014022433647009518,0.9999989392328993,51.25629345097878,2.9227124306382906,361.58097119432836,-111.32259782963266,-89.99825286865234,4892.3046875
1594284473.8960507,0.0,10.0,0.5,0.5,0.004483289337158204,-0.14,-0.011,-0.56,-0.00102981677317531,10.0,1.0,100.0,0.007505374618233068,-10.0,-1.0,-100.0,19435.80693564331,-0.0013687668797402552,-0.00013529308518322103,0.9999990540860576,51.37678413853748,2.9302162537786725,363.71527831713803,-111.68616177832098,-90.00527954101562,4892.3046875
1594284473.95805,0.0,10.0,0.5,0.5,0.005369739532470704,-0.14,-0.011,-0.56,-0.0009966136061319848,10.0,1.0,100.0,0.007388604168169537,-10.0,-1.0,-100.0,19431.328582376707,-0.001295042841354251,-0.00013057107433787858,0.9999991529072582,51.49831382918944,2.9377845402200458,365.8638807520649,-112.04971280021161,-90.01213836669922,4892.3046875
1594284473.9882178,0.0,10.0,0.5,0.5,0.0060224777221679696,-0.14,-0.011,-0.56,-0.0009968812180473846,10.0,1.0,100.0,0.0073386527481341755,-10.0,-1.0,-100.0,19426.835687668994,-0.0012285019883711277,-0.00012634013382643123,0.9999992374102268,51.620726237131244,2.945408436271526,368.02575471166904,-112.41325062452296,-90.01850891113281,4892.3046875
1594284474.0223827,0.0,10.0,0.5,0.5,0.0063352783203125,-0.14,-0.011,-0.56,-0.0010386613680655955,10.0,1.0,100.0,0.007389276757783399,-10.0,-1.0,-100.0,19422.32825170376,-0.001169349511287735,-0.00012292924165919027,0.999999308754822,51.74408556158038,2.953091607693369,370.2014361930205,-112.77677540343163,-90.02398681640625,4892.3046875
1594284474.0621364,0.0,10.0,0.5,0.5,0.0064085510253906255,-0.14,-0.011,-0.56,-0.0010037949808880415,10.0,1.0,100.0,0.007510135186004898,-10.0,-1.0,-100.0,19417.806275200215,-0.0011174936857160556,-0.00011956309152444385,0.9999993684560652,51.868254092818376,2.960826206969883,372.3900209966488,-113.14028701989105,-90.02839660644531,4892.3046875
1594284474.0990367,0.0,10.0,0.5,0.5,0.006155592346191407,-0.14,-0.011,-0.56,-0.001040289972874152,10.0,1.0,100.0,0.007757857631175846,-10.0,-1.0,-100.0,19413.26975857513,-0.0010733639960869253,-0.00011688240010216517,0.9999994171139485,51.99324363309691,2.9686129099395457,374.59166969243756,-113.50378530039718,-90.03147888183594,4892.3046875
1594284474.1555681,0.0,10.0,0.5,0.5,0.0056753662109375,-0.14,-0.011,-0.56,-0.0010562010596450076,10.0,1.0,100.0,0.00806228229777376,-10.0,-1.0,-100.0,19408.718702379032,-0.0010367107218488315,-0.00011463377036251294,0.999999456044841,52.11899917801446,2.9764485258169593,376.8060570319067,-113.86727025344976,-90.03317260742188,4892.3046875
1594284474.1888478,0.0,10.0,0.5,0.5,0.004971942138671875,-0.14,-0.011,-0.56,-0.0010932978279324464,10.0,1.0,100.0,0.00845237449407777,-10.0,-1.0,-100.0,19404.153107165475,-0.001007568850414399,-0.00011296630792921768,0.9999994860216805,52.24555703501181,2.984335106704876,379.0335187397411,-114.23074170512302,-90.03343963623047,4892.3046875
1594284474.224753,0.0,10.0,0.5,0.5,0.004116941070556641,-0.14,-0.011,-0.56,-0.0011104704395721815,10.0,1.0,100.0,0.00892859924027405,-10.0,-1.0,-100.0,19399.572973583825,-0.0009859733641829356,-0.00011164168860428027,0.999999507696208,52.37288752517528,2.9922709228924065,381.27391293183837,-114.59419968147546,-90.03235626220703,4892.3046875
1594284474.2631876,0.0,10.0,0.5,0.5,0.003150393676757813,-0.14,-0.011,-0.56,-0.0011675518210793542,10.0,1.0,100.0,0.00943410989714491,-10.0,-1.0,-100.0,19394.978302146425,-0.0009714380986363477,-0.00011098741971370398,0.9999995219947924,52.50107970168217,3.0002610336674413,383.52796242323825,-114.95764412149451,-90.03004455566406,4892.3046875
1594284474.2960656,0.0,10.0,0.5,0.5,0.002156769561767579,-0.14,-0.011,-0.56,-0.001184342102152213,10.0,1.0,100.0,0.010069564294892204,-10.0,-1.0,-100.0,19390.369093347806,-0.0009644359378614826,-0.00011057184774725733,0.9999995288184831,52.63010743526919,3.008303919392634,385.7955527178924,-115.32107495711679,-90.02672576904297,4892.3046875
1594284474.3589404,0.0,10.0,0.5,0.5,0.0011816726684570314,-0.14,-0.011,-0.56,-0.0012694579248900665,10.0,1.0,100.0,0.010742504084469941,-10.0,-1.0,-100.0,19385.74534754071,-0.0009645555451912927,-0.00011099030910940992,0.9999995286567647,52.76007055634121,3.016405271064853,388.07749400122054,-115.68449217150997,-90.02264404296875,4892.3046875
1594284474.3888495,0.0,10.0,0.5,0.5,0.00027464981079101556,-0.14,-0.011,-0.56,-0.0012963204404610761,10.0,1.0,100.0,0.011481432065597388,-10.0,-1.0,-100.0,19381.10706566798,-0.000971682249225154,-0.00011163273391222006,0.9999995216857553,52.89102669101891,3.02456843014351,390.37429957668934,-116.04789556196211,-90.01806640625,4892.3046875
1594284474.4222043,0.0,10.0,0.5,0.5,-0.000521582794189453,-0.14,-0.011,-0.56,-0.0013602770691165367,10.0,1.0,100.0,0.012269402808497991,-10.0,-1.0,-100.0,19376.454247925547,-0.000985557913954257,-0.00011281155072065548,0.999999507974455,53.02295690019514,3.032792335553385,392.6859160191327,-116.41128510997068,-90.01326751708984,4892.3046875
1594284474.463827,0.0,10.0,0.5,0.5,-0.0011411315917968753,-0.14,-0.011,-0.56,-0.0013661324784463814,10.0,1.0,100.0,0.013108544369406137,-10.0,-1.0,-100.0,19371.786894869525,-0.0010059677975320007,-0.00011394563125944857,0.9999994875224604,53.15598379547749,3.0410840879549883,395.0133461612357,-116.7746606763946,-90.00856018066406,4892.3046875
1594284474.4994798,0.0,10.0,0.5,0.5,-0.0015869934082031252,-0.14,-0.011,-0.56,-0.0015063883838713841,10.0,1.0,100.0,0.014016406239087072,-10.0,-1.0,-100.0,19367.105007534847,-0.0010328769140435798,-0.00011625677403518322,0.9999994598246755,53.29008487928228,3.0494424589161384,397.3565161648922,-117.13802225470643,-90.00418853759766,4892.3046875
1594284474.556238,0.0,10.0,0.5,0.5,-0.0018231590270996099,-0.14,-0.011,-0.56,-0.0015360218160340865,10.0,1.0,100.0,0.014955356984709348,-10.0,-1.0,-100.0,19362.408586027217,-0.001065912469543439,-0.00011862777651102745,0.9999994248788636,53.42539794459657,3.0578754443159517,399.71655396467844,-117.50136964927765,-90.00039672851562,4892.3046875
1594284474.589486,0.0,10.0,0.5,0.5,-0.0018506675720214845,-0.14,-0.011,-0.56,-0.0015650445306432553,10.0,1.0,100.0,0.015918218816150832,-10.0,-1.0,-100.0,19357.697631185176,-0.0011046715350585114,-0.00012104344525265236,0.9999993825244513,53.56190401783774,3.0663820605290604,402.0934206298779,-117.8647028931543,-89.99737548828125,4892.3046875
1594284474.6258276,0.0,10.0,0.5,0.5,-0.0016777832031250003,-0.14,-0.011,-0.56,-0.0016523065844471334,10.0,1.0,100.0,0.016934489324013462,-10.0,-1.0,-100.0,19352.97214350954,-0.0011490575967940155,-0.0001240254562911435,0.9999993321419397,53.69959703397791,3.0749621584093787,404.48718338873243,-118.22802172870507,-89.9952621459961,4892.3046875
1594284474.6566207,0.0,10.0,0.5,0.5,-0.0013415420532226564,-0.14,-0.011,-0.56,-0.0017325335914429767,10.0,1.0,100.0,0.017991466029573876,-10.0,-1.0,-100.0,19348.232123282156,-0.0011988691827562856,-0.00012745445387365507,0.9999992732337583,53.83847336200269,3.083615615437514,406.89791221893296,-118.59132619566275,-89.99411010742188,4892.3046875
1594284474.6969655,0.0,10.0,0.5,0.5,-0.0008427398681640626,-0.14,-0.011,-0.56,-0.0018110695915939056,10.0,1.0,100.0,0.01903972620377028,-10.0,-1.0,-100.0,19343.47757143574,-0.0012534753251382076,-0.00013127071800989225,0.9999992057834886,53.97850956439889,3.0923412882494126,409.32554016146236,-118.95461610930825,-89.99395751953125,4892.3046875
1594284474.7592835,0.0,10.0,0.5,0.5,-0.0002485969543457032,-0.14,-0.011,-0.56,-0.0018562345906380701,10.0,1.0,100.0,0.020130018459830964,-10.0,-1.0,-100.0,19338.708488350385,-0.001312766257461164,-0.00013513182278845242,0.9999991291916928,54.11968333295584,3.1011380248537415,411.76999727366166,-119.31789140289823,-89.99473571777344,4892.3046875
1594284474.7896516,0.0,10.0,0.5,0.5,0.00045449905395507817,-0.14,-0.011,-0.56,-0.001959557671456099,10.0,1.0,100.0,0.021231141337785513,-10.0,-1.0,-100.0,19333.924874698278,-0.0013763607578159206,-0.00013955927194578098,0.9999990430766791,54.26194434607075,3.1100031004577127,414.2310030321612,-119.68115193069157,-89.99640655517578,4892.3046875
1594284474.823647,0.0,10.0,0.5,0.5,0.0011505828857421877,-0.14,-0.011,-0.56,-0.002006618589434138,10.0,1.0,100.0,0.022326004593250404,-10.0,-1.0,-100.0,19329.126731076627,-0.001443759352725752,-0.00014398666449039497,0.9999989474128321,54.40520932091254,3.1189318779471646,416.7080165725068,-120.04439753923111,-89.99877166748047,4892.3046875
1594284474.864261,0.0,10.0,0.5,0.5,0.0018609558105468751,-0.14,-0.011,-0.56,-0.0021031985160352646,10.0,1.0,100.0,0.023471961406068192,-10.0,-1.0,-100.0,19324.314058253658,-0.0015150320450886955,-0.0001488612251239,0.9999988412584477,54.549399881804206,3.127919973374713,419.20052562818415,-120.40762814895749,-90.00170135498047,4892.3046875
1594284474.899532,0.0,10.0,0.5,0.5,0.0025252555847167972,-0.14,-0.011,-0.56,-0.0021554078567771343,10.0,1.0,100.0,0.02455716446723278,-10.0,-1.0,-100.0,19319.486856467207,-0.001589228098476907,-0.00015373553280304477,0.9999987253589061,54.694451950504664,3.136963848874699,421.7081250807078,-120.77084365313792,-90.0050048828125,4892.3046875
1594284474.9565678,0.0,10.0,0.5,0.5,0.0030954589843750005,-0.14,-0.011,-0.56,-0.002247259712542748,10.0,1.0,100.0,0.02568642624972444,-10.0,-1.0,-100.0,19314.645126501215,-0.0016664392985029932,-0.00015896766687398392,0.9999985988536912,54.84026180863797,3.1460576519180847,424.2300942963805,-121.13404393957222,-90.00846099853516,4892.3046875
1594284474.9905524,0.0,10.0,0.5,0.5,0.003561483001708985,-0.14,-0.011,-0.56,-0.0023134589888635817,10.0,1.0,100.0,0.026780850379552388,-10.0,-1.0,-100.0,19309.788869037176,-0.0017460346753169988,-0.00016428929136833348,0.9999984621847882,54.98673729002801,3.1551961490741927,426.7657889926257,-121.4972289758862,-90.01187896728516,4892.3046875
1594284475.026838,0.0,10.0,0.5,0.5,0.003890394592285157,-0.14,-0.011,-0.56,-0.0023775472202453357,10.0,1.0,100.0,0.027904653698697504,-10.0,-1.0,-100.0,19304.918084473582,-0.0018280274451944517,-0.00016967043769747114,0.999998314762381,55.133764309131365,3.1643728347180975,429.3143855082133,-121.86039882748548,-90.01506042480469,4892.3046875
1594284475.0561156,0.0,10.0,0.5,0.5,0.00409588851928711,-0.14,-0.011,-0.56,-0.0024654284535786716,10.0,1.0,100.0,0.028970864879469475,-10.0,-1.0,-100.0,19300.032773553627,-0.0019116419105006082,-0.00017531981377116632,0.9999981574423868,55.28131847093167,3.173586343622749,431.8757503018247,-122.22355336520525,-90.01786804199219,4892.3046875
1594284475.098579,0.0,10.0,0.5,0.5,0.004141248321533204,-0.14,-0.011,-0.56,-0.0025332633031903955,10.0,1.0,100.0,0.030047515203067716,-10.0,-1.0,-100.0,19295.132937148912,-0.0019967948157864216,-0.00018102877668927078,0.9999979900175028,55.42925035152155,3.182828130559952,434.4487696405567,-122.586692382834,-90.0201416015625,4892.3046875
1594284475.1600385,0.0,10.0,0.5,0.5,0.004066443634033204,-0.14,-0.011,-0.56,-0.002615026171691171,10.0,1.0,100.0,0.031088607792934864,-10.0,-1.0,-100.0,19290.21857564221,-0.0020829952809626366,-0.00018691680718420971,0.9999978130939919,55.57749972605069,3.192094746131858,437.03301439996386,-122.94981581086994,-90.02181243896484,4892.3046875
1594284475.1890264,0.0,10.0,0.5,0.5,0.003838812255859375,-0.14,-0.011,-0.56,-0.0026561319735923104,10.0,1.0,100.0,0.03209852913606024,-10.0,-1.0,-100.0,19285.28968955169,-0.0021698402351298797,-0.00019259617402925933,0.9999976273472193,55.72603337207295,3.201384269400001,439.6282609752634,-123.31292354405784,-90.02278137207031,4892.3046875
1594284475.2229362,0.0,10.0,0.5,0.5,0.003528163909912109,-0.14,-0.011,-0.56,-0.00270840487820155,10.0,1.0,100.0,0.03310661210454501,-10.0,-1.0,-100.0,19280.346279621008,-0.0022572332391069495,-0.00019818622765567617,0.9999974328068665,55.87474466665106,3.2106905620898636,442.233703038063,-123.67601570379026,-90.0230712890625,4892.3046875
1594284475.2932837,0.0,10.0,0.5,0.5,0.003120170593261719,-0.14,-0.011,-0.56,-0.002802489448109028,10.0,1.0,100.0,0.03406336982468332,-10.0,-1.0,-100.0,19275.3883466376,-0.00234463970028156,-0.0002040741365305183,0.9999972305053764,56.023643304594856,3.220014142532819,444.849442950258,-124.03909214088947,-90.0226821899414,4892.3046875
1594284475.323418,0.0,10.0,0.5,0.5,0.00218621826171875,-0.14,-0.011,-0.56,-0.0031603989718950293,10.0,1.0,100.0,0.03976225017105098,-10.0,-1.0,-100.0,19267.92421758396,-0.002475153933902555,-0.00021263031034987788,0.9999969141959162,56.24719070424965,3.234023182830726,448.791216032762,-124.58367714797723,-90.02100372314453,4892.3046875
