Timestamp,Input Throttle,horizon,dT,dt,Input Roll,Roll P,Roll I,Roll D,Input Pitch,Pitch P,Pitch I,Pitch D,Input Yaw,Yaw P,Yaw I,Yaw D,Altitude,Direction X,Direction Y,Direction Z,Vertical Velocity,Roll,Mass
1594108234.7382436,0.0,5.0,0.5,0.5,-0.00018914794921875,-0.004,-0.0001,-0.026,0.0008814038089750491,2.0,0.2,20.0,0.02593824306962915,-2.0,-0.2,-20.0,477.7668013887014,-0.011770321027171644,0.0004152800840193791,0.9999306411373586,-14.628883614373464,-89.92355346679688,6440.1796875
1594108234.7801313,0.0,5.0,0.5,0.5,-0.0002333084106445313,-0.004,-0.0001,-0.026,0.0008575102573480984,2.0,0.2,20.0,0.02478685488422124,-2.0,-0.2,-20.0,476.8534725890495,-0.011816266773050485,0.00041612756072978603,0.9999300988956186,-15.21221278217061,-89.92599487304688,6440.1796875
1594108234.8190284,0.0,5.0,0.5,0.5,-0.00024259338378906256,-0.004,-0.0001,-0.026,0.0008664306982505814,2.0,0.2,20.0,0.02469512519250365,-2.0,-0.2,-20.0,476.26607121760026,-0.01184312404079586,0.0004169251709068781,0.999929780827812,-15.601052216017253,-89.92782592773438,6440.1796875
1594108234.8659146,0.0,5.0,0.5,0.5,-0.00023049774169921875,-0.004,-0.0001,-0.026,0.000851758991074277,2.0,0.2,20.0,0.024856247879138694,-2.0,-0.2,-20.0,475.69329632865265,-0.011864097020828888,0.0004166043524044872,0.9999295323385011,-14.750331616266864,-89.92984008789062,6437.14892578125
1594108234.9337335,0.0,5.0,0.5,0.5,-0.00018194396972656256,-0.004,-0.0001,-0.026,0.0008814315679954944,2.0,0.2,20.0,0.025243686405025077,-2.0,-0.2,-20.0,474.8453692679759,-0.011889988665652995,0.0004172827214874558,0.9999292245177459,-13.415869528209708,-89.9332275390625,6432.4619140625
1594108234.9806051,0.0,5.0,0.5,0.5,-0.00019652770996093753,-0.004,-0.0001,-0.026,0.0008723722325737465,2.0,0.2,20.0,0.02514863493929637,-2.0,-0.2,-20.0,474.322151542292,-0.011898396922809376,0.00041710828475145014,0.99992912457401,-12.526965334944176,-89.93569946289062,6429.3408203125
1594108235.0214953,0.0,5.0,0.5,0.5,-0.00018178985595703124,-0.004,-0.0001,-0.026,0.0008764510746731493,2.0,0.2,20.0,0.02525076957493397,-2.0,-0.2,-20.0,473.8632967744488,-0.011899866551914332,0.00041675591846437106,0.9999291072323834,-11.652571576697506,-89.9383544921875,6426.2568359375
1594108235.0643806,0.0,5.0,0.5,0.5,-0.00016720855712890623,-0.004,-0.0001,-0.026,0.0008889209208594982,2.0,0.2,20.0,0.02532884091451401,-2.0,-0.2,-20.0,473.40402689098846,-0.011893933215125281,0.00041662352764962015,0.9999291778808689,-10.833078538479677,-89.941162109375,6423.3076171875
1594108235.1182382,0.0,5.0,0.5,0.5,-0.00015290435791015625,-0.004,-0.0001,-0.026,0.0008773464439200624,2.0,0.2,20.0,0.02539927890268327,-2.0,-0.2,-20.0,473.00929527473636,-0.011880928332765541,0.0004155983111138271,0.9999293329130792,-10.050345959450956,-89.944091796875,6420.44873046875
1594108235.1651118,0.0,5.0,0.5,0.5,-0.00013899810791015627,-0.004,-0.0001,-0.026,0.0008847550967064426,2.0,0.2,20.0,0.02544551499220056,-2.0,-0.2,-20.0,472.6146234915359,-0.011860406508932232,0.00041462523637965636,0.9999295769419745,-9.30424644451196,-89.94711303710938,6417.6806640625
1594108235.2159767,0.0,5.0,0.5,0.5,-0.0001237799072265625,-0.004,-0.0001,-0.026,0.0008873151828337851,2.0,0.2,20.0,0.02547849706749536,-2.0,-0.2,-20.0,472.2845645607449,-0.011832467302952685,0.0004134800585031261,0.999929908419468,-8.592256929291601,-89.95025634765625,6414.9970703125
1594108235.2997854,0.0,5.0,0.5,0.5,-5.9670104980468765e-05,-0.004,-0.0001,-0.026,0.0008571286817258034,2.0,0.2,20.0,0.02480215207142414,-2.0,-0.2,-20.0,471.81752639974,-0.01177626857380824,0.0004110685104063869,0.999930572850514,-7.589298690280228,-89.95510864257812,6411.13134765625
1594108235.3741934,0.0,5.0,0.5,0.5,1.770843505859371e-05,-0.004,-0.0001,-0.026,0.000815545594749176,2.0,0.2,20.0,0.023693790982728433,-2.0,-0.2,-20.0,471.2257870695321,-0.011674835132553706,0.00040699065277434405,0.9999317639635398,-6.3389178146316585,-89.96188354492188,6406.19140625
1594108235.41708,0.0,5.0,0.5,0.5,-1.5432739257812637e-06,-0.004,-0.0001,-0.026,0.0008041404972801492,2.0,0.2,20.0,0.023599735084955057,-2.0,-0.2,-20.0,470.8878628910752,-0.011578500635067377,0.000402774127331288,0.9999328857958648,-5.433223362204732,-89.96710205078125,6402.5673828125
1594108235.5687106,0.0,5.0,0.5,0.5,-3.0650634765625004e-05,-0.004,-0.0001,-0.026,0.0008235082807985832,2.0,0.2,20.0,0.023903230033353495,-2.0,-0.2,-20.0,470.68686082132626,-0.011504978677175882,0.0003998338491112324,0.9999337356037803,-4.8577313648576315,-89.97064208984375,6400.22119140625
1594108235.6085663,0.0,5.0,0.5,0.5,-1.6116333007812494e-05,-0.004,-0.0001,-0.026,0.0008180604504306188,2.0,0.2,20.0,0.023588811858950266,-2.0,-0.2,-20.0,470.50818928075023,-0.011424198807518446,0.00039692910286934365,0.9999346629299805,-4.335583043964665,-89.97418212890625,6398.0048828125
1594108235.7696443,0.0,5.0,0.5,0.5,5.336029052734374e-05,-0.004,-0.0001,-0.026,0.0007519601577371622,2.0,0.2,20.0,0.022211073165319173,-2.0,-0.2,-20.0,470.2768519289093,-0.011288569165496901,0.00039130221041963506,0.9999362055095193,-3.6238274814053084,-89.97955322265625,6394.85595703125
1594108235.8434463,0.0,5.0,0.5,0.5,7.617218017578124e-05,-0.004,-0.0001,-0.026,0.0007378410221984683,2.0,0.2,20.0,0.021558042134928387,-2.0,-0.2,-20.0,470.0861398250563,-0.011136141987174476,0.00038556821449363637,0.9999379169122418,-2.9597797158245482,-89.98495483398438,6391.82421875
1594108235.8798692,0.0,5.0,0.5,0.5,4.4200439453125e-05,-0.004,-0.0001,-0.026,0.0007509438381945192,2.0,0.2,20.0,0.02215267972482617,-2.0,-0.2,-20.0,469.9807528590318,-0.01102528970753849,0.0003809793055726908,0.9999391470692772,-2.5244447033505315,-89.98855590820312,6389.82177734375
1594108235.9437,0.0,5.0,0.5,0.5,0.00011306549072265622,-0.004,-0.0001,-0.026,0.0006925313046611629,2.0,0.2,20.0,0.020403811206962757,-2.0,-0.2,-20.0,469.85323947446886,-0.010845798737625827,0.0003741839268526251,0.999941112584202,-1.9328817343761315,-89.99395751953125,6386.96826171875
1594108235.9865854,0.0,5.0,0.5,0.5,8.089538574218749e-05,-0.004,-0.0001,-0.026,0.0007196282651643129,2.0,0.2,20.0,0.021130355090834614,-2.0,-0.2,-20.0,469.7869884094689,-0.010716572221309678,0.00036927475468409674,0.9999425077053086,-1.5676928931799976,-89.99755096435547,6385.13671875
1594108236.056396,0.0,5.0,0.5,0.5,0.0001481560516357422,-0.004,-0.0001,-0.026,0.0006372788010785262,2.0,0.2,20.0,0.019157248514410793,-2.0,-0.2,-20.0,469.714027929469,-0.01051042135762268,0.00036110890007591616,0.9999446987925119,-1.0474696738685636,-90.00289154052734,6382.4580078125
1594108236.132195,0.0,5.0,0.5,0.5,0.00016930953979492187,-0.004,-0.0001,-0.026,0.0006114701075821101,2.0,0.2,20.0,0.018362129037014254,-2.0,-0.2,-20.0,469.67045860900544,-0.010288020457313009,0.00035255769128257896,0.9999470147653545,-0.5699786507796818,-90.00820922851562,6379.8837890625
1594108236.170092,0.0,5.0,0.5,0.5,0.00018989913940429688,-0.004,-0.0001,-0.026,0.0005828117390261585,2.0,0.2,20.0,0.017569943882148546,-2.0,-0.2,-20.0,469.6546736933524,-0.010051090145151449,0.0003435306965010853,0.999949427507989,-0.11222150165015726,-90.01348876953125,6377.35888671875
1594108236.2129774,0.0,5.0,0.5,0.5,0.00015746505737304688,-0.004,-0.0001,-0.026,0.0006168428246857466,2.0,0.2,20.0,0.018613150883328225,-2.0,-0.2,-20.0,469.65877129952423,-0.009884506007321757,0.0003369250628031907,0.999951090315168,0.1773360240239577,-90.0169677734375,6375.7138671875
1594108236.254866,0.0,5.0,0.5,0.5,0.00017092880249023435,-0.004,-0.0001,-0.026,0.0006041343842143286,2.0,0.2,20.0,0.018121314035728257,-2.0,-0.2,-20.0,469.67400283855386,-0.00971218281864918,0.0003303994746803203,0.9999527810557277,0.4450527655403018,-90.02041625976562,6374.1220703125
1594108236.3246794,0.0,5.0,0.5,0.5,0.0002339369201660156,-0.004,-0.0001,-0.026,0.0005075172658954149,2.0,0.2,20.0,0.015595580379154678,-2.0,-0.2,-20.0,469.7154116049642,-0.009442275677274282,0.0003201359161252048,0.999955369475573,0.808271567161212,-90.0254898071289,6371.828125
1594108236.3905022,0.0,5.0,0.5,0.5,0.0003020690155029297,-0.004,-0.0001,-0.026,0.0003943951422339455,2.0,0.2,20.0,0.012584493953666048,-2.0,-0.2,-20.0,469.8025876125321,-0.009061716432582367,0.00030572819026711886,0.9999588950679769,1.2562163512517077,-90.03214263916016,6368.8583984375
1594108236.4323916,0.0,5.0,0.5,0.5,0.00022684204101562497,-0.004,-0.0001,-0.026,0.0005134205972159284,2.0,0.2,20.0,0.015788344322494475,-2.0,-0.2,-20.0,469.85925354261417,-0.008863268886495183,0.0002981130874627913,0.999960676023429,1.4685632515027056,-90.03538513183594,6367.40185546875
1594108236.4772727,0.0,5.0,0.5,0.5,0.0002386781311035156,-0.004,-0.0001,-0.026,0.0005012639592086194,2.0,0.2,20.0,0.015251208266454298,-2.0,-0.2,-20.0,469.92411997762974,-0.008660412224615048,0.00029071302520226124,0.9999624556682299,1.6723713408156131,-90.03857421875,6365.966796875
1594108236.5191574,0.0,5.0,0.5,0.5,0.0002507362365722656,-0.004,-0.0001,-0.026,0.0004725458605356217,2.0,0.2,20.0,0.014687901489052333,-2.0,-0.2,-20.0,469.9965751240961,-0.008452378938944845,0.0002827562103908707,0.9999642380301398,1.8546555879223607,-90.0417251586914,6364.58447265625
1594108236.5600514,0.0,5.0,0.5,0.5,0.00026103515625,-0.004,-0.0001,-0.026,0.0004514574525414498,2.0,0.2,20.0,0.014113968347739873,-2.0,-0.2,-20.0,470.07589710934553,-0.008239228257623517,0.0002746428316028653,0.9999660192671719,2.0266525896564485,-90.04478454589844,6363.22607421875
1594108236.612908,0.0,5.0,0.5,0.5,0.0002723183441162109,-0.004,-0.0001,-0.026,0.00042944806496126263,2.0,0.2,20.0,0.01355093987577317,-2.0,-0.2,-20.0,470.16184036352206,-0.00802192742869655,0.00026634521151328196,0.9999677883514833,2.188693572767784,-90.04779815673828,6361.89306640625
1594108236.6547961,0.0,5.0,0.5,0.5,0.00028339538574218747,-0.004,-0.0001,-0.026,0.00041444319402939305,2.0,0.2,20.0,0.012975616463149282,-2.0,-0.2,-20.0,470.2539507516194,-0.0078002902409424184,0.00025819825591654784,0.9999695439391231,2.3417393463953284,-90.05076599121094,6360.58203125
1594108236.6946912,0.0,5.0,0.5,0.5,0.0002928929138183594,-0.004,-0.0001,-0.026,0.0003929589685209713,2.0,0.2,20.0,0.012385864430905363,-2.0,-0.2,-20.0,470.35192212311085,-0.0075740411596132194,0.00024989295188784723,0.999971285314746,2.4862403387204797,-90.05364227294922,6359.291015625
1594108236.7366157,0.0,5.0,0.5,0.5,0.00030362037658691405,-0.004,-0.0001,-0.026,0.0003639090698746375,2.0,0.2,20.0,0.011798745118359301,-2.0,-0.2,-20.0,470.45550919976085,-0.0073437733576961345,0.0002411013456604818,0.9999730050671429,2.622524629584831,-90.05648040771484,6358.021484375
1594108236.7800064,0.0,5.0,0.5,0.5,0.0003128158569335938,-0.004,-0.0001,-0.026,0.00035695565285128014,2.0,0.2,20.0,0.011205598055627663,-2.0,-0.2,-20.0,470.56428696610965,-0.007109630861702758,0.00023287409207001504,0.999974699139267,2.7511901926516793,-90.05923461914062,6356.76953125
1594108236.8228924,0.0,5.0,0.5,0.5,0.0003216524505615235,-0.004,-0.0001,-0.026,0.00031607715551426857,2.0,0.2,20.0,0.010607312945709041,-2.0,-0.2,-20.0,470.6779780143406,-0.006871699855635726,0.00022361598603977672,0.9999763645891762,2.8724001882740047,-90.06190490722656,6355.53564453125
1594108236.9026792,0.0,5.0,0.5,0.5,0.0003687945556640625,-0.004,-0.0001,-0.026,0.00020846660222386505,2.0,0.2,20.0,0.007330475495175275,-2.0,-0.2,-20.0,470.8569517090218,-0.006508442708347749,0.0002103827846847484,0.99997879773153,3.04012290295732,-90.06578063964844,6353.72021484375
1594108236.9515495,0.0,5.0,0.5,0.5,0.00037933715820312496,-0.004,-0.0001,-0.026,0.00017102417900042687,2.0,0.2,20.0,0.006397188714864456,-2.0,-0.2,-20.0,471.0459495956311,-0.006137927562779231,0.00019673042812709185,0.9999811433934006,3.1978658485986995,-90.0694808959961,6351.92919921875
1594108236.9974391,0.0,5.0,0.5,0.5,0.00035416404724121096,-0.004,-0.0001,-0.026,0.0002352646879986966,2.0,0.2,20.0,0.008248403069010615,-2.0,-0.2,-20.0,471.176806547679,-0.005887534887143436,0.0001873246567537574,0.9999826507707149,3.2987511673886005,-90.07183837890625,6350.74560546875
1594108237.0982068,0.0,5.0,0.5,0.5,0.00042592208862304685,-0.004,-0.0001,-0.026,7.86665024237875e-06,2.0,0.2,20.0,0.0020527898832499725,-2.0,-0.2,-20.0,471.44977853808086,-0.005380618077259776,0.0001685244370196545,0.9999855101693329,3.473031094684184,-90.07626342773438,6348.4453125
1594108237.1946208,0.0,5.0,0.5,0.5,0.00046133209228515625,-0.004,-0.0001,-0.026,-0.00013370946138593226,2.0,0.2,20.0,-0.002073103375933843,-2.0,-0.2,-20.0,471.80882944271434,-0.004734842747566606,0.00014509452163698606,0.9999887800429241,3.66884007796559,-90.08126831054688,6345.625
1594108237.237464,0.0,5.0,0.5,0.5,0.0004125640106201172,-0.004,-0.0001,-0.026,2.254082474073191e-05,2.0,0.2,20.0,0.0022041906918095107,-2.0,-0.2,-20.0,472.03300814377144,-0.004345184982453086,0.00013100711219475068,0.9999905510576612,3.7691839685051063,-90.08396911621094,6343.974609375
1594108237.2853696,0.0,5.0,0.5,0.5,0.00039257133483886717,-0.004,-0.0001,-0.026,9.083146618000268e-05,2.0,0.2,20.0,0.004202654890780699,-2.0,-0.2,-20.0,472.1857845400227,-0.004084930937083567,0.00012142012471606882,0.9999916492633287,3.8361776221579516,-90.08563232421875,6342.8740234375
1594108237.3282418,0.0,5.0,0.5,0.5,0.0003954241943359375,-0.004,-0.0001,-0.026,7.588538514278857e-05,2.0,0.2,20.0,0.003613635816350441,-2.0,-0.2,-20.0,472.3408501202939,-0.003824734674475837,0.00011214210771300448,0.999992679387613,3.891318870908985,-90.087158203125,6341.80224609375
1594108237.3960378,0.0,5.0,0.5,0.5,0.0004192295074462891,-0.004,-0.0001,-0.026,-5.5722271248935334e-05,2.0,0.2,20.0,0.00013874821503408533,-2.0,-0.2,-20.0,472.5773029921111,-0.003433442307211903,9.784261627236532e-05,0.9999941009329733,3.9624119596328495,-90.08926391601562,6340.22314453125
1594108237.438924,0.0,5.0,0.5,0.5,0.0004023178863525391,-0.004,-0.0001,-0.026,2.0537160922912064e-05,2.0,0.2,20.0,0.002153699975068025,-2.0,-0.2,-20.0,472.7370977374958,-0.0031726526792957704,8.843217231213884e-05,0.9999949632146791,4.007005348096312,-90.09051513671875,6339.177734375
1594108237.4847987,0.0,5.0,0.5,0.5,0.00040509117126464846,-0.004,-0.0001,-0.026,-3.7766503651464342e-06,2.0,0.2,20.0,0.0015590902419498221,-2.0,-0.2,-20.0,472.89859398128465,-0.002911906254390586,7.889494439313723e-05,0.9999957572797763,4.047867010332974,-90.09168243408203,6338.140625
1594108237.5546105,0.0,5.0,0.5,0.5,0.0004207768249511719,-0.004,-0.0001,-0.026,-0.00012735767771564316,2.0,0.2,20.0,-0.0019165412546062726,-2.0,-0.2,-20.0,473.14368745475076,-0.002520150378682375,6.472695216928738e-05,0.9999968223211966,4.099776119203129,-90.09320831298828,6336.60888671875
1594108237.5955052,0.0,5.0,0.5,0.5,0.0004197933959960938,-0.004,-0.0001,-0.026,-0.00015669313389354177,2.0,0.2,20.0,-0.00276065382474804,-2.0,-0.2,-20.0,473.39154035097454,-0.002128928808654009,5.0633532572208306e-05,0.9999977325466158,4.146798979187195,-90.09449005126953,6335.0888671875
1594108237.6374276,0.0,5.0,0.5,0.5,0.0004077518463134766,-0.004,-0.0001,-0.026,-8.341994496926197e-05,2.0,0.2,20.0,-0.0007341528646176033,-2.0,-0.2,-20.0,473.5582326784497,-0.0018688034305236868,4.1276197093405096e-05,0.9999982529334805,4.176112537428799,-90.0951919555664,6334.0810546875
1594108237.7121894,0.0,5.0,0.5,0.5,0.0004157841491699219,-0.004,-0.0001,-0.026,-0.0002073913971505176,2.0,0.2,20.0,-0.0041391177266673455,-2.0,-0.2,-20.0,473.81022594566457,-0.0014807472427181656,2.725014268618715e-05,0.9999989033219152,4.211590396395796,-90.09606170654297,6332.5888671875
1594108237.7540803,0.0,5.0,0.5,0.5,0.00041117134094238283,-0.004,-0.0001,-0.026,-0.00022920104668933442,2.0,0.2,20.0,-0.004944698658146963,-2.0,-0.2,-20.0,474.0641523845261,-0.0010943098437412077,1.3614967681452616e-05,0.99999940115012,4.240377922962642,-90.0966567993164,6331.1142578125
1594108237.833867,0.0,5.0,0.5,0.5,0.0004063543701171875,-0.004,-0.0001,-0.026,-0.00026337227012499393,2.0,0.2,20.0,-0.005686231314936016,-2.0,-0.2,-20.0,474.31969823350664,-0.0007122524285796634,-2.2716325673303238e-07,0.999999746348181,4.26614062988238,-90.09700775146484,6329.646484375
1594108237.905708,0.0,5.0,0.5,0.5,0.000399861068725586,-0.004,-0.0001,-0.026,-0.00028661346913065464,2.0,0.2,20.0,-0.006433844914742104,-2.0,-0.2,-20.0,474.5764922287781,-0.00033401114072207727,-1.3756748348092926e-05,0.9999999441236535,4.285057829413993,-90.09709167480469,6328.19580078125
1594108237.9475608,0.0,5.0,0.5,0.5,0.00039342964172363283,-0.004,-0.0001,-0.026,-0.000311541775473209,2.0,0.2,20.0,-0.007136746113689239,-2.0,-0.2,-20.0,474.83420718146954,3.862124497900375e-05,-2.7075022486662486e-05,0.9999999988876712,4.3008361598009195,-90.0969467163086,6326.7529296875
1594108237.9894874,0.0,5.0,0.5,0.5,0.00038903564453125,-0.004,-0.0001,-0.026,-0.00024275298359285866,2.0,0.2,20.0,-0.0051468345766995105,-2.0,-0.2,-20.0,475.0065479562618,0.0002837710134330071,-3.594221967374704e-05,0.9999999590910836,4.309291700177505,-90.09667205810547,6325.796875
1594108238.0692344,0.0,5.0,0.5,0.5,0.0003783855438232422,-0.004,-0.0001,-0.026,-0.00035431147349823216,2.0,0.2,20.0,-0.008287626150619114,-2.0,-0.2,-20.0,475.26538631971925,0.0006462554893032386,-4.8961080846808266e-05,0.9999997899783056,4.316297114178665,-90.09607696533203,6324.3759765625
1594108238.111123,0.0,5.0,0.5,0.5,0.0003689537811279297,-0.004,-0.0001,-0.026,-0.00037647565314139397,2.0,0.2,20.0,-0.008963858999063594,-2.0,-0.2,-20.0,475.52453745971434,0.0010032899952566584,-6.168763914678951e-05,0.9999994948017827,4.3189178628751534,-90.09524536132812,6322.96484375
1594108238.1540122,0.0,5.0,0.5,0.5,0.0003699964904785156,-0.004,-0.0001,-0.026,-0.000303295483375937,2.0,0.2,20.0,-0.007047780393106643,-2.0,-0.2,-20.0,475.69730775314383,0.0012375692091490522,-6.981594389260071e-05,0.9999992317737981,4.320155506435532,-90.09455871582031,6322.0263671875
1594108238.1998842,0.0,5.0,0.5,0.5,0.00036358848571777343,-0.004,-0.0001,-0.026,-0.0003251325168087085,2.0,0.2,20.0,-0.007501924347522506,-2.0,-0.2,-20.0,475.87013432523236,0.0014681327669630376,-7.808840474804159e-05,0.9999989192436058,4.319084742728233,-90.09375,6321.09326171875
1594108238.2458012,0.0,5.0,0.5,0.5,0.0003575926208496094,-0.004,-0.0001,-0.026,-0.00034337207116029293,2.0,0.2,20.0,-0.007972229478732688,-2.0,-0.2,-20.0,476.04283979488537,0.0016960799289421355,-8.632938108547673e-05,0.9999985579290165,4.315919183155169,-90.09284973144531,6320.1650390625
1594108238.3195646,0.0,5.0,0.5,0.5,0.00033427558898925785,-0.004,-0.0001,-0.026,-0.0004432797858623765,2.0,0.2,20.0,-0.010861204612457286,-2.0,-0.2,-20.0,476.301503697061,0.0020317336484818333,-9.825918340253823e-05,0.9999979311996174,4.308504797291626,-90.09129333496094,6318.7802734375
1594108238.390375,0.0,5.0,0.5,0.5,0.0003211299133300782,-0.004,-0.0001,-0.026,-0.00045545444013895116,2.0,0.2,20.0,-0.011426804841432573,-2.0,-0.2,-20.0,476.55965180892963,0.002359740637114778,-0.00010955614783872572,0.9999972098068954,4.2993060690105835,-90.08950805664062,6317.3994140625
1594108238.435255,0.0,5.0,0.5,0.5,0.000307505111694336,-0.004,-0.0001,-0.026,-0.0004841038927278821,2.0,0.2,20.0,-0.011941654318553829,-2.0,-0.2,-20.0,476.81718711927533,0.002678538336590517,-0.00012102897336695486,0.9999964053857229,4.28733871832977,-90.08750915527344,6316.025390625
1594108238.5070634,0.0,5.0,0.5,0.5,0.0002925472259521485,-0.004,-0.0001,-0.026,-0.0004893906516091932,2.0,0.2,20.0,-0.012442648159849183,-2.0,-0.2,-20.0,477.0739013290731,0.0029883881930116026,-0.00013160160177356925,0.9999955260985051,4.273866208754219,-90.08528137207031,6314.65625
1594108238.5489519,0.0,5.0,0.5,0.5,0.00027711074829101564,-0.004,-0.0001,-0.026,-0.0005151440197940863,2.0,0.2,20.0,-0.012889798291382894,-2.0,-0.2,-20.0,477.32976036693435,0.0032877132803295467,-0.00014228866562499847,0.9999945853330018,4.258201917682871,-90.08283996582031,6313.2919921875
1594108238.5928438,0.0,5.0,0.5,0.5,0.0002889505767822266,-0.004,-0.0001,-0.026,-0.00045027892674546566,2.0,0.2,20.0,-0.011227329077100846,-2.0,-0.2,-20.0,477.4997858967399,0.003481529356999497,-0.0001489590863095866,0.999993928363831,4.246862150735551,-90.08112335205078,6312.384765625
1594108238.6925752,0.0,5.0,0.5,0.5,0.00025057777404785157,-0.004,-0.0001,-0.026,-0.0005286647383982572,2.0,0.2,20.0,-0.013602947499094934,-2.0,-0.2,-20.0,477.7537812688388,0.0037631309241830955,-0.00015849518927482743,0.9999929068373047,4.227250039345868,-90.07836151123047,6311.0302734375
1594108238.7344623,0.0,5.0,0.5,0.5,0.0002029693603515625,-0.004,-0.0001,-0.026,-0.0006152649192620537,2.0,0.2,20.0,-0.01593987101083154,-2.0,-0.2,-20.0,478.0906578678405,0.004122847198584461,-0.00017101273878237526,0.9999914864065695,4.1984096159135325,-90.07438659667969,6309.2314453125
1594108238.8377013,0.0,5.0,0.5,0.5,0.00021021392822265624,-0.004,-0.0001,-0.026,-0.0005593181466705548,2.0,0.2,20.0,-0.014455901696994984,-2.0,-0.2,-20.0,478.3415751148714,0.0043797858628754635,-0.00017975729703972355,0.999990392535403,4.176089145513215,-90.0711898803711,6307.884765625
1594108238.8825812,0.0,5.0,0.5,0.5,0.0001578337860107422,-0.004,-0.0001,-0.026,-0.0006343521133336541,2.0,0.2,20.0,-0.016477156694284015,-2.0,-0.2,-20.0,478.6740860871505,0.004702594736565956,-0.0001910251040380977,0.9999889244947432,4.143188434828919,-90.06668090820312,6306.09619140625
1594108238.9254656,0.0,5.0,0.5,0.5,0.0002043097686767578,-0.004,-0.0001,-0.026,-0.0005241976082367031,2.0,0.2,20.0,-0.013447862076801308,-2.0,-0.2,-20.0,478.8393520003883,0.004855628943846622,-0.00019616636405680134,0.9999881921234457,4.126501921088532,-90.0643310546875,6305.203125
1594108239.004253,0.0,5.0,0.5,0.5,0.00015595970153808593,-0.004,-0.0001,-0.026,-0.0005893609092129431,2.0,0.2,20.0,-0.015242674854583518,-2.0,-0.2,-20.0,479.0859335720306,0.00507376617191427,-0.00020371319849940258,0.9999871076157759,4.099684260722078,-90.0606918334961,6303.86767578125
1594108239.048171,0.0,5.0,0.5,0.5,0.00013745254516601561,-0.004,-0.0001,-0.026,-0.0005918304999980902,2.0,0.2,20.0,-0.015482290055841912,-2.0,-0.2,-20.0,479.3307483569952,0.005280497047001331,-0.00021060061389140068,0.9999860359016609,4.071437207920063,-90.05693054199219,6302.53564453125
1594108239.1229746,0.0,5.0,0.5,0.5,0.00011729507446289065,-0.004,-0.0001,-0.026,-0.0005978113697966976,2.0,0.2,20.0,-0.015655524134054355,-2.0,-0.2,-20.0,479.57394524046686,0.0054739430654443064,-0.00021705232956540434,0.9999849943052158,4.042717602420238,-90.05300903320312,6301.205078125
1594108239.1937451,0.0,5.0,0.5,0.5,5.734100341796877e-05,-0.004,-0.0001,-0.026,-0.000644690394558499,2.0,0.2,20.0,-0.017073718462308776,-2.0,-0.2,-20.0,479.8953502231743,0.005712006865429092,-0.0002249707079147697,0.9999836610493943,4.0031491541118465,-90.04762268066406,6299.435546875
1594108239.268545,0.0,5.0,0.5,0.5,7.206451416015624e-05,-0.004,-0.0001,-0.026,-0.0006056047440366941,2.0,0.2,20.0,-0.015953592740338758,-2.0,-0.2,-20.0,480.13442791008856,0.005875309792975623,-0.00023031744771566547,0.9999827136949466,3.9726335278425235,-90.04345703125,6298.1103515625
1594108239.3553138,0.0,5.0,0.5,0.5,9.935531616210965e-06,-0.004,-0.0001,-0.026,-0.000643844197335025,2.0,0.2,20.0,-0.017065427632843355,-2.0,-0.2,-20.0,480.4501548020635,0.0060721287854627005,-0.0002368423150833075,0.9999815364084133,3.931104932958612,-90.03778839111328,6296.345703125
1594108239.4021876,0.0,5.0,0.5,0.5,2.6680679321289076e-05,-0.004,-0.0001,-0.026,-0.0006078248759115138,2.0,0.2,20.0,-0.01607390481548797,-2.0,-0.2,-20.0,480.6847465384053,0.006203886834333636,-0.00024106554614754204,0.9999807266520436,3.899171345751356,-90.033447265625,6295.0244140625
1594108239.4470692,0.0,5.0,0.5,0.5,5.1478805541992184e-05,-0.004,-0.0001,-0.026,-0.0005762247550674489,2.0,0.2,20.0,-0.01523492570429648,-2.0,-0.2,-20.0,480.8401232397882,0.006283639610402373,-0.00024340479361542033,0.999980228118213,3.8778047056528733,-90.03052520751953,6294.1435546875
1594108239.486962,0.0,5.0,0.5,0.5,3.892616271972657e-05,-0.004,-0.0001,-0.026,-0.0005819726216919801,2.0,0.2,20.0,-0.015311659637313742,-2.0,-0.2,-20.0,480.9945234042825,0.0063578992640133496,-0.0002457347875268105,0.9999797581608155,3.8559742395840177,-90.027587890625,6293.2646484375
1594108239.5368307,0.0,5.0,0.5,0.5,2.6099319458007826e-05,-0.004,-0.0001,-0.026,-0.0005842857319043902,2.0,0.2,20.0,-0.015356852490411544,-2.0,-0.2,-20.0,481.14822070661467,0.006425957438321003,-0.00024790836910728496,0.9999793225924432,3.83386695442302,-90.02462768554688,6292.3857421875
1594108239.5797615,0.0,5.0,0.5,0.5,1.3174819946289068e-05,-0.004,-0.0001,-0.026,-0.0005868730131529355,2.0,0.2,20.0,-0.015396173451037845,-2.0,-0.2,-20.0,481.30079154192936,0.006488188250906907,-0.00024995491786896794,0.9999789202457019,3.8116019888940755,-90.02164459228516,6291.50830078125
1594108239.6255896,0.0,5.0,0.5,0.5,-6.355285644530533e-08,-0.004,-0.0001,-0.026,-0.0005780445133647068,2.0,0.2,20.0,-0.015416956405769466,-2.0,-0.2,-20.0,481.45271849725395,0.006544420558400991,-0.0002513720833716061,0.9999785534558381,3.7892049829691037,-90.01863098144531,6290.630859375
1594108239.6924117,0.0,5.0,0.5,0.5,-5.781959533691406e-05,-0.004,-0.0001,-0.026,-0.0006008757138954969,2.0,0.2,20.0,-0.015945644489553747,-2.0,-0.2,-20.0,481.67870402522385,0.0066184230931027165,-0.0002536611325167856,0.9999780658253412,3.7553961595081913,-90.01410675048828,6289.31494140625
1594108239.7761877,0.0,5.0,0.5,0.5,-7.790771484375e-05,-0.004,-0.0001,-0.026,-0.0005878374960348834,2.0,0.2,20.0,-0.015828440795644827,-2.0,-0.2,-20.0,481.9027360487962,0.006679330247628736,-0.0002551161592887833,0.9999776604820674,3.7214979185435313,-90.00952911376953,6288.0
1594108239.8196347,0.0,5.0,0.5,0.5,-9.72858428955078e-05,-0.004,-0.0001,-0.026,-0.0005877758369756535,2.0,0.2,20.0,-0.015688419257940504,-2.0,-0.2,-20.0,482.12459909473546,0.00672745638786383,-0.00025640870325938526,0.9999773375357696,3.6874978036361674,-90.00492858886719,6286.68603515625
1594108239.8853676,0.0,5.0,0.5,0.5,-0.00011561546325683594,-0.004,-0.0001,-0.026,-0.0005801807800942702,2.0,0.2,20.0,-0.015509413240738323,-2.0,-0.2,-20.0,482.34451155608986,0.006762296108573009,-0.0002572147940511935,0.9999771023337932,3.653367719792902,-90.0003433227539,6285.3720703125
1594108239.9293056,0.0,5.0,0.5,0.5,-0.00013318656921386718,-0.004,-0.0001,-0.026,-0.0005715837993542721,2.0,0.2,20.0,-0.015304425651309527,-2.0,-0.2,-20.0,482.5622560522752,0.00678402353940449,-0.00025753831157468486,0.9999769550837834,3.619135195812275,-89.99579620361328,6284.05859375
1594108239.998069,0.0,5.0,0.5,0.5,-0.00015106491088867188,-0.004,-0.0001,-0.026,-0.0005590376331199125,2.0,0.2,20.0,-0.015074843881641452,-2.0,-0.2,-20.0,482.7781377885258,0.006792812817261768,-0.00025724716288954506,0.9999768954920542,3.5848365666975397,-89.99127197265625,6282.74560546875
1594108240.0369613,0.0,5.0,0.5,0.5,-0.00012354911804199218,-0.004,-0.0001,-0.026,-0.0005504025195900993,2.0,0.2,20.0,-0.01487700727672603,-2.0,-0.2,-20.0,482.92088118800893,0.006791347612175085,-0.00025657739313417725,0.9999769056161507,3.56192061038958,-89.98828125,6281.87060546875
1594108240.0778527,0.0,5.0,0.5,0.5,-0.00013498954772949218,-0.004,-0.0001,-0.026,-0.0005529664400242058,2.0,0.2,20.0,-0.014762204856313929,-2.0,-0.2,-20.0,483.06267634010874,0.006784403271761039,-0.00025607519646211375,0.999976952883285,3.5390153869687695,-89.98532104492188,6280.99609375
1594108240.117208,0.0,5.0,0.5,0.5,-0.00014722343444824218,-0.004,-0.0001,-0.026,-0.0005424136867542531,2.0,0.2,20.0,-0.01463717699790839,-2.0,-0.2,-20.0,483.20355575717986,0.006772081290699436,-0.00025513155904128106,0.999977036647782,3.516093662988153,-89.98236083984375,6280.12109375
1594108240.1610541,0.0,5.0,0.5,0.5,-0.00015854156494140626,-0.004,-0.0001,-0.026,-0.0005411494983425981,2.0,0.2,20.0,-0.014489351211742645,-2.0,-0.2,-20.0,483.3435498988256,0.006753902051236088,-0.000254211537693474,0.9999771598309515,3.4931920772282647,-89.97943115234375,6279.24609375
1594108240.1965148,0.0,5.0,0.5,0.5,-0.00016973678588867188,-0.004,-0.0001,-0.026,-0.0005364283484497216,2.0,0.2,20.0,-0.014335110732452642,-2.0,-0.2,-20.0,483.48260035866406,0.006730174101308195,-0.0002531579756054988,0.9999773200766133,3.470314962827996,-89.97653198242188,6278.3720703125
1594108240.2363634,0.0,5.0,0.5,0.5,-0.00017987815856933593,-0.004,-0.0001,-0.026,-0.0005211908216293395,2.0,0.2,20.0,-0.014176002307175417,-2.0,-0.2,-20.0,483.6206405820558,0.006701269444762776,-0.00025150803444905966,0.9999775146129724,3.447474260441335,-89.97369384765625,6277.4970703125
1594108240.2802458,0.0,5.0,0.5,0.5,-0.00019250457763671876,-0.004,-0.0001,-0.026,-0.0005224096817452453,2.0,0.2,20.0,-0.01399778436542709,-2.0,-0.2,-20.0,483.75792031618766,0.006666871724008259,-0.00025006677078923773,0.999977744896368,3.424672187304492,-89.9708251953125,6276.623046875
1594108240.3171453,0.0,5.0,0.5,0.5,-0.00020248916625976564,-0.004,-0.0001,-0.026,-0.0005082894721610649,2.0,0.2,20.0,-0.013810716139226003,-2.0,-0.2,-20.0,483.8941915180767,0.006627153044553063,-0.0002481204687832734,0.9999780093975852,3.4019185384157398,-89.968017578125,6275.748046875
1594108240.3550434,0.0,5.0,0.5,0.5,-0.00021312736511230467,-0.004,-0.0001,-0.026,-0.0005089728319618203,2.0,0.2,20.0,-0.013617599850029896,-2.0,-0.2,-20.0,484.02966876421124,0.006582389998324898,-0.0002463904327008564,0.9999783054815062,3.379215679777871,-89.96524047851562,6274.8740234375
1594108240.394973,0.0,5.0,0.5,0.5,-0.00022271026611328125,-0.004,-0.0001,-0.026,-0.0004973311617497975,2.0,0.2,20.0,-0.01341332748874638,-2.0,-0.2,-20.0,484.1641689783428,0.006532594515823751,-0.0002442986402334525,0.9999786325352488,3.356569456480972,-89.9625244140625,6273.9990234375
1594108240.4577692,0.0,5.0,0.5,0.5,-0.0002732296752929688,-0.004,-0.0001,-0.026,-0.0004653125966644489,2.0,0.2,20.0,-0.012537691651041563,-2.0,-0.2,-20.0,484.364304494462,0.006447760828473797,-0.0002409533927798023,0.9999791839442265,3.322719138581474,-89.95849609375,6272.6875
1594108240.5225961,0.0,5.0,0.5,0.5,-0.00028597869873046877,-0.004,-0.0001,-0.026,-0.0004398252859442631,2.0,0.2,20.0,-0.012115297167659963,-2.0,-0.2,-20.0,484.5623319456354,0.0063517518968962215,-0.00023676794824407037,0.9999797993903572,3.28902544654281,-89.95458984375,6271.3759765625
1594108240.5585368,0.0,5.0,0.5,0.5,-0.0002607122802734375,-0.004,-0.0001,-0.026,-0.00046979278667768016,2.0,0.2,20.0,-0.01249242882070764,-2.0,-0.2,-20.0,484.6932026160648,0.006282006717305015,-0.00023434270983421307,0.9999802405423309,3.266649862434223,-89.95205688476562,6270.5009765625
1594108240.5944378,0.0,5.0,0.5,0.5,-0.00027023162841796877,-0.004,-0.0001,-0.026,-0.00044993713257635525,2.0,0.2,20.0,-0.01223277326901965,-2.0,-0.2,-20.0,484.8231550618075,0.00620724500584846,-0.0002312543168653799,0.9999807081293509,3.2443467601918394,-89.94955444335938,6269.6259765625
1594108240.6323028,0.0,5.0,0.5,0.5,-0.0002787091064453125,-0.004,-0.0001,-0.026,-0.0004408011969350429,2.0,0.2,20.0,-0.01197626743710656,-2.0,-0.2,-20.0,484.9522854015231,0.00612811741856953,-0.00022805228729258836,0.9999811969077512,3.2221417570656072,-89.94711303710938,6268.751953125
1594108240.6929052,0.0,5.0,0.5,0.5,-0.0002860223388671875,-0.004,-0.0001,-0.026,-0.00043192381669561616,2.0,0.2,20.0,-0.011696549023892892,-2.0,-0.2,-20.0,485.08056048839353,0.006044016099245099,-0.00022476065738672476,0.9999817095087485,3.2000265906753596,-89.94476318359375,6267.876953125
1594108240.753706,0.0,5.0,0.5,0.5,-0.0003277545166015625,-0.004,-0.0001,-0.026,-0.0003820700793021949,2.0,0.2,20.0,-0.010411381204968859,-2.0,-0.2,-20.0,485.2712326977635,0.0059097411384040855,-0.00021952650338811355,0.9999825132310022,3.1670293793658333,-89.94134521484375,6266.564453125
1594108240.7896428,0.0,5.0,0.5,0.5,-0.00033805908203125005,-0.004,-0.0001,-0.026,-0.00036097965204674916,2.0,0.2,20.0,-0.009906601225330745,-2.0,-0.2,-20.0,485.4599238211522,0.005765416748188344,-0.0002138372896663114,0.9999833569831718,3.1342132827431812,-89.93804931640625,6265.251953125
1594108240.853471,0.0,5.0,0.5,0.5,-0.00031583679199218755,-0.004,-0.0001,-0.026,-0.0003926839069866022,2.0,0.2,20.0,-0.010542051961325166,-2.0,-0.2,-20.0,485.58465764147695,0.005663880278079567,-0.0002101375462156818,0.9999839380222101,3.1124304384603256,-89.93594360351562,6264.376953125
1594108240.9172628,0.0,5.0,0.5,0.5,-0.00035293395996093745,-0.004,-0.0001,-0.026,-0.00032630700328432097,2.0,0.2,20.0,-0.00904215705568288,-2.0,-0.2,-20.0,485.77011130657047,0.0055042323638335245,-0.00020378996826181048,0.9999848308328152,3.07999928475421,-89.93289184570312,6263.0634765625
1594108240.9572065,0.0,5.0,0.5,0.5,-0.00035994415283203127,-0.004,-0.0001,-0.026,-0.0003149555982380987,2.0,0.2,20.0,-0.008497801575334262,-2.0,-0.2,-20.0,485.95364592643455,0.005335289340095813,-0.00019754029595798247,0.9999857477311808,3.0477920105656997,-89.93002319335938,6261.75
1594108240.9930987,0.0,5.0,0.5,0.5,-0.0003396600341796875,-0.004,-0.0001,-0.026,-0.0003430225383336761,2.0,0.2,20.0,-0.009289867215940923,-2.0,-0.2,-20.0,486.07496109057683,0.005218719094442176,-0.00019317401213777581,0.9999863637344333,3.0264229203796815,-89.92822265625,6260.8740234375
1594108241.0559237,0.0,5.0,0.5,0.5,-0.0003452947998046875,-0.004,-0.0001,-0.026,-0.00032279984765227066,2.0,0.2,20.0,-0.008942133656518924,-2.0,-0.2,-20.0,486.19533152563963,0.005097970102785555,-0.00018832508084852979,0.9999869875325853,3.0051918520139917,-89.92648315429688,6259.9990234375
1594108241.0928273,0.0,5.0,0.5,0.5,-0.000374481201171875,-0.004,-0.0001,-0.026,-0.00026634158346014946,2.0,0.2,20.0,-0.007207659209167145,-2.0,-0.2,-20.0,486.37440915429033,0.004910434941504018,-0.00018139251096683305,0.999987927289846,2.9736147266359,-89.92401123046875,6258.6845703125
1594108241.1536298,0.0,5.0,0.5,0.5,-0.00035624298095703126,-0.004,-0.0001,-0.026,-0.0002919699875034678,2.0,0.2,20.0,-0.008090839171622554,-2.0,-0.2,-20.0,486.49279381451197,0.004781271893236362,-0.0001763004310817128,0.9999885541131163,2.9526770287322015,-89.9224853515625,6257.80859375
1594108241.2150953,0.0,5.0,0.5,0.5,-0.0003809033203125,-0.004,-0.0001,-0.026,-0.00022890931520640597,2.0,0.2,20.0,-0.006262180620383419,-2.0,-0.2,-20.0,486.66866740968544,0.004581954502050653,-0.0001688519204964742,0.9999894885357397,2.921362992502108,-89.92034912109375,6256.494140625
1594108241.250994,0.0,5.0,0.5,0.5,-0.00038419921875,-0.004,-0.0001,-0.026,-0.00020531549341718344,2.0,0.2,20.0,-0.005667654661609489,-2.0,-0.2,-20.0,486.8427370842546,0.004375062113389552,-0.00016105892691664742,0.9999904163998403,2.890252740473582,-89.91839599609375,6255.1796875
1594108241.3108315,0.0,5.0,0.5,0.5,-0.00036935302734375,-0.004,-0.0001,-0.026,-0.00023837022908788425,2.0,0.2,20.0,-0.006665103736856106,-2.0,-0.2,-20.0,486.95770859590266,0.004233711880777047,-0.0001555300276259017,0.9999910257067917,2.8696225198762306,-89.91720581054688,6254.30322265625
1594108241.3819473,0.0,5.0,0.5,0.5,-0.0003871395874023438,-0.004,-0.0001,-0.026,-0.00017517025777033138,2.0,0.2,20.0,-0.0047005676626631215,-2.0,-0.2,-20.0,487.12866436399054,0.004017307034000008,-0.00014768403617628083,0.9999919196841643,2.8389731259067985,-89.91558837890625,6252.98828125
1594108241.4548073,0.0,5.0,0.5,0.5,-0.0004011370849609375,-0.004,-0.0001,-0.026,-9.240785943030917e-05,2.0,0.2,20.0,-0.0024299724371678964,-2.0,-0.2,-20.0,487.35372347955126,0.003718863365992989,-0.0001368461653975694,0.9999930756402227,2.7985443141279913,-89.91372680664062,6251.234375
1594108241.4931097,0.0,5.0,0.5,0.5,-0.00038771789550781253,-0.004,-0.0001,-0.026,-0.00011876275809618491,2.0,0.2,20.0,-0.0033302963249735758,-2.0,-0.2,-20.0,487.5205309604062,0.003490097816339449,-0.00012825236354070267,0.999993901365685,2.768494554046036,-89.91256713867188,6249.91845703125
1594108241.5579343,0.0,5.0,0.5,0.5,-0.0003769671630859375,-0.004,-0.0001,-0.026,-0.00015946874531372394,2.0,0.2,20.0,-0.0044648139330171555,-2.0,-0.2,-20.0,487.63061601645313,0.003335375563859808,-0.00012235307757381858,0.9999944301342746,2.7485451312161224,-89.91192626953125,6249.041015625
1594108241.593848,0.0,5.0,0.5,0.5,-0.000385186767578125,-0.004,-0.0001,-0.026,-8.213537399744662e-05,2.0,0.2,20.0,-0.002339887728745502,-2.0,-0.2,-20.0,487.7943433584878,0.003099843546439225,-0.00011353931975733313,0.9999951890278324,2.7191293627008837,-89.91110229492188,6247.7236328125
1594108241.664875,0.0,5.0,0.5,0.5,-0.00037673461914062504,-0.004,-0.0001,-0.026,-0.0001266196043299395,2.0,0.2,20.0,-0.00350649040817147,-2.0,-0.2,-20.0,487.9025977799902,0.0029405674038092814,-0.00010761681017663348,0.9999956707316117,2.6996469266562295,-89.91067504882812,6246.845703125
1594108241.6998167,0.0,5.0,0.5,0.5,-0.0003794924926757813,-0.004,-0.0001,-0.026,-4.8980200148854855e-05,2.0,0.2,20.0,-0.0013500617556253952,-2.0,-0.2,-20.0,488.0634553952841,0.0026995422149733244,-9.877071555030287e-05,0.9999963513514313,2.6707004054103543,-89.91021728515625,6245.5283203125
1594108241.7720158,0.0,5.0,0.5,0.5,-0.0003750375366210938,-0.004,-0.0001,-0.026,-2.3105206299436833e-05,2.0,0.2,20.0,-0.0007529186921099457,-2.0,-0.2,-20.0,488.2224810139742,0.0024551780219429003,-8.962315682005731e-05,0.9999969820297311,2.6420053675681947,-89.90997314453125,6244.2109375
1594108241.8069258,0.0,5.0,0.5,0.5,-0.00037062469482421873,-0.004,-0.0001,-0.026,-6.88743566335851e-05,2.0,0.2,20.0,-0.0019860941893149985,-2.0,-0.2,-20.0,488.3275936503196,0.0022910156204064788,-8.345963641109211e-05,0.9999973721375053,2.623045658134394,-89.909912109375,6243.33203125
1594108241.8409054,0.0,5.0,0.5,0.5,-0.00036729156494140627,-0.004,-0.0001,-0.026,-5.796168308225467e-05,2.0,0.2,20.0,-0.0015992203314033442,-2.0,-0.2,-20.0,488.43203727318905,0.0021260864859164595,-7.74309502328865e-05,0.9999977368777904,2.6041984270783005,-89.90997314453125,6242.453125
1594108241.8758087,0.0,5.0,0.5,0.5,-0.00036528869628906256,-0.004,-0.0001,-0.026,-4.4122166172914386e-05,2.0,0.2,20.0,-0.001199230985877743,-2.0,-0.2,-20.0,488.53562123305164,0.0019598855983060607,-7.139225664535958e-05,0.9999980768739445,2.585514415590586,-89.91009521484375,6241.57373046875
1594108241.9416397,0.0,5.0,0.5,0.5,-0.00035753112792968753,-0.004,-0.0001,-0.026,3.732210421392916e-05,2.0,0.2,20.0,0.0010313185044101532,-2.0,-0.2,-20.0,488.6896450011991,0.001709275652225061,-6.226987907505215e-05,0.9999985372485336,2.5577347380468987,-89.91046142578125,6240.2548828125
1594108241.97854,0.0,5.0,0.5,0.5,-0.00035701446533203127,-0.004,-0.0001,-0.026,-2.998012518003277e-06,2.0,0.2,20.0,-0.00024355768701566933,-2.0,-0.2,-20.0,488.7914602801902,0.0015412242442287513,-5.587733775924462e-05,0.999998810752069,2.5393655807884743,-89.91079711914062,6239.375
1594108242.0124588,0.0,5.0,0.5,0.5,-0.0003520272827148437,-0.004,-0.0001,-0.026,7.420030886847611e-06,2.0,0.2,20.0,0.0001397872323919162,-2.0,-0.2,-20.0,488.89245392847806,0.001372797171142771,-4.965818461354587e-05,0.9999990564805507,2.521086590477047,-89.9112548828125,6238.4951171875
1594108242.0802758,0.0,5.0,0.5,0.5,-0.00034837188720703125,-0.004,-0.0001,-0.026,2.565830347523934e-05,2.0,0.2,20.0,0.0005267118837812574,-2.0,-0.2,-20.0,488.9927458181046,0.0012038783281766525,-4.324148290249309e-05,0.9999992744033093,2.502965765426891,-89.91177368164062,6237.615234375
1594108242.1151822,0.0,5.0,0.5,0.5,-0.00033347259521484374,-0.004,-0.0001,-0.026,0.00010273056458532727,2.0,0.2,20.0,0.0027744041852012296,-2.0,-0.2,-20.0,489.1418545062188,0.0009498715165231485,-3.396874023912732e-05,0.9999995482950113,2.476028320993252,-89.9127197265625,6236.294921875
1594108242.150089,0.0,5.0,0.5,0.5,-0.00033607666015624996,-0.004,-0.0001,-0.026,6.216939550366624e-05,2.0,0.2,20.0,0.0014677904188717399,-2.0,-0.2,-20.0,489.2403462949442,0.0007801574915688363,-2.7449616476086228e-05,0.999999695300357,2.4581849730327767,-89.9134521484375,6235.4150390625
1594108242.2174487,0.0,5.0,0.5,0.5,-0.0003294525146484375,-0.004,-0.0001,-0.026,7.082942037948405e-05,2.0,0.2,20.0,0.001833195126456064,-2.0,-0.2,-20.0,489.3381953065982,0.0006110076046505418,-2.1194340196306436e-05,0.999999813110236,2.440467991023336,-89.914306640625,6234.5341796875
1594108242.252357,0.0,5.0,0.5,0.5,-0.00030951171875,-0.004,-0.0001,-0.026,0.0001502716215164337,2.0,0.2,20.0,0.004073961275819263,-2.0,-0.2,-20.0,489.48358272889163,0.0003570584919513035,-1.1958924269030506e-05,0.9999999361831068,2.414206875350553,-89.91571044921875,6233.21337890625
1594108242.323784,0.0,5.0,0.5,0.5,-0.00031482482910156253,-0.004,-0.0001,-0.026,0.0001018020421165176,2.0,0.2,20.0,0.002750504416484982,-2.0,-0.2,-20.0,489.5796003075084,0.00018811093503851343,-5.83125495526863e-06,0.9999999822901362,2.396813700787749,-89.916748046875,6232.3330078125
1594108242.3666716,0.0,5.0,0.5,0.5,-0.000291380615234375,-0.004,-0.0001,-0.026,0.00019206969987512092,2.0,0.2,20.0,0.004947255939151887,-2.0,-0.2,-20.0,489.7223928915337,-6.356829904808413e-05,3.7773382323808447e-06,0.9999999979724017,2.3709819370377847,-89.91842651367188,6231.01123046875
1594108242.429127,0.0,5.0,0.5,0.5,-0.00027909027099609374,-0.004,-0.0001,-0.026,0.00020047101559138796,2.0,0.2,20.0,0.0054767677433561705,-2.0,-0.2,-20.0,489.8636316433549,-0.0003145968175930456,1.2825964940185469e-05,0.9999999504321673,2.345325075612241,-89.9202880859375,6229.689453125
1594108242.5034404,0.0,5.0,0.5,0.5,-0.00026605255126953124,-0.004,-0.0001,-0.026,0.00022713934803132263,2.0,0.2,20.0,0.005948380116089833,-2.0,-0.2,-20.0,490.0034023633925,-0.000562401603694706,2.2195917199991033e-05,0.9999998416058762,2.319747869470237,-89.92233276367188,6228.3671875
1594108242.566276,0.0,5.0,0.5,0.5,-0.00022937713623046876,-0.004,-0.0001,-0.026,0.00030933023688392363,2.0,0.2,20.0,0.008220286923227106,-2.0,-0.2,-20.0,490.1872916788561,-0.0008890347860679793,3.437902942496956e-05,0.9999996042175374,2.2860801889940667,-89.92532348632812,6226.6044921875
1594108242.6344047,0.0,5.0,0.5,0.5,-0.00023558410644531252,-0.004,-0.0001,-0.026,0.0002660453539976327,2.0,0.2,20.0,0.007023632014251803,-2.0,-0.2,-20.0,490.3233688734472,-0.0011295244269473406,4.3410693849174526e-05,0.9999993611448362,2.2611720221202107,-89.92770385742188,6225.28173828125
1594108242.7055895,0.0,5.0,0.5,0.5,-0.00022041015625000007,-0.004,-0.0001,-0.026,0.00028147625437447565,2.0,0.2,20.0,0.007452048745627066,-2.0,-0.2,-20.0,490.45810980768874,-0.0013655035857591592,5.2243927727624934e-05,0.9999990663348287,2.2365977720573023,-89.93026733398438,6223.95849609375
1594108242.7484732,0.0,5.0,0.5,0.5,-0.00020631866455078125,-0.004,-0.0001,-0.026,0.0002908899492038995,2.0,0.2,20.0,0.00787044735349506,-2.0,-0.2,-20.0,490.59137882327195,-0.0015969433258527373,6.062366041122025e-05,0.9999987230475776,2.2122799625221368,-89.93295288085938,6222.63525390625
1594108242.7903612,0.0,5.0,0.5,0.5,-0.00022010070800781252,-0.004,-0.0001,-0.026,0.00024975303314293405,2.0,0.2,20.0,0.0066129315857737375,-2.0,-0.2,-20.0,490.6794334950391,-0.001748022281207365,6.629167277818365e-05,0.9999984700105888,2.1962128157842176,-89.934814453125,6221.75244140625
1594108242.830657,0.0,5.0,0.5,0.5,-0.00021061828613281252,-0.004,-0.0001,-0.026,0.00026007125830604806,2.0,0.2,20.0,0.006912018663068562,-2.0,-0.2,-20.0,490.76681535411626,-0.001896817080601466,7.18338887892242e-05,0.999998198460805,2.1803086270989214,-89.93673706054688,6220.8701171875
1594108242.8745408,0.0,5.0,0.5,0.5,-0.00020180206298828126,-0.004,-0.0001,-0.026,0.000274324438575457,2.0,0.2,20.0,0.007218428566014195,-2.0,-0.2,-20.0,490.8535624331562,-0.002043963825118584,7.744396352690851e-05,0.9999979081049689,2.164569376106279,-89.93869018554688,6219.986328125
1594108242.9174247,0.0,5.0,0.5,0.5,-0.00019193908691406247,-0.004,-0.0001,-0.026,0.00028862646304138437,2.0,0.2,20.0,0.007507747147771744,-2.0,-0.2,-20.0,490.9395720817847,-0.0021888552786138915,8.31184187473617e-05,0.9999976009990711,2.1489513677133503,-89.94070434570312,6219.103515625
1594108242.959311,0.0,5.0,0.5,0.5,-0.00018182861328125,-0.004,-0.0001,-0.026,0.0002905393666336783,2.0,0.2,20.0,0.007790737614238398,-2.0,-0.2,-20.0,491.0251227446133,-0.002331505905740323,8.82918363105916e-05,0.9999972781386773,2.133459987822649,-89.94277954101562,6218.22021484375
1594108243.0356297,0.0,5.0,0.5,0.5,-0.00013942840576171875,-0.004,-0.0001,-0.026,0.00036302428175288745,2.0,0.2,20.0,0.009597119761259851,-2.0,-0.2,-20.0,491.1521682261955,-0.002541463019730647,9.622110671770066e-05,0.9999967658483792,2.1104563121512294,-89.94598388671875,6216.89453125
1594108243.0805097,0.0,5.0,0.5,0.5,-0.00012271240234374998,-0.004,-0.0001,-0.026,0.0003784640301043105,2.0,0.2,20.0,0.009944021215669424,-2.0,-0.2,-20.0,491.2779056793079,-0.0027463022245440716,0.0001040640454769393,0.999996223490252,2.087706172426503,-89.94931030273438,6215.56982421875
1594108243.121402,0.0,5.0,0.5,0.5,-0.00014121032714843748,-0.004,-0.0001,-0.026,0.0003252540001419306,2.0,0.2,20.0,0.008822962329447605,-2.0,-0.2,-20.0,491.360986258951,-0.0028798740364203057,0.00010871200206336445,0.9999958472449947,2.072628327404527,-89.95156860351562,6214.685546875
1594108243.1672761,0.0,5.0,0.5,0.5,-0.00013102294921875,-0.004,-0.0001,-0.026,0.0003435379242830276,2.0,0.2,20.0,0.009053235635783202,-2.0,-0.2,-20.0,491.44345268793404,-0.0030101786978598884,0.00011370913977724247,0.9999954629369269,2.057698003438261,-89.953857421875,6213.80126953125
1594108243.2141514,0.0,5.0,0.5,0.5,-0.00011980072021484378,-0.004,-0.0001,-0.026,0.0003522237795986345,2.0,0.2,20.0,0.009296165339375578,-2.0,-0.2,-20.0,491.5253755404847,-0.003138184581048162,0.0001185909263841595,0.9999950688547056,2.042916825532194,-89.95620727539062,6212.9169921875
1594108243.2869565,0.0,5.0,0.5,0.5,-7.354766845703127e-05,-0.004,-0.0001,-0.026,0.0004078361391721523,2.0,0.2,20.0,0.01087228056940864,-2.0,-0.2,-20.0,491.6470521716401,-0.003324794038716099,0.00012550405122017767,0.9999944649813484,2.020972665239673,-89.95977783203125,6211.5908203125
1594108243.3288467,0.0,5.0,0.5,0.5,-5.718475341796876e-05,-0.004,-0.0001,-0.026,0.0004266994971325313,2.0,0.2,20.0,0.01112914146759951,-2.0,-0.2,-20.0,491.76750781270675,-0.0035046810667342557,0.00013259230608890052,0.9999938497960379,1.9992707713781188,-89.96340942382812,6210.263671875
1594108243.3727283,0.0,5.0,0.5,0.5,-7.718170166015628e-05,-0.004,-0.0001,-0.026,0.0003807017183954265,2.0,0.2,20.0,0.01012206769286865,-2.0,-0.2,-20.0,491.84707559039816,-0.003620976953366511,0.0001368901311021441,0.9999934348719471,1.9848889946743529,-89.96588134765625,6209.37890625
1594108243.4395452,0.0,5.0,0.5,0.5,-2.9485473632812515e-05,-0.004,-0.0001,-0.026,0.00043669177243937316,2.0,0.2,20.0,0.011530450103216962,-2.0,-0.2,-20.0,491.96521231054794,-0.0037892842206587135,0.00014328820523656742,0.9999928103709473,1.963595046471426,-89.9696044921875,6208.0517578125
1594108243.4844296,0.0,5.0,0.5,0.5,-5.092498779296875e-05,-0.004,-0.0001,-0.026,0.00040489136614268973,2.0,0.2,20.0,0.010582446690271788,-2.0,-0.2,-20.0,492.0433517389465,-0.003897744827661349,0.00014760446344847647,0.9999923928701564,1.9495515828460852,-89.97210693359375,6207.1669921875
1594108243.5253148,0.0,5.0,0.5,0.5,-3.970642089843751e-05,-0.004,-0.0001,-0.026,0.00040600475196152604,2.0,0.2,20.0,0.01074354467815861,-2.0,-0.2,-20.0,492.12096478254534,-0.004002244161729581,0.00015152502242639737,0.9999919795087546,1.935591493759753,-89.97463989257812,6206.28173828125
1594108243.5652134,0.0,5.0,0.5,0.5,-2.8372497558593765e-05,-0.004,-0.0001,-0.026,0.00041175487022507046,2.0,0.2,20.0,0.010913697873277332,-2.0,-0.2,-20.0,492.197913709213,-0.004103649809622463,0.00015530025967675138,0.9999915679344848,1.92177059471442,-89.97720336914062,6205.396484375
1594108243.6081018,0.0,5.0,0.5,0.5,-1.8755187988281252e-05,-0.004,-0.0001,-0.026,0.0004202068664797644,2.0,0.2,20.0,0.011068915688643016,-2.0,-0.2,-20.0,492.27446566161234,-0.0042016581651461785,0.00015906989681210493,0.9999911603436459,1.9080559230559153,-89.979736328125,6204.5107421875
1594108243.6789036,0.0,5.0,0.5,0.5,3.102600097656248e-05,-0.004,-0.0001,-0.026,0.0004597182921457811,2.0,0.2,20.0,0.01223301871323768,-2.0,-0.2,-20.0,492.38814427005127,-0.004342468822077745,0.00016424703365201915,0.9999905579491445,1.8876954788428073,-89.98358154296875,6203.181640625
1594108243.7267764,0.0,5.0,0.5,0.5,4.761962890625e-05,-0.004,-0.0001,-0.026,0.0004721516774683048,2.0,0.2,20.0,0.012366673518486027,-2.0,-0.2,-20.0,492.50060295208823,-0.004475342555777532,0.00016947273202671517,0.9999899712437129,1.8675355270944276,-89.98745727539062,6201.853515625
1594108243.772654,0.0,5.0,0.5,0.5,2.4982910156249994e-05,-0.004,-0.0001,-0.026,0.00043962232572910794,2.0,0.2,20.0,0.011578214152048925,-2.0,-0.2,-20.0,492.5749260232551,-0.0045590821988713524,0.00017269850382861847,0.9999895924182064,1.8541977478665235,-89.99005126953125,6200.96728515625
1594108243.8135448,0.0,5.0,0.5,0.5,3.4746093749999994e-05,-0.004,-0.0001,-0.026,0.0004454186435540834,2.0,0.2,20.0,0.011692142266070009,-2.0,-0.2,-20.0,492.6486382066505,-0.004639265617630188,0.00017585158859274904,0.999989223087303,1.8409883738300545,-89.99261474609375,6200.08154296875
1594108243.8534405,0.0,5.0,0.5,0.5,4.529205322265624e-05,-0.004,-0.0001,-0.026,0.0004506858478452117,2.0,0.2,20.0,0.011796323207831416,-2.0,-0.2,-20.0,492.7220086114248,-0.004715863691535652,0.00017891812104382462,0.999988864246972,1.8279082696000963,-89.99517822265625,6199.19482421875
1594108243.8933327,0.0,5.0,0.5,0.5,5.6067810058593754e-05,-0.004,-0.0001,-0.026,0.0004519213156533809,2.0,0.2,20.0,0.011899223451543891,-2.0,-0.2,-20.0,492.7946250794921,-0.004789180236401942,0.0001817238281815904,0.9999885152986078,1.8149355050236586,-89.99774932861328,6198.30859375
1594108243.9338043,0.0,5.0,0.5,0.5,6.594703674316405e-05,-0.004,-0.0001,-0.026,0.00045990240965257774,2.0,0.2,20.0,0.011972344280256238,-2.0,-0.2,-20.0,492.8668711009668,-0.004858246318480273,0.00018460230655866367,0.9999881816125116,1.8020638190530762,-90.00029754638672,6197.421875
1594108243.9745145,0.0,5.0,0.5,0.5,7.687957763671874e-05,-0.004,-0.0001,-0.026,0.0004604976373292084,2.0,0.2,20.0,0.012051131546420495,-2.0,-0.2,-20.0,492.93859796167817,-0.0049237417220218405,0.0001872125264839315,0.9999878607857822,1.789290201682875,-90.00286102294922,6196.53564453125
1594108244.0640306,0.0,5.0,0.5,0.5,0.0001618022918701172,-0.004,-0.0001,-0.026,0.000515910101607242,2.0,0.2,20.0,0.013390826607481577,-2.0,-0.2,-20.0,493.0804937357316,-0.00504334050296214,0.00019207175887948785,0.9999872638314005,1.764044343058991,-90.00790405273438,6194.76171875
1594108244.1273348,0.0,5.0,0.5,0.5,0.0001438292694091797,-0.004,-0.0001,-0.026,0.00048031618335919794,2.0,0.2,20.0,0.012773962866708974,-2.0,-0.2,-20.0,493.1856631778646,-0.00512317314224244,0.00019483790886489822,0.999986857481209,1.7453313671276767,-90.01166534423828,6193.43212890625
1594108244.1672819,0.0,5.0,0.5,0.5,0.0001573626708984375,-0.004,-0.0001,-0.026,0.0004889253605533784,2.0,0.2,20.0,0.012749772001061232,-2.0,-0.2,-20.0,493.28960263112094,-0.005193810943170455,0.0001977114005313224,0.9999864925278186,1.726805581929891,-90.01536560058594,6192.1015625
1594108244.232056,0.0,5.0,0.5,0.5,0.00013448715209960938,-0.004,-0.0001,-0.026,0.0004713779818871418,2.0,0.2,20.0,0.012283526028219176,-2.0,-0.2,-20.0,493.35828191414475,-0.005236060179683927,0.00019949563540971608,0.9999862718434119,1.7145806981094436,-90.0177993774414,6191.2138671875
1594108244.268957,0.0,5.0,0.5,0.5,0.0001786290740966797,-0.004,-0.0001,-0.026,0.00047695296257252657,2.0,0.2,20.0,0.01267734081191568,-2.0,-0.2,-20.0,493.4604567172937,-0.005291677687024283,0.00020134378178178873,0.9999859787056707,1.6964720205095665,-90.02136993408203,6189.88330078125
1594108244.3648043,0.0,5.0,0.5,0.5,0.0002252679443359375,-0.004,-0.0001,-0.026,0.0004982772702206782,2.0,0.2,20.0,0.012899838498170469,-2.0,-0.2,-20.0,493.59496739238966,-0.0053516865926287755,0.00020396716039681334,0.9999856588211713,1.6726455991967486,-90.02600860595703,6188.1083984375
1594108244.4285114,0.0,5.0,0.5,0.5,0.0002063910675048828,-0.004,-0.0001,-0.026,0.0004848389934824567,2.0,0.2,20.0,0.012474745827384243,-2.0,-0.2,-20.0,493.69466845004354,-0.005386270093619851,0.00020571565967527649,0.9999854727822529,1.655037946972966,-90.02938842773438,6186.77685546875
1594108244.495332,0.0,5.0,0.5,0.5,0.00024886268615722655,-0.004,-0.0001,-0.026,0.0004804894554213167,2.0,0.2,20.0,0.012487890262276981,-2.0,-0.2,-20.0,493.82591686456,-0.005417697653923149,0.00020708313679961712,0.9999853027263476,1.6318301225376248,-90.03372192382812,6185.001953125
1594108244.5322373,0.0,5.0,0.5,0.5,0.00019926513671875,-0.004,-0.0001,-0.026,0.0004604498754200323,2.0,0.2,20.0,0.012085474598433604,-2.0,-0.2,-20.0,493.8908372630831,-0.00542740516273552,0.0002073923539047611,0.9999852500220244,1.6203726844877504,-90.03581237792969,6184.11328125
1594108244.5701685,0.0,5.0,0.5,0.5,0.0002063799285888672,-0.004,-0.0001,-0.026,0.000462165098032544,2.0,0.2,20.0,0.01203611134395802,-2.0,-0.2,-20.0,493.95527063601185,-0.005433468969321281,0.0002077307068033279,0.9999852170221883,1.6089958962411695,-90.03784942626953,6183.2255859375
1594108244.6055338,0.0,5.0,0.5,0.5,0.00021350471496582032,-0.004,-0.0001,-0.026,0.0004578804238819168,2.0,0.2,20.0,0.011971300106280192,-2.0,-0.2,-20.0,494.0193391110515,-0.005435572167007253,0.0002078248895403425,0.9999852055725788,1.5977466294309184,-90.03984069824219,6182.33740234375
1594108244.6653738,0.0,5.0,0.5,0.5,0.00022018699645996094,-0.004,-0.0001,-0.026,0.00045387927214680164,2.0,0.2,20.0,0.011894610236773802,-2.0,-0.2,-20.0,494.08297980343923,-0.005433641687504169,0.00020771431864906792,0.9999852160871048,1.5865868738960844,-90.04177856445312,6181.44921875
1594108244.7292402,0.0,5.0,0.5,0.5,0.00025410324096679685,-0.004,-0.0001,-0.026,0.0004489493812884039,2.0,0.2,20.0,0.011713047481327355,-2.0,-0.2,-20.0,494.17751990875695,-0.0054233516094853804,0.00020737800788181462,0.9999852720173842,1.5700175448909999,-90.0445785522461,6180.1171875
1594108244.7651067,0.0,5.0,0.5,0.5,0.0002623909759521484,-0.004,-0.0001,-0.026,0.00044443316129919345,2.0,0.2,20.0,0.011510370039262996,-2.0,-0.2,-20.0,494.2710568868788,-0.005404575708768724,0.00020685820026902888,0.9999853737785835,1.5536199356132576,-90.04727172851562,6178.7841796875
1594108244.8279412,0.0,5.0,0.5,0.5,0.0002448481750488281,-0.004,-0.0001,-0.026,0.0004415681942320737,2.0,0.2,20.0,0.011512511247477625,-2.0,-0.2,-20.0,494.33289501292165,-0.0053874508398278065,0.00020624872887720975,0.9999854663118412,1.5427770374432226,-90.04901123046875,6177.89599609375
1594108244.863842,0.0,5.0,0.5,0.5,0.0002740552520751953,-0.004,-0.0001,-0.026,0.00042432938573578146,2.0,0.2,20.0,0.011139167948418356,-2.0,-0.2,-20.0,494.4249354734784,-0.005354825560694457,0.00020490662272836506,0.9999856418251668,1.5267037148092153,-90.05148315429688,6176.56298828125
1594108244.9286697,0.0,5.0,0.5,0.5,0.00025718963623046876,-0.004,-0.0001,-0.026,0.0004341491182381296,2.0,0.2,20.0,0.011211141214946593,-2.0,-0.2,-20.0,494.4855222827755,-0.0053284348745353625,0.00020413202365012975,0.9999857829548902,1.5160886960917057,-90.05305480957031,6175.6748046875
1594108244.9645731,0.0,5.0,0.5,0.5,0.0002838545227050781,-0.004,-0.0001,-0.026,0.0004104846882332874,2.0,0.2,20.0,0.01072169153023584,-2.0,-0.2,-20.0,494.57591560389847,-0.005282248206193956,0.0002023536264297186,0.9999860283558456,1.500323618984657,-90.0552978515625,6174.341796875
1594108245.028414,0.0,5.0,0.5,0.5,0.0002685520935058594,-0.004,-0.0001,-0.026,0.0004132678450449965,2.0,0.2,20.0,0.010861425044823523,-2.0,-0.2,-20.0,494.6356785170501,-0.005246734985135507,0.00020086770836657696,0.999986215617075,1.4898968651990938,-90.05672454833984,6173.45263671875
1594108245.0703099,0.0,5.0,0.5,0.5,0.00029163414001464846,-0.004,-0.0001,-0.026,0.00039694557926847233,2.0,0.2,20.0,0.010260016065085727,-2.0,-0.2,-20.0,494.72442134830635,-0.0051872777125284725,0.00019878088408800454,0.9999865262272755,1.47447360200538,-90.05872344970703,6172.11962890625
1594108245.1052096,0.0,5.0,0.5,0.5,0.00027740806579589844,-0.004,-0.0001,-0.026,0.00039908893276189384,2.0,0.2,20.0,0.010483896967503376,-2.0,-0.2,-20.0,494.7830858239904,-0.005143625861410873,0.00019698933246874452,0.9999867520663466,1.4642524659474094,-90.05997467041016,6171.23046875
1594108245.168042,0.0,5.0,0.5,0.5,0.00028009658813476563,-0.004,-0.0001,-0.026,0.000392757670471469,2.0,0.2,20.0,0.01030708730057533,-2.0,-0.2,-20.0,494.8414181765402,-0.00509617096308505,0.0001950827150353721,0.9999869954075651,1.4550213886279393,-90.06114196777344,6170.33935546875
1594108245.206938,0.0,5.0,0.5,0.5,0.00029960784912109377,-0.004,-0.0001,-0.026,0.00036671654193255423,2.0,0.2,20.0,0.009555909217844728,-2.0,-0.2,-20.0,494.9281450967537,-0.005019192479686928,0.00019217722207473168,0.9999873853078185,1.43998430866671,-90.06279754638672,6169.00634765625
1594108245.2717657,0.0,5.0,0.5,0.5,0.0002869573974609375,-0.004,-0.0001,-0.026,0.0003760177232884714,2.0,0.2,20.0,0.009861791243896793,-2.0,-0.2,-20.0,494.98540415463503,-0.004963483186081728,0.0001899724647046976,0.9999876637964711,1.4300451678529753,-90.06380462646484,6168.1171875
1594108245.3106594,0.0,5.0,0.5,0.5,0.0003028240203857422,-0.004,-0.0001,-0.026,0.000346164195152983,2.0,0.2,20.0,0.009006468226403039,-2.0,-0.2,-20.0,495.07067196269054,-0.004874361047938818,0.00018662651193993018,0.9999881028166882,1.4152278346252047,-90.06520080566406,6166.783203125
1594108245.3465626,0.0,5.0,0.5,0.5,0.0002916333770751953,-0.004,-0.0001,-0.026,0.00035541766912862736,2.0,0.2,20.0,0.009378436203129675,-2.0,-0.2,-20.0,495.1269838445587,-0.004810715002925464,0.0001840231875317048,0.999988411511167,1.4054403230918167,-90.06603240966797,6165.89453125
1594108245.4103925,0.0,5.0,0.5,0.5,0.00029304534912109377,-0.004,-0.0001,-0.026,0.0003499160732024461,2.0,0.2,20.0,0.00919223655422513,-2.0,-0.2,-20.0,495.1829333186615,-0.004744885987561089,0.00018142544137776136,0.9999887265073413,1.395730400821415,-90.0667953491211,6165.0048828125
1594108245.445298,0.0,5.0,0.5,0.5,0.0003035587310791016,-0.004,-0.0001,-0.026,0.0003149247371483178,2.0,0.2,20.0,0.00818532220917211,-2.0,-0.2,-20.0,495.2660893362481,-0.004639803093261043,0.0001774939810374182,0.9999892203034703,1.3813301529477813,-90.06780242919922,6163.67138671875
1594108245.5151122,0.0,5.0,0.5,0.5,0.0002951235961914063,-0.004,-0.0001,-0.026,0.0003297797318554507,2.0,0.2,20.0,0.008654467038953027,-2.0,-0.2,-20.0,495.32112614251673,-0.004566181995353708,0.00017461775289233253,0.9999895596908128,1.3718142362668708,-90.06838989257812,6162.7822265625
1594108245.549021,0.0,5.0,0.5,0.5,0.00030216773986816407,-0.004,-0.0001,-0.026,0.00028606980078062786,2.0,0.2,20.0,0.007580406887209906,-2.0,-0.2,-20.0,495.40288113988936,-0.0044510514930767,0.00017004004858019384,0.9999900795642863,1.3576867318698655,-90.06912994384766,6161.4482421875
1594108245.5849257,0.0,5.0,0.5,0.5,0.00029539009094238283,-0.004,-0.0001,-0.026,0.0003084223896002916,2.0,0.2,20.0,0.008092152575029142,-2.0,-0.2,-20.0,495.45696765289176,-0.004370317864288887,0.0001669206540023323,0.9999904361838969,1.348359328047704,-90.06954193115234,6160.55859375
1594108245.6527455,0.0,5.0,0.5,0.5,0.0002943871307373047,-0.004,-0.0001,-0.026,0.0002926106912518684,2.0,0.2,20.0,0.0078703683035324,-2.0,-0.2,-20.0,495.51062534819357,-0.004287545560320225,0.00016339346235068114,0.9999907950854572,1.3391066428603786,-90.06986236572266,6159.6689453125
1594108245.6876898,0.0,5.0,0.5,0.5,0.00029712936401367183,-0.004,-0.0001,-0.026,0.00024765192250366844,2.0,0.2,20.0,0.006662223665142214,-2.0,-0.2,-20.0,495.5903939299751,-0.004158117459878947,0.0001581721524994298,0.9999913424829038,1.3253823446528845,-90.07022857666016,6158.3349609375
1594108245.7623909,0.0,5.0,0.5,0.5,0.0002918020629882812,-0.004,-0.0001,-0.026,0.00028166696754548245,2.0,0.2,20.0,0.007279311278453427,-2.0,-0.2,-20.0,495.6431111624697,-0.00406928778282812,0.00015500255929071585,0.9999917084011983,1.3163140851800321,-90.07036590576172,6157.4453125
1594108245.7972958,0.0,5.0,0.5,0.5,0.00029104370117187495,-0.004,-0.0001,-0.026,0.0002164791722137964,2.0,0.2,20.0,0.0060093141741156385,-2.0,-0.2,-20.0,495.7215387827018,-0.003931619294769517,0.0001491898201362756,0.9999922600261056,1.302858886217822,-90.0704574584961,6156.11083984375
