Timestamp,Input Throttle,horizon,dT,dt,Input Roll,Roll P,Roll I,Roll D,Input Pitch,Pitch P,Pitch I,Pitch D,Input Yaw,Yaw P,Yaw I,Yaw D,Altitude,Direction X,Direction Y,Direction Z,Drag X,Drag Y,Drag Z,Vertical Velocity,Roll,Mass
1598103360.2500656,0.0,10.0,0.5,0.5,-0.0095361328125,-0.14,-0.011,-0.56,0.004233801349291441,10.0,1.0,100.0,0.1300300645592446,-10.0,-1.0,-100.0,481.19946520379744,-0.011776983884261861,0.0004128239626217494,0.9999305637027831,0.48556179985541,-0.03483214245056657,-0.5417366459529999,0.9733430544959801,-89.92138671875,6400.70703125
1598103360.2917535,0.0,10.0,0.5,0.5,-0.010622363281250002,-0.14,-0.011,-0.56,0.00419769213490875,10.0,1.0,100.0,0.12144507070457558,-10.0,-1.0,-100.0,481.2656221606303,-0.011799688734021232,0.00041308005455292286,0.9999302959259952,1.1371891711407607,-0.08086688670292078,-2.4125716147666654,1.8832790354269335,-89.92205810546875,6397.548828125
1598103360.323799,0.0,10.0,0.5,0.5,-0.009759613037109375,-0.14,-0.011,-0.56,0.004059743919339815,10.0,1.0,100.0,0.11667570874538247,-10.0,-1.0,-100.0,481.36821628536563,-0.011766244680778885,0.00041168326339013304,0.9999306905996049,1.849635239962731,-0.13040844739089022,-5.7225501479939025,2.7938384012153614,-89.9239501953125,6394.3916015625
1598103360.3606284,0.0,10.0,0.5,0.5,-0.009663824462890627,-0.14,-0.011,-0.56,0.0041371132365101496,10.0,1.0,100.0,0.11940326212843505,-10.0,-1.0,-100.0,481.43303213780746,-0.011749940349785612,0.00041074255315879066,0.9999308827075656,2.14131999145151,-0.15033886213091507,-7.640283444691906,3.2493485744124846,-89.92572021484375,6392.81201171875
1598103360.370631,0.0,10.0,0.5,0.5,-0.009049121093750001,-0.14,-0.011,-0.56,0.004167168259624288,10.0,1.0,100.0,0.11955959200332121,-10.0,-1.0,-100.0,481.5072168201441,-0.011725857647427252,0.00040978718720119085,0.9999311657993731,2.4111641014400136,-0.1685809357742184,-9.727691199673469,3.70501460691966,-89.92813110351562,6391.2333984375
1598103360.3998144,0.0,10.0,0.5,0.5,-0.008342044067382814,-0.14,-0.011,-0.56,0.0041478090665517,10.0,1.0,100.0,0.11953565539974463,-10.0,-1.0,-100.0,481.5904341136338,-0.011693086805571294,0.00040837014622343914,0.9999315501346985,2.668892817758912,-0.18583575952645623,-11.992296132826802,4.160832500808453,-89.93118286132812,6389.654296875
1598103360.4117825,0.0,10.0,0.5,0.5,-0.007584613037109375,-0.14,-0.011,-0.56,0.004157276609247746,10.0,1.0,100.0,0.11917291995594959,-10.0,-1.0,-100.0,481.6828368388815,-0.01164936745729904,0.000406796750135244,0.9999320610692752,2.919924800268535,-0.2024929194100716,-14.439063901505897,4.616804758299621,-89.934814453125,6388.0751953125
1598103360.4378443,0.0,10.0,0.5,0.5,-0.006742010498046875,-0.14,-0.011,-0.56,0.00413962028662726,10.0,1.0,100.0,0.1188144266971223,-10.0,-1.0,-100.0,481.7842116856482,-0.011595773231555561,0.0004048360628038483,0.9999326848097949,3.1675935597932097,-0.21879278479365716,-17.072183106610485,5.072931670819901,-89.93902587890625,6386.49658203125
1598103360.4478188,0.0,10.0,0.5,0.5,-0.005856323242187501,-0.14,-0.011,-0.56,0.00412036861782211,10.0,1.0,100.0,0.11838228903655033,-10.0,-1.0,-100.0,481.8821683638962,-0.011532581071936695,0.0004025105718199837,0.9999334165628524,3.4139469779164924,-0.2348830255882982,-19.89468403262714,5.529211652367713,-89.94375610351562,6384.91796875
1598103360.4717236,0.0,10.0,0.5,0.5,-0.004871438598632812,-0.14,-0.011,-0.56,0.004075095706741607,10.0,1.0,100.0,0.11782639934504677,-10.0,-1.0,-100.0,482.0212619310478,-0.011459595946840477,0.0003996189984868113,0.9999342568216129,3.6602827762980974,-0.25085782519233646,-22.90883104490042,5.985645172063035,-89.94903564453125,6383.3388671875
1598103360.5096467,0.0,10.0,0.5,0.5,0.0003831695556640634,-0.14,-0.011,-0.56,0.003741917237423521,10.0,1.0,100.0,0.10699272944178323,-10.0,-1.0,-100.0,482.2563276042929,-0.011284340110408029,0.0003935981102824113,0.9999362523425182,4.156088978432082,-0.2826950776097754,-29.519372072133734,6.898970227960736,-89.96084594726562,6380.18115234375
1598103360.5457895,0.0,10.0,0.5,0.5,-0.001701110839843751,-0.14,-0.011,-0.56,0.0039306237238170795,10.0,1.0,100.0,0.11322017262756415,-10.0,-1.0,-100.0,482.4218792730244,-0.011182077600589133,0.00038985756711138847,0.9999374026165896,4.406490255646463,-0.29862698879228045,-33.11834053024523,7.35586171539138,-89.96725463867188,6378.6025390625
1598103360.5565782,0.0,10.0,0.5,0.5,-0.000519192504882813,-0.14,-0.011,-0.56,0.0038499397266040535,10.0,1.0,100.0,0.1110529564988654,-10.0,-1.0,-100.0,482.5609413824277,-0.011069971182432359,0.00038574469378801433,0.9999386515877119,4.658931565931376,-0.3145974412058539,-36.914505651366085,7.812904974764086,-89.9739990234375,6377.02294921875
1598103360.5878913,0.0,10.0,0.5,0.5,0.0005655242919921873,-0.14,-0.011,-0.56,0.0038013185532257323,10.0,1.0,100.0,0.10906505137680304,-10.0,-1.0,-100.0,482.7265536983032,-0.010950617367996858,0.00038158728789023684,0.9999399673832432,4.913591148522031,-0.3306212294393915,-40.90887645413679,8.270099984812793,-89.98086547851562,6375.4443359375
1598103360.5969024,0.0,10.0,0.5,0.5,0.0016515747070312498,-0.14,-0.011,-0.56,0.0037084861439811113,10.0,1.0,100.0,0.10661083426623169,-10.0,-1.0,-100.0,482.90867574780714,-0.010820529492942835,0.00037699040177664126,0.9999413852920226,5.170584579768919,-0.34670927920028877,-45.102375865582516,8.727446194558903,-89.98782348632812,6373.86572265625
1598103360.6188068,0.0,10.0,0.5,0.5,0.0027234008789062502,-0.14,-0.011,-0.56,0.0036273015507833663,10.0,1.0,100.0,0.10415461646221331,-10.0,-1.0,-100.0,483.1173479242716,-0.01068076156117945,0.000372103187903779,0.9999428898050581,5.429915273229726,-0.36286340722251537,-49.495268647683815,9.184943578156707,-89.99482727050781,6372.2861328125
1598103360.628782,0.0,10.0,0.5,0.5,0.0037739395141601568,-0.14,-0.011,-0.56,0.0035494029304650515,10.0,1.0,100.0,0.1017133258934449,-10.0,-1.0,-100.0,483.2829289518995,-0.010532426550082472,0.0003669850668876647,0.9999444651144022,5.691671650318774,-0.3790935258455701,-54.08883974418847,9.642591830392767,-90.0018310546875,6370.70751953125
1598103360.6557577,0.0,10.0,0.5,0.5,0.004774781799316407,-0.14,-0.011,-0.56,0.003441795749797706,10.0,1.0,100.0,0.09919951862750312,-10.0,-1.0,-100.0,483.4915700551355,-0.010375739147492308,0.00036139017494262815,0.999946105264821,5.955829837330795,-0.3954010640946664,-58.883592180782784,10.100390268213495,-90.00875854492188,6369.12841796875
1598103360.6666803,0.0,10.0,0.5,0.5,0.005735887145996094,-0.14,-0.011,-0.56,0.0033274228137946385,10.0,1.0,100.0,0.09658628553655502,-10.0,-1.0,-100.0,483.70011929410975,-0.010210648511659962,0.00035530365183607726,0.9999478068460805,6.222334722538328,-0.411785195804061,-63.8798354891802,10.55833853375974,-90.01556396484375,6367.5498046875
1598103360.6936088,0.0,10.0,0.5,0.5,0.006612757873535156,-0.14,-0.011,-0.56,0.003264318579687782,10.0,1.0,100.0,0.09385305002212924,-10.0,-1.0,-100.0,483.9086145781912,-0.010036920276736028,0.00034923968953822675,0.9999495678597984,6.4946927739719795,-0.4284927341785269,-69.07939856923146,11.009903785207648,-90.02214813232422,6365.986328125
1598103360.7033532,0.0,10.0,0.5,0.5,0.007428044891357423,-0.14,-0.011,-0.56,0.003197797159704698,10.0,1.0,100.0,0.09107922430307505,-10.0,-1.0,-100.0,484.16016200219747,-0.009855062261786599,0.0003431680557302879,0.9999513788097408,6.765524840286468,-0.44504039645716775,-74.40258620225151,11.455080752886298,-90.0284652709961,6364.43896484375
1598103360.733339,0.0,10.0,0.5,0.5,0.008151840209960938,-0.14,-0.011,-0.56,0.003030437821907724,10.0,1.0,100.0,0.08826205951854721,-10.0,-1.0,-100.0,484.394987148582,-0.009665425548199248,0.0003361727856108729,0.9999532321748004,7.034989799062626,-0.46144389994575435,-79.84484290811348,11.893864558678219,-90.0344467163086,6362.908203125
1598103360.744316,0.0,10.0,0.5,0.5,0.008801465606689454,-0.14,-0.011,-0.56,0.0029813487038317403,10.0,1.0,100.0,0.08535709155613569,-10.0,-1.0,-100.0,484.64662992744707,-0.009467998510781906,0.0003294159887757144,0.9999551232376912,7.302864898961729,-0.47769479033857754,-85.39775485740675,12.326250148868452,-90.04005432128906,6361.39208984375
1598103360.765852,0.0,10.0,0.5,0.5,0.009333415985107424,-0.14,-0.011,-0.56,0.0028401356463804315,10.0,1.0,100.0,0.08238372215814072,-10.0,-1.0,-100.0,484.898090164992,-0.009262945093758596,0.000322040899044206,0.9999570461464078,7.568995157248349,-0.49378910086357636,-91.05373278587112,12.752232750929025,-90.04519653320312,6359.8916015625
1598103360.7997952,0.0,10.0,0.5,0.5,0.009787633514404297,-0.14,-0.011,-0.56,0.002760433568723933,10.0,1.0,100.0,0.07938393198477298,-10.0,-1.0,-100.0,485.14973381743766,-0.009050796324228824,0.0003146658407539993,0.9999589911947918,7.833143190603422,-0.5097169845885482,-96.80427302761376,13.171807641806272,-90.04985809326172,6358.408203125
1598103360.810781,0.0,10.0,0.5,0.5,0.0101186279296875,-0.14,-0.011,-0.56,0.002645210638691829,10.0,1.0,100.0,0.07631958113840356,-10.0,-1.0,-100.0,485.427744475659,-0.008831684919842686,0.00030697041981808557,0.9999609527929767,8.095231636888922,-0.5254776804881474,-102.64293700255332,13.584970250465098,-90.05396270751953,6356.939453125
1598103360.837466,0.0,10.0,0.5,0.5,0.010373801422119142,-0.14,-0.011,-0.56,0.002537963190586994,10.0,1.0,100.0,0.07321803456872353,-10.0,-1.0,-100.0,485.70575522386935,-0.008605977834895775,0.00029905881741001613,0.9999629231673188,8.355031759967126,-0.5410621463182136,-108.56146219253833,13.991715576569794,-90.0575180053711,6355.48681640625
1598103360.8774586,0.0,10.0,0.5,0.5,0.012075682067871093,-0.14,-0.011,-0.56,0.0015014873442660778,10.0,1.0,100.0,0.0438004825695978,-10.0,-1.0,-100.0,486.3049300335115,-0.008135108601965792,0.0002825056950265607,0.9999668695504698,8.867322962248373,-0.5716934522603381,-120.61142964010116,14.785936085560179,-90.06270599365234,6352.62890625
1598103360.8864403,0.0,10.0,0.5,0.5,0.010367293548583983,-0.14,-0.011,-0.56,0.0021860411901143038,10.0,1.0,100.0,0.06379214329396873,-10.0,-1.0,-100.0,486.58285025681835,-0.007890824970019658,0.00027375233189469065,0.9999688294846761,9.119486450414419,-0.5867290650202924,-126.72837754271856,15.173402252341441,-90.0643310546875,6351.2236328125
1598103360.9134195,0.0,10.0,0.5,0.5,0.01016245346069336,-0.14,-0.011,-0.56,0.002091148695552251,10.0,1.0,100.0,0.06040293782657566,-10.0,-1.0,-100.0,486.90407573687844,-0.007640046912675636,0.0002650062075696459,0.9999707793005164,9.368775663493992,-0.6015690181688684,-132.8970009276573,15.554433141300843,-90.06526184082031,6349.83447265625
1598103360.950271,0.0,10.0,0.5,0.5,0.009832833862304689,-0.14,-0.011,-0.56,0.0019952693116331915,10.0,1.0,100.0,0.05772069661748107,-10.0,-1.0,-100.0,487.22502654069103,-0.007389861825338447,0.00025626013058576704,0.9999726617627843,9.615087121181507,-0.6162120236012126,-139.11098024292963,15.929024289157569,-90.06546783447266,6348.4609375
1598103360.960241,0.0,10.0,0.5,0.5,0.009416383361816407,-0.14,-0.011,-0.56,0.0018425636373764738,10.0,1.0,100.0,0.053793633702693903,-10.0,-1.0,-100.0,487.54613047197927,-0.007128961356203345,0.00024699992531185657,0.9999745581268648,9.858188206625714,-0.630646909422778,-145.36221356592634,16.297171500902735,-90.06497955322266,6347.1025390625
1598103360.9867096,0.0,10.0,0.5,0.5,0.0088849365234375,-0.14,-0.011,-0.56,0.0017008765968175449,10.0,1.0,100.0,0.050470878730424926,-10.0,-1.0,-100.0,487.893723927089,-0.006863878124688985,0.00023737455911258316,0.9999764151370812,10.098016094828663,-0.6448729894830846,-151.64489538693834,16.65887048475408,-90.06378173828125,6345.7607421875
1598103360.997679,0.0,10.0,0.5,0.5,0.008278712463378905,-0.14,-0.011,-0.56,0.001662616459391874,10.0,1.0,100.0,0.04717040673570654,-10.0,-1.0,-100.0,488.2147985799238,-0.006595256460074939,0.0002283600807999768,0.999978224984874,10.334451765894398,-0.6588867733066344,-157.952590373203,17.014116694787425,-90.06192016601562,6344.4345703125
1598103361.0236096,0.0,10.0,0.5,0.5,0.007587879943847657,-0.14,-0.011,-0.56,0.001477027841480114,10.0,1.0,100.0,0.04378306185716441,-10.0,-1.0,-100.0,488.5623930399306,-0.006322686073924226,0.00021856309564226796,0.9999799877352464,10.567304622893968,-0.6726810588167133,-164.27783230206785,17.362906394620214,-90.05941772460938,6343.1240234375
1598103361.0336695,0.0,10.0,0.5,0.5,0.006810126495361329,-0.14,-0.011,-0.56,0.0013809078933722033,10.0,1.0,100.0,0.04035363384966182,-10.0,-1.0,-100.0,488.92655883799307,-0.006046198295764741,0.00020887029392074413,0.9999816997622349,10.7964879364696,-0.6862530394681218,-170.61464995662578,17.705235384257318,-90.05628967285156,6341.8291015625
1598103361.057571,0.0,10.0,0.5,0.5,0.005974215698242189,-0.14,-0.011,-0.56,0.0012479527861229156,10.0,1.0,100.0,0.03690425563161044,-10.0,-1.0,-100.0,489.27406277833506,-0.005766020046932085,0.0001989391551315447,0.9999833565795138,11.02187777487307,-0.6995983033113461,-176.9566054508027,18.041099508808443,-90.0525894165039,6340.5498046875
1598103361.0675802,0.0,10.0,0.5,0.5,0.0050608963012695315,-0.14,-0.011,-0.56,0.0011402525023026995,10.0,1.0,100.0,0.03346401792670227,-10.0,-1.0,-100.0,489.6383517351933,-0.005482619439574109,0.00018902277152688733,0.9999849524640221,11.243379583612656,-0.7127133559504429,-183.2976540551125,18.370495105920693,-90.04833221435547,6339.287109375
1598103361.0935106,0.0,10.0,0.5,0.5,0.004117961120605468,-0.14,-0.011,-0.56,0.0010087773925736448,10.0,1.0,100.0,0.030033927123712365,-10.0,-1.0,-100.0,490.0288556308951,-0.005196211233914579,0.00017889763354647984,0.999986483600878,11.460829228096681,-0.7255919193567145,-189.63072910118868,18.693417703152136,-90.0436019897461,6338.0400390625
1598103361.103334,0.0,10.0,0.5,0.5,0.0030804496765136718,-0.14,-0.011,-0.56,0.0008840926729066501,10.0,1.0,100.0,0.026569545570854197,-10.0,-1.0,-100.0,490.41951285966206,-0.004906795408958209,0.00016864569674763507,0.999987947386089,11.67417193237176,-0.738232707539547,-195.9503551396115,19.009863938772178,-90.03836822509766,6336.80810546875
1598103361.130724,0.0,10.0,0.5,0.5,0.0020511108398437506,-0.14,-0.011,-0.56,0.0007899520054675318,10.0,1.0,100.0,0.02313307544021694,-10.0,-1.0,-100.0,490.7837117627496,-0.004614934250086368,0.00015855753041816786,0.9999893385638553,11.883265002890862,-0.7506288185685775,-202.2497648712125,19.319829938524915,-90.03275299072266,6335.59228515625
1598103361.17137,0.0,10.0,0.5,0.5,0.0009619628906250006,-0.14,-0.011,-0.56,0.0006710971057469104,10.0,1.0,100.0,0.019733299448691243,-10.0,-1.0,-100.0,491.17440081364475,-0.004321221530802871,0.00014839479157588984,0.9999906524680456,12.088037241801338,-0.7627787377789088,-208.52331830349456,19.6233117935644,-90.0267562866211,6334.392578125
1598103361.1843355,0.0,10.0,0.5,0.5,-0.00010654144287109389,-0.14,-0.011,-0.56,0.0004907631756745098,10.0,1.0,100.0,0.016282536213207778,-10.0,-1.0,-100.0,491.5915790790459,-0.004025391883700207,0.00013760617974928433,0.9999918886094636,12.288379377295906,-0.7746769742115778,-214.76469775536765,19.92030571302874,-90.02049255371094,6333.20849609375
1598103361.2052794,0.0,10.0,0.5,0.5,-0.0011966400146484375,-0.14,-0.011,-0.56,0.00044088959260323414,10.0,1.0,100.0,0.012864555126031001,-10.0,-1.0,-100.0,491.98233003052883,-0.0037279637275788955,0.00012743565313296163,0.9999930429991002,12.484240061997932,-0.786322542367028,-220.96856269072492,20.210808483498052,-90.01399230957031,6332.0400390625
1598103361.2391899,0.0,10.0,0.5,0.5,-0.007019319152832032,-0.14,-0.011,-0.56,-0.0008405398386786178,10.0,1.0,100.0,-0.023500048026779477,-10.0,-1.0,-100.0,492.8066190306563,-0.0031295938231089677,0.00010663211085889417,0.9999950971240286,12.862143927927965,-0.8088409905231667,-233.23939928477043,20.772325722423272,-90.00054931640625,6329.75
1598103361.251187,0.0,10.0,0.5,0.5,-0.004341154479980469,-0.14,-0.011,-0.56,6.393318400171183e-05,10.0,1.0,100.0,0.0029863054642426425,-10.0,-1.0,-100.0,493.2403708846541,-0.00282930902555543,9.604403716572982e-05,0.999995992884962,13.044062958383337,-0.8197093823867732,-239.29528918177283,21.043333427861352,-89.99371337890625,6328.62939453125
1598103361.277127,0.0,10.0,0.5,0.5,-0.005345657348632813,-0.14,-0.011,-0.56,-6.882574685302691e-05,10.0,1.0,100.0,-0.00046335113716736154,-10.0,-1.0,-100.0,493.65736907930113,-0.0025278867761941316,8.531418557940552e-05,0.9999968012498522,13.221187178808277,-0.830311920180042,-245.2902908024577,21.307835601434256,-89.98690795898438,6327.5244140625
1598103361.287094,0.0,10.0,0.5,0.5,-0.006242491912841798,-0.14,-0.011,-0.56,-0.00012523756471813797,10.0,1.0,100.0,-0.0030258072966551017,-10.0,-1.0,-100.0,494.09115243749693,-0.0022335152510255516,7.515023576538437e-05,0.9999975028779149,13.393507832355054,-0.8406497479341855,-251.21974663790775,21.56582944225599,-89.98028564453125,6326.4345703125
1598103361.3180091,0.0,10.0,0.5,0.5,-0.007116293334960938,-0.14,-0.011,-0.56,-0.0002743130971892599,10.0,1.0,100.0,-0.007009600908137053,-10.0,-1.0,-100.0,494.52487541316077,-0.0019326421991211417,6.465856976268358e-05,0.999998130354952,13.56083966747657,-0.8507106356882536,-257.07566884732097,21.817311455101297,-89.97384643554688,6325.361328125
1598103361.3279822,0.0,10.0,0.5,0.5,-0.007902252960205079,-0.14,-0.011,-0.56,-0.00039804656805224206,10.0,1.0,100.0,-0.010242546625062299,-10.0,-1.0,-100.0,494.9586904954631,-0.0016326977081767154,5.4099695537641023e-05,0.999998665684818,13.723287835072599,-0.8605023910626374,-262.8553567364051,22.06227867187311,-89.96768188476562,6324.302734375
1598103361.352885,0.0,10.0,0.5,0.5,-0.008672146606445313,-0.14,-0.011,-0.56,-0.0004872821362992652,10.0,1.0,100.0,-0.013366507641385469,-10.0,-1.0,-100.0,495.4189275589306,-0.001334597705079555,4.3793619259183936e-05,0.999999108465145,13.876806864791577,-0.8697695702874805,-268.55278147882495,22.307306396368638,-89.96176147460938,6323.2451171875
1598103361.3899624,0.0,10.0,0.5,0.5,-0.009344109344482423,-0.14,-0.011,-0.56,-0.0006034506381671315,10.0,1.0,100.0,-0.01648652077562731,-10.0,-1.0,-100.0,495.87926472187974,-0.001038216070629944,3.34727125446596e-05,0.9999994604933385,14.029075124697474,-0.8789941546264923,-274.3143988970496,22.552394445383733,-89.9561767578125,6322.1875
1598103361.3999343,0.0,10.0,0.5,0.5,-0.009925897216796877,-0.14,-0.011,-0.56,-0.000690281968245166,10.0,1.0,100.0,-0.01959864095157035,-10.0,-1.0,-100.0,496.31317224528175,-0.0007434707699491544,2.3405168966229196e-05,0.999999723351668,14.179821214864887,-0.8881600879269573,-280.1358503994659,22.79754259062983,-89.95098876953125,6321.1298828125
1598103361.4258332,0.0,10.0,0.5,0.5,-0.010450959777832032,-0.14,-0.011,-0.56,-0.0008228997732459022,10.0,1.0,100.0,-0.02273184803815058,-10.0,-1.0,-100.0,496.77356751146726,-0.0004500203604647538,1.3151059313815818e-05,0.9999998986543572,14.32895337964919,-0.8972636310668657,-286.0160970581995,23.04275075384472,-89.94619750976562,6320.07177734375
1598103361.4368038,0.0,10.0,0.5,0.5,-0.010875875854492189,-0.14,-0.011,-0.56,-0.0009311591335373182,10.0,1.0,100.0,-0.025771784658506144,-10.0,-1.0,-100.0,497.2505337068578,-0.00015859142199126092,2.948860530626372e-06,0.9999999874200324,14.476539535777448,-0.9063090009200415,-291.95725956235594,23.2880188941157,-89.94186401367188,6319.013671875
1598103361.4657261,0.0,10.0,0.5,0.5,-0.011183959960937502,-0.14,-0.011,-0.56,-0.0010279763267002876,10.0,1.0,100.0,-0.02875035303254802,-10.0,-1.0,-100.0,497.7110208302038,0.00013072095965673358,-7.111764437092603e-06,0.9999999914307268,14.62253296591369,-0.9152951793795826,-297.9591555368911,23.533346630077208,-89.93804931640625,6317.9560546875
1598103361.4776964,0.0,10.0,0.5,0.5,-0.011416088867187502,-0.14,-0.011,-0.56,-0.0011307270972945303,10.0,1.0,100.0,-0.03166985583192745,-10.0,-1.0,-100.0,498.1976920113666,0.000417582213889985,-1.7098107048054948e-05,0.9999999126663707,14.766845452641787,-0.9242172201790038,-304.02068256284707,23.778733881676246,-89.93475341796875,6316.8984375
1598103361.497651,0.0,10.0,0.5,0.5,-0.011507638549804688,-0.14,-0.011,-0.56,-0.0012187356306723335,10.0,1.0,100.0,-0.034519623873960834,-10.0,-1.0,-100.0,498.67468975449447,0.0007015944554022588,-2.6883575822703054e-05,0.9999997535212164,14.909447587341663,-0.9330749496328284,-310.141881388852,24.02418070261861,-89.93206787109375,6315.84033203125
1598103361.53558,0.0,10.0,0.5,0.5,-0.012641610717773439,-0.14,-0.011,-0.56,-0.002378616255086026,10.0,1.0,100.0,-0.06793760258419244,-10.0,-1.0,-100.0,499.6385426875204,0.0012609189271369516,-4.623106782924573e-05,0.9999992039727569,15.189296925942076,-0.9505843871310339,-322.56111894955853,24.51525197479557,-89.92837524414062,6313.724609375
1598103361.5475485,0.0,10.0,0.5,0.5,-0.011264627075195313,-0.14,-0.011,-0.56,-0.0015092420958121922,10.0,1.0,100.0,-0.0425178129952865,-10.0,-1.0,-100.0,500.1419383236207,0.0015354034859727474,-5.581548671671156e-05,0.999998819709687,15.326474989116093,-0.9592352363322172,-328.8587477243716,24.760876003562714,-89.92745971679688,6312.6669921875
1598103361.5757709,0.0,10.0,0.5,0.5,-0.01103116149902344,-0.14,-0.011,-0.56,-0.001571843979291288,10.0,1.0,100.0,-0.045262587418216725,-10.0,-1.0,-100.0,500.645456617116,0.0018070073058554278,-6.499777993489559e-05,0.9999983652486064,15.461742065631304,-0.9678105520109231,-335.2139598888941,25.006559001549522,-89.9271240234375,6311.609375
1598103361.5877452,0.0,10.0,0.5,0.5,-0.0106462890625,-0.14,-0.011,-0.56,-0.001664732802508528,10.0,1.0,100.0,-0.04707728713625366,-10.0,-1.0,-100.0,501.14897507382557,0.002067561134993714,-7.409086179958863e-05,0.9999978598484585,15.595093351246122,-0.9763128204507187,-341.62706509084086,25.252300629289707,-89.92745971679688,6310.55078125
1598103361.6143107,0.0,10.0,0.5,0.5,-0.010182272338867187,-0.14,-0.011,-0.56,-0.0017926381111582615,10.0,1.0,100.0,-0.05024634266189153,-10.0,-1.0,-100.0,501.6523407365894,0.0023304144142564788,-8.34222903239942e-05,0.9999972811009934,15.726372476202688,-0.9847318118956482,-348.0948322882297,25.49810078374072,-89.92843627929688,6309.4931640625
1598103361.625281,0.0,10.0,0.5,0.5,-0.00968583984375,-0.14,-0.011,-0.56,-0.0018778039182376634,10.0,1.0,100.0,-0.05264715178130965,-10.0,-1.0,-100.0,502.155889763264,0.0025884030372316973,-9.258252590209363e-05,0.9999966457934709,15.855683707435666,-0.9930738099824818,-354.61966713196,25.743959461324117,-89.92996215820312,6308.435546875
1598103361.6481915,0.0,10.0,0.5,0.5,-0.009084191894531251,-0.14,-0.011,-0.56,-0.0019193400280303667,10.0,1.0,100.0,-0.05490678386739169,-10.0,-1.0,-100.0,502.70228583645076,0.0028407180558120085,-0.00010119149234828504,0.9999959600324438,15.982959148902594,-1.0013360501918773,-361.2002315065609,25.989876423264747,-89.93206787109375,6307.37744140625
1598103361.6831148,0.0,10.0,0.5,0.5,-0.008415646362304689,-0.14,-0.011,-0.56,-0.0020109355462920816,10.0,1.0,100.0,-0.057129401788023754,-10.0,-1.0,-100.0,503.2322935865959,0.0030875743179109437,-0.00010975583896276654,0.9999952274078547,16.108204188833,-1.0095187003986608,-367.8367706433395,26.235851520597876,-89.93472290039062,6306.3193359375
1598103361.6941993,0.0,10.0,0.5,0.5,-0.007684442138671876,-0.14,-0.011,-0.56,-0.002091259415749712,10.0,1.0,100.0,-0.059324395959634235,-10.0,-1.0,-100.0,503.7356905619381,0.0033292555455989308,-0.0001181785128123412,0.9999944510302801,16.23134951017449,-1.0176163547914725,-374.52786258215343,26.4818847006692,-89.93789672851562,6305.26171875
1598103361.7214692,0.0,10.0,0.5,0.5,-0.006916213989257814,-0.14,-0.011,-0.56,-0.002187282862848792,10.0,1.0,100.0,-0.06144593838454616,-10.0,-1.0,-100.0,504.2822088187095,0.003565605526149292,-0.00012661653818943317,0.9999936351924867,16.352441654788,-1.025633659750709,-381.27450658092846,26.727975662405864,-89.9415283203125,6304.20361328125
1598103361.7324398,0.0,10.0,0.5,0.5,-0.006098312377929687,-0.14,-0.011,-0.56,-0.0022062360557960773,10.0,1.0,100.0,-0.06349187802699253,-10.0,-1.0,-100.0,504.8121253505815,0.003796464949698454,-0.0001343691057750678,0.9999927843733819,16.471430558551724,-1.0335672170841834,-388.07553532048263,26.974124476982844,-89.94558715820312,6303.14599609375
1598103361.7603104,0.0,10.0,0.5,0.5,-0.005254794311523437,-0.14,-0.011,-0.56,-0.0023023994201555337,10.0,1.0,100.0,-0.06544655383234173,-10.0,-1.0,-100.0,505.3587897513062,0.004021801891134901,-0.00014221098140350724,0.9999919024100071,16.58387993286029,-1.0411476431851665,-394.9296509335187,27.226933046120134,-89.95001220703125,6302.07177734375
1598103361.770249,0.0,10.0,0.5,0.5,-0.0043541320800781266,-0.14,-0.011,-0.56,-0.0023951903641191573,10.0,1.0,100.0,-0.06727369594286282,-10.0,-1.0,-100.0,505.9319206724176,0.004241003676713534,-0.00015010497192476986,0.9999909956376164,16.697453735052846,-1.0488593285017807,-402.02171418871853,27.486404485487363,-89.95480346679688,6300.982421875
1598103361.7921925,0.0,10.0,0.5,0.5,-0.0034820098876953125,-0.14,-0.011,-0.56,-0.0024088977595220777,10.0,1.0,100.0,-0.06906490310137871,-10.0,-1.0,-100.0,506.4784996082308,0.00445434900470711,-0.00015732856945504435,0.9999900669620001,16.811803277306407,-1.0566800749467284,-409.3495411910212,27.75254142974804,-89.9598388671875,6299.8779296875
1598103361.8313093,0.0,10.0,0.5,0.5,-0.002549176025390625,-0.14,-0.011,-0.56,-0.002477991218245273,10.0,1.0,100.0,-0.07072746551845474,-10.0,-1.0,-100.0,507.05177932418883,0.004661243699520404,-0.00016444792800945435,0.9999891228228698,16.926849432035393,-1.0646065135573806,-416.91737996402986,28.025346909214043,-89.96514892578125,6298.75634765625
1598103361.841276,0.0,10.0,0.5,0.5,-0.0016799346923828127,-0.14,-0.011,-0.56,-0.0025564778635960646,10.0,1.0,100.0,-0.07236719628685004,-10.0,-1.0,-100.0,507.5982943525305,0.004862117493349479,-0.0001715599274369384,0.9999881651203039,17.042655347823814,-1.0726438040428687,-424.73311168087344,28.30482379338555,-89.9705810546875,6297.61962890625
1598103361.8657076,0.0,10.0,0.5,0.5,-0.0007465820312500004,-0.14,-0.011,-0.56,-0.002601039044371911,10.0,1.0,100.0,-0.07385604789504552,-10.0,-1.0,-100.0,508.1716951567214,0.005056198034672127,-0.00017835868546758172,0.9999872014429053,17.159106268639277,-1.0807875637612574,-432.80032139716053,28.59097550029274,-89.9761962890625,6296.466796875
1598103361.8786762,0.0,10.0,0.5,0.5,8.809204101562504e-05,-0.14,-0.011,-0.56,-0.002648895136067414,10.0,1.0,100.0,-0.0752887165731178,-10.0,-1.0,-100.0,508.74482123099733,0.005243645078421681,-0.0001849042779716536,0.9999862349036108,17.27617036427804,-1.0890371822534155,-441.12480108161793,28.883804736452575,-89.9818115234375,6295.298828125
1598103361.907655,0.0,10.0,0.5,0.5,0.0009473846435546877,-0.14,-0.011,-0.56,-0.002683348089815357,10.0,1.0,100.0,-0.07661291455779369,-10.0,-1.0,-100.0,509.3178859590553,0.005424129580999684,-0.00019109970851941943,0.9999852710411239,17.393755549799664,-1.097387623071259,-449.71075982947247,29.183314810836197,-89.98745727539062,6294.1142578125
1598103361.9206202,0.0,10.0,0.5,0.5,0.0017282196044921879,-0.14,-0.011,-0.56,-0.0027476788455578424,10.0,1.0,100.0,-0.0778613697840628,-10.0,-1.0,-100.0,509.9341935531702,0.00559765156354995,-0.00019725045116440453,0.9999843135715841,17.511798504923892,-1.1058357003934742,-458.5632451433616,29.48950875369218,-89.99301147460938,6292.9140625
1598103361.9415653,0.0,10.0,0.5,0.5,0.0024983520507812504,-0.14,-0.011,-0.56,-0.00278346778146198,10.0,1.0,100.0,-0.07901028597720547,-10.0,-1.0,-100.0,510.5073795092758,0.005763996198499307,-0.00020310317670172408,0.9999833674101402,17.630234106330317,-1.114379677469666,-467.6874028389539,29.802389748655603,-89.99847412109375,6291.6982421875
1598103361.9534886,0.0,10.0,0.5,0.5,0.003193124389648438,-0.14,-0.011,-0.56,-0.0027931443622745554,10.0,1.0,100.0,-0.08005181481137127,-10.0,-1.0,-100.0,511.12353364680894,0.0059228983730831375,-0.00020844931967855921,0.9999824377576554,17.749021329581605,-1.1230192224206503,-477.08895811715485,30.1219610269642,-90.00375366210938,6290.466796875
1598103361.976459,0.0,10.0,0.5,0.5,0.0038258178710937505,-0.14,-0.011,-0.56,-0.002881090111680319,10.0,1.0,100.0,-0.08107060853292877,-10.0,-1.0,-100.0,511.7398094559321,0.006074888387008099,-0.00021404873979912078,0.9999815247864444,17.868048709194316,-1.1317454844290982,-486.77182015181614,30.448226096763072,-90.00879669189453,6289.2197265625
1598103361.986398,0.0,10.0,0.5,0.5,0.0044043144226074225,-0.14,-0.011,-0.56,-0.0028606777615234587,10.0,1.0,100.0,-0.08188281728129704,-10.0,-1.0,-100.0,512.3559628594667,0.006218777674915689,-0.0002188954242092286,0.9999806392570924,17.98733121583106,-1.1405625854389867,-496.7433930269078,30.78118782485988,-90.0135726928711,6287.95703125
1598103362.0203536,0.0,10.0,0.5,0.5,0.0048917358398437505,-0.14,-0.011,-0.56,-0.0029160976852575207,10.0,1.0,100.0,-0.08271618877945808,-10.0,-1.0,-100.0,512.9724210298155,0.006355558196932955,-0.00022374934856622339,0.9999797782036567,18.10676014050288,-1.1494651578366164,-507.0076085084056,31.12084986684315,-90.01800537109375,6286.677734375
1598103362.0575953,0.0,10.0,0.5,0.5,0.007866900634765625,-0.14,-0.011,-0.56,-0.003370934435308269,10.0,1.0,100.0,-0.09666679626317598,-10.0,-1.0,-100.0,514.2311541747767,0.006605187544530257,-0.00023224297623617384,0.999978158541826,18.3459032849349,-1.1675189044047176,-528.437814004025,31.820289219464513,-90.02571868896484,6284.072265625
1598103362.0695634,0.0,10.0,0.5,0.5,0.005856476593017578,-0.14,-0.011,-0.56,-0.002955867243945552,10.0,1.0,100.0,-0.08432071126319492,-10.0,-1.0,-100.0,514.8739783110796,0.0067183015695723575,-0.00023613595142483207,0.9999774040766285,18.465540939010193,-1.1766661655670254,-539.6158009845826,32.18007295790628,-90.0289306640625,6282.74609375
1598103362.094733,0.0,10.0,0.5,0.5,0.006033045196533204,-0.14,-0.011,-0.56,-0.0029751333667640267,10.0,1.0,100.0,-0.08480894367511732,-10.0,-1.0,-100.0,515.5332811739063,0.006824059974687289,-0.0002397976415620009,0.9999766870795305,18.58516123174534,-1.1858902587648317,-551.1100913094555,32.54657104618674,-90.03166961669922,6281.404296875
1598103362.1255875,0.0,10.0,0.5,0.5,0.00606545867919922,-0.14,-0.011,-0.56,-0.003013140431657121,10.0,1.0,100.0,-0.08476944097373461,-10.0,-1.0,-100.0,516.1759210812161,0.006918408123055324,-0.00024342206649155494,0.999976037900279,18.70472762927313,-1.1951902962957257,-562.9266961690385,32.91978713772615,-90.03382873535156,6280.0458984375
1598103362.135561,0.0,10.0,0.5,0.5,0.006018200683593751,-0.14,-0.011,-0.56,-0.0029800393763384976,10.0,1.0,100.0,-0.08530568204242948,-10.0,-1.0,-100.0,516.835223030881,0.007007695650794349,-0.00024636851378100554,0.9999754154499105,18.824153859250945,-1.2045622701153391,-575.0700542726746,33.29972419448424,-90.03541564941406,6278.6728515625
1598103362.160498,0.0,10.0,0.5,0.5,0.0058864700317382826,-0.14,-0.011,-0.56,-0.002994730750749793,10.0,1.0,100.0,-0.08542837734470002,-10.0,-1.0,-100.0,517.5210143072763,0.007088699684134792,-0.0002491360073909573,0.9999748438176023,18.943464425675923,-1.214004789189791,-587.5477059348,33.68638623289189,-90.03643035888672,6277.283203125
1598103362.1724656,0.0,10.0,0.5,0.5,0.005680419158935548,-0.14,-0.011,-0.56,-0.002969624601856116,10.0,1.0,100.0,-0.08539785497678387,-10.0,-1.0,-100.0,518.206621655263,0.0071608579624762875,-0.0002513818249276171,0.9999743291307128,19.062645553656782,-1.2235229765174882,-600.3661994077258,34.079777310886435,-90.0368881225586,6275.8779296875
1598103362.1985197,0.0,10.0,0.5,0.5,0.005369729614257813,-0.14,-0.011,-0.56,-0.0029955535024120705,10.0,1.0,100.0,-0.0852973625302139,-10.0,-1.0,-100.0,518.8925945183728,0.007224417411827563,-0.00025362016496122646,0.9999738713935838,19.181644099147487,-1.2331090030116718,-613.5309093948216,34.479900852862784,-90.03675842285156,6274.45703125
1598103362.210465,0.0,10.0,0.5,0.5,0.0049871269226074225,-0.14,-0.011,-0.56,-0.00297267774413194,10.0,1.0,100.0,-0.08515883419999629,-10.0,-1.0,-100.0,519.5951687762281,0.007279894354576908,-0.00025541108407545004,0.9999734685997246,19.30048841384321,-1.2427646205122178,-627.0496932919789,34.88676070762324,-90.03606414794922,6273.01953125
1598103362.2313967,0.0,10.0,0.5,0.5,0.00451412582397461,-0.14,-0.011,-0.56,-0.002997539109005561,10.0,1.0,100.0,-0.08495180457756157,-10.0,-1.0,-100.0,520.30726377666,0.007327481199890851,-0.000257232008714626,0.9999731205642275,19.419133489257923,-1.2524888982162108,-640.9278691292297,35.3003604796214,-90.03479766845703,6271.5673828125
1598103362.2714329,0.0,10.0,0.5,0.5,0.003976109313964844,-0.14,-0.011,-0.56,-0.0029838457828098826,10.0,1.0,100.0,-0.08458452429473938,-10.0,-1.0,-100.0,521.0097146600019,0.007366519490329726,-0.00025873247118469035,0.9999728333550402,19.537605308643343,-1.2622824645199562,-655.1730911997945,35.72070454865861,-90.03298950195312,6270.0986328125
1598103362.3047636,0.0,10.0,0.5,0.5,0.0013277046203613281,-0.14,-0.011,-0.56,-0.0030222096624435667,10.0,1.0,100.0,-0.08664134033020275,-10.0,-1.0,-100.0,522.4771762291202,0.007420015052918553,-0.00026042120915873823,0.9999724373988557,19.773965385032955,-1.282068735553523,-684.7893878787243,36.581640317213974,-90.02774810791016,6267.1142578125
1598103362.3167877,0.0,10.0,0.5,0.5,0.0019117309570312502,-0.14,-0.011,-0.56,-0.0029134176631933186,10.0,1.0,100.0,-0.08292615596340355,-10.0,-1.0,-100.0,523.2060536661884,0.007434235057861724,-0.0002609453298167487,0.9999723316455507,19.891913017719578,-1.2920641432864455,-700.1756839125939,37.02223961264,-90.0243911743164,6265.59912109375
1598103362.343694,0.0,10.0,0.5,0.5,0.0010812759399414064,-0.14,-0.011,-0.56,-0.0028461902844814464,10.0,1.0,100.0,-0.08224535769451759,-10.0,-1.0,-100.0,523.9614200867945,0.007440418555290031,-0.0002607914199827823,0.9999722856957373,20.009660658213033,-1.3021242488449378,-715.9543181904324,37.469599080833355,-90.0205307006836,6264.0673828125
1598103362.3555465,0.0,10.0,0.5,0.5,0.0002751747131347661,-0.14,-0.011,-0.56,-0.0028234025982923484,10.0,1.0,100.0,-0.08135567279638779,-10.0,-1.0,-100.0,524.7333875992335,0.007437477317121644,-0.00026042855084701085,0.999972307670631,20.12729020683449,-1.3122528293013562,-732.1343213791883,37.92372242758481,-90.01631164550781,6262.5205078125
1598103362.37644,0.0,10.0,0.5,0.5,-0.0006142173767089841,-0.14,-0.011,-0.56,-0.002806400897925057,10.0,1.0,100.0,-0.08057822864991139,-10.0,-1.0,-100.0,525.4886920357822,0.007427345079576663,-0.00025993132705018324,0.9999723831090406,20.24479468079235,-1.3224496116533706,-748.7215198652307,38.384613452067036,-90.0116958618164,6260.95703125
1598103362.3866615,0.0,10.0,0.5,0.5,-0.0015226203918457036,-0.14,-0.011,-0.56,-0.0027885941029092013,10.0,1.0,100.0,-0.07963381017441357,-10.0,-1.0,-100.0,526.260658331681,0.007409240472580844,-0.0002593076115350511,0.9999725175799493,20.36224548905557,-1.3327159128393518,-765.7242787080879,38.852276659466106,-90.00674438476562,6259.3779296875
1598103362.4155903,0.0,10.0,0.5,0.5,-0.002446586608886719,-0.14,-0.011,-0.56,-0.00273804224482642,10.0,1.0,100.0,-0.07853020461869448,-10.0,-1.0,-100.0,527.0589673462091,0.007382523158887104,-0.00025827382982362615,0.9999727154509954,20.48413978500944,-1.343315038808912,-783.1499892199986,39.3200637613655,-90.00151062011719,6257.7998046875
1598103362.4525206,0.0,10.0,0.5,0.5,-0.0033996658325195317,-0.14,-0.011,-0.56,-0.0026879875391060087,10.0,1.0,100.0,-0.07741140254504472,-10.0,-1.0,-100.0,527.8571458644001,0.007347920031453198,-0.0002568747548840885,0.9999729706779937,20.603752741960815,-1.353803094176734,-800.744516722455,39.78797422424507,-89.99601745605469,6256.2197265625
1598103362.4628618,0.0,10.0,0.5,0.5,-0.004351615142822266,-0.14,-0.011,-0.56,-0.0026593861812391328,10.0,1.0,100.0,-0.07622637021438156,-10.0,-1.0,-100.0,528.6554478605976,0.007305627780164639,-0.0002553415256213475,0.9999732809447676,20.721451308673103,-1.3641998249786387,-818.5155073810563,40.2560081511901,-89.99032592773438,6254.6416015625
1598103362.4933252,0.0,10.0,0.5,0.5,-0.0053148406982421875,-0.14,-0.011,-0.56,-0.0026020935012346508,10.0,1.0,100.0,-0.07494240623051501,-10.0,-1.0,-100.0,529.4536295640282,0.007255527745885095,-0.00025342855691253615,0.9999736461982861,20.83737196012375,-1.374510377406412,-836.4628562209131,40.72416486079407,-89.98446655273438,6253.0625
1598103362.5032969,0.0,10.0,0.5,0.5,-0.006252615356445313,-0.14,-0.011,-0.56,-0.002541409915365675,10.0,1.0,100.0,-0.07355581020210561,-10.0,-1.0,-100.0,530.2949023701949,0.007197477743322193,-0.00025114264722778253,0.9999740662844737,20.951540488110357,-1.3847330202958392,-854.5813965430103,41.192444087308985,-89.978515625,6251.4833984375
1598103362.5253937,0.0,10.0,0.5,0.5,-0.007161263275146485,-0.14,-0.011,-0.56,-0.0024872969869090475,10.0,1.0,100.0,-0.07209266932448176,-10.0,-1.0,-100.0,531.1196953633334,0.00713160603965897,-0.00024858104685742896,0.9999745388772447,21.064079058705595,-1.3948710249451433,-872.8692334205828,41.660845608773734,-89.9725341796875,6249.90478515625
1598103362.5363643,0.0,10.0,0.5,0.5,-0.008055708312988283,-0.14,-0.011,-0.56,-0.002462891058912279,10.0,1.0,100.0,-0.07062525779379947,-10.0,-1.0,-100.0,531.9610284060473,0.007058657685157295,-0.00024604168743255447,0.9999750570965117,21.17515590461047,-1.4049309392561888,-891.3266694314568,42.12936877986506,-89.966552734375,6248.32568359375
1598103362.5573437,0.0,10.0,0.5,0.5,-0.008909761810302737,-0.14,-0.011,-0.56,-0.002399141489429149,10.0,1.0,100.0,-0.06895899277649795,-10.0,-1.0,-100.0,532.8023004094139,0.006977540190789515,-0.00024316704617150396,0.9999756271043178,21.284929177707816,-1.4149179587668117,-909.9534242777203,42.598013528208476,-89.96063232421875,6246.7470703125
1598103362.5673163,0.0,10.0,0.5,0.5,-0.009735779571533204,-0.14,-0.011,-0.56,-0.002292464018472838,10.0,1.0,100.0,-0.06736312980337766,-10.0,-1.0,-100.0,533.670122607029,0.006889707293541651,-0.00023959963302065112,0.9999762369803721,21.39349970824395,-1.4248343329651316,-928.7466977982539,43.06677979967153,-89.95480346679688,6245.16796875
1598103362.5966716,0.0,10.0,0.5,0.5,-0.01050758972167969,-0.14,-0.011,-0.56,-0.0022547002715643206,10.0,1.0,100.0,-0.06561486551403056,-10.0,-1.0,-100.0,534.5379445286235,0.006794454655036833,-0.0002360317067243707,0.9999768895704411,21.501040379517505,-1.4346869933368183,-947.7063295219999,43.53566711980179,-89.94912719726562,6243.5888671875
1598103362.6096334,0.0,10.0,0.5,0.5,-0.011194747924804687,-0.14,-0.011,-0.56,-0.002210976314752161,10.0,1.0,100.0,-0.06383300025353833,-10.0,-1.0,-100.0,535.422246103175,0.0066922214684075635,-0.00023241180676110583,0.9999775798269528,21.60772578451998,-1.4444833310905145,-966.8324268094952,44.004675379344015,-89.94369506835938,6242.009765625
1598103362.6346054,0.0,10.0,0.5,0.5,-0.011847944641113281,-0.14,-0.011,-0.56,-0.0021385873422548303,10.0,1.0,100.0,-0.06196672497308539,-10.0,-1.0,-100.0,536.3330974652199,0.006582943615913637,-0.0002284864179745825,0.9999783060883404,21.713684698598477,-1.4542231394161713,-986.1227069099618,44.473804097308424,-89.93850708007812,6240.431640625
1598103362.6704743,0.0,10.0,0.5,0.5,-0.012423901367187502,-0.14,-0.011,-0.56,-0.0020776109355552788,10.0,1.0,100.0,-0.0600119633643757,-10.0,-1.0,-100.0,537.200979996589,0.006466524986672288,-0.00022438935932311949,0.9999790666329031,21.81912692016779,-1.4639181769359335,-1005.5788645927786,44.94305287915627,-89.93362426757812,6238.8525390625
1598103362.6824424,0.0,10.0,0.5,0.5,-0.012934881591796876,-0.14,-0.011,-0.56,-0.001963068555158722,10.0,1.0,100.0,-0.058068907991570023,-10.0,-1.0,-100.0,538.1118316509528,0.00634378855014873,-0.00021965160451481916,0.9999798538470681,21.924109568303212,-1.4735667180818364,-1025.1951346823496,45.41242139764471,-89.9290771484375,6237.2734375
1598103362.7126548,0.0,10.0,0.5,0.5,-0.013376058959960939,-0.14,-0.011,-0.56,-0.0019467393912348575,10.0,1.0,100.0,-0.056031771954543924,-10.0,-1.0,-100.0,539.0491107820999,0.006214519406786837,-0.00021522681406469074,0.999980666526089,22.02887756413469,-1.4831810956172284,-1044.9747543485582,45.881909517019736,-89.92489624023438,6235.6943359375
1598103362.7414515,0.0,10.0,0.5,0.5,-0.016071148681640626,-0.14,-0.011,-0.56,-0.0012441146983457286,10.0,1.0,100.0,-0.038291521831636297,-10.0,-1.0,-100.0,540.9139652972808,0.005936620601100988,-0.00020484943084118473,0.9999823571306393,22.238380393854328,-1.5023235118299494,-1085.019015612328,46.82124304142615,-89.91778564453125,6232.53662109375
1598103362.7524202,0.0,10.0,0.5,0.5,-0.014178857421875002,-0.14,-0.011,-0.56,-0.0017194280238289699,10.0,1.0,100.0,-0.04962873230767263,-10.0,-1.0,-100.0,541.867906868225,0.005788137223385599,-0.00019977623233876894,0.9999832286378308,22.34342442634868,-1.511861645943444,-1105.2807252608948,47.29108840055593,-89.91488647460938,6230.9580078125
1598103362.7816174,0.0,10.0,0.5,0.5,-0.014321139526367188,-0.14,-0.011,-0.56,-0.0015895075446559189,10.0,1.0,100.0,-0.047372662448610964,-10.0,-1.0,-100.0,542.8053083104314,0.005633797627163568,-0.0001940251979396303,0.9999841112130325,22.44888289137462,-1.5213851357558323,-1125.7011765335956,47.76105187018776,-89.91244506835938,6229.37890625
1598103362.793601,0.0,10.0,0.5,0.5,-0.014331420898437502,-0.14,-0.011,-0.56,-0.001518879833755614,10.0,1.0,100.0,-0.04542935634896796,-10.0,-1.0,-100.0,543.7592501909239,0.005477044068386445,-0.0001881995891578941,0.9999849831718411,22.55493977417564,-1.530902162834261,-1146.2805012167314,48.23113379434106,-89.91055297851562,6227.7998046875
1598103362.8465495,0.0,10.0,0.5,0.5,-0.014260467529296876,-0.14,-0.011,-0.56,-0.0014538094000492371,10.0,1.0,100.0,-0.04276410501235382,-10.0,-1.0,-100.0,544.7396809506463,0.005311595514824528,-0.00018235875908976937,0.9999858767494517,22.66181665029927,-1.5404211215410593,-1167.020808433424,48.70133307974321,-89.90921020507812,6226.220703125
1598103362.8574872,0.0,10.0,0.5,0.5,-0.014385552978515626,-0.14,-0.011,-0.56,-0.0006426701192952652,10.0,1.0,100.0,-0.021131644735892477,-10.0,-1.0,-100.0,546.7171445487766,0.004965877062836966,-0.00016972371370065133,0.9999876555532362,22.878554634708774,-1.5594817165768962,-1208.975784058538,49.642084194210376,-89.90802001953125,6223.06298828125
1598103362.888403,0.0,10.0,0.5,0.5,-0.013672842407226563,-0.14,-0.011,-0.56,-0.0011705867120711945,10.0,1.0,100.0,-0.03565187030050383,-10.0,-1.0,-100.0,547.7241261093877,0.004785159015622532,-0.00016309353972947106,0.9999885377611548,22.98878251716905,-1.56903507184836,-1230.191217025369,50.112635285671516,-89.90814208984375,6221.48388671875
1598103362.8993754,0.0,10.0,0.5,0.5,-0.013325994873046877,-0.14,-0.011,-0.56,-0.0011206456515031817,10.0,1.0,100.0,-0.03319976711881596,-10.0,-1.0,-100.0,548.7475867484463,0.0046002123843216025,-0.00015667154727618443,0.9999894066939137,23.100419356391136,-1.5786077988392924,-1251.5620970649236,50.58330281987553,-89.90878295898438,6219.9052734375
1598103362.929034,0.0,10.0,0.5,0.5,-0.0129431640625,-0.14,-0.011,-0.56,-0.000957943204305877,10.0,1.0,100.0,-0.031106258166294636,-10.0,-1.0,-100.0,549.7711699580541,0.004414743831390883,-0.0001494158208096274,0.9999902438083161,23.213651617816748,-1.5882120393043329,-1273.0884490916883,51.05408662258624,-89.90988159179688,6218.32666015625
1598103362.9399552,0.0,10.0,0.5,0.5,-0.012511398315429688,-0.14,-0.011,-0.56,-0.0009225489699462451,10.0,1.0,100.0,-0.028144493230933345,-10.0,-1.0,-100.0,550.7946305668447,0.00422096459724036,-0.00014256179078558361,0.9999910815272328,23.328771295409627,-1.5978585951925357,-1294.7769272682676,51.5249866375622,-89.91140747070312,6216.74755859375
1598103362.9616728,0.0,10.0,0.5,0.5,-0.012013540649414064,-0.14,-0.011,-0.56,-0.0008082393476406451,10.0,1.0,100.0,-0.025548696827010896,-10.0,-1.0,-100.0,551.8180917197606,0.004023015830531087,-0.00013535773512756482,0.9999918984781381,23.4457854633554,-1.607545423189884,-1316.6199548007685,51.99600218532234,-89.91336059570312,6215.16845703125
1598103362.9723287,0.0,10.0,0.5,0.5,-0.011467260742187502,-0.14,-0.011,-0.56,-0.0007251766508737094,10.0,1.0,100.0,-0.023022775242376045,-10.0,-1.0,-100.0,552.8681637240807,0.0038218391234537672,-0.0001281166524639516,0.9999926885391902,23.56495971803236,-1.617282970612254,-1338.6230015148294,52.46713347062711,-89.91571044921875,6213.58935546875
1598103362.9974523,0.0,10.0,0.5,0.5,-0.010902389526367188,-0.14,-0.011,-0.56,-0.0006382054956327061,10.0,1.0,100.0,-0.020459854536525705,-10.0,-1.0,-100.0,553.9345935594756,0.003617439472512048,-0.00012080834824927122,0.99999344974705,23.686402021322873,-1.6270784269298249,-1360.7823441526834,52.938379433275394,-89.91839599609375,6212.0107421875
1598103363.0094204,0.0,10.0,0.5,0.5,-0.010306243896484376,-0.14,-0.011,-0.56,-0.0005184752732525005,10.0,1.0,100.0,-0.01783200542899692,-10.0,-1.0,-100.0,555.0012063483009,0.00340956512354627,-0.0001131425395321875,0.9999941810152868,23.8102796200753,-1.6369337603917733,-1383.0988020134535,53.409740228451426,-89.92138671875,6210.43212890625
1598103363.032674,0.0,10.0,0.5,0.5,-0.009704727172851563,-0.14,-0.011,-0.56,-0.0004277695230663506,10.0,1.0,100.0,-0.015187926989864896,-10.0,-1.0,-100.0,556.0776460127672,0.003198430892262399,-0.00010541725846916977,0.9999948794504046,23.936744482141723,-1.646851589682312,-1405.5711386363232,53.88121555680386,-89.92462158203125,6208.8525390625
1598103363.0748305,0.0,10.0,0.5,0.5,-0.009063995361328125,-0.14,-0.011,-0.56,-0.0003264269817266791,10.0,1.0,100.0,-0.012523302892917497,-10.0,-1.0,-100.0,557.1706873473013,0.0029841878853253236,-9.754292667299354e-05,0.9999955425440867,24.065996705667157,-1.6568484350404116,-1428.2024584946973,54.352804549281494,-89.9281005859375,6207.27392578125
1598103363.087601,0.0,10.0,0.5,0.5,-0.00842667236328125,-0.14,-0.011,-0.56,-0.0002265336526228721,10.0,1.0,100.0,-0.0098734201843673,-10.0,-1.0,-100.0,558.2804524190724,0.0027671332081934457,-8.954194094555115e-05,0.9999961674706802,24.198156233074272,-1.6669255027826322,-1450.9903169437962,54.82450761910082,-89.9317626953125,6205.6953125
1598103363.1095426,0.0,10.0,0.5,0.5,-0.007781182861328126,-0.14,-0.011,-0.56,-0.00014410391901481306,10.0,1.0,100.0,-0.0072133803477423646,-10.0,-1.0,-100.0,559.3734328023857,0.002547463163020084,-8.158582143215199e-05,0.9999967518823182,24.33336749246156,-1.6770860948185706,-1473.935050664862,55.29632367172744,-89.93557739257812,6204.1162109375
1598103363.1225555,0.0,10.0,0.5,0.5,-0.007174926757812502,-0.14,-0.011,-0.56,-1.1141570543639237e-05,10.0,1.0,100.0,-0.004549387024376829,-10.0,-1.0,-100.0,560.4664134444902,0.002325411136487615,-7.321249663918212e-05,0.999997293547826,24.47183961053175,-1.6873423563959722,-1497.0395346278099,55.76825324573085,-89.939453125,6202.537109375
1598103363.151402,0.0,10.0,0.5,0.5,-0.006578433227539064,-0.14,-0.011,-0.56,8.265317517001242e-05,10.0,1.0,100.0,-0.001894092552900923,-10.0,-1.0,-100.0,561.6026680984069,0.002101306010530956,-6.481697943378581e-05,0.999997790153463,24.613710579061493,-1.6976994375730314,-1520.3041819905197,56.24029535569357,-89.943359375,6200.9580078125
1598103363.182371,0.0,10.0,0.5,0.5,-0.003304760742187501,-0.14,-0.011,-0.56,0.0010798558795380281,10.0,1.0,100.0,0.025843653411296436,-10.0,-1.0,-100.0,563.9014225179562,0.0016473397132473898,-4.818988903585429e-05,0.9999986419738798,24.90816968132379,-1.718740110910613,-1567.310373730991,57.18471631165722,-89.95111083984375,6197.80078125
1598103363.21943,0.0,10.0,0.5,0.5,-0.002413015747070313,-0.14,-0.011,-0.56,0.0012990490844514814,10.0,1.0,100.0,0.03132205521284373,-10.0,-1.0,-100.0,566.2001769464696,0.0011869991321730665,-3.1160930307695794e-05,0.9999992950307798,25.217936846728204,-1.7402472160872655,-1614.962455640155,58.12958437993848,-89.95852661132812,6194.642578125
1598103363.2304003,0.0,10.0,0.5,0.5,-0.004147534179687501,-0.14,-0.011,-0.56,0.0005284911478754628,10.0,1.0,100.0,0.010480300827197817,-10.0,-1.0,-100.0,567.3793399496935,0.000960373498330718,-2.2773272452930293e-05,0.9999995385819545,25.37888909952806,-1.7511894130479142,-1639.0309748162504,58.60218510036968,-89.9619140625,6193.0634765625
1598103363.2543383,0.0,10.0,0.5,0.5,-0.0038604064941406262,-0.14,-0.011,-0.56,0.0006303676803048853,10.0,1.0,100.0,0.013159608403406586,-10.0,-1.0,-100.0,568.5419624998467,0.000732408367757759,-1.431110144996358e-05,0.9999997316865517,25.54418913057071,-1.7622749887625797,-1663.271130969915,59.07489662092316,-89.9649658203125,6191.484375
1598103363.2909758,0.0,10.0,0.5,0.5,-0.003641571044921875,-0.14,-0.011,-0.56,0.0007387827362420299,10.0,1.0,100.0,0.015690955569442097,-10.0,-1.0,-100.0,569.7476146657718,0.0005045888718690993,-5.722474064276366e-06,0.9999998726786536,25.713942965201362,-1.7735085185633286,-1687.6849385591422,59.547718011805884,-89.9676513671875,6189.90625
1598103363.3009484,0.0,10.0,0.5,0.5,-0.0034959716796875004,-0.14,-0.011,-0.56,0.0008354658890906476,10.0,1.0,100.0,0.01867500289747918,-10.0,-1.0,-100.0,570.9533888887381,0.0002728014835521564,2.8736751446040854e-06,0.9999999627855456,25.888260677347656,-1.7848982786199457,-1712.27528751408,60.020649315669345,-89.96994018554688,6188.3271484375
1598103363.3268807,0.0,10.0,0.5,0.5,-0.0033431365966796875,-0.14,-0.011,-0.56,0.0009289898086775316,10.0,1.0,100.0,0.021086066223393568,-10.0,-1.0,-100.0,572.1589805318508,4.263181521187131e-05,1.1447285874541989e-05,0.9999999990257439,26.06709764316862,-1.7964370451052436,-1737.0341022510725,60.493690222823076,-89.971923828125,6186.748046875
1598103363.3368528,0.0,10.0,0.5,0.5,-0.0032989593505859376,-0.14,-0.011,-0.56,0.0010125086125929554,10.0,1.0,100.0,0.023496859480425743,-10.0,-1.0,-100.0,573.3646331573837,-0.0001860528207132426,1.9908930912971125e-05,0.999999982493991,26.25060015409543,-1.8081308349552174,-1761.9650974237147,60.96684009013334,-89.9735107421875,6185.1689453125
1598103363.36618,0.0,10.0,0.5,0.5,-0.003312774658203126,-0.14,-0.011,-0.56,0.0011384344508345973,10.0,1.0,100.0,0.025954910683135855,-10.0,-1.0,-100.0,574.6134987621335,-0.00041380884977549866,2.8653847884335155e-05,0.9999999139705927,26.438806789978717,-1.8199788254323586,-1787.064518959857,61.44009873112314,-89.97470092773438,6183.59033203125
1598103363.3761532,0.0,10.0,0.5,0.5,-0.003406448364257813,-0.14,-0.011,-0.56,0.0012106199944990307,10.0,1.0,100.0,0.028412516975465152,-10.0,-1.0,-100.0,575.8456409913488,-0.0006407114606839404,3.716739885113956e-05,0.999999794053683,26.631869984220682,-1.8319962999081214,-1812.3368069727233,61.91346569893105,-89.9754638671875,6182.01171875
1598103363.3987095,0.0,10.0,0.5,0.5,-0.0035420318603515627,-0.14,-0.011,-0.56,0.0013223568132940797,10.0,1.0,100.0,0.030882777793311094,-10.0,-1.0,-100.0,577.0944460496539,-0.0008669507348800188,4.5830066829748624e-05,0.9999996231479431,26.829858861470928,-1.8441806689098006,-1837.78085706795,62.386940613350134,-89.975830078125,6180.4326171875
1598103363.4096782,0.0,10.0,0.5,0.5,-0.003762643432617188,-0.14,-0.011,-0.56,0.0014060783349399949,10.0,1.0,100.0,0.033298586180648876,-10.0,-1.0,-100.0,578.3431898095878,-0.001092298978172136,5.438085159266009e-05,0.9999994019626538,27.032842664325504,-1.856533847331447,-1863.3962801168996,62.86052293008832,-89.97576904296875,6178.853515625
1598103363.4366505,0.0,10.0,0.5,0.5,-0.00407265625,-0.14,-0.011,-0.56,0.0015091534996485479,10.0,1.0,100.0,0.03560901901254022,-10.0,-1.0,-100.0,579.618484351784,-0.001316092863172759,6.301357398183885e-05,0.9999991319640557,27.240951074464487,-1.8690645156158923,-1889.1879671181082,63.33421221579225,-89.97525024414062,6177.27490234375
1598103363.4485753,0.0,10.0,0.5,0.5,-0.0044083282470703125,-0.14,-0.011,-0.56,0.0015679928905852857,10.0,1.0,100.0,0.037956439263018935,-10.0,-1.0,-100.0,580.8935956126079,-0.0015388125187581288,7.131841893830374e-05,0.9999988134841538,27.454259335015486,-1.881775003283905,-1915.1551349056367,63.808008252532815,-89.97433471679688,6175.6953125
1598103363.4735081,0.0,10.0,0.5,0.5,-0.0048679931640625,-0.14,-0.011,-0.56,0.001687453833393562,10.0,1.0,100.0,0.040203629579913025,-10.0,-1.0,-100.0,582.1688899254659,-0.001759649189547033,7.987644154208499e-05,0.9999984486260385,27.67286459958079,-1.8946686922959821,-1941.3009980529046,64.28191070995491,-89.97293090820312,6174.1171875
1598103363.514326,0.0,10.0,0.5,0.5,-0.005336428833007813,-0.14,-0.011,-0.56,0.0017701012635531455,10.0,1.0,100.0,0.0424222587050449,-10.0,-1.0,-100.0,583.4606640225975,-0.001978520756800494,8.832998516914929e-05,0.9999980388247912,27.896836788784164,-1.9077538001364551,-1967.6265213876043,64.75591919013387,-89.97113037109375,6172.5380859375
1598103363.5257828,0.0,10.0,0.5,0.5,-0.005907629394531251,-0.14,-0.011,-0.56,0.001848435881261914,10.0,1.0,100.0,0.0446449693753445,-10.0,-1.0,-100.0,584.7791106372606,-0.0021956547129060432,9.66494701638106e-05,0.9999975848767145,28.126213973129644,-1.9210308528641444,-1994.1316010965422,65.23003293941753,-89.9688720703125,6170.958984375
1598103363.5473194,0.0,10.0,0.5,0.5,-0.00648349609375,-0.14,-0.011,-0.56,0.0019401467998090161,10.0,1.0,100.0,0.04676003717931511,-10.0,-1.0,-100.0,586.0973741448252,-0.0024102423016488955,0.00010496891743275883,0.9999970898525523,28.3611052865158,-1.9345025256358568,-2020.8202130433538,65.70425202677349,-89.96624755859375,6169.3798828125
1598103363.55936,0.0,10.0,0.5,0.5,-0.007136627197265625,-0.14,-0.011,-0.56,0.0020326483300944003,10.0,1.0,100.0,0.04885031843108892,-10.0,-1.0,-100.0,587.4156379621709,-0.0026223024941758543,0.00011329564705574273,0.9999965553409298,28.601560352697543,-1.9481747500200024,-2047.6932356221487,66.17857568934991,-89.96322631835938,6167.80078125
1598103363.5905244,0.0,10.0,0.5,0.5,-0.007828570556640626,-0.14,-0.011,-0.56,0.002099780077751824,10.0,1.0,100.0,0.05090819839696699,-10.0,-1.0,-100.0,588.760574032669,-0.0028317847655770717,0.00012139874278336703,0.9999959831206257,28.847614282435764,-1.9620470855763699,-2074.7512932903433,66.6530035052332,-89.9598388671875,6166.2216796875
1598103363.624433,0.0,10.0,0.5,0.5,-0.011417535400390626,-0.14,-0.011,-0.56,0.0030412607213835155,10.0,1.0,100.0,0.07530045536901786,-10.0,-1.0,-100.0,591.4402537425049,-0.003241979099956011,0.00013724753443792066,0.9999947353534565,29.356751247606116,-1.9904179815151,-2129.4322950921687,67.60217009764024,-89.9520263671875,6163.064453125
1598103363.6364014,0.0,10.0,0.5,0.5,-0.010102166748046877,-0.14,-0.011,-0.56,0.0023469858544942802,10.0,1.0,100.0,0.05659272318214111,-10.0,-1.0,-100.0,592.811495863949,-0.0034426536309970068,0.00014526083036342348,0.9999940635000132,29.619926528132194,-2.0049193675173456,-2157.0588717250484,68.07690790968876,-89.94769287109375,6161.4853515625
1598103363.6624336,0.0,10.0,0.5,0.5,-0.010932000732421876,-0.14,-0.011,-0.56,0.0023788939643411564,10.0,1.0,100.0,0.0584549733122064,-10.0,-1.0,-100.0,594.1729118033545,-0.0036398778834413922,0.00015275310040451513,0.9999933639557234,29.88887455008635,-2.0196330117033447,-2184.878084428785,68.55174809604804,-89.94308471679688,6159.90625
1598103363.673404,0.0,10.0,0.5,0.5,-0.011719335937500002,-0.14,-0.011,-0.56,0.0025012623734791363,10.0,1.0,100.0,0.059734589307312805,-10.0,-1.0,-100.0,595.5606948435307,-0.003828692999237011,0.00016059511368274128,0.9999926576326084,30.16363174848671,-2.0345603846353173,-2212.8918846171064,69.02669026381297,-89.93832397460938,6158.328125
1598103363.699494,0.0,10.0,0.5,0.5,-0.012532263183593751,-0.14,-0.011,-0.56,0.0024968305996833045,10.0,1.0,100.0,0.06194968188370419,-10.0,-1.0,-100.0,596.9486608515726,-0.004018398600217969,0.00016760276717867165,0.9999919121582945,30.44436511636707,-2.0497185232157364,-2241.113319884827,69.50173386593426,-89.93341064453125,6156.7490234375
1598103363.7280383,0.0,10.0,0.5,0.5,-0.013349050903320316,-0.14,-0.011,-0.56,0.0026428773803949027,10.0,1.0,100.0,0.0635979208498777,-10.0,-1.0,-100.0,598.3364440911682,-0.004203788819519808,0.00017522130806722598,0.9999911486893541,30.7309094561916,-2.065092676138236,-2269.532688016117,69.97687894689948,-89.92837524414062,6155.169921875
1598103363.7693586,0.0,10.0,0.5,0.5,-0.01777535400390625,-0.14,-0.011,-0.56,0.0034928315255951994,10.0,1.0,100.0,0.08451949686702741,-10.0,-1.0,-100.0,601.1552847574931,-0.004560498557165823,0.00018979511808327982,0.9999895828611033,31.32159496119219,-2.096509990513772,-2326.983524203284,70.92746965026402,-89.9180908203125,6152.01171875
1598103363.7833204,0.0,10.0,0.5,0.5,-0.015724890136718753,-0.14,-0.011,-0.56,0.0027836459317390266,10.0,1.0,100.0,0.06792594341487757,-10.0,-1.0,-100.0,602.5862804838689,-0.004731779792875147,0.00019651221665561858,0.9999887857585906,31.62569200391875,-2.11255464664664,-2356.0152308708007,71.40291477654971,-89.91287231445312,6150.43310546875
1598103363.808453,0.0,10.0,0.5,0.5,-0.01649283142089844,-0.14,-0.011,-0.56,0.0028820752297318993,10.0,1.0,100.0,0.06942752437968902,-10.0,-1.0,-100.0,604.043704544194,-0.0048990302545717035,0.0002034302605220228,0.9999879789870947,31.935609364984273,-2.1288195395050904,-2385.2530386463372,71.87845886012904,-89.90768432617188,6148.8544921875
1598103363.8203857,0.0,10.0,0.5,0.5,-0.017173434448242188,-0.14,-0.011,-0.56,0.00291602637150103,10.0,1.0,100.0,0.07032688587017676,-10.0,-1.0,-100.0,605.4745177557925,-0.005057182389881738,0.0002099460974953221,0.9999871903324119,32.25141909772168,-2.1453178138081994,-2414.703688149623,72.35410214007646,-89.90264892578125,6147.27490234375
1598103363.843325,0.0,10.0,0.5,0.5,-0.017855850219726563,-0.14,-0.011,-0.56,0.0030096896002916934,10.0,1.0,100.0,0.0720767455998887,-10.0,-1.0,-100.0,606.9486653823406,-0.005214841785320693,0.00021664057195577117,0.9999863791532446,32.57313297075852,-2.1620460922401556,-2444.373583910042,72.82984291205335,-89.89773559570312,6145.6962890625
1598103363.8552923,0.0,10.0,0.5,0.5,-0.018475262451171877,-0.14,-0.011,-0.56,0.003041154890981671,10.0,1.0,100.0,0.07323898423742271,-10.0,-1.0,-100.0,608.4060895062285,-0.005366940802710629,0.00022294033043743572,0.9999855730179459,32.90061973301175,-2.1789973468968835,-2474.2571224215244,73.30568150814143,-89.89300537109375,6144.1171875
1598103363.8772352,0.0,10.0,0.5,0.5,-0.01906947631835938,-0.14,-0.011,-0.56,0.003070937887971957,10.0,1.0,100.0,0.07431578823380021,-10.0,-1.0,-100.0,609.880115400767,-0.00551325241196699,0.0002288675203933388,0.9999847757178607,33.233887984924515,-2.196179371890196,-2504.35999927435,73.78161734523091,-89.88845825195312,6142.5380859375
1598103363.913325,0.0,10.0,0.5,0.5,-0.0196166259765625,-0.14,-0.011,-0.56,0.003141097016271218,10.0,1.0,100.0,0.07537688356717609,-10.0,-1.0,-100.0,611.3640287466114,-0.005654206219295712,0.0002348244902287087,0.9999839872765405,33.57286980892421,-2.2135828870355883,-2534.680494738555,74.25765014664604,-89.88412475585938,6140.9599609375
1598103363.9238117,0.0,10.0,0.5,0.5,-0.0201120361328125,-0.14,-0.011,-0.56,0.003212178212091464,10.0,1.0,100.0,0.0763379357394821,-10.0,-1.0,-100.0,612.8644826399395,-0.005789423324597279,0.00024081862878964176,0.9999832121510622,33.91751274544617,-2.23121407064779,-2565.22034769493,74.73377864946795,-89.88003540039062,6139.3798828125
1598103363.9564514,0.0,10.0,0.5,0.5,-0.02055099792480469,-0.14,-0.011,-0.56,0.003251577692919017,10.0,1.0,100.0,0.07731050979264271,-10.0,-1.0,-100.0,614.364997838391,-0.005919579525605273,0.0002465594628874578,0.9999824487393123,34.26783764576843,-2.2490706168110175,-2595.985186021195,75.2100028889351,-89.876220703125,6137.8017578125
1598103363.9674218,0.0,10.0,0.5,0.5,-0.020928802490234377,-0.14,-0.011,-0.56,0.0032858169701398304,10.0,1.0,100.0,0.07818103388572971,-10.0,-1.0,-100.0,615.865512647084,-0.006044257390362345,0.0002520248162649159,0.9999817015506288,34.62372910620756,-2.267149611726728,-2626.973323292619,75.68632188425136,-89.87271118164062,6136.22265625
1598103363.9903603,0.0,10.0,0.5,0.5,-0.021256430053710938,-0.14,-0.011,-0.56,0.0033294777443488572,10.0,1.0,100.0,0.07891595625343654,-10.0,-1.0,-100.0,617.4091180762043,-0.006162933144545021,0.00025733366301161295,0.9999809758362614,34.98515080512375,-2.285460749256681,-2658.1869325504035,76.1627357254317,-89.8695068359375,6134.64404296875
