Timestamp,Input Throttle,horizon,dT,dt,Input Roll,Roll P,Roll I,Roll D,Input Pitch,Pitch P,Pitch I,Pitch D,Input Yaw,Yaw P,Yaw I,Yaw D,Altitude,Direction X,Direction Y,Direction Z,Drag X,Drag Y,Drag Z,Vertical Velocity,Roll,Mass,Has Fuel
1599563081.376965,0.0,10,0.5,0.5,-11.641816375732422,-0.2,-0.001,-0.001,-0.0002374272901390929,10,1,100,0.17553483493390815,-10,-1,-100,14994.547644244274,-0.016847328884988758,-7.185856787825918e-05,0.9998580711009875,28.571778558818057,0.027439463056424085,-86.68209936499812,26.823010808749988,-31.790924072265625,5356.25390625,True
1599563081.4328153,0.0,10,0.5,0.5,-11.647764907836915,-0.2,-0.001,-0.001,-0.00047669316695424235,10,1,100,0.17420593428573256,-10,-1,-100,14995.028113831766,-0.01688412808996463,-6.959421907265758e-05,0.9998574505274671,28.49926024631462,0.027602466701206287,-85.86423523664853,26.637047350182662,-31.790283203125,5356.25390625,True
1599563081.473706,0.0,10,0.5,0.5,-11.653842868041993,-0.2,-0.001,-0.001,-0.00013331121459691847,10,1,100,0.1805972309457299,-10,-1,-100,14996.118937452557,-0.016960335402224525,-6.435079857425077e-05,0.9998561610961942,28.35416989541347,0.027923806098070075,-84.2374743172661,26.265131788344444,-31.78900146484375,5356.25390625,True
1599563081.5145967,0.0,10,0.5,0.5,-11.631857113647461,-0.2,-0.001,-0.001,0.0071561433380308275,10,1,100,0.17902237632676793,-10,-1,-100,14997.148237479501,-0.01699987943010457,6.742216719620612e-06,0.9998554915856114,28.212651964467714,0.028241883166364425,-82.63334880557291,25.893231916235194,-31.927337646484375,5356.25390625,True
1599563081.554906,0.0,10,0.5,0.5,-11.499198101806641,-0.2,-0.001,-0.001,0.016458458857325272,10,1,100,0.1811470870951878,-10,-1,-100,14998.658981908928,-0.017039689662953786,0.0001559326060560717,0.9998548017893463,28.034196161040384,0.02872967315051039,-80.34632100162847,25.335409472092667,-32.616912841796875,5356.25390625,True
1599563081.5951006,0.0,10,0.5,0.5,-11.505625985717774,-0.2,-0.001,-0.001,0.0015550131842857696,10,1,100,0.1788700327765615,-10,-1,-100,14998.658981908928,-0.017039689662953786,0.0001559326060560717,0.9998548017893463,28.034196161040384,0.02872967315051039,-80.34632100162847,25.335409472092667,-32.616912841796875,5356.25390625,True
1599563081.636989,0.0,10,0.5,0.5,-11.350456335449218,-0.2,-0.001,-0.001,0.019055310352960434,10,1,100,0.17928556027300435,-10,-1,-100,14999.686325313174,-0.0170279765586824,0.0003148844597657904,0.9998549639133136,27.94005804024345,0.02905547794131678,-78.90419482745219,24.96354481035536,-33.417449951171875,5356.25390625,True
1599563081.6798759,0.0,10,0.5,0.5,-10.869480313110353,-0.2,-0.001,-0.001,0.05530166440898092,10,1,100,0.1683737349590577,-10,-1,-100,15001.617960984586,-0.016902649891437367,0.0007886121959568429,0.9998568290097597,27.79791964769714,0.029661896117796627,-76.16989041866661,24.21985176348917,-35.842498779296875,5356.25390625,True
1599563081.7217696,0.0,10,0.5,0.5,-10.877321112060548,-0.2,-0.001,-0.001,0.008007752009471352,10,1,100,0.18259666667270463,-10,-1,-100,15001.617960984586,-0.016902649891437367,0.0007886121959568429,0.9998568290097597,27.79791964769714,0.029661896117796627,-76.16989041866661,24.21985176348917,-35.842498779296875,5356.25390625,True
1599563081.7646527,0.0,10,0.5,0.5,-10.174311233520509,-0.2,-0.001,-0.001,0.07966506082195045,10,1,100,0.1521962963049986,-10,-1,-100,15003.546661684872,-0.016610916842738733,0.0014393253558921467,0.9998609932306407,27.681710509064885,0.030108734874305078,-73.52804119332546,23.476203949940786,-39.36700439453125,5356.25390625,True
1599563081.808535,0.0,10,0.5,0.5,-10.18289903869629,-0.2,-0.001,-0.001,0.014737677364009289,10,1,100,0.18303069285913592,-10,-1,-100,15003.546661684872,-0.016610916842738733,0.0014393253558921467,0.9998609932306407,27.681710509064885,0.030108734874305078,-73.52804119332546,23.476203949940786,-39.36700439453125,5356.25390625,True
1599563081.8524196,0.0,10,0.5,0.5,-9.745091564941408,-0.2,-0.001,-0.001,0.059077029964680006,10,1,100,0.16069557912175983,-10,-1,-100,15004.44997483259,-0.01640808527425554,0.0018410365759675437,0.9998636833698674,27.61535085256773,0.030225539344140663,-72.19275136397634,23.10439687431007,-41.5413818359375,5356.25390625,True
1599563081.8933089,0.0,10,0.5,0.5,-9.253881317138672,-0.2,-0.001,-0.001,0.06389183658653755,10,1,100,0.15165123944488343,-10,-1,-100,15005.41578637599,-0.016141904435677135,0.0022482626264211185,0.9998671832980379,27.531185915377005,0.030242120187258505,-70.81718060773964,22.73260220404073,-43.991180419921875,5356.25390625,True
1599563081.9371915,0.0,10,0.5,0.5,-8.104593228149414,-0.2,-0.001,-0.001,0.127277881824283,10,1,100,0.10449343372662981,-10,-1,-100,15007.156976031489,-0.015471958558591322,0.0031926025258811495,0.9998752051068539,27.265433845685696,0.02988603845913585,-67.84474657582899,21.989054924446,-49.71514892578125,5356.25390625,True
1599563081.982071,0.0,10,0.5,0.5,-7.450319848632812,-0.2,-0.001,-0.001,0.08797019976568148,10,1,100,0.1254657462002479,-10,-1,-100,15008.059307788732,-0.015054963257247577,0.0036908545427582896,0.9998798556196975,27.058691862728956,0.029473766650621944,-66.19458130021377,21.61730662662645,-52.9898681640625,5356.25390625,True
1599563082.0249567,0.0,10,0.5,0.5,-6.737923849487305,-0.2,-0.001,-0.001,0.09113074065888593,10,1,100,0.11498754134915515,-10,-1,-100,15008.898161373218,-0.014582424508657607,0.004169329546278728,0.9998849781782821,26.78425175497438,0.02888719686023129,-64.39905845286638,21.24557894416901,-56.540283203125,5356.25390625,True
1599563082.0658474,0.0,10,0.5,0.5,-5.970156329345704,-0.2,-0.001,-0.001,0.09849115714855428,10,1,100,0.1041013536801847,-10,-1,-100,15009.737991548493,-0.014056112363089082,0.004667571156712273,0.9998903137268275,26.42714098564719,0.028122015486912535,-62.431365237724314,20.873875453081805,-60.36578369140625,5356.25390625,True
1599563082.1097302,0.0,10,0.5,0.5,-5.146946542358399,-0.2,-0.001,-0.001,0.10161968627011342,10,1,100,0.09278251028047907,-10,-1,-100,15010.57879694365,-0.013477449894570911,0.005145002261214264,0.9998959382336101,25.97181823334941,0.027182683129858057,-60.265881931531126,20.50220009989061,-64.46697998046875,5356.25390625,True
1599563082.1645844,0.0,10,0.5,0.5,-4.715239093017578,-0.2,-0.001,-0.001,0.07967792169933985,10,1,100,0.11646613461863117,-10,-1,-100,15010.935234000906,-0.01316981259898929,0.0053755995964224436,0.9998988243642886,25.702209182098137,0.026652158631569264,-59.10107274309887,20.316374208688597,-66.62094116210938,5356.25390625,True
1599563082.2154477,0.0,10,0.5,0.5,-3.3323481994628907,-0.2,-0.001,-0.001,0.12962260299914583,10,1,100,0.037562831232933636,-10,-1,-100,15012.130524082226,-0.01217623306067461,0.006035106106245874,0.9999076541574919,24.69996601892351,0.024856912991867063,-55.24220290004398,19.758950807368034,-73.49639892578125,5356.25390625,True
1599563082.264317,0.0,10,0.5,0.5,-2.345256365966797,-0.2,-0.001,-0.001,0.10985497973647232,10,1,100,0.05666164061491556,-10,-1,-100,15012.910781776067,-0.011450636005481157,0.006450773830288003,0.9999136314962711,23.850161202037395,0.023538287618867733,-52.34128278799434,19.387384134508512,-78.42453002929688,5356.25390625,True
1599563082.321167,0.0,10,0.5,0.5,-2.346278744506836,-0.2,-0.001,-0.001,0.068789352179699,10,1,100,0.128705318050535,-10,-1,-100,15012.910781776067,-0.011450636005481157,0.006450773830288003,0.9999136314962711,23.850161202037395,0.023538287618867733,-52.34128278799434,19.387384134508512,-78.42453002929688,5356.25390625,True
1599563082.3700745,0.0,10,0.5,0.5,-0.1950101989746094,-0.2,-0.001,-0.001,0.1447342682022918,10,1,100,-0.03858385349054465,-10,-1,-100,15014.46153243864,-0.009934332127170228,0.007136991487534919,0.9999251834000851,21.697921610473763,0.020862045051328656,-45.798257354411206,18.64437235181666,-89.1090087890625,5356.25390625,True
1599563082.4228952,0.0,10,0.5,0.5,0.3703786514282227,-0.2,-0.001,-0.001,0.09265372345818347,10,1,100,0.06873469042930982,-10,-1,-100,15014.817969561787,-0.009537140430075794,0.007282921924757391,0.9999279984082129,21.108995245066012,0.02026494253663256,-44.112625699431995,18.4586424105155,-91.95259857177734,5356.25390625,True
1599563082.475623,0.0,10,0.5,0.5,2.1469188789367677,-0.2,-0.001,-0.001,0.11853009359557214,10,1,100,-0.022996235406054055,-10,-1,-100,15015.889238152653,-0.008347534850694378,0.00764710721493692,0.9999359181533384,22.589001939857745,0.021885906652812682,-45.784480605366596,17.90144145038757,-100.78424072265625,5356.25390625,True
1599563082.524493,0.0,10,0.5,0.5,2.1428666740417484,-0.2,-0.001,-0.001,0.08250718984483708,10,1,100,0.0952935796914322,-10,-1,-100,15015.889238152653,-0.008347534850694378,0.00764710721493692,0.9999359181533384,22.589001939857745,0.021885906652812682,-45.784480605366596,17.90144145038757,-100.78424072265625,5356.25390625,True
1599563082.5763547,0.0,10,0.5,0.5,3.3354072959899908,-0.2,-0.001,-0.001,0.10377615395160111,10,1,100,0.002966161905015599,-10,-1,-100,15016.602115468355,-0.007513862770506921,0.007837299818026904,0.9999410575618088,23.460049747279932,0.023046100523398172,-46.565810012763656,17.529956746829633,-106.69526672363281,5356.25390625,True
1599563082.623231,0.0,10,0.5,0.5,5.587888030242921,-0.2,-0.001,-0.001,0.1099478505085853,10,1,100,-0.09180112553465238,-10,-1,-100,15017.96634972666,-0.005900405765969144,0.008063426945298277,0.9999500819329405,24.634654010770742,0.024958837506440096,-46.829520453782486,16.786943199508375,-117.90799713134766,5356.25390625,True
1599563082.6730967,0.0,10,0.5,0.5,5.582019401550293,-0.2,-0.001,-0.001,0.08762698024985634,10,1,100,0.06878687050626514,-10,-1,-100,15017.96634972666,-0.005900405765969144,0.008063426945298277,0.9999500819329405,24.634654010770742,0.024958837506440096,-46.829520453782486,16.786943199508375,-117.90799713134766,5356.25390625,True
1599563082.7259936,0.0,10,0.5,0.5,7.623838819122315,-0.2,-0.001,-0.001,0.09715581509837085,10,1,100,-0.09906450288277949,-10,-1,-100,15019.271017365623,-0.004381092741371484,0.00814760923724034,0.9999572103295765,25.28516987341742,0.02612212756173543,-45.94274852510536,16.043895808454263,-128.04078674316406,5356.25390625,True
1599563082.77644,0.0,10,0.5,0.5,7.619160468292237,-0.2,-0.001,-0.001,0.08894883621726399,10,1,100,0.05208728554505622,-10,-1,-100,15019.271017365623,-0.004381092741371484,0.00814760923724034,0.9999572103295765,25.28516987341742,0.02612212756173543,-45.94274852510536,16.043895808454263,-128.04078674316406,5356.25390625,True
1599563082.8247252,0.0,10,0.5,0.5,8.559574425506591,-0.2,-0.001,-0.001,0.08516566510614296,10,1,100,-0.033642576591393115,-10,-1,-100,15019.919446788146,-0.0036081572158256805,0.008111674194951101,0.9999605901950641,25.377415686280937,0.02628879546892179,-45.04455636431855,15.672373816270461,-132.6947784423828,5356.25390625,True
1599563082.873593,0.0,10,0.5,0.5,10.264992218780518,-0.2,-0.001,-0.001,0.07750320179396039,10,1,100,-0.1091926457126006,-10,-1,-100,15021.157715456444,-0.0022257992722182055,0.008007837307882258,0.9999654595831049,25.19892736733082,0.025868228497158873,-42.61092761589452,14.929363643944228,-141.17559814453125,5356.25390625,True
1599563082.9224718,0.0,10,0.5,0.5,11.030935022735596,-0.2,-0.001,-0.001,0.07973450206204202,10,1,100,-0.04233287059394887,-10,-1,-100,15021.68310106371,-0.0015839341271582002,0.007932933007692827,0.9999672793279669,24.9665979534876,0.025348969150835864,-41.169391490769776,14.557885426843178,-145.00254821777344,5356.25390625,True
1599563082.9743366,0.0,10,0.5,0.5,11.032413067626953,-0.2,-0.001,-0.001,0.08728993318927869,10,1,100,0.0210583232817599,-10,-1,-100,15021.68310106371,-0.0015839341271582002,0.007932933007692827,0.9999672793279669,24.9665979534876,0.025348969150835864,-41.169391490769776,14.557885426843178,-145.00254821777344,5356.25390625,True
1599563083.025198,0.0,10,0.5,0.5,12.408987455749513,-0.2,-0.001,-0.001,0.06852489172911964,10,1,100,-0.10976484449660012,-10,-1,-100,15022.856922549778,-0.00040078132983086917,0.007762081880061603,0.9999697942734135,24.373274554931495,0.023972845079841414,-38.143547628276224,13.814996257496889,-151.8291778564453,5356.25390625,True
1599563083.0787818,0.0,10,0.5,0.5,12.40726531982422,-0.2,-0.001,-0.001,0.0856215019587545,10,1,100,0.007755759884046625,-10,-1,-100,15022.856922549778,-0.00040078132983086917,0.007762081880061603,0.9999697942734135,24.373274554931495,0.023972845079841414,-38.143547628276224,13.814996257496889,-151.8291778564453,5356.25390625,True
1599563083.1366272,0.0,10,0.5,0.5,13.01479711303711,-0.2,-0.001,-0.001,0.07254048782154342,10,1,100,-0.053196015542032994,-10,-1,-100,15023.384263712214,0.00014685928182378552,0.007643231949666925,0.9999707792919327,24.03206232518527,0.023184078123637254,-36.6001732424896,13.443587001978893,-154.8292694091797,5356.25390625,True
1599563083.1894867,0.0,10,0.5,0.5,13.815928342437745,-0.2,-0.001,-0.001,0.0696774047763354,10,1,100,-0.08073517020031105,-10,-1,-100,15024.140120448545,0.0008895728210870967,0.007509540526165901,0.9999714073218704,23.48019465159234,0.02195048905759118,-34.28037576215905,12.886516704405903,-158.81155395507812,5356.25390625,True
1599563083.2378955,0.0,10,0.5,0.5,14.491792181396484,-0.2,-0.001,-0.001,0.06664253094132425,10,1,100,-0.08125833166169649,-10,-1,-100,15024.895003656391,0.0015633502531690142,0.007360916639409534,0.9999716860202662,22.929117621340392,0.020749345682963664,-32.03116733752638,12.329494685032437,-162.17352294921875,5356.25390625,True
1599563083.28876,0.0,10,0.5,0.5,14.873000041198729,-0.2,-0.001,-0.001,0.0726603223469606,10,1,100,-0.05916434684328571,-10,-1,-100,15025.41941763286,0.001969616744899259,0.007281226384771196,0.9999715517714551,22.56799681152728,0.01998845313326164,-30.57870475670443,11.958170449761983,-164.06982421875,5356.25390625,True
1599563083.342186,0.0,10,0.5,0.5,14.874706643676758,-0.2,-0.001,-0.001,0.08054270952554754,10,1,100,-0.019172768618888305,-10,-1,-100,15025.41941763286,0.001969616744899259,0.007281226384771196,0.9999715517714551,22.56799681152728,0.01998845313326164,-30.57870475670443,11.958170449761983,-164.06982421875,5356.25390625,True
1599563083.401028,0.0,10,0.5,0.5,15.473771607971193,-0.2,-0.001,-0.001,0.0663433768530654,10,1,100,-0.09853518070475713,-10,-1,-100,15026.343247898621,0.0026860225148064984,0.0071528964948487945,0.9999708102513712,21.90087711125774,0.018615528084199348,-27.834656376095836,11.215569133236388,-167.03463745117188,5356.25390625,True
1599563083.4484174,0.0,10,0.5,0.5,15.688200407409667,-0.2,-0.001,-0.001,0.07268186228475786,10,1,100,-0.06153355732579993,-10,-1,-100,15026.741686846479,0.002996456800561628,0.00709463277231021,0.9999703432764737,21.60940921689184,0.018014572874170614,-26.556279931416555,10.844287661507519,-168.10333251953125,5356.25390625,True
1599563083.4962893,0.0,10,0.5,0.5,15.775992999267578,-0.2,-0.001,-0.001,0.07770309494976144,10,1,100,-0.04660450275203327,-10,-1,-100,15026.974108859547,0.00313878711791594,0.007088075412625513,0.99996995314978,21.476826591070747,0.01773618265573682,-25.942128664504825,10.658650787440699,-168.533935546875,5356.25390625,True
1599563083.5436788,0.0,10,0.5,0.5,15.90945680999756,-0.2,-0.001,-0.001,0.07635323533540356,10,1,100,-0.061755627770730126,-10,-1,-100,15027.3725481726,0.0034016224327306733,0.007070610777868051,0.9999692172402372,21.240320979196024,0.017222211398820995,-24.763882491784713,10.287383257459588,-169.18836975097656,5356.25390625,True
1599563083.5907426,0.0,10,0.5,0.5,15.955519160461426,-0.2,-0.001,-0.001,0.07738137030729686,10,1,100,-0.04900629669895722,-10,-1,-100,15027.603018745664,0.0035212038875801666,0.007064709128835019,0.9999688450187372,21.137324811390553,0.016985916044999633,-24.199643900611587,10.101752176768066,-169.4121551513672,5356.25390625,True
1599563083.6356223,0.0,10,0.5,0.5,16.008785041809084,-0.2,-0.001,-0.001,0.07864255930186154,10,1,100,-0.07155822477167034,-10,-1,-100,15028.169427202432,0.003831366387906724,0.007071443323074874,0.9999676571374347,20.89287472709243,0.016353264946146397,-22.60256757677475,9.544865976613869,-169.66952514648438,5356.25390625,True
1599563083.6785088,0.0,10,0.5,0.5,15.999510232543948,-0.2,-0.001,-0.001,0.07925603922216014,10,1,100,-0.050551060066696046,-10,-1,-100,15028.340327577549,0.003919008520789208,0.0070836622158652685,0.9999672310140095,20.833274554883594,0.016165480045120743,-22.10022075634216,9.359238817020458,-169.61727905273438,5356.25390625,True
1599563083.722662,0.0,10,0.5,0.5,15.82001417541504,-0.2,-0.001,-0.001,0.0868163727399769,10,1,100,-0.07161727308319668,-10,-1,-100,15029.071777409525,0.004187440182014469,0.007163887767027871,0.9999655714357286,20.7333794753619,0.015532597118798888,-20.25090686644883,8.61673121240252,-168.7186279296875,5356.25390625,True
1599563083.7685387,0.0,10,0.5,0.5,15.648072341918947,-0.2,-0.001,-0.001,0.08513715304366219,10,1,100,-0.05452714696545835,-10,-1,-100,15029.407716918155,0.0042737186457590445,0.00722173356982045,0.9999647903267312,20.7600373610651,0.01527364943905712,-19.403991498467644,8.245474565086496,-167.85546875,5356.25390625,True
1599563083.8113885,0.0,10,0.5,0.5,15.420330606079101,-0.2,-0.001,-0.001,0.08831262017672474,10,1,100,-0.05136215300561847,-10,-1,-100,15029.744633201743,0.004321286302345696,0.007303242630673318,0.9999639939176664,20.82863969080013,0.01504193330548915,-18.59216907605756,7.874213969338712,-166.71624755859375,5356.25390625,True
1599563083.8588085,0.0,10,0.5,0.5,15.137317752075194,-0.2,-0.001,-0.001,0.08977885522271212,10,1,100,-0.048559069640547375,-10,-1,-100,15030.01709597651,0.004336909169053418,0.007390651171643173,0.9999632840730296,20.934669498141922,0.01483311577231517,-17.80630724019774,7.5029482484331655,-165.30123901367188,5356.25390625,True
1599563083.904682,0.0,10,0.5,0.5,14.975553622436523,-0.2,-0.001,-0.001,0.08640855117596834,10,1,100,-0.04644342763590689,-10,-1,-100,15030.185064888909,0.004330377859968936,0.007439258213302829,0.9999629519461338,20.999987522804542,0.014736300497868803,-17.420199248440696,7.31731306346235,-164.49026489257812,5356.25390625,True
1599563083.9515276,0.0,10,0.5,0.5,14.608418283081056,-0.2,-0.001,-0.001,0.09309226128580661,10,1,100,-0.04284664652673656,-10,-1,-100,15030.458504068549,0.004290529640663852,0.007543894138136508,0.9999623397991722,21.15073430095209,0.014556260187523111,-16.655502615591843,6.946037489924793,-162.66148376464844,5356.25390625,True
1599563083.997053,0.0,10,0.5,0.5,14.186641554260255,-0.2,-0.001,-0.001,0.09498402784693233,10,1,100,-0.03858582161119571,-10,-1,-100,15030.732919743052,0.004214522176133634,0.0076558012033359855,0.9999618125262394,21.32190405367716,0.01439345229358454,-15.89325038192828,6.574754669112948,-160.55691528320312,5356.25390625,True
1599563084.0419688,0.0,10,0.5,0.5,13.449437390136719,-0.2,-0.001,-0.001,0.10306573596602209,10,1,100,-0.026049614969556555,-10,-1,-100,15031.109875004156,0.00403071996641544,0.007830472981485901,0.9999612177426874,21.5964811447283,0.014179747551651266,-14.734857906718892,6.017816530383087,-156.883056640625,5356.25390625,True
1599563084.085193,0.0,10,0.5,0.5,13.451858338928224,-0.2,-0.001,-0.001,0.08567513453629562,10,1,100,-0.044480787549259444,-10,-1,-100,15031.109875004156,0.00403071996641544,0.007830472981485901,0.9999612177426874,21.5964811447283,0.014179747551651266,-14.734857906718892,6.017816530383087,-156.883056640625,5356.25390625,True
1599563084.437417,0.0,10,0.5,0.5,12.889033488464356,-0.2,-0.001,-0.001,0.09849035052646965,10,1,100,-0.025910179127429482,-10,-1,-100,15031.319836917217,0.003861715022963796,0.007946284918070746,0.9999609710949136,21.77544949638026,0.014056372824774612,-13.940623720839957,5.646515888102362,-154.08929443359375,5356.25390625,True
1599563084.4737508,0.0,10,0.5,0.5,12.273347129821778,-0.2,-0.001,-0.001,0.09876442450027403,10,1,100,-0.02007341150114901,-10,-1,-100,15031.53175073408,0.0036550647264032296,0.00805327587590773,0.9999608918600328,21.936349541748537,0.013948547997843227,-13.120445399220198,5.27520907592536,-151.02000427246094,5356.25390625,True
1599563084.5126464,0.0,10,0.5,0.5,11.945399258422853,-0.2,-0.001,-0.001,0.09435018899422437,10,1,100,-0.027868199412772826,-10,-1,-100,15031.635265829973,0.0035385465064134867,0.008109602434696465,0.9999608557523505,22.00522745688678,0.013900222058621488,-12.698573745297784,5.089553576059378,-149.3819580078125,5356.25390625,True
1599563084.5525372,0.0,10,0.5,0.5,10.874445385742186,-0.2,-0.001,-0.001,0.10389624450086471,10,1,100,0.0048971409636731425,-10,-1,-100,15031.948742652661,0.0031354224594908895,0.008246783566505794,0.9999610790859851,22.139081890604388,0.01377090930310852,-11.378067166291116,4.532580546028998,-144.05487060546875,5356.25390625,True
1599563084.6044028,0.0,10,0.5,0.5,10.094472460937501,-0.2,-0.001,-0.001,0.09891899267437267,10,1,100,-0.000977327891241643,-10,-1,-100,15032.09522621287,0.0028234283735539853,0.008325388177968136,0.9999613573353249,22.143471031909574,0.013685739842050106,-10.448228991752554,4.161259372990873,-140.1591796875,5356.25390625,True
1599563084.6462896,0.0,10,0.5,0.5,10.095853945922851,-0.2,-0.001,-0.001,0.09115200522877097,10,1,100,-0.03202538840538212,-10,-1,-100,15032.09522621287,0.0028234283735539853,0.008325388177968136,0.9999613573353249,22.143471031909574,0.013685739842050106,-10.448228991752554,4.161259372990873,-140.1591796875,5356.25390625,True
1599563084.686183,0.0,10,0.5,0.5,8.361421356201173,-0.2,-0.001,-0.001,0.09941528166496581,10,1,100,0.04578757415096146,-10,-1,-100,15032.391121950932,0.002117407758938512,0.008399703300147485,0.9999624800805538,21.854079588200793,0.013442599462582926,-8.471672000221977,3.418597232525811,-131.54226684570312,5356.25390625,True
1599563084.7260764,0.0,10,0.5,0.5,8.366926347351075,-0.2,-0.001,-0.001,0.09206935036323208,10,1,100,-0.024597175122413356,-10,-1,-100,15032.391121950932,0.002117407758938512,0.008399703300147485,0.9999624800805538,21.854079588200793,0.013442599462582926,-8.471672000221977,3.418597232525811,-131.54226684570312,5356.25390625,True
1599563084.7679636,0.0,10,0.5,0.5,6.410792292785644,-0.2,-0.001,-0.001,0.0885502181901596,10,1,100,0.06349866673478076,-10,-1,-100,15032.623539658962,0.0013184429369796518,0.008367034914849724,0.9999641265740266,21.053564015411208,0.012984107830486057,-6.388469892035705,2.6758880595390293,-121.82469177246094,5356.25390625,True
1599563084.810849,0.0,10,0.5,0.5,5.357417269897461,-0.2,-0.001,-0.001,0.08598159458606594,10,1,100,0.032454526645372656,-10,-1,-100,15032.70654486504,0.000876796442402067,0.008313497475511487,0.9999650578833859,20.413580293079406,0.012620148520061644,-5.334661416240774,2.3045060758281357,-116.55311584472656,5356.25390625,True
1599563084.852736,0.0,10,0.5,0.5,4.8081631759643555,-0.2,-0.001,-0.001,0.08587626476890134,10,1,100,0.011276944299832127,-10,-1,-100,15032.747558382107,0.000670690308221916,0.008263430419144298,0.9999656323555417,20.02376624460546,0.012392871079426325,-4.811161822443986,2.1188065245739915,-113.81434631347656,5356.25390625,True
1599563084.8926318,0.0,10,0.5,0.5,3.664403099060059,-0.2,-0.001,-0.001,0.07790521425745055,10,1,100,0.03803590788859487,-10,-1,-100,15032.832516031805,0.00024295872153733732,0.008145162503705415,0.9999667980982407,19.177201391851508,0.011885436114835465,-3.8000866145328915,1.7473888847477692,-108.13040924072266,5356.25390625,True
1599563084.9335222,0.0,10,0.5,0.5,1.8484389228820801,-0.2,-0.001,-0.001,0.0629900043424621,10,1,100,0.06748447376327057,-10,-1,-100,15032.895988504752,-0.0004105004961230899,0.00790196986623581,0.9999686946907768,17.6747378930267,0.010927050925171083,-2.3856309146553585,1.190210029252813,-99.08882141113281,5356.25390625,True
1599563084.9764073,0.0,10,0.5,0.5,1.852451197052002,-0.2,-0.001,-0.001,0.0872885048325765,10,1,100,0.002533456697481522,-10,-1,-100,15032.895988504752,-0.0004105004961230899,0.00790196986623581,0.9999686946907768,17.6747378930267,0.010927050925171083,-2.3856309146553585,1.190210029252813,-99.08882141113281,5356.25390625,True
1599563085.0172987,0.0,10,0.5,0.5,-0.7686920906066894,-0.2,-0.001,-0.001,0.03899708796758301,10,1,100,0.09237998708592347,-10,-1,-100,15033.00144990685,-0.0012240635696947313,0.007463270452645206,0.9999714002222904,15.419463108451525,0.009506296072207942,-0.7820957070282826,0.4472537697975927,-86.0706787109375,5356.25390625,True
1599563085.0581882,0.0,10,0.5,0.5,-2.1523121986389158,-0.2,-0.001,-0.001,0.05252436046489414,10,1,100,0.055861116596352914,-10,-1,-100,15032.959453896154,-0.0016279970939971741,0.007188211751834143,0.9999728392497832,16.80659991093907,0.01036665030822266,-0.14443059481183063,0.07577693686227072,-79.14913940429688,5356.25390625,True
1599563085.1020718,0.0,10,0.5,0.5,-3.5481128791809082,-0.2,-0.001,-0.001,0.04992334380895756,10,1,100,0.05402490641060806,-10,-1,-100,15032.98093473399,-0.0019744698185221224,0.0069155465782484195,0.9999741380078085,18.011280346091443,0.011137489136949553,0.6040070732826415,-0.2956981588045102,-72.20077514648438,5356.25390625,True
1599563085.1439593,0.0,10,0.5,0.5,-3.5470986640930176,-0.2,-0.001,-0.001,0.07704144549533996,10,1,100,0.0197868217158593,-10,-1,-100,15032.98093473399,-0.0019744698185221224,0.0069155465782484195,0.9999741380078085,18.011280346091443,0.011137489136949553,0.6040070732826415,-0.2956981588045102,-72.20077514648438,5356.25390625,True
1599563085.1858473,0.0,10,0.5,0.5,-6.209983161163331,-0.2,-0.001,-0.001,0.008713070755163851,10,1,100,0.09146019405965389,-10,-1,-100,15032.897919907351,-0.0026223260420316545,0.006295728768539454,0.9999767433322648,19.755808227630112,0.012230940550648318,2.3272205551257565,-1.0386717748044128,-58.98211669921875,5356.25390625,True
1599563085.226766,0.0,10,0.5,0.5,-6.203048760223389,-0.2,-0.001,-0.001,0.07048772111142938,10,1,100,0.02706864860660181,-10,-1,-100,15032.897919907351,-0.0026223260420316545,0.006295728768539454,0.9999767433322648,19.755808227630112,0.012230940550648318,2.3272205551257565,-1.0386717748044128,-58.98211669921875,5356.25390625,True
1599563085.2673337,0.0,10,0.5,0.5,-8.647016584014894,-0.2,-0.001,-0.001,-0.0011337190352895127,10,1,100,0.08603929975361707,-10,-1,-100,15032.812952517415,-0.00315524185020049,0.005646459102393802,0.9999790807554283,20.453314300291908,0.012661020272162057,4.133155163246221,-1.7817004193628074,-46.851715087890625,5356.25390625,True
1599563085.3092246,0.0,10,0.5,0.5,-9.216470171356201,-0.2,-0.001,-0.001,0.04398182290108221,10,1,100,0.04603833721997444,-10,-1,-100,15032.729942533188,-0.003272587532631387,0.005468734306516362,0.9999796913517424,20.495393420616395,0.012692130573087794,4.573533726293986,-1.967465168883872,-43.9915771484375,5356.25390625,True
1599563085.3511102,0.0,10,0.5,0.5,-10.861736563110354,-0.2,-0.001,-0.001,0.008693858716495279,10,1,100,0.06912834441376564,-10,-1,-100,15032.602986186976,-0.0035859786309174234,0.004988799752401707,0.9999811261390333,20.384851225871596,0.012657750532336965,5.8376104754566285,-2.5247717263003895,-35.8238525390625,5356.25390625,True
1599563085.392003,0.0,10,0.5,0.5,-10.859895335388185,-0.2,-0.001,-0.001,0.05639599711657735,10,1,100,0.03810678239864142,-10,-1,-100,15032.602986186976,-0.0035859786309174234,0.004988799752401707,0.9999811261390333,20.384851225871596,0.012657750532336965,5.8376104754566285,-2.5247717263003895,-35.8238525390625,5356.25390625,True
1599563085.4378805,0.0,10,0.5,0.5,-12.38326025390625,-0.2,-0.001,-0.001,0.003662648070427127,10,1,100,0.06690381051231768,-10,-1,-100,15032.41548200394,-0.003844882997282849,0.0045120540066311,0.9999824289673185,19.935726870382105,0.012454776074676682,6.96948587426648,-3.0820862626686463,-28.276397705078125,5356.25390625,True
1599563085.4797685,0.0,10,0.5,0.5,-13.773923898315429,-0.2,-0.001,-0.001,0.0014619799079854806,10,1,100,0.0641599653625854,-10,-1,-100,15032.226027024211,-0.004052923993137863,0.004061325633041091,0.9999835395851314,19.25258741310599,0.012150062237508068,7.948086579158501,-3.6394004278911565,-21.348876953125,5356.25390625,True
1599563085.5236516,0.0,10,0.5,0.5,-14.631896826171877,-0.2,-0.001,-0.001,0.016609767460532797,10,1,100,0.057640432134936734,-10,-1,-100,15032.060985780321,-0.004180579208300941,0.0037921223494540523,0.999984071155921,18.848037484524347,0.011994584021546913,8.57571315536054,-4.010943347574149,-17.07464599609375,5356.25390625,True
1599563085.564611,0.0,10,0.5,0.5,-14.633135208129884,-0.2,-0.001,-0.001,0.043217753396357236,10,1,100,0.045095521557606794,-10,-1,-100,15032.060985780321,-0.004180579208300941,0.0037921223494540523,0.999984071155921,18.848037484524347,0.011994584021546913,8.57571315536054,-4.010943347574149,-17.07464599609375,5356.25390625,True
1599563085.6055014,0.0,10,0.5,0.5,-15.442371789550782,-0.2,-0.001,-0.001,0.014437100451213294,10,1,100,0.057617599285185415,-10,-1,-100,15031.893016451737,-0.004292410724560948,0.003533319526524375,0.9999845453122238,18.386674327874367,0.01180716682989115,9.141052546501118,-4.382488893256312,-13.076019287109375,5356.25390625,True
1599563085.652378,0.0,10,0.5,0.5,-16.191321957397463,-0.2,-0.001,-0.001,0.013366068360213451,10,1,100,0.057275868379096595,-10,-1,-100,15031.725046183798,-0.004389450835939665,0.0032908188587083198,0.9999849515030703,17.876864829148225,0.011582306231768731,9.641437674811888,-4.7540403958244415,-9.35284423828125,5356.25390625,True
1599563085.6919613,0.0,10,0.5,0.5,-16.885541842651367,-0.2,-0.001,-0.001,0.012191177869520085,10,1,100,0.056406107148299064,-10,-1,-100,15031.494576731347,-0.004468155721645878,0.0030624146197872674,0.9999853284929452,17.376410814203723,0.01134336734456953,10.104356599845504,-5.125600706511689,-5.905181884765625,5356.25390625,True
1599563085.731855,0.0,10,0.5,0.5,-17.821880392456055,-0.2,-0.001,-0.001,0.0017973018578445951,10,1,100,0.06138523590929165,-10,-1,-100,15031.179145395057,-0.0045837768665955994,0.002762633752009812,0.9999856783196394,16.708822356490014,0.010975197442659571,10.773347309453579,-5.682961901332281,-1.25,5356.25390625,True
1599563085.7747405,0.0,10,0.5,0.5,-18.105707528686523,-0.2,-0.001,-0.001,0.021466786494312516,10,1,100,0.05356941044566194,-10,-1,-100,15031.095161436591,-0.004616642049304199,0.0026713792785022943,0.9999857750732952,16.492853381844313,0.010835244038119788,10.981992128955149,-5.868754756719365,0.163970947265625,5356.25390625,True
1599563085.817626,0.0,10,0.5,0.5,-19.10633505859375,-0.2,-0.001,-0.001,-0.00437254678487041,10,1,100,0.06438242908483538,-10,-1,-100,15030.573676280444,-0.004743882690833243,0.002355624382297342,0.9999859732070171,17.343472792537785,0.011281907512605728,13.012033022380216,-6.611942670386577,5.13134765625,5356.25390625,True
1599563085.859515,0.0,10,0.5,0.5,-19.320467199707032,-0.2,-0.001,-0.001,0.019497987383001174,10,1,100,0.05472140937937597,-10,-1,-100,15030.42621471791,-0.004770675909391909,0.00228797312851904,0.9999860028172047,17.632543372378755,0.011415618195793977,13.600996290522797,-6.797741544578077,6.201019287109375,5356.25390625,True
1599563085.9014015,0.0,10,0.5,0.5,-19.524010888671878,-0.2,-0.001,-0.001,0.01920556176132069,10,1,100,0.055091256497433266,-10,-1,-100,15030.278754281695,-0.004797553997416573,0.0022258354656854084,0.9999860144682633,17.903119924625972,0.011527190681872811,14.187535718188192,-6.983540762931173,7.20184326171875,5356.25390625,True
1599563085.9422922,0.0,10,0.5,0.5,-20.192137689208984,-0.2,-0.001,-0.001,0.0038550064176718704,10,1,100,0.06573652383160937,-10,-1,-100,15029.692817272036,-0.004918086844109434,0.0020314648055919865,0.999985842686054,18.81657440503125,0.01177669380177118,16.500176666623553,-7.726736948549503,10.516632080078125,5356.25390625,True
1599563085.9861755,0.0,10,0.5,0.5,-20.44167269592285,-0.2,-0.001,-0.001,0.015694040031639662,10,1,100,0.06003762244651106,-10,-1,-100,15029.397895904141,-0.004975183503387678,0.001963992381583003,0.9999856950392003,19.18288989773553,0.011799810919913816,17.631457459626873,-8.098332497973676,11.7608642578125,5356.25390625,True
1599563086.0270658,0.0,10,0.5,0.5,-20.63804916687012,-0.2,-0.001,-0.001,0.01740664122896124,10,1,100,0.06140049763638818,-10,-1,-100,15029.043404051103,-0.0050387569641894316,0.0019198848524303695,0.9999854623795335,19.495396414874634,0.01176577970081426,18.742097270321032,-8.469925373861674,12.729705810546875,5356.25390625,True
1599563086.0659623,0.0,10,0.5,0.5,-20.779044534301757,-0.2,-0.001,-0.001,0.018918693981014176,10,1,100,0.0615740071010336,-10,-1,-100,15028.685983041069,-0.005097449881651776,0.0018949997915594513,0.9999852123809101,19.75805912136131,0.011681391692178114,19.82926989686495,-8.84151510258842,13.42315673828125,5356.25390625,True
1599563086.1088467,0.0,10,0.5,0.5,-20.864652670288088,-0.2,-0.001,-0.001,0.02100533659651406,10,1,100,0.062492021613043375,-10,-1,-100,15028.329538532184,-0.005158509030321531,0.0018926154136969327,0.9999849037817921,19.974222787595153,0.011552750539253977,20.890168636856338,-9.213101417392597,13.8411865234375,5356.25390625,True
1599563086.1567965,0.0,10,0.5,0.5,-20.894892016601563,-0.2,-0.001,-0.001,0.023300251462203898,10,1,100,0.06313508013430934,-10,-1,-100,15027.973093852983,-0.005219235739934021,0.00191237411369736,0.9999845510824356,20.145879672762437,0.011385039217315826,21.921078475223283,-9.58468412105002,13.98388671875,5356.25390625,True
1599563086.1986582,0.0,10,0.5,0.5,-20.88985650634766,-0.2,-0.001,-0.001,0.02322924046543889,10,1,100,0.06047606402108753,-10,-1,-100,15027.763132728986,-0.005249691275940324,0.0019304639770347143,0.999984356902817,20.215264553991453,0.01128792595667362,22.42380102917465,-9.770474084143444,13.95196533203125,5356.25390625,True
1599563086.24058,0.0,10,0.5,0.5,-20.789000625610353,-0.2,-0.001,-0.001,0.031151367065363235,10,1,100,0.06730991246511189,-10,-1,-100,15027.135205447208,-0.005338928522503879,0.0020196021994329555,0.9999837083918857,20.357791076197074,0.010950008464782045,23.872887188817028,-10.327838976762042,13.44317626953125,5356.25390625,True
1599563086.280475,0.0,10,0.5,0.5,-20.728570883178715,-0.2,-0.001,-0.001,0.026659074075276082,10,1,100,0.061619474760282414,-10,-1,-100,15026.925244599115,-0.005367781089488961,0.0020601033945968046,0.9999834713134907,20.382823510630534,0.010823473001034128,24.333197985095016,-10.513625829258956,13.1358642578125,5356.25390625,True
1599563086.3243237,0.0,10,0.5,0.5,-20.461281335449222,-0.2,-0.001,-0.001,0.04013459009121144,10,1,100,0.06771292938911616,-10,-1,-100,15026.29731744621,-0.005448862915028344,0.0022196345082851,0.9999826914079978,20.4191341107728,0.010426352371546342,25.672026171556862,-11.0709827475317,11.80108642578125,5356.25390625,True
1599563086.365235,0.0,10,0.5,0.5,-20.46307603759766,-0.2,-0.001,-0.001,0.024180858626641866,10,1,100,0.05966987772693898,-10,-1,-100,15026.29731744621,-0.005448862915028344,0.0022196345082851,0.9999826914079978,20.4191341107728,0.010426352371546342,25.672026171556862,-11.0709827475317,11.80108642578125,5356.25390625,True
1599563086.407101,0.0,10,0.5,0.5,-19.91179783630371,-0.2,-0.001,-0.001,0.05665428954910717,10,1,100,0.06966888805019894,-10,-1,-100,15025.33247689926,-0.005539280485175327,0.0025146764533050636,0.9999814962158258,20.30955290319791,0.009851427328108191,27.25305502244554,-11.814120025891757,9.057769775390625,5356.25390625,True
1599563086.4489896,0.0,10,0.5,0.5,-19.555558715820315,-0.2,-0.001,-0.001,0.04706148092849412,10,1,100,0.06509208550289829,-10,-1,-100,15024.850056984578,-0.005579358164895498,0.0026951884303433463,0.9999808031766373,20.172402520453357,0.009556932629973947,27.92295846991111,-12.185688061443445,7.27313232421875,5356.25390625,True
1599563086.4919071,0.0,10,0.5,0.5,-19.14278112487793,-0.2,-0.001,-0.001,0.0522519288640344,10,1,100,0.06305217601413196,-10,-1,-100,15024.368613095372,-0.0055967563318334995,0.002905771296539503,0.9999801162081846,19.97250814053561,0.009269165575977865,28.49198270235322,-12.557256524142906,5.213348388671875,5356.25390625,True
1599563086.5317998,0.0,10,0.5,0.5,-19.14401992797852,-0.2,-0.001,-0.001,0.031294719394916716,10,1,100,0.06136228996534997,-10,-1,-100,15024.368613095372,-0.0055967563318334995,0.002905771296539503,0.9999801162081846,19.97250814053561,0.009269165575977865,28.49198270235322,-12.557256524142906,5.213348388671875,5356.25390625,True
1599563086.5726566,0.0,10,0.5,0.5,-18.673799325561525,-0.2,-0.001,-0.001,0.05676635544720482,10,1,100,0.0627265720133572,-10,-1,-100,15023.884240548825,-0.0056087604892685545,0.0031364105734849926,0.9999793521540776,19.703766555602765,0.00899897467554249,28.943190452985537,-12.928825855675292,2.87823486328125,5356.25390625,True
1599563086.6155965,0.0,10,0.5,0.5,-17.867251443481447,-0.2,-0.001,-0.001,0.07671739841047807,10,1,100,0.06021543996837808,-10,-1,-100,15023.06783675321,-0.005596490773119399,0.0035263430008653875,0.9999781218587068,19.155411370114912,0.008651883073324063,29.355180850725255,-13.486181278309898,-1.140533447265625,5356.25390625,True
1599563086.6614735,0.0,10,0.5,0.5,-16.937504461669924,-0.2,-0.001,-0.001,0.08618871640331154,10,1,100,0.05565630958630026,-10,-1,-100,15022.250458407449,-0.005543574573603842,0.003965479117488023,0.9999767716083788,19.966223919510785,0.009106038199074908,31.867273663460317,-14.043519527994551,-5.77862548828125,5356.25390625,True
1599563086.7013657,0.0,10,0.5,0.5,-16.94022037353516,-0.2,-0.001,-0.001,0.04246969243285351,10,1,100,0.06096839414296595,-10,-1,-100,15022.250458407449,-0.005543574573603842,0.003965479117488023,0.9999767716083788,19.966223919510785,0.009106038199074908,31.867273663460317,-14.043519527994551,-5.77862548828125,5356.25390625,True
1599563086.7432544,0.0,10,0.5,0.5,-15.501640203857422,-0.2,-0.001,-0.001,0.11352274984971233,10,1,100,0.04277282868382776,-10,-1,-100,15021.099096050137,-0.005378000529898845,0.004609683843347747,0.9999749136479198,21.377896990258368,0.010186653457657345,35.93357239665688,-14.786571975088732,-12.92633056640625,5356.25390625,True
1599563086.7841456,0.0,10,0.5,0.5,-15.506315167236329,-0.2,-0.001,-0.001,0.04934128219724615,10,1,100,0.05932314681581451,-10,-1,-100,15021.099096050137,-0.005378000529898845,0.004609683843347747,0.9999749136479198,21.377896990258368,0.010186653457657345,35.93357239665688,-14.786571975088732,-12.92633056640625,5356.25390625,True
1599563086.8260326,0.0,10,0.5,0.5,-14.702504595947268,-0.2,-0.001,-0.001,0.08808004851968917,10,1,100,0.04710368954781265,-10,-1,-100,15020.49167649867,-0.00526697897508531,0.0049596816741562634,0.9999738299026466,22.122996907151386,0.010879413515637548,38.12447151482062,-15.158062057389058,-16.9130859375,5356.25390625,True
1599563086.8666885,0.0,10,0.5,0.5,-13.8471477142334,-0.2,-0.001,-0.001,0.0912606440249398,10,1,100,0.039537105909604395,-10,-1,-100,15019.822734534158,-0.0050975107117348295,0.0053045532929200554,0.999972938183282,22.82482947041118,0.011619999001165936,40.30234769101565,-15.529524002879889,-21.175506591796875,5356.25390625,True
1599563086.9085765,0.0,10,0.5,0.5,-12.93652041015625,-0.2,-0.001,-0.001,0.09770108183179976,10,1,100,0.03708049855449022,-10,-1,-100,15019.212385497289,-0.004921553903145319,0.005674250231074433,0.9999717901978503,23.471417773986673,0.012373346358684385,42.44002661113001,-15.900956519098505,-25.713043212890625,5356.25390625,True
1599563086.950465,0.0,10,0.5,0.5,-11.970511724853516,-0.2,-0.001,-0.001,0.1005176442956222,10,1,100,0.029717349029842112,-10,-1,-100,15018.542466871673,-0.0046952692655023165,0.006033426670945402,0.9999707756775349,24.113131430563378,0.013128621512128328,44.62368284720873,-16.272358503428162,-30.5262451171875,5356.25390625,True
1599563087.2835743,0.0,10,0.5,0.5,-10.948919332885744,-0.2,-0.001,-0.001,0.10427634355828347,10,1,100,0.02404809397490553,-10,-1,-100,15017.933094597305,-0.0044388368099331915,0.006391277377421017,0.9999697236923025,24.649615327945835,0.013787403871691584,46.66272651583194,-16.643731026608595,-35.614959716796875,5356.25390625,True
1599563087.3174837,0.0,10,0.5,0.5,-10.417976141357421,-0.2,-0.001,-0.001,0.08813051080590426,10,1,100,0.0339138623936399,-10,-1,-100,15017.59911069856,-0.004296468766567332,0.006566856933919096,0.9999692078989968,24.870062216941886,0.014060917644704287,47.607885873821786,-16.82940736605903,-38.26263427734375,5356.25390625,True
1599563087.3553817,0.0,10,0.5,0.5,-8.73724156188965,-0.2,-0.001,-0.001,0.12624128950431357,10,1,100,-0.004615040643444153,-10,-1,-100,15016.529780032113,-0.0038179623559035604,0.007070172233509204,0.9999677173929353,25.30031171418412,0.014573938747617964,50.04269771972522,-17.38640443156317,-46.61920166015625,5356.25390625,True
1599563087.3922865,0.0,10,0.5,0.5,-8.153922763061523,-0.2,-0.001,-0.001,0.09399242895347008,10,1,100,0.023747099168389928,-10,-1,-100,15016.194819475175,-0.0036423629010601693,0.007231737688932523,0.9999672170438866,25.355173268333775,0.014623850776279255,50.68956085565648,-17.57206257803829,-49.54254150390625,5356.25390625,True
1599563087.448646,0.0,10,0.5,0.5,-6.306512161254883,-0.2,-0.001,-0.001,0.12494876814255021,10,1,100,-0.021635050874327308,-10,-1,-100,15015.124511104194,-0.0030718904068801514,0.007657067315062229,0.9999659658255678,25.237534343999965,0.014384170478489788,52.06244633293326,-18.129029750544383,-58.726409912109375,5356.25390625,True
1599563087.491531,0.0,10,0.5,0.5,-5.668097589111328,-0.2,-0.001,-0.001,0.09742678856207289,10,1,100,0.01268666366782785,-10,-1,-100,15014.725097611197,-0.0028673910990297444,0.0077907604485651545,0.9999655404662295,25.11398469767195,0.014185926954206398,52.341184981155564,-18.314686701864463,-61.925506591796875,5356.25390625,True
1599563087.5309343,0.0,10,0.5,0.5,-3.6541087738037112,-0.2,-0.001,-0.001,0.11966120870770264,10,1,100,-0.03684006654700018,-10,-1,-100,15013.595218074275,-0.002233522007604455,0.008111538865250614,0.9999646065319907,24.379074899978935,0.013257290059413838,52.36428458408222,-18.87167613193942,-71.9368896484375,5356.25390625,True
1599563087.5738192,0.0,10,0.5,0.5,-3.6586177764892582,-0.2,-0.001,-0.001,0.08789855275826612,10,1,100,0.02624349689878066,-10,-1,-100,15013.595218074275,-0.002233522007604455,0.008111538865250614,0.9999646065319907,24.379074899978935,0.013257290059413838,52.36428458408222,-18.87167613193942,-71.9368896484375,5356.25390625,True
1599563087.617706,0.0,10,0.5,0.5,-2.2427385375976563,-0.2,-0.001,-0.001,0.1073447020979143,10,1,100,-0.023318011411730094,-10,-1,-100,15012.862797404174,-0.0017855664672399305,0.008285770235999843,0.999964078236807,23.578693424318672,0.012462993359913601,51.64831798904556,-19.243027568094206,-78.955810546875,5356.25390625,True
1599563087.6575956,0.0,10,0.5,0.5,0.7435740051269532,-0.2,-0.001,-0.001,0.11258434560500691,10,1,100,-0.07733279731239596,-10,-1,-100,15011.265142542194,-0.0008901415472987687,0.008489421404922778,0.9999635680224733,21.210391717955808,0.010903066291365808,48.26699340705935,-19.9858025824338,-93.82151794433594,5356.25390625,True
1599563087.6964915,0.0,10,0.5,0.5,2.3122112411499027,-0.2,-0.001,-0.001,0.09651445048956281,10,1,100,-0.035593477052988653,-10,-1,-100,15010.471197170671,-0.000459026465817964,0.008526236153135976,0.9999635456314218,22.4794363691652,0.011741396667587809,52.112628155090675,-20.357183626313756,-101.66815185546875,5356.25390625,True
1599563087.7393775,0.0,10,0.5,0.5,3.894271241760254,-0.2,-0.001,-0.001,0.09360178661128515,10,1,100,-0.03698374255942033,-10,-1,-100,15009.67236893077,-5.808289654432196e-05,0.008531284471912981,0.9999636062435654,23.95720013106166,0.012896875884963141,56.55926935812748,-20.728516004437793,-109.54527282714844,5356.25390625,True
1599563087.7792706,0.0,10,0.5,0.5,3.893522384643555,-0.2,-0.001,-0.001,0.09329339748738401,10,1,100,0.0026867757809415716,-10,-1,-100,15009.67236893077,-5.808289654432196e-05,0.008531284471912981,0.9999636062435654,23.95720013106166,0.012896875884963141,56.55926935812748,-20.728516004437793,-109.54527282714844,5356.25390625,True
1599563087.821159,0.0,10,0.5,0.5,6.931729588317872,-0.2,-0.001,-0.001,0.08379875883215626,10,1,100,-0.0806660838473417,-10,-1,-100,15007.953617535997,0.0006962523005679266,0.00844364129119418,0.9999641094331734,25.913045692281443,0.014846212760873266,63.38510005360332,-21.471040551925586,-124.62942504882812,5356.25390625,True
1599563087.860054,0.0,10,0.5,0.5,6.924154124450684,-0.2,-0.001,-0.001,0.09268426726426254,10,1,100,-0.005666425656279647,-10,-1,-100,15007.953617535997,0.0006962523005679266,0.00844364129119418,0.9999641094331734,25.913045692281443,0.014846212760873266,63.38510005360332,-21.471040551925586,-124.62942504882812,5356.25390625,True
1599563087.8989503,0.0,10,0.5,0.5,9.744207698059084,-0.2,-0.001,-0.001,0.07273952920089743,10,1,100,-0.07455496383882296,-10,-1,-100,15006.172364884871,0.0013190861543115493,0.008261610423367104,0.999965002290045,26.974193794384192,0.015834582405552335,68.28007631517936,-22.21343311679131,-138.6267547607422,5356.25390625,True
1599563087.936849,0.0,10,0.5,0.5,11.061564987182619,-0.2,-0.001,-0.001,0.07643278956503465,10,1,100,-0.04248994196209645,-10,-1,-100,15005.312988384278,0.0015899926613324733,0.008129274865039372,0.9999656928182614,27.099127785186127,0.015795849431419828,69.75188526849,-22.58460819403583,-145.21224975585938,5356.25390625,True
1599563087.974748,0.0,10,0.5,0.5,11.062307028198243,-0.2,-0.001,-0.001,0.08966811899778672,10,1,100,-0.015781642726897745,-10,-1,-100,15005.312988384278,0.0015899926613324733,0.008129274865039372,0.9999656928182614,27.099127785186127,0.015795849431419828,69.75188526849,-22.58460819403583,-145.21224975585938,5356.25390625,True
1599563088.0156384,0.0,10,0.5,0.5,12.951062161254884,-0.2,-0.001,-0.001,0.07040703530030379,10,1,100,-0.051723738805161706,-10,-1,-100,15003.930172803812,0.0019132630668903848,0.007954157980516992,0.9999665348376704,26.861761805383775,0.01517901157252696,70.8602087864208,-23.14137430528956,-154.5725860595703,5356.25390625,True
1599563088.0555322,0.0,10,0.5,0.5,14.134269773864746,-0.2,-0.001,-0.001,0.07250078185482879,10,1,100,-0.03876558531015409,-10,-1,-100,15003.006342642475,0.0020859812860482985,0.007814296338042767,0.9999672921925074,26.46969892492107,0.014520217946556785,70.95633104861679,-23.512565351900815,-160.4681396484375,5356.25390625,True
1599563088.0954251,0.0,10,0.5,0.5,14.135038882446288,-0.2,-0.001,-0.001,0.08641943359556326,10,1,100,-0.021791375677697428,-10,-1,-100,15003.006342642475,0.0020859812860482985,0.007814296338042767,0.9999672921925074,26.46969892492107,0.014520217946556785,70.95633104861679,-23.512565351900815,-160.4681396484375,5356.25390625,True
1599563088.1373565,0.0,10,0.5,0.5,16.34438015441895,-0.2,-0.001,-0.001,0.05961440632781151,10,1,100,-0.04915655556265689,-10,-1,-100,15001.036612573895,0.0023324420052280516,0.007571261489986018,0.9999686173644363,25.272797132486147,0.013045038849527187,69.90859507894888,-24.254997028584455,-171.43063354492188,5356.25390625,True
1599563088.177249,0.0,10,0.5,0.5,16.33960619659424,-0.2,-0.001,-0.001,0.08382188883529376,10,1,100,-0.02474953613485882,-10,-1,-100,15001.036612573895,0.0023324420052280516,0.007571261489986018,0.9999686173644363,25.272797132486147,0.013045038849527187,69.90859507894888,-24.254997028584455,-171.43063354492188,5356.25390625,True
1599563088.2181418,0.0,10,0.5,0.5,17.3643080078125,-0.2,-0.001,-0.001,0.07034095104219734,10,1,100,-0.03261739388645102,-10,-1,-100,15000.051258762716,0.002401794780331824,0.007449580258214166,0.9999693670987175,24.528975106931153,0.012397385762872151,68.90067489101598,-24.626238512543765,-176.49786376953125,5356.25390625,True
1599563088.2590313,0.0,10,0.5,0.5,-54.03260890808106,-0.2,-0.001,-0.001,0.07148333969954614,10,1,100,-0.03119375994778491,-10,-1,-100,14999.065905275871,0.0024503501378203216,0.007350249999881999,0.9999699843541011,23.724675867728287,0.011887631588785552,67.65719106649472,-24.997494235449395,178.71127319335938,5356.25390625,True
1599563088.299922,0.0,10,0.5,0.5,-51.94828149414062,-0.2,-0.001,-0.001,0.06176563792795389,10,1,100,-0.025771209856499555,-10,-1,-100,14997.030745731667,0.002443600827582496,0.007172601013739474,0.9999712908927402,24.735815006131787,0.012720263385782745,72.66010829741234,-25.739973597332813,169.95777893066406,5356.25390625,True
1599563088.344802,0.0,10,0.5,0.5,-51.134900918579106,-0.2,-0.001,-0.001,0.07232433463033226,10,1,100,-0.021802274772003083,-10,-1,-100,14995.983869335847,0.002400361576895167,0.007108080095822098,0.9999718563347929,25.565956071393,0.013530495511600535,76.19433833474288,-26.111165289181976,165.7140350341797,5356.25390625,True
1599563088.3856928,0.0,10,0.5,0.5,-51.17023729095459,-0.2,-0.001,-0.001,0.07867430694514814,10,1,100,-0.026207236732292208,-10,-1,-100,14995.983869335847,0.002400361576895167,0.007108080095822098,0.9999718563347929,25.565956071393,0.013530495511600535,76.19433833474288,-26.111165289181976,165.7140350341797,5356.25390625,True
1599563088.426616,0.0,10,0.5,0.5,-49.348253823852545,-0.2,-0.001,-0.001,0.06967518285175377,10,1,100,-0.008797539469810874,-10,-1,-100,14993.885234018322,0.0022413549027675526,0.007027198235672346,0.9999727970365776,27.10840490873052,0.015417225307408227,83.11563069869852,-26.853443110646445,156.4947509765625,5356.25390625,True
1599563088.470465,0.0,10,0.5,0.5,-48.38005277252197,-0.2,-0.001,-0.001,0.076785693445663,10,1,100,-0.011900510829458782,-10,-1,-100,14992.774881528807,0.0021247139460702684,0.007019152967976151,0.9999731081795449,27.79693090026173,0.016395881366208218,86.41856502624121,-27.224527924928058,151.47720336914062,5356.25390625,True
1599563088.5113566,0.0,10,0.5,0.5,-47.352482414245614,-0.2,-0.001,-0.001,0.07804675459438558,10,1,100,-0.008379574688823416,-10,-1,-100,14991.663553185295,0.0019866329908305776,0.007024026138122604,0.9999733578181823,28.456977983666523,0.01733677956781463,89.6908880155856,-27.595576730762772,146.18475341796875,5356.25390625,True
1599563088.5512521,0.0,10,0.5,0.5,-46.26942381134034,-0.2,-0.001,-0.001,0.08089479425372476,10,1,100,-0.0044497076927661194,-10,-1,-100,14990.554177707527,0.0018254691027350812,0.007055065989886026,0.9999734465006725,28.992846972028364,0.018113997845417448,92.62325306657874,-27.96659345740915,140.6175079345703,5356.25390625,True
1599563088.5901453,0.0,10,0.5,0.5,-45.131939492797855,-0.2,-0.001,-0.001,0.08352294946231201,10,1,100,-0.0004987439941407934,-10,-1,-100,14989.442849986488,0.0016434995098448479,0.0071076456256582024,0.9999733897874589,29.37728070352879,0.018644437532087714,95.11154214336504,-28.337584218298126,134.7754364013672,5356.25390625,True
1599563088.6300387,0.0,10,0.5,0.5,-45.16840217132569,-0.2,-0.001,-0.001,0.07821862429866154,10,1,100,-0.018626809033625808,-10,-1,-100,14989.442849986488,0.0016434995098448479,0.0071076456256582024,0.9999733897874589,29.37728070352879,0.018644437532087714,95.11154214336504,-28.337584218298126,134.7754364013672,5356.25390625,True
1599563088.6689718,0.0,10,0.5,0.5,-43.97005148925782,-0.2,-0.001,-0.001,0.08661196653750046,10,1,100,0.003717586473715319,-10,-1,-100,14988.330545723788,0.0014410580009330985,0.007184259586586334,0.9999731545226754,29.582863025376298,0.01886237838187428,97.04649744954612,-28.708557096333756,128.65863037109375,5356.25390625,True
1599563088.708886,0.0,10,0.5,0.5,-42.68647565307617,-0.2,-0.001,-0.001,0.09024475308663661,10,1,100,0.007933998253634411,-10,-1,-100,14987.15671884839,0.0012196067876839593,0.007287084874616143,0.9999727051041511,29.582821474513022,0.018733381719068944,98.31633705545204,-29.079522184091704,122.26715087890625,5356.25390625,True
1599563088.7517736,0.0,10,0.5,0.5,-39.95317495880128,-0.2,-0.001,-0.001,0.11226345603244331,10,1,100,0.038609476884874976,-10,-1,-100,14984.806137245847,0.0007405322372097355,0.007580628359731596,0.9999709924221188,28.86741536936536,0.017523576616180103,98.41995264210753,-29.821472679876265,108.66056823730469,5356.25390625,True
1599563088.7926624,0.0,10,0.5,0.5,-38.51087419891358,-0.2,-0.001,-0.001,0.10432385768221315,10,1,100,0.01931563064407408,-10,-1,-100,14983.5717653397,0.00048191745654925413,0.007774878317321816,0.9999696590510714,28.111078153379935,0.01660827599038221,97.051066277219,-30.19247849032728,101.44563293457031,5356.25390625,True
1599563088.8339195,0.0,10,0.5,0.5,-38.51166229400635,-0.2,-0.001,-0.001,0.0849655417453411,10,1,100,-0.006354003009939464,-10,-1,-100,14983.5717653397,0.00048191745654925413,0.007774878317321816,0.9999696590510714,28.111078153379935,0.01660827599038221,97.051066277219,-30.19247849032728,101.44563293457031,5356.25390625,True
1599563088.8738084,0.0,10,0.5,0.5,-37.000831896972656,-0.2,-0.001,-0.001,0.11093108849201844,10,1,100,0.024688390118853962,-10,-1,-100,14982.334465442691,0.00020131337123860326,0.008010249033126474,0.9999678971763813,27.06982818788517,0.01565488378748722,94.62229691185924,-30.563515185831037,93.95645141601562,5356.25390625,True
1599563088.9147043,0.0,10,0.5,0.5,-35.442113894653325,-0.2,-0.001,-0.001,0.11724626410941147,10,1,100,0.027481445444137623,-10,-1,-100,14981.09716619621,-7.742411784199294e-05,0.00828073210213869,0.9999657111528167,25.737227106221756,0.014793884768040125,91.07374627310507,-30.93458578556995,86.1929931640625,5356.25390625,True
1599563088.957588,0.0,10,0.5,0.5,-33.82827810974121,-0.2,-0.001,-0.001,0.1234583455788354,10,1,100,0.030203752377388985,-10,-1,-100,14979.858892028104,-0.0003536936644823904,0.008581956809177272,0.9999631117786882,26.778656230566682,0.01563454101115652,95.91392905329766,-31.305640896178225,78.15518188476562,5356.25390625,True
1599563088.9984784,0.0,10,0.5,0.5,-32.159407472229006,-0.2,-0.001,-0.001,0.1324522929756345,10,1,100,0.03397220703300442,-10,-1,-100,14978.621595675359,-0.000637125419418149,0.008936172527529346,0.999959868640616,28.330751623042275,0.017057357967760242,102.69516494926872,-31.676634082568835,69.84342956542969,5356.25390625,True
1599563089.0374124,0.0,10,0.5,0.5,-28.654638468933108,-0.2,-0.001,-0.001,0.18881652854859937,10,1,100,0.06342539218607403,-10,-1,-100,14976.022984737414,-0.0011604735844519595,0.00976892666132921,0.9999516095156532,30.566910148869407,0.019636013163013787,113.43739541903192,-32.41844367361671,52.39772033691406,5356.25390625,True
1599563089.0802622,0.0,10,0.5,0.5,-26.82797014007568,-0.2,-0.001,-0.001,0.1591386478018739,10,1,100,0.03675677602106856,-10,-1,-100,14974.720263779513,-0.0013912536119878314,0.010253757611599155,0.9999464610009026,31.29258158061622,0.020437326627618525,117.47990789603614,-32.789279670839825,43.264007568359375,5356.25390625,True
1599563089.1218476,0.0,10,0.5,0.5,-26.828564390563965,-0.2,-0.001,-0.001,0.1109625025773807,10,1,100,0.013962004428773465,-10,-1,-100,14974.720263779513,-0.0013912536119878314,0.010253757611599155,0.9999464610009026,31.29258158061622,0.020437326627618525,117.47990789603614,-32.789279670839825,43.264007568359375,5356.25390625,True
1599563089.162961,0.0,10,0.5,0.5,-22.983887648010253,-0.2,-0.001,-0.001,0.2350062453656117,10,1,100,0.051685875664996245,-10,-1,-100,14972.059164599283,-0.0017318243864992459,0.011378731025367635,0.9999337604384335,31.386371237964347,0.02015713718269982,120.54133889988123,-33.530911512623796,24.175567626953125,5356.25390625,True
1599563089.2038505,0.0,10,0.5,0.5,-20.99353848266602,-0.2,-0.001,-0.001,0.18915406303002377,10,1,100,0.03081235677619838,-10,-1,-100,14970.69785585627,-0.001849427321953543,0.011981143286955783,0.9999265132119051,30.683045102133892,0.019206362715353285,119.16674291881237,-33.901754898667896,14.22039794921875,5356.25390625,True
1599563089.2447422,0.0,10,0.5,0.5,-18.9388149520874,-0.2,-0.001,-0.001,0.20108331517959774,10,1,100,0.020868346505812305,-10,-1,-100,14969.334595812252,-0.00186381958374621,0.012633414667059651,0.9999184581806706,29.45687306388469,0.018030848840751557,115.67988902179195,-34.272642198204466,3.99176025390625,5356.25390625,True
1599563089.28663,0.0,10,0.5,0.5,-17.8906300201416,-0.2,-0.001,-0.001,0.17182841380135094,10,1,100,0.019249658103545408,-10,-1,-100,14968.683240457438,-0.0018600556207732123,0.012956018148852071,0.9999143372243515,28.648618017838253,0.017450643392517545,113.12654159206528,-34.458105376534604,-1.225494384765625,5356.25390625,True
1599563089.3305123,0.0,10,0.5,0.5,-14.657699105834961,-0.2,-0.001,-0.001,0.24760048681594235,10,1,100,0.005340338075256322,-10,-1,-100,14966.544602094567,-0.0017283115005478483,0.013933634915054442,0.9999014285205373,29.329073445122244,0.01835665082240833,117.72096963329099,-35.014489733350906,-17.288330078125,5356.25390625,True
1599563089.3704073,0.0,10,0.5,0.5,-14.663413809204101,-0.2,-0.001,-0.001,0.15040410047699682,10,1,100,0.018679838836063306,-10,-1,-100,14966.544602094567,-0.0017283115005478483,0.013933634915054442,0.9999014285205373,29.329073445122244,0.01835665082240833,117.72096963329099,-35.014489733350906,-17.288330078125,5356.25390625,True
1599563089.4118056,0.0,10,0.5,0.5,-11.301141857910158,-0.2,-0.001,-0.001,0.25471517971293134,10,1,100,-0.013779870152544445,-10,-1,-100,14964.468466716586,-0.0014319735844368093,0.014877052291648504,0.9998883051455122,31.665857241177815,0.021023140627536047,129.15899121497628,-35.57070122500885,-33.96856689453125,5356.25390625,True
1599563089.453696,0.0,10,0.5,0.5,-7.8305665969848635,-0.2,-0.001,-0.001,0.2566534543148055,10,1,100,-0.031864497515546014,-10,-1,-100,14962.270257505355,-0.000997447186340379,0.015746924330601854,0.9998755119879857,32.76318658400777,0.022577647319670165,135.76350648537948,-36.12678012364486,-51.266448974609375,5356.25390625,True
1599563089.495582,0.0,10,0.5,0.5,-5.450432907104492,-0.2,-0.001,-0.001,0.22259817307210594,10,1,100,-0.028922322661996066,-10,-1,-100,14960.840590385138,-0.0006293184380105432,0.01622268908410829,0.9998682054736934,32.73597358943006,0.022556339856732048,137.06931439566262,-36.49747376890812,-63.14239501953125,5356.25390625,True
1599563089.534986,0.0,10,0.5,0.5,-3.009359954833984,-0.2,-0.001,-0.001,0.22040129857651922,10,1,100,-0.03490844795255076,-10,-1,-100,14959.354279778781,-0.0002409292870456292,0.01662980460872471,0.9998616862105251,31.949926949144842,0.021673985585914497,135.16426453601224,-36.86819154882568,-75.29318237304688,5356.25390625,True
1599563089.5828574,0.0,10,0.5,0.5,-3.0096550231933596,-0.2,-0.001,-0.001,0.18032735081458984,10,1,100,0.0038154347114464186,-10,-1,-100,14959.354279778781,-0.0002409292870456292,0.01662980460872471,0.9998616862105251,31.949926949144842,0.021673985585914497,135.16426453601224,-36.86819154882568,-75.29318237304688,5356.25390625,True
1599563089.625252,0.0,10,0.5,0.5,2.050683682250977,-0.2,-0.001,-0.001,0.2442027956796332,10,1,100,-0.08505413496757697,-10,-1,-100,14956.375789887737,0.0005656205326732619,0.0172057167678766,0.9998518107119255,28.314163097959575,0.018984987531496633,122.24556706087598,-37.60980622511726,-100.41950988769531,5356.25390625,True
1599563089.6661427,0.0,10,0.5,0.5,4.645078848266602,-0.2,-0.001,-0.001,0.20622041549961467,10,1,100,-0.04841875096386496,-10,-1,-100,14954.888493469334,0.0009636031979706657,0.017379229298668218,0.9998485054536318,30.819342015289212,0.021308040230686158,134.4026939545253,-37.980585154831324,-113.3949203491211,5356.25390625,True
1599563089.7100286,0.0,10,0.5,0.5,7.250635997772218,-0.2,-0.001,-0.001,0.1999870925804536,10,1,100,-0.043455837994714655,-10,-1,-100,14953.337717602379,0.0012777178459926512,0.017475987014094037,0.999846466871284,32.58144619394209,0.02335941871623764,143.50404657650904,-38.351268338951826,-126.36404418945312,5356.25390625,True
1599563089.750799,0.0,10,0.5,0.5,9.81013360977173,-0.2,-0.001,-0.001,0.19633787030494504,10,1,100,-0.04391357065779149,-10,-1,-100,14951.78596235672,0.0015645853016162765,0.01752666476300812,0.9998451720617142,33.48214068068942,0.024568460612242743,148.92647030113886,-38.72188681296022,-139.10012817382812,5356.25390625,True
1599563090.0709429,0.0,10,0.5,0.5,9.809578705596925,-0.2,-0.001,-0.001,0.19162939839833215,10,1,100,-0.015556114775645368,-10,-1,-100,14951.78596235672,0.0015645853016162765,0.01752666476300812,0.9998451720617142,33.48214068068942,0.024568460612242743,148.92647030113886,-38.72188681296022,-139.10012817382812,5356.25390625,True
