Timestamp,Input Throttle,horizon,dT,dt,Input Roll,Roll P,Roll I,Roll D,Input Pitch,Pitch P,Pitch I,Pitch D,Input Yaw,Yaw P,Yaw I,Yaw D,Altitude,Direction X,Direction Y,Direction Z,Drag X,Drag Y,Drag Z,Vertical Velocity,Roll,Mass,Has Fuel
1599561344.6461523,0.0,10,0.5,0.5,-5.85008358001709,-0.1005,-0.02275,-0.12575,-0.00027375384183816657,10,1,100,0.17489106845036861,-10,-1,-100,14995.025181717472,-0.01680804177716815,-7.459891079409392e-05,0.9998587321050006,28.508497077838882,0.02712396687704313,-85.884557470961,26.63768176060631,-31.7916259765625,5356.25390625,True
1599561344.6808205,0.0,10,0.5,0.5,-5.98263491973877,-0.1005,-0.02275,-0.12575,-0.00023564843947991148,10,1,100,0.17770620814907612,-10,-1,-100,14996.032997248927,-0.016880268924437947,-6.989163298008995e-05,0.9998575156672066,28.363577729725986,0.02744844672254059,-84.25809240134403,26.265766284154946,-31.790435791015625,5356.25390625,True
1599561344.7137332,0.0,10,0.5,0.5,-6.115057009124755,-0.1005,-0.02275,-0.12575,-0.0003905539983773887,10,1,100,0.17626021376349807,-10,-1,-100,14996.567178536789,-0.01691743886488302,-6.695698401826332e-05,0.9998568876489351,28.291156329599925,0.027608403409560972,-83.4495317785756,26.079814518826673,-31.789794921875,5356.25390625,True
1599561344.7496371,0.0,10,0.5,0.5,-6.238297466278077,-0.1005,-0.02275,-0.12575,0.003218592338070738,10,1,100,0.1762180480615964,-10,-1,-100,14997.103312651394,-0.016935466905393177,-3.141783009978499e-05,0.9998565842027627,28.218805458929634,0.02776687688358488,-82.6442148617322,25.89386654833237,-31.830047607421875,5356.25390625,True
1599561344.7835543,0.0,10,0.5,0.5,-6.197453581237794,-0.1005,-0.02275,-0.12575,0.019862104000162997,10,1,100,0.18222243685360104,-10,-1,-100,14999.118940790766,-0.016991045506779368,0.00015222370478157928,0.9998556301789424,27.971887474646046,0.028414244917492937,-79.57411745633785,25.150111867953253,-32.61785888671875,5356.25390625,True
1599561344.8144724,0.0,10,0.5,0.5,-6.42706522064209,-0.1005,-0.02275,-0.12575,0.0015131728825047276,10,1,100,0.17836368126565985,-10,-1,-100,14999.118940790766,-0.016991045506779368,0.00015222370478157928,0.9998556301789424,27.971887474646046,0.028414244917492937,-79.57411745633785,25.150111867953253,-32.61785888671875,5356.25390625,True
1599561344.8482676,0.0,10,0.5,0.5,-6.262610469055176,-0.1005,-0.02275,-0.12575,0.029869150354569038,10,1,100,0.17634855135096197,-10,-1,-100,15000.595502373297,-0.016957279738912315,0.000409866932977817,0.9998561309873304,27.837474120623458,0.028898981732596356,-77.43988093023931,24.59233082082089,-33.921722412109375,5356.25390625,True
1599561344.8841712,0.0,10,0.5,0.5,-6.4247502418518065,-0.1005,-0.02275,-0.12575,0.016518078022178355,10,1,100,0.17859833970384442,-10,-1,-100,15001.130657761125,-0.016931620498842188,0.0005223420583772289,0.9998565133988262,27.80075666123769,0.029054156163850334,-76.75452645867637,24.406409981590173,-34.49365234375,5356.25390625,True
1599561344.9160862,0.0,10,0.5,0.5,-6.478005965423584,-0.1005,-0.02275,-0.12575,0.019091617076491377,10,1,100,0.17907773268698451,-10,-1,-100,15001.601359378546,-0.016897259652717125,0.0006475131255446516,0.9998570214500575,27.76714526866099,0.029203406328929576,-76.07920632166419,24.22049198746177,-35.13427734375,5356.25390625,True
1599561344.9489977,0.0,10,0.5,0.5,-6.5228866035461435,-0.1005,-0.02275,-0.12575,0.02132438952587592,10,1,100,0.1788512255685003,-10,-1,-100,15002.074990345398,-0.01684860221911474,0.0007810142878498546,0.9998577471920415,27.735987588377494,0.029344923334380116,-75.4119504406518,24.03457688758529,-35.843658447265625,5356.25390625,True
1599561344.9834163,0.0,10,0.5,0.5,-6.160544070434571,-0.1005,-0.02275,-0.12575,0.060601870774542196,10,1,100,0.16365007558999906,-10,-1,-100,15003.489045738941,-0.016650859004927004,0.001258736979217142,0.9998605725177961,27.649536551549573,0.029702211613001805,-73.43657013886096,23.47684833747597,-38.384002685546875,5356.25390625,True
1599561345.018323,0.0,10,0.5,0.5,-6.242321285247804,-0.1005,-0.02275,-0.12575,0.03295238398723443,10,1,100,0.17384694616158353,-10,-1,-100,15003.958769135294,-0.016563934163381866,0.001440459240675504,0.9998617710274792,27.62004717149086,0.029791113627724884,-72.77872177316601,23.290944471859806,-39.368194580078125,5356.25390625,True
1599561345.0522318,0.0,10,0.5,0.5,-5.587508069610595,-0.1005,-0.02275,-0.12575,0.08101855941043268,10,1,100,0.14599435279933323,-10,-1,-100,15005.309343628585,-0.016231993763012244,0.0020412534814179487,0.9998661688759662,27.51441335687615,0.029930118967169503,-70.76835688011856,22.733249881768298,-42.73321533203125,5356.25390625,True
1599561345.0851433,0.0,10,0.5,0.5,-5.985763147735597,-0.1005,-0.02275,-0.12575,0.02114995638273184,10,1,100,0.17911984832610836,-10,-1,-100,15005.309343628585,-0.016231993763012244,0.0020412534814179487,0.9998661688759662,27.51441335687615,0.029930118967169503,-70.76835688011856,22.733249881768298,-42.73321533203125,5356.25390625,True
1599561345.1140668,0.0,10,0.5,0.5,-5.0596524032592765,-0.1005,-0.02275,-0.12575,0.09581745199678735,10,1,100,0.13063476748528552,-10,-1,-100,15006.658938700217,-0.015791859821861473,0.0027181646494443463,0.9998716061296596,27.356628001438516,0.029819294258117232,-68.6403407650495,22.17558401597228,-46.716888427734375,5356.25390625,True
1599561345.1519656,0.0,10,0.5,0.5,-5.1969512031555185,-0.1005,-0.02275,-0.12575,0.05401687994594126,10,1,100,0.15529970816696045,-10,-1,-100,15007.12866011972,-0.015617054959453197,0.002951200564510959,0.9998736910278324,27.28582169022772,0.02971405473373058,-67.89009639019143,21.989702683418013,-48.182403564453125,5356.25390625,True
1599561345.18787,0.0,10,0.5,0.5,-4.257761773681641,-0.1005,-0.02275,-0.12575,0.11180941509352864,10,1,100,0.10649141447015428,-10,-1,-100,15008.415751760476,-0.015015678769608642,0.0036858935551316472,0.9998804646455436,26.996481005063252,0.029161089925578604,-65.47067085504123,21.4320845269778,-52.991546630859375,5356.25390625,True
1599561345.226767,0.0,10,0.5,0.5,-4.425323686218261,-0.1005,-0.02275,-0.12575,0.06690508266378384,10,1,100,0.14139582367523018,-10,-1,-100,15008.821995387552,-0.014788051045222739,0.003942596863950817,0.9998828778793305,26.868606919187624,0.028891921515066653,-64.59675685273334,21.24622149591474,-54.73211669921875,5356.25390625,True
1599561345.265662,0.0,10,0.5,0.5,-4.188777105712891,-0.1005,-0.02275,-0.12575,0.06985697457199519,10,1,100,0.137252942047976,-10,-1,-100,15009.23214496579,-0.014545402889581989,0.004199689566765098,0.9998853903634768,26.721943054817118,0.028578533848491454,-63.68344759994096,21.0603640765075,-56.541534423828125,5356.25390625,True
1599561345.297576,0.0,10,0.5,0.5,-3.5020213432312013,-0.1005,-0.02275,-0.12575,0.0976504923295691,10,1,100,0.10375594492006815,-10,-1,-100,15010.1071310197,-0.014022433553075904,0.004682849297627643,0.9998907151682656,26.364755217456548,0.027818481098656686,-61.72585520274939,20.68866779964683,-60.367340087890625,5356.25390625,True
1599561345.3314853,0.0,10,0.5,0.5,-2.9994984153747555,-0.1005,-0.02275,-0.12575,0.10525668907867947,10,1,100,0.09176232154312731,-10,-1,-100,15010.920592972776,-0.0134405431879764,0.005187685537031163,0.9998962144730726,25.909125616622234,0.026885153408663483,-59.57202445554998,20.31699971925615,-64.46823120117188,5356.25390625,True
1599561345.3663926,0.0,10,0.5,0.5,-2.968544658660889,-0.1005,-0.02275,-0.12575,0.08209883330034391,10,1,100,0.11542852212233239,-10,-1,-100,15011.326835949323,-0.013129617693894124,0.005432529839815117,0.9998990452834485,25.63928382850705,0.026357921682812986,-58.4137555916425,20.13117749953199,-66.62203979492188,5356.25390625,True
1599561345.3983064,0.0,10,0.5,0.5,-1.6218803184509283,-0.1005,-0.02275,-0.12575,0.13388186598471696,10,1,100,0.03639598394435645,-10,-1,-100,15012.48696927505,-0.0121316026399009,0.006122241257113794,0.9999076669269903,24.636493414992366,0.024574136723420566,-54.578979539076904,19.57376466571663,-73.4971923828125,5356.25390625,True
1599561345.433214,0.0,10,0.5,0.5,-2.4164427085876468,-0.1005,-0.02275,-0.12575,0.0653188230324188,10,1,100,0.13578745023136776,-10,-1,-100,15012.48696927505,-0.0121316026399009,0.006122241257113794,0.9999076669269903,24.636493414992366,0.024574136723420566,-54.578979539076904,19.57376466571663,-73.4971923828125,5356.25390625,True
1599561345.47211,0.0,10,0.5,0.5,-1.231492617034912,-0.1005,-0.02275,-0.12575,0.11369507757474012,10,1,100,0.055394337045524156,-10,-1,-100,15013.299453832908,-0.011404483784686968,0.006558315400429719,0.9999134593797172,23.78600578115388,0.0232642053088078,-51.6973005384593,19.20220503939474,-78.42520141601562,5356.25390625,True
1599561345.5060194,0.0,10,0.5,0.5,0.6381442680358886,-0.1005,-0.02275,-0.12575,0.15316017487585967,10,1,100,-0.043950114717841174,-10,-1,-100,15014.796494697686,-0.009844323787586595,0.007310029005498933,0.9999248235568031,21.64088117924625,0.02061595311546556,-45.22019518310625,18.459206761187797,-89.10894775390625,5356.25390625,True
1599561345.5359416,0.0,10,0.5,0.5,0.0311142547607422,-0.1005,-0.02275,-0.12575,0.09558966592594545,10,1,100,0.06745476010460143,-10,-1,-100,15015.14023749507,-0.00944401604421925,0.0074660741756162816,0.9999275315228401,21.056760873179122,0.020028744170680516,-43.5581895773455,18.273480048878643,-91.95245361328125,5356.25390625,True
1599561345.5718431,0.0,10,0.5,0.5,0.4211236053466797,-0.1005,-0.02275,-0.12575,0.09660999517864065,10,1,100,0.061865811285687196,-10,-1,-100,15015.486910067033,-0.009034356436190978,0.007613772613819751,0.999930202999374,21.546726299957232,0.020514751301596062,-44.119999752698085,18.08775223809263,-94.86491394042969,5356.25390625,True
1599561345.6077476,0.0,10,0.5,0.5,0.8054162490844727,-0.1005,-0.02275,-0.12575,0.0967236090219831,10,1,100,0.05873292551123606,-10,-1,-100,15015.82674694818,-0.00863868846240575,0.007745739341898864,0.9999326860262628,22.039857150761744,0.021051751826866732,-44.667644666203664,17.902022234232344,-97.77864837646484,5356.25390625,True
1599561345.6376677,0.0,10,0.5,0.5,1.8505977716445925,-0.1005,-0.02275,-0.12575,0.11107291659775355,10,1,100,0.003605199450436941,-10,-1,-100,15016.573804096202,-0.007783198898800255,0.007992933663773122,0.9999377654766062,22.982774310756604,0.022205894527523466,-45.61470744866178,17.530552325945266,-103.60304260253906,5356.25390625,True
1599561345.888995,0.0,10,0.5,0.5,1.8712012643814089,-0.1005,-0.02275,-0.12575,0.09794943969475857,10,1,100,0.041766037409262095,-10,-1,-100,15016.91852460429,-0.007358069853924831,0.008095342271480543,0.9999401603303731,23.389097507582104,0.02276618274595693,-45.93056942972568,17.344811772137707,-106.49656677246094,5356.25390625,True
1599561345.9179182,0.0,10,0.5,0.5,2.8914539228439335,-0.1005,-0.02275,-0.12575,0.10638720343032038,10,1,100,-0.010291685289568808,-10,-1,-100,15017.605036068591,-0.0065038664007160294,0.008262504624506534,0.9999447138413061,24.058401754431166,0.023794383742778872,-46.23546043286928,16.97331933850273,-112.19158935546875,5356.25390625,True
1599561345.9508293,0.0,10,0.5,0.5,2.278975558280945,-0.1005,-0.02275,-0.12575,0.08995396560619047,10,1,100,0.07446608490199354,-10,-1,-100,15017.605036068591,-0.0065038664007160294,0.008262504624506534,0.9999447138413061,24.058401754431166,0.023794383742778872,-46.23546043286928,16.97331933850273,-112.19158935546875,5356.25390625,True
1599561345.986965,0.0,10,0.5,0.5,4.781831189537049,-0.1005,-0.02275,-0.12575,0.11301577254626594,10,1,100,-0.1099377688766662,-10,-1,-100,15018.912632352207,-0.004832583853854745,0.008470211720900499,0.9999524496928335,24.980807523131702,0.02538888983681601,-45.91096628171638,16.230299413140546,-122.86485290527344,5356.25390625,True
1599561346.0827107,0.0,10,0.5,0.5,4.117373421669006,-0.1005,-0.02275,-0.12575,0.09456846648019737,10,1,100,0.00951836788753297,-10,-1,-100,15019.252471469808,-0.004405836435279067,0.008489199052963674,0.9999542600062988,25.124747081293282,0.025649871137876173,-45.64804904510863,16.044540546031715,-125.36383056640625,5356.25390625,True
1599561346.1550298,0.0,10,0.5,0.5,4.459763798713685,-0.1005,-0.02275,-0.12575,0.09381381631280744,10,1,100,0.005296814452247729,-10,-1,-100,15019.531764330226,-0.0039858688847525916,0.008497844459087986,0.9999559487741361,25.22912551949985,0.025841655604767744,-45.30799949736173,15.858781580211135,-127.79411315917969,5356.25390625,True
1599561346.1879406,0.0,10,0.5,0.5,4.776377026939392,-0.1005,-0.02275,-0.12575,0.09527788473610753,10,1,100,0.004946386462104997,-10,-1,-100,15019.874533738359,-0.0036062203615479837,0.008517933799909552,0.9999572190741383,25.296561303604925,0.02596473077216399,-44.89796346394476,15.673023361178705,-130.1552734375,5356.25390625,True
1599561346.2203705,0.0,10,0.5,0.5,5.588188046836853,-0.1005,-0.02275,-0.12575,0.09153402682153483,10,1,100,-0.04553323268134739,-10,-1,-100,15020.492691013496,-0.0028074867988602922,0.008501205529047321,0.9999599229581289,25.329937051728447,0.026010872051826096,-43.89343735362983,15.301512271152518,-134.6715850830078,5356.25390625,True
1599561346.2522836,0.0,10,0.5,0.5,6.070316605949402,-0.1005,-0.02275,-0.12575,0.08842288649351526,10,1,100,-0.05049380692297106,-10,-1,-100,15021.05420862115,-0.0020419300393452037,0.008456908158994908,0.9999621548969264,25.245349652063098,0.025809574083251338,-42.68658575795129,14.930013022804507,-138.91244506835938,5356.25390625,True
1599561346.282206,0.0,10,0.5,0.5,6.527784936141968,-0.1005,-0.02275,-0.12575,0.08486943343628815,10,1,100,-0.055679518886779494,-10,-1,-100,15021.670414463384,-0.0013048235659541925,0.008383687186775108,0.9999640049644867,25.061809494146058,0.025394590463480176,-41.323657189520425,14.558530850519952,-142.87786865234375,5356.25390625,True
1599561346.3151221,0.0,10,0.5,0.5,6.953270251464844,-0.1005,-0.02275,-0.12575,0.08341578305203037,10,1,100,-0.05932216933377999,-10,-1,-100,15022.228028110112,-0.0006075012000194923,0.008303552432606581,0.9999653403790008,24.797920657189355,0.02480828157125507,-39.8470371751875,14.187069188865483,-146.56753540039062,5356.25390625,True
1599561346.351027,0.0,10,0.5,0.5,6.974470679855347,-0.1005,-0.02275,-0.12575,0.08626067256895803,10,1,100,-0.027414754544366662,-10,-1,-100,15022.51025317458,-0.0002697760642134364,0.008256376006097148,0.9999658791559447,24.657128804544378,0.02448022494133627,-39.10301228217065,14.001346722193535,-148.3090362548828,5356.25390625,True
1599561346.3829412,0.0,10,0.5,0.5,7.216057759094238,-0.1005,-0.02275,-0.12575,0.08563749054386233,10,1,100,-0.030411994600983386,-10,-1,-100,15022.787595900823,5.882706854630955e-05,0.008207828625968075,0.9999663134769203,24.51698566854952,0.024139291429737898,-38.365918076342766,13.81562986469419,-149.98158264160156,5356.25390625,True
1599561346.4168549,0.0,10,0.5,0.5,8.133387335586548,-0.1005,-0.02275,-0.12575,0.07313199666634052,10,1,100,-0.10059151739777245,-10,-1,-100,15023.621578088729,0.0009895867660539225,0.008050058041508299,0.9999671081008419,24.02818398624508,0.0229968690698197,-36.08727503197765,13.25851444664056,-154.585693359375,5356.25390625,True
1599561346.448771,0.0,10,0.5,0.5,7.94262967453003,-0.1005,-0.02275,-0.12575,0.08259246177511026,10,1,100,-0.0402590761697164,-10,-1,-100,15023.835445043747,0.0012819623247876896,0.007993016423605857,0.9999672335937061,23.84894540320314,0.02259187823132941,-35.31726772139221,13.072820893202014,-155.98257446289062,5356.25390625,True
1599561346.484719,0.0,10,0.5,0.5,8.421905015563965,-0.1005,-0.02275,-0.12575,0.07587157250597551,10,1,100,-0.07285179150910254,-10,-1,-100,15024.391108935117,0.0018388849733036547,0.007880512489092738,0.9999672574764459,23.476771474438408,0.021770423295747746,-33.78011870416678,12.701450894982495,-158.56942749023438,5356.25390625,True
1599561346.5176306,0.0,10,0.5,0.5,8.435804903030396,-0.1005,-0.02275,-0.12575,0.08248384896474809,10,1,100,-0.04661480996161542,-10,-1,-100,15024.604976646136,0.0021013650452882345,0.007838909000042376,0.9999670673430378,23.28872750906409,0.02136237676767802,-33.020483641612685,12.515773963827398,-159.75918579101562,5356.25390625,True
1599561346.5505424,0.0,10,0.5,0.5,8.845170077133178,-0.1005,-0.02275,-0.12575,0.07574155546818043,10,1,100,-0.0761722072279905,-10,-1,-100,15025.099118375685,0.0026034981900532293,0.0077404113643913105,0.9999666533585428,22.924314026428032,0.02057301232517384,-31.540942168425396,12.14443523331983,-161.93212890625,5356.25390625,True
1599561346.5824573,0.0,10,0.5,0.5,9.254308354949952,-0.1005,-0.02275,-0.12575,0.07182515843344299,10,1,100,-0.10188367061228121,-10,-1,-100,15025.80517577636,0.0032888043660704914,0.007615956080906053,0.9999655898973803,22.39183131707938,0.01945541537799715,-29.397490460850236,11.587460644087427,-164.67408752441406,5356.25390625,True
1599561346.6183543,0.0,10,0.5,0.5,8.968114795303345,-0.1005,-0.02275,-0.12575,0.08418659157415988,10,1,100,-0.03388612645109655,-10,-1,-100,15025.80517577636,0.0032888043660704914,0.007615956080906053,0.9999655898973803,22.39183131707938,0.01945541537799715,-29.397490460850236,11.587460644087427,-164.67408752441406,5356.25390625,True
1599561346.652264,0.0,10,0.5,0.5,9.4975572265625,-0.1005,-0.02275,-0.12575,0.07457319942815036,10,1,100,-0.10097516769083077,-10,-1,-100,15026.509281256702,0.0038945287155844163,0.007529259544220393,0.999964070802946,21.902528246971784,0.018449900020290545,-27.374951959535625,11.030519565978388,-166.7949981689453,5356.25390625,True
1599561346.6821833,0.0,10,0.5,0.5,9.405582329940797,-0.1005,-0.02275,-0.12575,0.08127376049804494,10,1,100,-0.061146627341550824,-10,-1,-100,15026.721196801751,0.0040790168211348905,0.007512062605040094,0.9999634646011777,21.75328838778671,0.018142881136782016,-26.73146875532512,10.844878761538885,-167.3638916015625,5356.25390625,True
1599561346.7156086,0.0,10,0.5,0.5,9.490553299713135,-0.1005,-0.02275,-0.12575,0.07986352655793832,10,1,100,-0.06257718541279163,-10,-1,-100,15026.934089366347,0.004255784906023558,0.007484285363967088,0.9999629361968494,21.61224099196814,0.01785033909419504,-26.104128486406896,10.659240510732639,-167.86404418945312,5356.25390625,True
1599561346.7517726,0.0,10,0.5,0.5,9.647743986892701,-0.1005,-0.02275,-0.12575,0.08020521401068487,10,1,100,-0.08116562319023922,-10,-1,-100,15027.358896652586,0.004581653546774163,0.007462797342800233,0.9999616568181989,21.357117271546336,0.017308366074927486,-24.898600775580295,10.287970703778853,-168.656982421875,5356.25390625,True
1599561346.783687,0.0,10,0.5,0.5,9.697025407028198,-0.1005,-0.02275,-0.12575,0.08116733536611564,10,1,100,-0.08110688221611374,-10,-1,-100,15027.725111163454,0.004874098241527463,0.007452543209242197,0.9999603505969856,21.141015336394837,0.01682184942482785,-23.75826955394983,9.9167082328553,-169.1740264892578,5356.25390625,True
1599561346.816599,0.0,10,0.5,0.5,9.697082690429687,-0.1005,-0.02275,-0.12575,0.08239430958412718,10,1,100,-0.06692899905856456,-10,-1,-100,15027.938980666688,0.005007801629946617,0.0074548669200026,0.9999596726278716,21.04854071534567,0.016598297634636088,-23.212054706559922,9.73107894281019,-169.32901000976562,5356.25390625,True
1599561346.849508,0.0,10,0.5,0.5,9.725353881072998,-0.1005,-0.02275,-0.12575,0.08487288740569898,10,1,100,-0.0802864130232471,-10,-1,-100,15028.303242173512,0.0052479003675914675,0.007479898860498247,0.999958254456039,20.89589121816563,0.016187674565944003,-22.165469820298572,9.359823186432237,-169.43191528320312,5356.25390625,True
1599561346.8864152,0.0,10,0.5,0.5,9.722639751434327,-0.1005,-0.02275,-0.12575,0.08441867204772639,10,1,100,-0.06836626509655752,-10,-1,-100,15028.514181519044,0.005354946479460242,0.007498852312366851,0.9999575449798854,20.83592371018498,0.015999252144614676,-21.66395763287772,9.174196164881046,-169.37985229492188,5356.25390625,True
1599561346.920322,0.0,10,0.5,0.5,9.675744729614259,-0.1005,-0.02275,-0.12575,0.08808508244366484,10,1,100,-0.07869611487703003,-10,-1,-100,15028.817895922344,0.005543667535263962,0.007549633325894136,0.9999561344313574,20.766090961537643,0.01566577868570566,-20.7184035289611,8.802942386190457,-169.06875610351562,5356.25390625,True
1599561346.9542298,0.0,10,0.5,0.5,9.592008046340943,-0.1005,-0.02275,-0.12575,0.09128749347903814,10,1,100,-0.07673788538468333,-10,-1,-100,15029.178251469391,0.005695380169546744,0.007624971004654164,0.9999547102053684,20.74570304771214,0.01537246523443122,-19.825867363897896,8.431687430130323,-168.48155212402344,5356.25390625,True
1599561346.9841206,0.0,10,0.5,0.5,9.358159324264529,-0.1005,-0.02275,-0.12575,0.09977526132855641,10,1,100,-0.07949099899512857,-10,-1,-100,15029.689975748886,0.005856141255531978,0.007770613134046402,0.9999526604700425,20.798173521719594,0.014992082234973024,-18.564211735241788,7.8747991508910005,-167.08331298828125,5356.25390625,True
1599561347.0210538,0.0,10,0.5,0.5,9.534643811798096,-0.1005,-0.02275,-0.12575,0.08523518374831522,10,1,100,-0.0636110516505999,-10,-1,-100,15029.689975748886,0.005856141255531978,0.007770613134046402,0.9999526604700425,20.798173521719594,0.014992082234973024,-18.564211735241788,7.8747991508910005,-167.08331298828125,5356.25390625,True
1599561347.0569623,0.0,10,0.5,0.5,8.893645082855224,-0.1005,-0.02275,-0.12575,0.11412578517333666,10,1,100,-0.07212664167096011,-10,-1,-100,15030.284708442749,0.005931940142594892,0.0080330199192475,0.9999501400955557,21.002507021927162,0.01457219224657163,-16.979983785573776,7.13226306431379,-164.25299072265625,5356.25390625,True
1599561347.0878758,0.0,10,0.5,0.5,9.042234951782227,-0.1005,-0.02275,-0.12575,0.09607976281039879,10,1,100,-0.06441509474481878,-10,-1,-100,15030.37260106462,0.005929219472199373,0.0081070179438079,0.9999495590361093,21.072936801697033,0.014480066280690694,-16.59372740460523,6.9466248256250696,-163.37295532226562,5356.25390625,True
1599561347.1227846,0.0,10,0.5,0.5,9.140878241729737,-0.1005,-0.02275,-0.12575,0.08874438241445963,10,1,100,-0.0648219183769132,-10,-1,-100,15030.37260106462,0.005929219472199373,0.0081070179438079,0.9999495590361093,21.072936801697033,0.014480066280690694,-16.59372740460523,6.9466248256250696,-163.37295532226562,5356.25390625,True
1599561347.1581411,0.0,10,0.5,0.5,8.4367303730011,-0.1005,-0.02275,-0.12575,0.11571426593954853,10,1,100,-0.05619646869260583,-10,-1,-100,15030.818894099095,0.005849847092132331,0.008351603726095466,0.9999480136508103,21.316302553899177,0.014231236878967825,-15.440275455057712,6.389698824680902,-160.31903076171875,5356.25390625,True
1599561347.1910627,0.0,10,0.5,0.5,8.538744976425171,-0.1005,-0.02275,-0.12575,0.10091123143205165,10,1,100,-0.0591449215502273,-10,-1,-100,15030.908739068778,0.005803729003993229,0.00843856618101047,0.9999475522898473,21.404433339866767,0.014157069921971839,-15.053850415643929,6.204052969426511,-159.16314697265625,5356.25390625,True
1599561347.221944,0.0,10,0.5,0.5,8.09088529853821,-0.1005,-0.02275,-0.12575,0.11238030625467452,10,1,100,-0.050435168976230224,-10,-1,-100,15031.138233560836,0.005682118601706434,0.008621015759029307,0.9999466943869951,21.583708571663962,0.014021187316311228,-14.271806286344745,5.832755678948152,-156.64447021484375,5356.25390625,True
1599561347.2558858,0.0,10,0.5,0.5,8.070328163528442,-0.1005,-0.02275,-0.12575,0.1040725364488108,10,1,100,-0.05366959320790324,-10,-1,-100,15031.285695425817,0.005600670117986151,0.008710333683132523,0.999946379853119,21.672026537285834,0.01395916996524536,-13.874252303111108,5.647104414384568,-155.2817840576172,5356.25390625,True
1599561347.2858067,0.0,10,0.5,0.5,7.191833094787598,-0.1005,-0.02275,-0.12575,0.12562319569533406,10,1,100,-0.02857326479715985,-10,-1,-100,15031.605033345753,0.005298425781249388,0.008986391697869987,0.9999455842437094,21.91226940263676,0.013796954778329585,-12.644922773154207,5.090141030048471,-150.78018188476562,5356.25390625,True
1599561347.3206809,0.0,10,0.5,0.5,6.960701237106323,-0.1005,-0.02275,-0.12575,0.11803611834665817,10,1,100,-0.030542760886844822,-10,-1,-100,15031.773979458143,0.005041923579929737,0.009167142443831341,0.9999452697553146,22.032582919150965,0.013706703270547483,-11.787118403300534,4.7188253093887305,-147.43460083007812,5356.25390625,True
1599561347.3565848,0.0,10,0.5,0.5,6.934887013626099,-0.1005,-0.02275,-0.12575,0.10910935406675198,10,1,100,-0.040164897922295856,-10,-1,-100,15031.860893737176,0.004896953931484703,0.009249039329151802,0.9999452360572956,22.074277777173858,0.013665205400365959,-11.344907614963976,4.533165806053878,-145.65859985351562,5356.25390625,True
1599561347.3924878,0.0,10,0.5,0.5,6.259082959365846,-0.1005,-0.02275,-0.12575,0.11840298581952172,10,1,100,-0.019190127497475118,-10,-1,-100,15032.02886263805,0.004575355599330889,0.009406634580654577,0.9999452891768659,22.108751070824887,0.013583469208439714,-10.432095091297283,4.161842975417799,-141.8999481201172,5356.25390625,True
1599561347.4323869,0.0,10,0.5,0.5,6.232319318389893,-0.1005,-0.02275,-0.12575,0.11083558803890614,10,1,100,-0.03182333066584733,-10,-1,-100,15032.116752931615,0.00439907403939741,0.009479859725232043,0.9999453887123965,22.096153526898327,0.013539561852116369,-9.961129092653504,3.9761796424873275,-139.9173583984375,5356.25390625,True
1599561347.4712791,0.0,10,0.5,0.5,5.9641273338317875,-0.1005,-0.02275,-0.12575,0.11142314616832524,10,1,100,-0.02880865426238643,-10,-1,-100,15032.201713675866,0.004212802968001695,0.009550521438041346,0.9999455184315865,22.06007304726995,0.013490396100413913,-9.480586010396914,3.7905146704543955,-137.86590576171875,5356.25390625,True
1599561347.5141654,0.0,10,0.5,0.5,5.189125346374512,-0.1005,-0.02275,-0.12575,0.11702274336054264,10,1,100,-0.003318790795659124,-10,-1,-100,15032.366751284571,0.003813299977493704,0.009664352511893385,0.9999460280604185,21.90790775838236,0.013367499875513666,-8.492993428509553,3.419178736549245,-133.5567626953125,5356.25390625,True
1599561347.5510635,0.0,10,0.5,0.5,3.533407419586182,-0.1005,-0.02275,-0.12575,0.12330840313775843,10,1,100,0.056923301027530473,-10,-1,-100,15032.579637807794,0.0029043114669252963,0.009823784259928293,0.9999475277421898,21.231272261810233,0.012966472998709025,-6.443048392245047,2.6764710837899868,-124.11274719238281,5356.25390625,True
1599561347.5929859,0.0,10,0.5,0.5,4.068191453170776,-0.1005,-0.02275,-0.12575,0.10932806640460227,10,1,100,-0.006920885553462035,-10,-1,-100,15032.59819132858,0.0026609958058149193,0.009840368953223228,0.999948041770264,20.973168386379275,0.012820600280891973,-5.923199118694948,2.4907840414354316,-121.57987976074219,5356.25390625,True
1599561347.6347282,0.0,10,0.5,0.5,2.494443658828736,-0.1005,-0.02275,-0.12575,0.10612907168379855,10,1,100,0.05122486980205071,-10,-1,-100,15032.724163366482,0.0019139484495698167,0.009825255674034777,0.9999498993210971,19.929742042921635,0.012217083386706901,-4.3697283884150355,1.9336910232898146,-113.56890106201172,5356.25390625,True
1599561347.673624,0.0,10,0.5,0.5,2.771640165138245,-0.1005,-0.02275,-0.12575,0.10568343198097668,10,1,100,0.006145308009470236,-10,-1,-100,15032.8091225049,0.0016479802526144698,0.009806451493846076,0.999950557612818,19.506211304578603,0.011965120283938651,-3.8661477645400453,1.7479817901652681,-110.76100158691406,5356.25390625,True
1599561347.7143319,0.0,10,0.5,0.5,2.382865551948547,-0.1005,-0.02275,-0.12575,0.10406707594932114,10,1,100,0.00924157537975244,-10,-1,-100,15032.826698542922,0.0013813616843148934,0.009773917129935864,0.9999512800050983,19.079232539696857,0.011704225488757877,-3.3797711541991675,1.5622658214630212,-107.88442993164062,5356.25390625,True
1599561347.7532544,0.0,10,0.5,0.5,1.3063509778976439,-0.1005,-0.02275,-0.12575,0.09563508057256516,10,1,100,0.039054407826745574,-10,-1,-100,15032.868686516886,0.0008712832017022635,0.009667134318695977,0.999952892580269,18.11148945024755,0.011088184226970495,-2.4455401577723723,1.1908134642205805,-101.92523956298828,5356.25390625,True
1599561347.7891643,0.0,10,0.5,0.5,0.5457502128601074,-0.1005,-0.02275,-0.12575,0.09027771868919698,10,1,100,0.04680468939958931,-10,-1,-100,15032.912627303158,0.0003407780856920046,0.009520975659547692,0.9999546164165584,17.023357063774814,0.010392299601486464,-1.5815826788073672,0.8193407907045702,-95.69109344482422,5356.25390625,True
1599561348.0532544,0.0,10,0.5,0.5,-0.2480911886215209,-0.1005,-0.02275,-0.12575,0.08392407133725961,10,1,100,0.051400987542016253,-10,-1,-100,15032.94973197335,-0.0001794342051451676,0.009330239774323554,0.9999564562665315,15.791260936048245,0.009627161904669076,-0.8019500297809246,0.44786101827774694,-89.18209838867188,5356.25390625,True
1599561348.086168,0.0,10,0.5,0.5,-0.3046728082656861,-0.1005,-0.02275,-0.12575,0.09091774993435897,10,1,100,0.02746734231324281,-10,-1,-100,15032.908713829354,-0.000430613596331436,0.00922055842950334,0.9999573970295828,15.418421954898525,0.009396565721562623,-0.4582820399433054,0.2621217726252092,-85.824462890625,5356.25390625,True
1599561348.119077,0.0,10,0.5,0.5,-2.3512538202285764,-0.1005,-0.02275,-0.12575,0.05976456595924704,10,1,100,0.083500518889086,-10,-1,-100,15032.903823337983,-0.0011641297239499515,0.008837937318991707,0.9999602670436119,17.44417190585754,0.010648585313209578,0.5837221905438996,-0.2950916453987684,-75.4359130859375,5356.25390625,True
1599561348.1560364,0.0,10,0.5,0.5,-1.963801354408264,-0.1005,-0.02275,-0.12575,0.08179140762023107,10,1,100,0.03685319851713139,-10,-1,-100,15032.923351811129,-0.0014023710823113386,0.00869109524743817,0.9999612483585288,18.05662080264881,0.011035867941913365,0.9845325364444548,-0.480829579071679,-71.9588623046875,5356.25390625,True
1599561348.2049096,0.0,10,0.5,0.5,-1.6452123067855835,-0.1005,-0.02275,-0.12575,0.09636234587433574,10,1,100,0.013459730935916339,-10,-1,-100,15032.923351811129,-0.0014023710823113386,0.00869109524743817,0.9999612483585288,18.05662080264881,0.011035867941913365,0.9845325364444548,-0.480829579071679,-71.9588623046875,5356.25390625,True
1599561348.2398155,0.0,10,0.5,0.5,-3.3133341150283817,-0.1005,-0.02275,-0.12575,0.0625902412690838,10,1,100,0.06287608318579666,-10,-1,-100,15032.897956218221,-0.001847916678321045,0.008385120908941139,0.9999631367961983,19.071784134475354,0.011670501827532733,1.8433176914783125,-0.8523124181628854,-65.08489990234375,5356.25390625,True
1599561348.2737253,0.0,10,0.5,0.5,-5.502486780166626,-0.1005,-0.02275,-0.12575,0.015078240728232384,10,1,100,0.10899585768933474,-10,-1,-100,15032.786617476377,-0.0026688089291548598,0.007676344355177092,0.9999669750527966,20.26090094254656,0.012384462019601401,3.665517007410236,-1.5953225937132327,-52.0760498046875,5356.25390625,True
1599561348.308632,0.0,10,0.5,0.5,-4.000132145690918,-0.1005,-0.02275,-0.12575,0.08574288539077018,10,1,100,0.027338311524130195,-10,-1,-100,15032.786617476377,-0.0026688089291548598,0.007676344355177092,0.9999669750527966,20.26090094254656,0.012384462019601401,3.665517007410236,-1.5953225937132327,-52.0760498046875,5356.25390625,True
1599561348.3375552,0.0,10,0.5,0.5,-6.172280765533448,-0.1005,-0.02275,-0.12575,0.02610451187394708,10,1,100,0.0855378153016028,-10,-1,-100,15032.654775036382,-0.003194213353846911,0.007136084207546662,0.999969436184543,20.513201790121602,0.012546473142986039,5.00776092267139,-2.1526155752079466,-43.03656005859375,5356.25390625,True
1599561348.3704672,0.0,10,0.5,0.5,-5.820102090263366,-0.1005,-0.02275,-0.12575,0.06036543400727639,10,1,100,0.05116342720315109,-10,-1,-100,15032.611803980428,-0.003355663396712352,0.006958702501923038,0.9999701575460429,20.50775983353419,0.012552038756798863,5.4385547028445576,-2.3383848240458915,-40.1611328125,5356.25390625,True
1599561348.404189,0.0,10,0.5,0.5,-6.219732837677002,-0.1005,-0.02275,-0.12575,0.05577171477538638,10,1,100,0.052164760385943656,-10,-1,-100,15032.56590360729,-0.003508178790540499,0.006758014661209492,0.999971010539512,20.45475867184152,0.01253276340989221,5.8555217533506205,-2.5241555632146637,-37.355010986328125,5356.25390625,True
1599561348.4361053,0.0,10,0.5,0.5,-7.207940608978272,-0.1005,-0.02275,-0.12575,0.03690994990486361,10,1,100,0.06857173079424575,-10,-1,-100,15032.477032754454,-0.0037929572935639293,0.006406438966386166,0.9999722851233124,20.218829205499652,0.012429890821297128,6.640133830283495,-2.895699707851184,-31.94873046875,5356.25390625,True
1599561348.4720094,0.0,10,0.5,0.5,-8.368429546356202,-0.1005,-0.02275,-0.12575,0.012676114140849654,10,1,100,0.08074204011534297,-10,-1,-100,15032.28171563719,-0.004159429341324993,0.0058690753909313035,0.9999741262160787,19.600727479160966,0.012155201693674476,7.676399248577677,-3.453016243678787,-24.356414794921875,5356.25390625,True
1599561348.5059257,0.0,10,0.5,0.5,-8.07134679260254,-0.1005,-0.02275,-0.12575,0.047739481316135444,10,1,100,0.05663278713607728,-10,-1,-100,15032.17429222539,-0.004270687721644112,0.005702019898409536,0.9999746237757549,19.343886504699363,0.012041506910233212,7.983512096538241,-3.638787971132911,-21.963287353515625,5356.25390625,True
1599561348.5358453,0.0,10,0.5,0.5,-8.920283152008057,-0.1005,-0.02275,-0.12575,0.02848373721170528,10,1,100,0.06850531353725724,-10,-1,-100,15032.020969545934,-0.004477156201363736,0.005377816390939499,0.999975516781893,18.919507383681648,0.011878103211109815,8.60592506265965,-4.010331322938818,-17.383697509765625,5356.25390625,True
1599561348.5707529,0.0,10,0.5,0.5,-8.468558229064943,-0.1005,-0.02275,-0.12575,0.0605727600730591,10,1,100,0.04816594407720008,-10,-1,-100,15032.020969545934,-0.004477156201363736,0.005377816390939499,0.999975516781893,18.919507383681648,0.011878103211109815,8.60592506265965,-4.010331322938818,-17.383697509765625,5356.25390625,True
1599561348.6041753,0.0,10,0.5,0.5,-9.550875919342042,-0.1005,-0.02275,-0.12575,0.02594719130192186,10,1,100,0.06852776849964032,-10,-1,-100,15031.866670844262,-0.004659873478364972,0.005065772406218253,0.9999763114839741,18.4260479365351,0.011675639887835806,9.15829151783144,-4.381876696170444,-13.079620361328125,5356.25390625,True
1599561348.6340952,0.0,10,0.5,0.5,-10.009852325439455,-0.1005,-0.02275,-0.12575,0.025117827189908005,10,1,100,0.06887170158701744,-10,-1,-100,15031.650848936522,-0.004827296699570242,0.0047769296299524115,0.9999769388090332,17.86912640598168,0.011425533608398241,9.634910837468166,-4.753427775055225,-9.0509033203125,5356.25390625,True
1599561348.6680043,0.0,10,0.5,0.5,-10.450278944396974,-0.1005,-0.02275,-0.12575,0.023031092254339643,10,1,100,0.06756388420336608,-10,-1,-100,15031.49557379086,-0.004965648117386916,0.0044980108018648655,0.9999775548669083,17.307906768171236,0.011149168730803433,10.062157103251373,-5.124988039242585,-5.2977294921875,5356.25390625,True
1599561348.7044199,0.0,10,0.5,0.5,-10.465399600219728,-0.1005,-0.02275,-0.12575,0.03678889474882857,10,1,100,0.06168692380332179,-10,-1,-100,15031.392057612771,-0.005036384825616635,0.004371917411194888,0.9999777603357177,17.05365577898195,0.011014426160547467,10.273947147176843,-5.310772280155133,-3.52435302734375,5356.25390625,True
1599561348.740324,0.0,10,0.5,0.5,-11.081454878234865,-0.1005,-0.02275,-0.12575,0.022631650000071453,10,1,100,0.06872622119936636,-10,-1,-100,15031.110806231503,-0.005163156608126871,0.0041309364538614154,0.9999781383499613,16.544687913620805,0.010710218237782627,10.665135931579332,-5.682349734077703,-0.1842041015625,5356.25390625,True
1599561348.7752306,0.0,10,0.5,0.5,-11.100477005767823,-0.1005,-0.02275,-0.12575,0.03403594074972459,10,1,100,0.06264398506842213,-10,-1,-100,15031.004360517021,-0.005221606102111606,0.004017926479652694,0.9999782953127125,16.293627886771418,0.010540835375084672,10.846948615979016,-5.868142901700864,1.382568359375,5356.25390625,True
1599561348.8111358,0.0,10,0.5,0.5,-11.641518265533449,-0.1005,-0.02275,-0.12575,0.021881527195031586,10,1,100,0.068345659469667,-10,-1,-100,15030.784633288393,-0.005325276637737638,0.0038068668457718596,0.9999785743672461,17.017686860727995,0.010954618478350043,12.046900135245696,-6.23973314204379,4.3095703125,5356.25390625,True
1599561348.8510282,0.0,10,0.5,0.5,-11.938596853637696,-0.1005,-0.02275,-0.12575,0.022410225957702284,10,1,100,0.06926204733608293,-10,-1,-100,15030.501430052682,-0.005426793516822892,0.003621675538763707,0.9999787164627144,17.702665806549593,0.011291723308232478,13.27875134054731,-6.611326673600733,6.961212158203125,5356.25390625,True
1599561348.885975,0.0,10,0.5,0.5,-12.208569157409668,-0.1005,-0.02275,-0.12575,0.02265162594193202,10,1,100,0.0689744420095196,-10,-1,-100,15030.224085975671,-0.005515415989572384,0.0034574055725762436,0.9999788130421408,18.303965335648687,0.01152942527313394,14.502235090375805,-6.982921314512405,9.33740234375,5356.25390625,True
1599561348.9178498,0.0,10,0.5,0.5,-12.660171587371828,-0.1005,-0.02275,-0.12575,0.016958337360957886,10,1,100,0.07451900162508422,-10,-1,-100,15029.769007659866,-0.005645443088769593,0.003258057898777297,0.9999787567898928,19.068088823446466,0.011726493215174731,16.314947561903868,-7.540311843071121,12.38543701171875,5356.25390625,True
1599561348.9527562,0.0,10,0.5,0.5,-12.344606008911134,-0.1005,-0.02275,-0.12575,0.03668112889163633,10,1,100,0.0616331203941039,-10,-1,-100,15029.769007659866,-0.005645443088769593,0.003258057898777297,0.9999787567898928,19.068088823446466,0.011726493215174731,16.314947561903868,-7.540311843071121,12.38543701171875,5356.25390625,True
1599561348.9886599,0.0,10,0.5,0.5,-12.784398030853271,-0.1005,-0.02275,-0.12575,0.025223156825588622,10,1,100,0.07074863391768349,-10,-1,-100,15029.486781614134,-0.0057274154211563125,0.0031555378931836277,0.9999786194180345,19.496406307035077,0.01176761447233532,17.504542895740496,-7.911902673054531,14.073211669921875,5356.25390625,True
1599561349.0185797,0.0,10,0.5,0.5,-13.080747648620607,-0.1005,-0.02275,-0.12575,0.023606323757846093,10,1,100,0.07582329568984258,-10,-1,-100,15028.971157796332,-0.005847250722416971,0.0030491133981524225,0.9999782560468374,20.033441077620708,0.0117177921943104,19.255679772854386,-8.469281620570584,16.088592529296875,5356.25390625,True
1599561349.0534868,0.0,10,0.5,0.5,-13.102086200714112,-0.1005,-0.02275,-0.12575,0.029740493870892566,10,1,100,0.07246942740477838,-10,-1,-100,15028.621548958938,-0.00592490073678514,0.0030094462195187606,0.9999779191485735,20.329463863729632,0.011621841581365143,20.39888483947901,-8.840861939968843,17.0880126953125,5356.25390625,True
1599561349.0943773,0.0,10,0.5,0.5,-13.02330224685669,-0.1005,-0.02275,-0.12575,0.03357096461509114,10,1,100,0.06479327755907831,-10,-1,-100,15028.621548958938,-0.00592490073678514,0.0030094462195187606,0.9999779191485735,20.329463863729632,0.011621841581365143,20.39888483947901,-8.840861939968843,17.0880126953125,5356.25390625,True
1599561349.1292844,0.0,10,0.5,0.5,-13.226422032928468,-0.1005,-0.02275,-0.12575,0.032180276932009325,10,1,100,0.07360351440894396,-10,-1,-100,15028.277800180134,-0.0060043013043942295,0.002997823140794692,0.9999774804575664,20.581249944368306,0.011483351186657912,21.521003658895875,-9.212437185176944,17.812103271484375,5356.25390625,True
1599561349.1602018,0.0,10,0.5,0.5,-13.274273555755617,-0.1005,-0.02275,-0.12575,0.03471571748320433,10,1,100,0.0740175967930579,-10,-1,-100,15027.867645282298,-0.006079536482801453,0.0030112335318190006,0.9999769855895541,20.792201238328467,0.01130744885864915,22.620142022657483,-9.584007076029843,18.260848999023438,5356.25390625,True
1599561349.1931136,0.0,10,0.5,0.5,-13.276983852767946,-0.1005,-0.02275,-0.12575,0.03501945689714992,10,1,100,0.07057713812400128,-10,-1,-100,15027.692841226119,-0.006115969511775629,0.0030269093667987437,0.999976716097238,20.883140266274097,0.011206748335472276,23.160341029775932,-9.769790141582824,18.3819580078125,5356.25390625,True
1599561349.230015,0.0,10,0.5,0.5,-13.295832237625124,-0.1005,-0.02275,-0.12575,0.03923416406873162,10,1,100,0.07510374028379778,-10,-1,-100,15027.284639785066,-0.006189614852300346,0.0030800163421328573,0.9999761007980703,21.036736203658606,0.010981822533910175,24.219844324272813,-10.141352307540043,18.417739868164062,5356.25390625,True
1599561349.261931,0.0,10,0.5,0.5,-13.20734774017334,-0.1005,-0.02275,-0.12575,0.04830991550246578,10,1,100,0.07939684060087106,-10,-1,-100,15026.637181526516,-0.006294980438511911,0.003211145322952765,0.9999750305717605,21.196684157958792,0.01059030438304364,25.74823407596824,-10.698686570609317,17.955230712890625,5356.25390625,True
1599561349.2968357,0.0,10,0.5,0.5,-13.278179547119143,-0.1005,-0.02275,-0.12575,0.03519232616289254,10,1,100,0.06892523571468878,-10,-1,-100,15026.637181526516,-0.006294980438511911,0.003211145322952765,0.9999750305717605,21.196684157958792,0.01059030438304364,25.74823407596824,-10.698686570609317,17.955230712890625,5356.25390625,True
1599561349.3327405,0.0,10,0.5,0.5,-13.143237340545655,-0.1005,-0.02275,-0.12575,0.04859889457712407,10,1,100,0.07623262586129606,-10,-1,-100,15026.22507417854,-0.006360820769526757,0.0033330658654238013,0.9999742149831038,21.25502837968669,0.010296533280176786,26.71798741468275,-11.070237361090697,17.30279541015625,5356.25390625,True
1599561349.3676472,0.0,10,0.5,0.5,-13.022749194335937,-0.1005,-0.02275,-0.12575,0.05332715651525082,10,1,100,0.07614008453754077,-10,-1,-100,15025.753397236462,-0.006419258508098505,0.0034867255325874954,0.9999733175766575,21.27210894192648,0.009979394277632643,27.639277691762068,-11.44178488566438,16.375152587890625,5356.25390625,True
1599561349.4035509,0.0,10,0.5,0.5,-12.708459338378907,-0.1005,-0.02275,-0.12575,0.06862035336857226,10,1,100,0.07920698306637794,-10,-1,-100,15025.041487282957,-0.006499744613620721,0.003765047372189744,0.9999717884711762,21.24002679033723,0.009479628732999776,28.945717814061748,-11.999102124618492,14.467559814453125,5356.25390625,True
1599561349.4384573,0.0,10,0.5,0.5,-12.942377599334717,-0.1005,-0.02275,-0.12575,0.0408637295236145,10,1,100,0.07121585690183987,-10,-1,-100,15025.041487282957,-0.006499744613620721,0.003765047372189744,0.9999717884711762,21.24002679033723,0.009479628732999776,28.945717814061748,-11.999102124618492,14.467559814453125,5356.25390625,True
1599561349.4743617,0.0,10,0.5,0.5,-12.143042770385742,-0.1005,-0.02275,-0.12575,0.09375822238707021,10,1,100,0.07840030199249315,-10,-1,-100,15024.091297852225,-0.0065645351654659,0.004245219488082368,0.9999694420278847,21.051986993923407,0.008786945657519508,30.471905142362573,-12.74218817698362,10.9609375,5356.25390625,True
1599561349.5102656,0.0,10,0.5,0.5,-12.568414124298096,-0.1005,-0.02275,-0.12575,0.04586575043253661,10,1,100,0.07197727019408239,-10,-1,-100,15024.091297852225,-0.0065645351654659,0.004245219488082368,0.9999694420278847,21.051986993923407,0.008786945657519508,30.471905142362573,-12.74218817698362,10.9609375,5356.25390625,True
1599561349.543178,0.0,10,0.5,0.5,-12.061725076675415,-0.1005,-0.02275,-0.12575,0.0767914655912048,10,1,100,0.07433227326002381,-10,-1,-100,15023.552238727454,-0.006585503376353855,0.0045252405477463845,0.9999680761620668,20.870960382823515,0.008441073928374366,31.09382667218814,-13.113731735550537,8.794830322265625,5356.25390625,True
1599561349.5842526,0.0,10,0.5,0.5,-11.759975602340699,-0.1005,-0.02275,-0.12575,0.08369832866918807,10,1,100,0.0703907207696273,-10,-1,-100,15023.016109623248,-0.0065683062419169555,0.004841232692530841,0.9999667093554311,20.622163449274595,0.008109669563322621,31.59684917419419,-13.485276880469833,6.353607177734375,5356.25390625,True
1599561349.6221774,0.0,10,0.5,0.5,-11.739998778533936,-0.1005,-0.02275,-0.12575,0.07045307378048224,10,1,100,0.07171935436150564,-10,-1,-100,15022.711424241075,-0.006564406705637199,0.005006485764846295,0.9999659212517643,20.47015221307467,0.007953582106782896,31.797664677449365,-13.671050134016461,5.02978515625,5356.25390625,True
1599561349.6580517,0.0,10,0.5,0.5,-11.231345625305176,-0.1005,-0.02275,-0.12575,0.0931839322759247,10,1,100,0.06753662753296467,-10,-1,-100,15022.17334258894,-0.006522591950335116,0.005361727871053555,0.9999643531988959,20.105440734247406,0.0076696465353134555,32.08332849148017,-14.042598178850472,2.17578125,5356.25390625,True
1599561349.695463,0.0,10,0.5,0.5,-10.846354283905029,-0.1005,-0.02275,-0.12575,0.09962307371018635,10,1,100,0.06418331069242267,-10,-1,-100,15021.631354841636,-0.006453886918317546,0.005741257814691533,0.9999626919552304,19.653093192536325,0.007435931285778602,32.19477416178668,-14.414148080657771,-0.95343017578125,5356.25390625,True
1599561349.7353861,0.0,10,0.5,0.5,-9.595561338043211,-0.1005,-0.02275,-0.12575,0.15311482404171578,10,1,100,0.04657266433612763,-10,-1,-100,15020.42726292531,-0.006231246407654536,0.006570384410149718,0.9999589999679536,20.71714202506015,0.008018139591231438,35.69539277577943,-15.157217172655443,-8.037445068359375,5356.25390625,True
1599561349.7722588,0.0,10,0.5,0.5,-9.536035648345948,-0.1005,-0.02275,-0.12575,0.11909730844961768,10,1,100,0.05057606302576523,-10,-1,-100,15019.825706074713,-0.006065411397048909,0.007012082392567575,0.9999570198189042,21.481359293979423,0.008558946692867088,37.92365453259781,-15.528719915310106,-11.99237060546875,5356.25390625,True
1599561349.8091643,0.0,10,0.5,0.5,-9.502394711303712,-0.1005,-0.02275,-0.12575,0.09942905834219093,10,1,100,0.05523124554561441,-10,-1,-100,15019.461450592615,-0.005957366985966579,0.00723187188922504,0.9999561039403542,21.887856839070267,0.00887796440045966,39.105751321373134,-15.71446126122108,-14.073150634765625,5356.25390625,True
1599561349.8470647,0.0,10,0.5,0.5,-8.710846278381348,-0.1005,-0.02275,-0.12575,0.12732945571689902,10,1,100,0.039674295139740995,-10,-1,-100,15018.855010414845,-0.005718211042772569,0.0076821688400318675,0.9999541421207193,22.66836483159436,0.00957059468914958,41.4624038709335,-16.08592249277417,-18.44122314453125,5356.25390625,True
1599561349.8849616,0.0,10,0.5,0.5,-8.142651042175295,-0.1005,-0.02275,-0.12575,0.1329233413658351,10,1,100,0.03259270905940741,-10,-1,-100,15018.18900024856,-0.005437187879250158,0.008139258710890267,0.999952093580289,23.386122908416798,0.010304199673149423,43.768017632110485,-16.457352760992663,-23.084716796875,5356.25390625,True
1599561350.1717427,0.0,10,0.5,0.5,-8.64911650543213,-0.1005,-0.02275,-0.12575,0.08760375820227598,10,1,100,0.060582290683026924,-10,-1,-100,15018.18900024856,-0.005437187879250158,0.008139258710890267,0.999952093580289,23.386122908416798,0.010304199673149423,43.768017632110485,-16.457352760992663,-23.084716796875,5356.25390625,True
1599561350.2056513,0.0,10,0.5,0.5,-7.463637731170655,-0.1005,-0.02275,-0.12575,0.1370125273614924,10,1,100,0.023431190184576803,-10,-1,-100,15017.520060579525,-0.005100494525170706,0.008585143868553012,0.9999501388871121,24.052622064400868,0.011045685113253245,46.03658117781821,-16.8287511782855,-28.00384521484375,5356.25390625,True
1599561350.2435508,0.0,10,0.5,0.5,-5.591117456054688,-0.1005,-0.02275,-0.12575,0.18898094876956356,10,1,100,-0.031403490528599316,-10,-1,-100,15016.12456310587,-0.00429724693472119,0.009459530650887045,0.9999460240176202,25.160293826183388,0.012326044763035239,50.29343265159578,-17.57145479341897,-38.66876220703125,5356.25390625,True
1599561350.3313236,0.0,10,0.5,0.5,-5.532735243225098,-0.1005,-0.02275,-0.12575,0.14543411337028173,10,1,100,-0.003249667067294508,-10,-1,-100,15015.393123190268,-0.00382502675647978,0.009854499181300838,0.9999441274472279,25.488143180196296,0.012709682151013063,52.03131583382157,-17.942768644671986,-44.41497802734375,5356.25390625,True
1599561350.3861766,0.0,10,0.5,0.5,-6.149327905273438,-0.1005,-0.02275,-0.12575,0.1063865374599271,10,1,100,0.04370259423746101,-10,-1,-100,15015.393123190268,-0.00382502675647978,0.009854499181300838,0.9999441274472279,25.488143180196296,0.012709682151013063,52.03131583382157,-17.942768644671986,-44.41497802734375,5356.25390625,True
1599561350.4186013,0.0,10,0.5,0.5,-3.2629614669799807,-0.1005,-0.02275,-0.12575,0.1799008164740166,10,1,100,-0.07197134119703288,-10,-1,-100,15013.931218527607,-0.002775835398131506,0.01051907149836837,0.9999408201852021,25.580406441599585,0.012744751085339491,54.39339000731617,-18.685358007730684,-56.735382080078125,5356.25390625,True
1599561350.4485214,0.0,10,0.5,0.5,-3.9656065063476564,-0.1005,-0.02275,-0.12575,0.13043474828055235,10,1,100,0.0009674846773877026,-10,-1,-100,15013.56305630505,-0.0024882465903182834,0.010669946905681708,0.9999399786296855,25.49237884435661,0.012600481617601026,54.74801592636625,-18.871003900728002,-59.98779296875,5356.25390625,True
1599561350.481435,0.0,10,0.5,0.5,-2.7467541778564457,-0.1005,-0.02275,-0.12575,0.14163335066372215,10,1,100,-0.034498819371003686,-10,-1,-100,15012.832591058104,-0.0019076332416906416,0.010905586511710728,0.9999387126810577,25.13148191009164,0.012128500589365746,55.04159701958676,-19.242302039479735,-66.7000732421875,5356.25390625,True
1599561350.5130882,0.0,10,0.5,0.5,-2.6883845802307134,-0.1005,-0.02275,-0.12575,0.130118695972188,10,1,100,-0.00999749727874815,-10,-1,-100,15012.403881779872,-0.0016062237926353594,0.01101178591579363,0.9999380783908934,24.85406349364583,0.011815876530696675,54.962653024071,-19.427956837880274,-70.15957641601562,5356.25390625,True
1599561350.5479946,0.0,10,0.5,0.5,-3.0057578506469724,-0.1005,-0.02275,-0.12575,0.11983171727147397,10,1,100,0.01973224890176635,-10,-1,-100,15012.403881779872,-0.0016062237926353594,0.01101178591579363,0.9999380783908934,24.85406349364583,0.011815876530696675,54.962653024071,-19.427956837880274,-70.15957641601562,5356.25390625,True
1599561350.5829012,0.0,10,0.5,0.5,-1.2863620155334474,-0.1005,-0.02275,-0.12575,0.13854293660966852,10,1,100,-0.047576237486303755,-10,-1,-100,15011.607009607367,-0.0009978111564589174,0.011179276521409123,0.9999370120909387,24.09563910361058,0.011091822685807017,54.31094586308116,-19.79928253689885,-77.2857666015625,5356.25390625,True
1599561350.6107967,0.0,10,0.5,0.5,0.4763487312316894,-0.1005,-0.02275,-0.12575,0.13885572956515918,10,1,100,-0.08971935505787004,-10,-1,-100,15010.444903536467,-6.562530630499586e-05,0.011331620628099923,0.9999357929723588,22.46444394804878,0.00997526220873113,52.069453657889326,-20.35631874023217,-88.49249267578125,5356.25390625,True
1599561350.6457057,0.0,10,0.5,0.5,-0.7952853996276855,-0.1005,-0.02275,-0.12575,0.1238959665720338,10,1,100,0.00299574303563554,-10,-1,-100,15010.444903536467,-6.562530630499586e-05,0.011331620628099923,0.9999357929723588,22.46444394804878,0.00997526220873113,52.069453657889326,-20.35631874023217,-88.49249267578125,5356.25390625,True
1599561350.68061,0.0,10,0.5,0.5,1.0864771690368653,-0.1005,-0.02275,-0.12575,0.12755372920910785,10,1,100,-0.06465336833434339,-10,-1,-100,15009.58357655257,0.0005455196864871616,0.011363171115730403,0.99993528828143,21.44912481564695,0.009534728877621294,50.6301932627005,-20.727701934285335,-96.30868530273438,5356.25390625,True
1599561350.7115283,0.0,10,0.5,0.5,2.901572025680542,-0.1005,-0.02275,-0.12575,0.11978782472917761,10,1,100,-0.09993615209740334,-10,-1,-100,15008.357015052577,0.0014178853991960614,0.011319882725636537,0.999934922810516,23.836734716076517,0.011071300551406864,57.790303851726755,-21.284708475638276,-108.15364837646484,5356.25390625,True
1599561350.7448711,0.0,10,0.5,0.5,1.5570733942031862,-0.1005,-0.02275,-0.12575,0.12426320209299777,10,1,100,-0.01322387204208093,-10,-1,-100,15008.357015052577,0.0014178853991960614,0.011319882725636537,0.999934922810516,23.836734716076517,0.011071300551406864,57.790303851726755,-21.284708475638276,-108.15364837646484,5356.25390625,True
1599561350.7777834,0.0,10,0.5,0.5,4.369297609710694,-0.1005,-0.02275,-0.12575,0.10895776539699545,10,1,100,-0.10188631008104922,-10,-1,-100,15007.004475690075,0.002220095089734566,0.011180014381829908,0.9999350371180193,25.546609493590136,0.012582345745510063,63.56936087391262,-21.841603657448324,-120.06634521484375,5356.25390625,True
1599561350.8057413,0.0,10,0.5,0.5,3.8829265743255617,-0.1005,-0.02275,-0.12575,0.11632601286891017,10,1,100,-0.04901470402456107,-10,-1,-100,15006.575764393783,0.0024644453518196303,0.011119381712226609,0.9999351408263666,25.9480361589217,0.012993715282445202,65.12134518187557,-22.02721360081803,-123.93362426757812,5356.25390625,True
1599561350.8485937,0.0,10,0.5,0.5,4.386901221084595,-0.1005,-0.02275,-0.12575,0.11360857620682172,10,1,100,-0.052378833046191856,-10,-1,-100,15006.144123160862,0.0027131903279176864,0.01103936277456779,0.9999353834462384,26.358379481666883,0.013380746178672484,66.71303071626018,-22.21281427805423,-127.73507690429688,5356.25390625,True
1599561350.8825035,0.0,10,0.5,0.5,5.713811441421509,-0.1005,-0.02275,-0.12575,0.10366643081911914,10,1,100,-0.07650930144577195,-10,-1,-100,15005.218340670923,0.003154763278802508,0.010876210076027229,0.9999358757055558,26.937319684361327,0.01390322082938753,69.32685720407811,-22.58399388397082,-135.1337890625,5356.25390625,True
1599561350.912425,0.0,10,0.5,0.5,7.325562383651734,-0.1005,-0.02275,-0.12575,0.08808572391766159,10,1,100,-0.0967762779037973,-10,-1,-100,15003.86189204827,0.0037361103046149057,0.010586369901740528,0.9999369831404853,27.236607897392563,0.013997436257974517,71.83975556155141,-23.14073480761964,-145.7164306640625,5356.25390625,True
1599561350.9463332,0.0,10,0.5,0.5,6.150474962997437,-0.1005,-0.02275,-0.12575,0.11701045068436482,10,1,100,-0.03911496746866491,-10,-1,-100,15003.86189204827,0.0037361103046149057,0.010586369901740528,0.9999369831404853,27.236607897392563,0.013997436257974517,71.83975556155141,-23.14073480761964,-145.7164306640625,5356.25390625,True
1599561350.9822383,0.0,10,0.5,0.5,7.798860582351685,-0.1005,-0.02275,-0.12575,0.0947618495725378,10,1,100,-0.07526394558184021,-10,-1,-100,15002.9390381485,0.00406128125508839,0.010384787392293336,0.9999378291600853,27.103720813459415,0.013649023539188787,72.64607415093359,-23.511894633233826,-152.4267120361328,5356.25390625,True
1599561351.0111592,0.0,10,0.5,0.5,8.556197203826905,-0.1005,-0.02275,-0.12575,0.09383827580514548,10,1,100,-0.07396226705407047,-10,-1,-100,15001.950754386606,0.004341306035665112,0.010193995197852147,0.9999386158779003,26.74699058851744,0.013070062177502015,72.83227135010254,-23.883065165750672,-158.8607635498047,5356.25390625,True
1599561351.0460684,0.0,10,0.5,0.5,9.28273882713318,-0.1005,-0.02275,-0.12575,0.0895349868005122,10,1,100,-0.07155572125146314,-10,-1,-100,15001.02594682062,0.004570545614030085,0.009982489826425198,0.9999397281884822,26.203790199835883,0.012369276847335424,72.47307680912907,-24.254252436975783,-165.01907348632812,5356.25390625,True
1599561351.079976,0.0,10,0.5,0.5,9.310885085487365,-0.1005,-0.02275,-0.12575,0.10065480190829307,10,1,100,-0.0598632359334448,-10,-1,-100,15000.528875499731,0.004669783854911863,0.009892517256016172,0.9999401638203597,25.873420713856287,0.01200737143401604,72.11257394935191,-24.43985339933607,-167.99447631835938,5356.25390625,True
1599561351.111891,0.0,10,0.5,0.5,10.998687310028076,-0.1005,-0.02275,-0.12575,0.0810871559532079,10,1,100,-0.07606254457080333,-10,-1,-100,14999.046449273243,0.004904310608366088,0.009634133924661392,0.9999415638931,24.698722775781537,0.011017652564177369,70.4239245680901,-24.99668585453607,-176.5063934326172,5356.25390625,True
1599561351.1458004,0.0,10,0.5,0.5,10.056714842605592,-0.1005,-0.02275,-0.12575,0.10677090104296902,10,1,100,-0.052878290777244,-10,-1,-100,14999.046449273243,0.004904310608366088,0.009634133924661392,0.9999415638931,24.698722775781537,0.011017652564177369,70.4239245680901,-24.99668585453607,-176.5063934326172,5356.25390625,True
1599561351.1797125,0.0,10,0.5,0.5,-70.06794180831909,-0.1005,-0.02275,-0.12575,0.08997893045546407,10,1,100,-0.06457557804674346,-10,-1,-100,14997.994689497747,0.0050084315242192225,0.009482829871854588,0.9999424941221814,23.802247792698818,0.010523975726620664,68.88710316796383,-25.36792927220842,178.16436767578125,5356.25390625,True
1599561351.2104006,0.0,10,0.5,0.5,-24.472677326202394,-0.1005,-0.02275,-0.12575,0.08539895422813575,10,1,100,-0.06456560330084334,-10,-1,-100,14996.509334531263,0.005100909639853615,0.009305059615329703,0.9999436967081704,24.49133860752096,0.01106009995793296,72.45548830892507,-25.92478023958412,170.6888427734375,5356.25390625,True
1599561351.2472682,0.0,10,0.5,0.5,-25.04034984664917,-0.1005,-0.02275,-0.12575,0.09359083296827314,10,1,100,-0.0574579481751656,-10,-1,-100,14995.456598136458,0.005118596383505037,0.009219350234727145,0.9999444002304889,25.423854987849158,0.011848826625036592,76.30396444460804,-26.29597042399355,165.96786499023438,5356.25390625,True
1599561351.281177,0.0,10,0.5,0.5,-25.237246606445314,-0.1005,-0.02275,-0.12575,0.09595384973327706,10,1,100,-0.05496153731348289,-10,-1,-100,14994.337456042413,0.005110723791646587,0.009164157331740322,0.9999449478459925,26.2876290554662,0.01274313335800828,80.02332607560287,-26.66712362060347,161.08013916015625,5356.25390625,True
1599561351.311098,0.0,10,0.5,0.5,-25.975398149108887,-0.1005,-0.02275,-0.12575,0.09951151125504595,10,1,100,-0.0539711894998057,-10,-1,-100,14993.842338612303,0.005093314079389993,0.009147617263377473,0.9999451881228747,26.692224171999147,0.013216010233503066,81.82716710470918,-26.852686010128743,158.54116821289062,5356.25390625,True
1599561351.3460062,0.0,10,0.5,0.5,-27.002125673294067,-0.1005,-0.02275,-0.12575,0.10104180107843927,10,1,100,-0.055815364007895295,-10,-1,-100,14993.842338612303,0.005093314079389993,0.009147617263377473,0.9999451881228747,26.692224171999147,0.013216010233503066,81.82716710470918,-26.852686010128743,158.54116821289062,5356.25390625,True
1599561351.380947,0.0,10,0.5,0.5,-26.529470347595215,-0.1005,-0.02275,-0.12575,0.10000131691413006,10,1,100,-0.05013951074173868,-10,-1,-100,14992.727102903766,0.00504103176965791,0.009139109569096911,0.9999455308540468,27.433410157652414,0.01417179346000384,85.27557158348539,-27.223782367344686,153.26052856445312,5356.25390625,True
1599561351.4108648,0.0,10,0.5,0.5,-26.66095930480957,-0.1005,-0.02275,-0.12575,0.10374775954383011,10,1,100,-0.04693814474593977,-10,-1,-100,14991.668508927454,0.0049639713552527285,0.009166200580254882,0.9999456684016922,28.133598102275847,0.01511178975757479,88.65840750702503,-27.594841227746787,147.70632934570312,5356.25390625,True
1599561351.4437795,0.0,10,0.5,0.5,-27.42601118011475,-0.1005,-0.02275,-0.12575,0.10400249754319342,10,1,100,-0.04958450235212904,-10,-1,-100,14991.109915611334,0.004917706786303974,0.00919380486009794,0.9999456435787689,28.452787969233242,0.015544947756467887,90.27432290486053,-27.780357249349745,144.8262939453125,5356.25390625,True
1599561351.4786835,0.0,10,0.5,0.5,-26.47123693351746,-0.1005,-0.02275,-0.12575,0.11639282074402135,10,1,100,-0.03574083246759403,-10,-1,-100,14989.374564584228,0.0047497843645112085,0.009331939260930578,0.99994517572621,29.174330160761826,0.016522846155548047,94.44040318303365,-28.3368603586622,135.7744903564453,5356.25390625,True
1599561351.5096035,0.0,10,0.5,0.5,-27.606235697555544,-0.1005,-0.02275,-0.12575,0.10980025755718344,10,1,100,-0.045426487484809625,-10,-1,-100,14988.814018602716,0.004685319505077795,0.009397858318774205,0.9999448625000059,29.32414449401257,0.016708016187713177,95.55432198521746,-28.522349765208386,132.6199951171875,5356.25390625,True
1599561351.5434766,0.0,10,0.5,0.5,-27.170067028427127,-0.1005,-0.02275,-0.12575,0.11156831655975445,10,1,100,-0.044493450120737514,-10,-1,-100,14988.251519655227,0.004618526667755074,0.009473935245521857,0.9999444553385867,29.422686733319107,0.016810271206572535,96.50660738248659,-28.707835406699225,129.39686584472656,5356.25390625,True
1599561351.5774205,0.0,10,0.5,0.5,-24.409337173461914,-0.1005,-0.02275,-0.12575,0.14907211761792688,10,1,100,-0.018722296983006516,-10,-1,-100,14985.948792238021,0.004323961226184226,0.009883886210702934,0.9999418043829792,29.23758133421867,0.016356879263913306,98.4100141113022,-29.449768663114227,115.81852722167969,5356.25390625,True
1599561351.6073408,0.0,10,0.5,0.5,-25.19591385765076,-0.1005,-0.02275,-0.12575,0.12237514444931989,10,1,100,-0.039686725105299865,-10,-1,-100,14985.327701217728,0.00424748256692005,0.010013265026629326,0.9999408449580156,29.03131397786809,0.016048533433604524,98.33952993224835,-29.635256974578247,112.25251770019531,5356.25390625,True
