Timestamp,Input Throttle,horizon,dT,dt,Input Roll,Roll P,Roll I,Roll D,Input Pitch,Pitch P,Pitch I,Pitch D,Input Yaw,Yaw P,Yaw I,Yaw D,Altitude,Direction X,Direction Y,Direction Z,Drag X,Drag Y,Drag Z,Vertical Velocity,Roll,Mass,Has Fuel
1599563138.5197027,0.0,10,0.5,0.5,-11.641609603881836,-0.2,-0.001,-0.12575,-0.0005119654862309449,10,1,100,0.17112097881000998,-10,-1,-100,14994.000766023179,-0.016773875530710938,-7.69679623117776e-05,0.9998593056903621,28.649110847232656,0.027034461857863356,-87.51387428472924,27.00929651389084,-31.79229736328125,5356.25390625,True
1599563138.552585,0.0,10,0.5,0.5,-11.647560119628906,-0.2,-0.001,-0.12575,-0.0005364996823229243,10,1,100,0.17320965112822628,-10,-1,-100,14994.547641753335,-0.016808361969511354,-7.477817379335915e-05,0.999858726708992,28.576564210250545,0.02719972138675367,-86.69282392947201,26.82332893844066,-31.79168701171875,5356.25390625,True
1599563138.5885193,0.0,10,0.5,0.5,-11.653691902160647,-0.2,-0.001,-0.12575,-0.00025170111120281346,10,1,100,0.17938175674194604,-10,-1,-100,14995.574011939461,-0.016880542999482356,-7.013039888116559e-05,0.9998575110233306,28.431485074315265,0.027525651539987785,-85.05989783949352,26.45140567936431,-31.790496826171875,5356.25390625,True
1599563138.6234336,0.0,10,0.5,0.5,-11.561304165649414,-0.2,-0.001,-0.12575,0.01114208023780924,10,1,100,0.1797707995333928,-10,-1,-100,14997.148235291941,-0.01693435292210598,3.773843639264829e-05,0.999856602852089,28.225297565758414,0.028011662976601594,-82.66680612365668,25.893549906104408,-32.091522216796875,5356.25390625,True
1599563138.6553946,0.0,10,0.5,0.5,-11.604948956298829,-0.2,-0.001,-0.12575,0.00035897055406711756,10,1,100,0.1760832425632409,-10,-1,-100,14997.148235291941,-0.01693435292210598,3.773843639264829e-05,0.999856602852089,28.225297565758414,0.028011662976601594,-82.66680612365668,25.893549906104408,-32.091522216796875,5356.25390625,True
1599563138.6932385,0.0,10,0.5,0.5,-11.535962841796875,-0.2,-0.001,-0.12575,0.0056899156175279145,10,1,100,0.17906743893387594,-10,-1,-100,14997.694133426761,-0.016946087113728022,8.616726566375313e-05,0.9998564010430379,28.16587766681727,0.02817667640353543,-81.9019365049679,25.707605342462966,-32.321075439453125,5356.25390625,True
1599563138.7311342,0.0,10,0.5,0.5,-11.212856588745117,-0.2,-0.001,-0.12575,0.024905089904791632,10,1,100,0.17856946333304474,-10,-1,-100,14999.20292338077,-0.01693682197600075,0.00030479854282564246,0.9998565152856692,28.01727478559554,0.02867180674576376,-79.70659893268702,25.149791610158115,-33.419281005859375,5356.25390625,True
1599563138.770063,0.0,10,0.5,0.5,-11.192675312805177,-0.2,-0.001,-0.12575,0.013918659034645852,10,1,100,0.1792301032484534,-10,-1,-100,14999.686320279492,-0.016919007830046944,0.00040340051547801145,0.9998567819653328,27.976779044913975,0.028833160298469176,-79.00447544906044,24.96386005317821,-33.92254638671875,5356.25390625,True
1599563138.8069704,0.0,10,0.5,0.5,-10.866559028625488,-0.2,-0.001,-0.12575,0.030031712384483454,10,1,100,0.17573804410857877,-10,-1,-100,15000.653114695102,-0.01685568624351731,0.0006391542478737087,0.9998577285409698,27.906179763317827,0.029141175026368326,-77.63419031520458,24.59200594896329,-35.135162353515625,5356.25390625,True
1599563138.8468611,0.0,10,0.5,0.5,-10.539992762756349,-0.2,-0.001,-0.12575,0.03744934510885541,10,1,100,0.17226987111596284,-10,-1,-100,15001.617954331683,-0.016751268968336116,0.000920327798229657,0.9998592640890488,27.845376587052165,0.029417800011219797,-76.29660334887622,24.220163407764034,-36.62261962890625,5356.25390625,True
1599563138.8837266,0.0,10,0.5,0.5,-9.837718920898439,-0.2,-0.001,-0.12575,0.06582389637029987,10,1,100,0.1594662277040822,-10,-1,-100,15003.065212599584,-0.016524718988092175,0.0014330539211134417,0.9998624305467346,27.75841684708771,0.02973614984156042,-74.31102301702326,23.662420542272386,-39.36907958984375,5356.25390625,True
1599563138.9156651,0.0,10,0.5,0.5,-9.839340713500977,-0.2,-0.001,-0.12575,0.03574244215195585,10,1,100,0.17129513637511434,-10,-1,-100,15003.54665389657,-0.016426526499918537,0.0016243280654924593,0.999863756111543,27.726793488520627,0.029806733218442807,-73.64455874340773,23.47651186792937,-40.4219970703125,5356.25390625,True
1599563138.955564,0.0,10,0.5,0.5,-9.605496885681154,-0.2,-0.001,-0.12575,0.0388364607241677,10,1,100,0.16899574803210066,-10,-1,-100,15004.03004929563,-0.01631670419434201,0.0018247964508214141,0.9998652085567071,27.691820203621674,0.029854890343188847,-72.97057930465174,23.29060608832899,-41.543670654296875,5356.25390625,True
1599563138.9954875,0.0,10,0.5,0.5,-8.947609779357911,-0.2,-0.001,-0.12575,0.06553109253366783,10,1,100,0.15149946099278339,-10,-1,-100,15004.932384612155,-0.016058321160556045,0.002247996247707099,0.9998685297749773,27.607423600939192,0.029873205955409994,-71.58951635112507,22.91880383705857,-43.9932861328125,5356.25390625,True
1599563139.0373445,0.0,10,0.5,0.5,-8.366976892089843,-0.2,-0.001,-0.12575,0.07447622735715537,10,1,100,0.1438078515087985,-10,-1,-100,15005.833741929033,-0.015754300163406714,0.0027120334179882317,0.9998722152860839,27.494505717718926,0.02976874507102325,-70.14274373972009,22.547015071803123,-46.71771240234375,5356.25390625,True
1599563139.0762732,0.0,10,0.5,0.5,-7.731019934082031,-0.2,-0.001,-0.12575,0.08211898076648225,10,1,100,0.1346071966751518,-10,-1,-100,15006.738027881132,-0.01539534789729117,0.0032009337901635097,0.999876360999695,27.34103807853854,0.029520163545275077,-68.60369719334771,22.17524159892602,-49.71722412109375,5356.25390625,True
1599563139.1141696,0.0,10,0.5,0.5,-7.039719184875489,-0.2,-0.001,-0.12575,0.08864725457922543,10,1,100,0.12478438929953672,-10,-1,-100,15007.575906576822,-0.014981139169422755,0.0037019050117800645,0.99988092359464,27.133896237674048,0.029109495981424472,-66.94513322211553,21.803485855599504,-52.991973876953125,5356.25390625,True
1599563139.1530344,0.0,10,0.5,0.5,-5.681338049316407,-0.2,-0.001,-0.12575,0.12386584993138627,10,1,100,0.08637774639552935,-10,-1,-100,15008.898151926114,-0.014257212374784653,0.004474414165115709,0.9998883495236753,26.69138636005922,0.02816528705984951,-64.17313875294482,21.245892278848768,-58.420135498046875,5356.25390625,True
1599563139.190934,0.0,10,0.5,0.5,-5.7272274246215815,-0.2,-0.001,-0.12575,0.07550083858064774,10,1,100,0.12887718756887434,-10,-1,-100,15009.32099779544,-0.01398787547710339,0.004733312370732637,0.9998909616021329,26.501081062304813,0.027761500119065023,-63.15956312802816,21.06004012308947,-60.3671875,5356.25390625,True
1599563139.2298613,0.0,10,0.5,0.5,-3.2080473083496095,-0.2,-0.001,-0.12575,0.1586938393072423,10,1,100,0.02318743695617377,-10,-1,-100,15010.935226881295,-0.012784814937974431,0.005721252420514469,0.999901903077368,25.473465084785147,0.025732075187176115,-58.57295431268389,20.316707908177747,-68.84454345703125,5356.25390625,True
1599563139.2687247,0.0,10,0.5,0.5,-4.270852627563476,-0.2,-0.001,-0.12575,0.0603799267912876,10,1,100,0.14309684546603352,-10,-1,-100,15010.935226881295,-0.012784814937974431,0.005721252420514469,0.999901903077368,25.473465084785147,0.025732075187176115,-58.57295431268389,20.316707908177747,-68.84454345703125,5356.25390625,True
1599563139.3086505,0.0,10,0.5,0.5,-1.1471349853515624,-0.2,-0.001,-0.12575,0.15815037672291243,10,1,100,-0.00919298551197631,-10,-1,-100,15012.550431361655,-0.011403761841856267,0.006606176330347967,0.9999131525538338,23.91929190994991,0.023201894378150595,-52.99291932325135,19.573521641966813,-78.4248046875,5356.25390625,True
1599563139.348545,0.0,10,0.5,0.5,-0.6530252334594727,-0.2,-0.001,-0.12575,0.11636890560219429,10,1,100,0.042712933865105315,-10,-1,-100,15013.327760251588,-0.010624697171229644,0.00702629210340384,0.9999188702236282,22.903802582826806,0.021851337956067203,-49.78272268871967,19.201989432941375,-83.62826538085938,5356.25390625,True
1599563139.3864417,0.0,10,0.5,0.5,-1.303151956176758,-0.2,-0.001,-0.12575,0.0748774778618652,10,1,100,0.12005020022545639,-10,-1,-100,15013.327760251588,-0.010624697171229644,0.00702629210340384,0.9999188702236282,22.903802582826806,0.021851337956067203,-49.78272268871967,19.201989432941375,-83.62826538085938,5356.25390625,True
1599563139.419351,0.0,10,0.5,0.5,1.4075596305847167,-0.2,-0.001,-0.12575,0.12839246010447286,10,1,100,-0.0065053893211290265,-10,-1,-100,15014.46152709378,-0.009479131469887346,0.00750844803664964,0.9999268819642051,21.181549974445,0.019974087288995766,-44.70715364285868,18.644763852922814,-91.93754577636719,5356.25390625,True
1599563139.4582503,0.0,10,0.5,0.5,2.2620678504943847,-0.2,-0.001,-0.12575,0.11150678505210604,10,1,100,0.017256487635524426,-10,-1,-100,15015.175380569184,-0.008659429867085306,0.007788905098561886,0.9999321713155062,22.15154450318331,0.020976192226439844,-45.82563371274807,18.273293030793315,-97.7545166015625,5356.25390625,True
1599563139.4971457,0.0,10,0.5,0.5,2.487272779083252,-0.2,-0.001,-0.12575,0.0964697139682469,10,1,100,0.05555366356650843,-10,-1,-100,15015.531820025877,-0.008268526298483493,0.007902994534712118,0.9999345849355524,22.650580950423727,0.02155794505937963,-46.38304850311371,18.087553246240365,-100.67665100097656,5356.25390625,True
1599563139.5390387,0.0,10,0.5,0.5,3.9773530735015874,-0.2,-0.001,-0.12575,0.10740439694941822,10,1,100,0.006148577964967927,-10,-1,-100,15016.247628219659,-0.0074701246514414215,0.008102299240565767,0.999939273148479,23.499950217958073,0.02268083391361747,-47.13662406045943,17.71606260184774,-106.3643569946289,5356.25390625,True
1599563139.5769017,0.0,10,0.5,0.5,4.162124559783936,-0.2,-0.001,-0.12575,0.0968638857199457,10,1,100,0.04101459736563594,-10,-1,-100,15016.60211341246,-0.007067438864794105,0.008184364430096198,0.9999415320341325,23.846458582225107,0.023199998058258387,-47.33141595743111,17.53031179819202,-109.11249542236328,5356.25390625,True
1599563139.615836,0.0,10,0.5,0.5,7.180531162643433,-0.2,-0.001,-0.12575,0.11241244520765833,10,1,100,-0.09519317412472306,-10,-1,-100,15017.968302506488,-0.005469399714849926,0.008397182368594555,0.9999497852367526,24.849042158815553,0.024924394344970624,-47.235575100633525,16.787279093181617,-119.42442321777344,5356.25390625,True
1599563139.6547189,0.0,10,0.5,0.5,5.88886423034668,-0.2,-0.001,-0.12575,0.09139824435263058,10,1,100,0.06387919934738241,-10,-1,-100,15017.968302506488,-0.005469399714849926,0.008397182368594555,0.9999497852367526,24.849042158815553,0.024924394344970624,-47.235575100633525,16.787279093181617,-119.42442321777344,5356.25390625,True
1599563139.692624,0.0,10,0.5,0.5,7.439219160079956,-0.2,-0.001,-0.12575,0.09589320251502252,10,1,100,-0.02396712320011761,-10,-1,-100,15018.617707180209,-0.004677447160075493,0.008435612961027137,0.9999534798789573,25.17549489800629,0.02553093572128549,-46.799158585050996,16.415751674572405,-124.1682357788086,5356.25390625,True
1599563139.7325184,0.0,10,0.5,0.5,8.302748108291626,-0.2,-0.001,-0.12575,0.09520529927228606,10,1,100,-0.025014539796778812,-10,-1,-100,15019.2710191519,-0.0039540831545670715,0.008462633073185807,0.9999563735823056,25.359048592200423,0.025890735457234134,-46.075517942723465,16.044223991006916,-128.6363525390625,5356.25390625,True
1599563139.772452,0.0,10,0.5,0.5,10.387449549102783,-0.2,-0.001,-0.12575,0.08306575230704383,10,1,100,-0.11269656520362756,-10,-1,-100,15020.508310170495,-0.0025054343858759384,0.008375531529128049,0.9999617859049127,25.37270419233064,0.025902544879985622,-43.96914932224552,15.301188557194397,-136.7470703125,5356.25390625,True
1599563139.8133364,0.0,10,0.5,0.5,9.372838669586182,-0.2,-0.001,-0.12575,0.09191083065539207,10,1,100,0.03135638538695039,-10,-1,-100,15020.508310170495,-0.0025054343858759384,0.008375531529128049,0.9999617859049127,25.37270419233064,0.025902544879985622,-43.96914932224552,15.301188557194397,-136.7470703125,5356.25390625,True
1599563139.8522372,0.0,10,0.5,0.5,11.660174190521241,-0.2,-0.001,-0.12575,0.07672336116929096,10,1,100,-0.11118639929863867,-10,-1,-100,15021.74462845677,-0.0012159306133560483,0.008236675366988513,0.99996533874512,25.037442105872167,0.025133932809095483,-41.28496893792917,14.558210157363256,-143.75506591796875,5356.25390625,True
1599563140.1917813,0.0,10,0.5,0.5,11.298209365081787,-0.2,-0.001,-0.12575,0.08367114104924057,10,1,100,-0.017430336681379194,-10,-1,-100,15021.977049435722,-0.0009027491159982609,0.00817319706370809,0.9999661913753841,24.914582712925878,0.02485143384975242,-40.55915838786113,14.372477571958878,-145.3350830078125,5356.25390625,True
1599563140.2287726,0.0,10,0.5,0.5,12.513009902191161,-0.2,-0.001,-0.12575,0.07522866477604587,10,1,100,-0.07971710032507612,-10,-1,-100,15022.856926853652,-5.849151907801413e-05,0.008038494092306846,0.999967689073737,24.531201198458287,0.02390671017107559,-38.38951767947414,13.815310932798496,-149.66055297851562,5356.25390625,True
1599563140.2630575,0.0,10,0.5,0.5,12.398239656829835,-0.2,-0.001,-0.12575,0.08203129397086223,10,1,100,-0.025765971515042375,-10,-1,-100,15023.08934850921,0.0002118127315470276,0.007977936933847919,0.9999681533217177,24.39823545015279,0.02356672090511141,-37.66905149365718,13.629599194131423,-150.96470642089844,5356.25390625,True
1599563140.3224428,0.0,10,0.5,0.5,12.23842758255005,-0.2,-0.001,-0.12575,0.08806636706713014,10,1,100,0.0005365283878276833,-10,-1,-100,15023.08934850921,0.0002118127315470276,0.007977936933847919,0.9999681533217177,24.39823545015279,0.02356672090511141,-37.66905149365718,13.629599194131423,-150.96470642089844,5356.25390625,True
1599563140.3623343,0.0,10,0.5,0.5,13.023762355041505,-0.2,-0.001,-0.12575,0.07676706573365369,10,1,100,-0.05545483500266181,-10,-1,-100,15023.676261307206,0.0007156603874183894,0.007875597144847903,0.9999687309110331,24.117039564446173,0.022854535171700496,-36.22193821721944,13.25819137080571,-153.36587524414062,5356.25390625,True
1599563140.4012313,0.0,10,0.5,0.5,13.417597269439698,-0.2,-0.001,-0.12575,0.07463587824552684,10,1,100,-0.05749596817860962,-10,-1,-100,15024.139150746516,0.0011866366851716363,0.007763660709704686,0.9999691582572743,23.825088749279505,0.02212089380971639,-34.78272349839565,12.886803684810955,-155.49139404296875,5356.25390625,True
1599563140.4382207,0.0,10,0.5,0.5,13.756045320129395,-0.2,-0.001,-0.12575,0.07226917940757402,10,1,100,-0.059143748761012194,-10,-1,-100,15024.6625874585,0.0016244457940189322,0.007640995735821575,0.999969487714514,23.533527482544926,0.021388188629868046,-33.36855280950667,12.515435094927813,-157.34127807617188,5356.25390625,True
1599563140.4771173,0.0,10,0.5,0.5,14.038965419006347,-0.2,-0.001,-0.12575,0.07306816988253997,10,1,100,-0.05997833032571885,-10,-1,-100,15025.187001362909,0.002024969789969638,0.00753749261600695,0.9999695423873737,23.251769792094027,0.02067350983906161,-31.992318159592692,12.144084189362571,-158.91510009765625,5356.25390625,True
1599563140.5171578,0.0,10,0.5,0.5,14.599135781860353,-0.2,-0.001,-0.12575,0.060380360503326666,10,1,100,-0.09794047087143298,-10,-1,-100,15026.11473620357,0.0027300743329078214,0.0073288170026490984,0.9999694171000825,22.748087684270885,0.019343338432215397,-29.38797223765706,11.401427400349434,-161.2354736328125,5356.25390625,True
1599563140.5550888,0.0,10,0.5,0.5,14.442595848846436,-0.2,-0.001,-0.12575,0.07598007774510278,10,1,100,-0.04497625911238311,-10,-1,-100,15026.343251128332,0.002884826075297731,0.007281879069545815,0.9999693255374046,22.639123142028108,0.019036505751821024,-28.77161240212559,11.215771139208837,-161.6431427001953,5356.25390625,True
1599563140.5919902,0.0,10,0.5,0.5,14.656604184722902,-0.2,-0.001,-0.12575,0.06898639046011312,10,1,100,-0.0756475995595157,-10,-1,-100,15026.97215954191,0.003300611884545533,0.007176497242586054,0.9999688014375822,22.361634400098684,0.01818330781079656,-27.009544238142077,10.658817177023074,-162.45199584960938,5356.25390625,True
1599563140.6308866,0.0,10,0.5,0.5,14.619982082366944,-0.2,-0.001,-0.12575,0.07178000004582688,10,1,100,-0.060517716374187416,-10,-1,-100,15027.372551158303,0.0035372333539946013,0.007106998123239235,0.9999684887824594,22.221811073667606,0.01767072384597561,-25.906807884225355,10.2875246028495,-162.6465606689453,5356.25390625,True
1599563140.6637652,0.0,10,0.5,0.5,14.596814157104491,-0.2,-0.001,-0.12575,0.07863676238360207,10,1,100,-0.03721514191658784,-10,-1,-100,15027.372551158303,0.0035372333539946013,0.007106998123239235,0.9999684887824594,22.221811073667606,0.01767072384597561,-25.906807884225355,10.2875246028495,-162.6465606689453,5356.25390625,True
1599563140.7036602,0.0,10,0.5,0.5,14.524393341827393,-0.2,-0.001,-0.12575,0.07249131445472001,10,1,100,-0.06977998120105654,-10,-1,-100,15028.001458047773,0.0038302542378330006,0.007051922177349951,0.9999677992545951,22.083249033925487,0.016981717349898968,-24.353039751633013,9.730596004000082,-162.420654296875,5356.25390625,True
1599563140.740598,0.0,10,0.5,0.5,14.392607563018801,-0.2,-0.001,-0.12575,0.0741593643773798,10,1,100,-0.05790841708439486,-10,-1,-100,15028.338373508654,0.003985424057074361,0.007017859057435235,0.9999674324943465,22.038124678817756,0.016571631253715545,-23.37689225477053,9.359314610201743,-161.9253692626953,5356.25390625,True
1599563140.7795012,0.0,10,0.5,0.5,14.455745605468751,-0.2,-0.001,-0.12575,0.07747990256011014,10,1,100,-0.042718411527224394,-10,-1,-100,15028.338373508654,0.003985424057074361,0.007017859057435235,0.9999674324943465,22.038124678817756,0.016571631253715545,-23.37689225477053,9.359314610201743,-161.9253692626953,5356.25390625,True
1599563140.8173556,0.0,10,0.5,0.5,14.205112761688234,-0.2,-0.001,-0.12575,0.07643808338602376,10,1,100,-0.056308225368756126,-10,-1,-100,15028.735835458967,0.004106423467113829,0.007009065975536513,0.9999670045958814,22.028766281189107,0.016197257064769134,-22.44086741822152,8.988034474769767,-161.15399169921875,5356.25390625,True
1599563140.8582456,0.0,10,0.5,0.5,13.530468852233888,-0.2,-0.001,-0.12575,0.07654614450464331,10,1,100,-0.06048948679441239,-10,-1,-100,15029.4077120265,0.004252178054952861,0.007002629120125384,0.9999664405204781,22.10427015858602,0.015544667128750222,-20.65892029309288,8.245472619803506,-158.78399658203125,5356.25390625,True
1599563140.8971786,0.0,10,0.5,0.5,13.307678283691407,-0.2,-0.001,-0.12575,0.07859844414098845,10,1,100,-0.04852889989928032,-10,-1,-100,15029.74462678004,0.004273924882791705,0.007015920942351025,0.9999662546403388,22.17916703854981,0.015262039239936194,-19.796182009940473,7.874188643801942,-157.18521118164062,5356.25390625,True
1599563140.9360383,0.0,10,0.5,0.5,13.50832052154541,-0.2,-0.001,-0.12575,0.07723797231239461,10,1,100,-0.046508602170384314,-10,-1,-100,15029.74462678004,0.004273924882791705,0.007015920942351025,0.9999662546403388,22.17916703854981,0.015262039239936194,-19.796182009940473,7.874188643801942,-157.18521118164062,5356.25390625,True
1599563140.9739695,0.0,10,0.5,0.5,12.897232653808596,-0.2,-0.001,-0.12575,0.07938490479283164,10,1,100,-0.04535162304255283,-10,-1,-100,15030.019040946965,0.004262144073622788,0.007035680290470629,0.9999661660930064,22.270043730752054,0.015006333929497488,-18.940634192667282,7.502901484982786,-155.31063842773438,5356.25390625,True
1599563141.012833,0.0,10,0.5,0.5,11.641548112487794,-0.2,-0.001,-0.12575,0.08251238477868675,10,1,100,-0.033069262904984784,-10,-1,-100,15030.56689206604,0.004138902307501266,0.007082202985861785,0.9999663553782977,22.46509113851997,0.014572342687543042,-17.21650898363308,6.760316520797288,-150.73443603515625,5356.25390625,True
1599563141.0477386,0.0,10,0.5,0.5,11.787014897155762,-0.2,-0.001,-0.12575,0.07926401922070792,10,1,100,-0.03969572921245702,-10,-1,-100,15030.732908030855,0.0040865579693191685,0.0070949882903606435,0.9999664800307672,22.50916820262415,0.014480350357540363,-16.77680324730689,6.574668192612181,-149.4180908203125,5356.25390625,True
1599563141.085638,0.0,10,0.5,0.5,11.951222460937501,-0.2,-0.001,-0.12575,0.07798428778753418,10,1,100,-0.04498509549219919,-10,-1,-100,15030.732908030855,0.0040865579693191685,0.0070949882903606435,0.9999664800307672,22.50916820262415,0.014480350357540363,-16.77680324730689,6.574668192612181,-149.4180908203125,5356.25390625,True
1599563141.1235363,0.0,10,0.5,0.5,10.010274209594728,-0.2,-0.001,-0.12575,0.08268324178436606,10,1,100,-0.013268656734969016,-10,-1,-100,15031.214351301198,0.003797993704497543,0.007137666902956378,0.9999673139433124,22.61936422261195,0.014175654610088864,-14.955529517074156,5.832068441013008,-143.46368408203125,5356.25390625,True
1599563141.1664214,0.0,10,0.5,0.5,10.75719468841553,-0.2,-0.001,-0.12575,0.07842736130934472,10,1,100,-0.04210634018187387,-10,-1,-100,15031.214351301198,0.003797993704497543,0.007137666902956378,0.9999673139433124,22.61936422261195,0.014175654610088864,-14.955529517074156,5.832068441013008,-143.46368408203125,5356.25390625,True
1599563141.204324,0.0,10,0.5,0.5,9.650877278900147,-0.2,-0.001,-0.12575,0.08014906968296875,10,1,100,-0.02078050730584126,-10,-1,-100,15031.428216828499,0.0036042928877632256,0.00715320988103885,0.9999679198160194,22.607529053808197,0.014053074388809712,-13.996391634969916,5.4607652725536955,-140.07313537597656,5356.25390625,True
1599563141.2432191,0.0,10,0.5,0.5,8.250227857208252,-0.2,-0.001,-0.12575,0.07799809565954846,10,1,100,-0.0025577115042415555,-10,-1,-100,15031.739736370859,0.0032629959385168947,0.007147654511895911,0.9999691314698089,22.456101687307616,0.013876872390340701,-12.485104211333027,4.90380529429179,-134.47097778320312,5356.25390625,True
1599563141.2811484,0.0,10,0.5,0.5,8.299092797088624,-0.2,-0.001,-0.12575,0.07800772416310794,10,1,100,-0.02223305196638517,-10,-1,-100,15031.84520482656,0.003132491972600114,0.007142559866896716,0.9999695852037647,22.360622927024192,0.013812213058026192,-11.961481935706585,4.718149886209071,-132.46583557128906,5356.25390625,True
1599563141.3200119,0.0,10,0.5,0.5,7.175195616149903,-0.2,-0.001,-0.12575,0.075169850680582,10,1,100,-0.004997999989755662,-10,-1,-100,15031.992663095705,0.0028582073791702193,0.007112014395306715,0.9999706245194498,22.089013050319895,0.013660721229305964,-10.886489046992784,4.3468340761687045,-128.2491912841797,5356.25390625,True
1599563141.358907,0.0,10,0.5,0.5,5.4740235527038585,-0.2,-0.001,-0.12575,0.06927820282455661,10,1,100,0.017427810503809253,-10,-1,-100,15032.245587077807,0.0024062737602048353,0.00703059799203107,0.9999723898880735,21.438745184335318,0.01333447433341642,-9.212371018525825,3.7898422451153464,-121.40798950195312,5356.25390625,True
1599563141.3988018,0.0,10,0.5,0.5,5.543246179962158,-0.2,-0.001,-0.12575,0.07331418955364519,10,1,100,-0.009726933443254197,-10,-1,-100,15032.347148789093,0.0022439734791308975,0.0069932784886798695,0.9999730289557838,21.14678555688219,0.01318751543900663,-8.641806699612765,3.6041715661133114,-118.98997497558594,5356.25390625,True
1599563141.441272,0.0,10,0.5,0.5,3.3466839431762696,-0.2,-0.001,-0.12575,0.06000963808260026,10,1,100,0.028870196726570235,-10,-1,-100,15032.537572609494,0.0017472674300910687,0.006838482039984899,0.999975090799724,20.03611097239108,0.012597650628063048,-6.9226051771774495,3.047131038653551,-111.32319641113281,5356.25390625,True
1599563141.4821568,0.0,10,0.5,0.5,2.5299553062438966,-0.2,-0.001,-0.12575,0.060645861540249105,10,1,100,0.017506301776633017,-10,-1,-100,15032.621552801458,0.0014011512400899518,0.006703775032832075,0.9999765478127534,19.255764275156743,0.012160794154427853,-5.842193000078261,2.675741783434955,-105.8680419921875,5356.25390625,True
1599563141.5210536,0.0,10,0.5,0.5,2.289459375,-0.2,-0.001,-0.12575,0.06553911358392024,10,1,100,0.002693977982262844,-10,-1,-100,15032.66452058917,0.0012235989261552374,0.006626153875142453,0.9999772981875593,18.79577624432498,0.011887365359495939,-5.306883023170689,2.4900359333423054,-103.03726196289062,5356.25390625,True
1599563141.5614593,0.0,10,0.5,0.5,-0.2594383983612061,-0.2,-0.001,-0.12575,0.04331222615392352,10,1,100,0.0414830482500405,-10,-1,-100,15032.79146682343,0.000711900179033284,0.006353991585177203,0.9999795597856341,17.131606547006935,0.010849025258556104,-3.7547532490403728,1.9328697652973612,-94.13219451904297,5356.25390625,True
1599563141.60071,0.0,10,0.5,0.5,-2.2470452419281006,-0.2,-0.001,-0.12575,0.03380842961564452,10,1,100,0.046945395170607085,-10,-1,-100,15032.915484940051,0.000199867340122234,0.006020885603331512,0.9999818543301663,16.09033199950088,0.010180512344144682,-2.5099420423296936,1.3756616496359757,-84.60806274414062,5356.25390625,True
1599563141.6452425,0.0,10,0.5,0.5,-1.0549321784973145,-0.2,-0.001,-0.12575,0.06700579537244296,10,1,100,-0.003917446165733814,-10,-1,-100,15032.915484940051,0.000199867340122234,0.006020885603331512,0.9999818543301663,16.09033199950088,0.010180512344144682,-2.5099420423296936,1.3756616496359757,-84.60806274414062,5356.25390625,True
1599563141.6848104,0.0,10,0.5,0.5,-3.1826517234802245,-0.2,-0.001,-0.12575,0.04027123948907873,10,1,100,0.031185130899089905,-10,-1,-100,15032.936965915607,-0.00011646233446853187,0.005778868521581441,0.999983295418046,17.35404426667626,0.010979573361746934,-1.9760936450527806,1.0041875171034431,-78.09161376953125,5356.25390625,True
1599563141.7267003,0.0,10,0.5,0.5,-5.44936308670044,-0.2,-0.001,-0.12575,0.019874946619798058,10,1,100,0.05030077257240416,-10,-1,-100,15033.001412348007,-0.000574859731756568,0.005374671867856384,0.9999853911125911,18.836154976113157,0.011953639165045339,-0.9547479848387247,0.4469877504379718,-68.63430786132812,5356.25390625,True
1599563141.7675903,0.0,10,0.5,0.5,-6.212883885955811,-0.2,-0.001,-0.12575,0.028060360450611065,10,1,100,0.036023999863525835,-10,-1,-100,15032.959416527417,-0.0008586748254732282,0.005083212619775042,0.9999867117252139,19.500901599487268,0.012386857626801724,-0.1670053297851523,0.07552105301960221,-62.65789794921875,5356.25390625,True
1599563141.8075178,0.0,10,0.5,0.5,-8.219687590789794,-0.2,-0.001,-0.12575,0.008346962057863283,10,1,100,0.05076538441668316,-10,-1,-100,15032.959412734024,-0.001247732998802824,0.004640807304650893,0.9999884529682955,20.144194461896365,0.012801760141522948,1.100386524307888,-0.481699887943575,-54.208282470703125,5356.25390625,True
1599563141.8465316,0.0,10,0.5,0.5,-8.886329959869384,-0.2,-0.001,-0.12575,0.018506904204611454,10,1,100,0.03845725208069818,-10,-1,-100,15032.91937090794,-0.0014863558565226533,0.004333122375130313,0.9999895073433271,20.384608007737103,0.012962324604330493,1.9723239072584338,-0.8531959938547429,-48.91986083984375,5356.25390625,True
1599563141.887067,0.0,10,0.5,0.5,-9.860506359100343,-0.2,-0.001,-0.12575,0.016540819367288715,10,1,100,0.03913475408993371,-10,-1,-100,15032.875422608573,-0.0017065051788186269,0.004037812904013083,0.9999903919073558,20.45832861205942,0.013021989808299786,2.841432493807691,-1.2247042580812466,-43.906951904296875,5356.25390625,True
1599563141.9259617,0.0,10,0.5,0.5,-9.236329169464112,-0.2,-0.001,-0.12575,0.04580517026612981,10,1,100,0.017430587502227212,-10,-1,-100,15032.875422608573,-0.0017065051788186269,0.004037812904013083,0.9999903919073558,20.45832861205942,0.013021989808299786,2.841432493807691,-1.2247042580812466,-43.906951904296875,5356.25390625,True
1599563141.962903,0.0,10,0.5,0.5,-11.52326760635376,-0.2,-0.001,-0.12575,-0.0034412473324522894,10,1,100,0.05058499684730696,-10,-1,-100,15032.812919261516,-0.002005245169133012,0.003592471235817909,0.9999915365353005,20.32794474211973,0.012968554332897439,4.108168777206384,-1.7819859252794998,-36.904571533203125,5356.25390625,True
1599563142.0017982,0.0,10,0.5,0.5,-10.648441036987306,-0.2,-0.001,-0.12575,0.040816767452129206,10,1,100,0.020982712350685082,-10,-1,-100,15032.812919261516,-0.002005245169133012,0.003592471235817909,0.9999915365353005,20.32794474211973,0.012968554332897439,4.108168777206384,-1.7819859252794998,-36.904571533203125,5356.25390625,True
1599563142.0436733,0.0,10,0.5,0.5,-12.732233618164063,-0.2,-0.001,-0.12575,-0.00680817384201448,10,1,100,0.050278313441897454,-10,-1,-100,15032.686940711457,-0.0022695641676810743,0.0031617248734779786,0.9999924262584758,19.99099666056044,0.0128036750297829,5.303756491097624,-2.339281925976971,-30.522308349609375,5356.25390625,True
1599563142.087013,0.0,10,0.5,0.5,-13.208855702209474,-0.2,-0.001,-0.12575,0.005186339610609422,10,1,100,0.04147621387862353,-10,-1,-100,15032.58342421928,-0.0024275901416879104,0.002881777539765399,0.9999929010569601,19.66782876242134,0.012647362021214607,6.046922493080757,-2.7108155906200366,-26.61199951171875,5356.25390625,True
1599563142.1269066,0.0,10,0.5,0.5,-14.464678994750978,-0.2,-0.001,-0.12575,-0.01080605719842339,10,1,100,0.050022343959044084,-10,-1,-100,15032.39396887354,-0.002646841184418658,0.00248452825720077,0.9999934106538321,19.097192815089812,0.012384534686028612,7.078862677776605,-3.2681175952790453,-21.26312255859375,5356.25390625,True
1599563142.437308,0.0,10,0.5,0.5,-13.79679483642578,-0.2,-0.001,-0.12575,0.02862985669697394,10,1,100,0.02830443783123554,-10,-1,-100,15032.39396887354,-0.002646841184418658,0.00248452825720077,0.9999934106538321,19.097192815089812,0.012384534686028612,7.078862677776605,-3.2681175952790453,-21.26312255859375,5356.25390625,True
1599563142.4682238,0.0,10,0.5,0.5,-14.850307002258301,-0.2,-0.001,-0.12575,0.00030162038290440854,10,1,100,0.043013475664766515,-10,-1,-100,15032.228929319652,-0.002778934104397171,0.0022293612764933872,0.9999936537166336,18.764090689061977,0.012254272571612377,7.7463454723316145,-3.6396539572747133,-18.041717529296875,5356.25390625,True
1599563142.5040965,0.0,10,0.5,0.5,-14.448831976318361,-0.2,-0.001,-0.12575,0.02557717385082693,10,1,100,0.02995730377747465,-10,-1,-100,15032.228929319652,-0.002778934104397171,0.0022293612764933872,0.9999936537166336,18.764090689061977,0.012254272571612377,7.7463454723316145,-3.6396539572747133,-18.041717529296875,5356.25390625,True
1599563142.540995,0.0,10,0.5,0.5,-16.28145020904541,-0.2,-0.001,-0.12575,-0.02595424404175663,10,1,100,0.057286145203516874,-10,-1,-100,15031.8929911179,-0.0030262030462267597,0.0017628063511959339,0.9999938672856405,18.130342971276747,0.01203337401681578,9.013406511533667,-4.382738446461136,-12.42535400390625,5356.25390625,True
1599563142.5944066,0.0,10,0.5,0.5,-16.358438739013675,-0.2,-0.001,-0.12575,-0.0037853273598000177,10,1,100,0.0444124073020634,-10,-1,-100,15031.725022071856,-0.003132759287088256,0.0015422693039913247,0.9999939035937384,17.81678572646954,0.011924167019526548,9.60877038268888,-4.754290702235395,-10.03057861328125,5356.25390625,True
1599563142.649219,0.0,10,0.5,0.5,-16.06068337097168,-0.2,-0.001,-0.12575,0.018018823000658723,10,1,100,0.03389940862674073,-10,-1,-100,15031.725022071856,-0.003132759287088256,0.0015422693039913247,0.9999939035937384,17.81678572646954,0.011924167019526548,9.60877038268888,-4.754290702235395,-10.03057861328125,5356.25390625,True
1599563142.6891131,0.0,10,0.5,0.5,-16.753800122070313,-0.2,-0.001,-0.12575,-0.0033735667531962082,10,1,100,0.04732331980612184,-10,-1,-100,15031.494553359807,-0.0032537698304299432,0.0013496568534397586,0.9999937956848876,17.57745122802942,0.011856080671426458,10.220942892963619,-5.125851431856053,-7.91107177734375,5356.25390625,True
1599563142.7270813,0.0,10,0.5,0.5,-17.601685998535157,-0.2,-0.001,-0.12575,-0.023951065411745277,10,1,100,0.0584084157418487,-10,-1,-100,15031.096116848988,-0.0034634179922823603,0.0009895253782082325,0.9999935127666263,17.20056002114258,0.011747060677833387,11.452803090101114,-5.86900135439814,-4.4989013671875,5356.25390625,True
1599563142.7659793,0.0,10,0.5,0.5,-17.596372598266605,-0.2,-0.001,-0.12575,-0.004949669635557959,10,1,100,0.04963084589318585,-10,-1,-100,15030.803148799925,-0.0035731258191379852,0.0008368478164133388,0.9999932662061344,17.069702083881822,0.011706542558428505,12.08582701884364,-6.240590257526863,-3.20599365234375,5356.25390625,True
1599563142.8038754,0.0,10,0.5,0.5,-17.43613005371094,-0.2,-0.001,-0.12575,0.01011359357159621,10,1,100,0.03877461677536837,-10,-1,-100,15030.803148799925,-0.0035731258191379852,0.0008368478164133388,0.9999932662061344,17.069702083881822,0.011706542558428505,12.08582701884364,-6.240590257526863,-3.20599365234375,5356.25390625,True
1599563142.8417735,0.0,10,0.5,0.5,-18.01106012573242,-0.2,-0.001,-0.12575,-0.018106553619055096,10,1,100,0.06352827093177567,-10,-1,-100,15030.279712612275,-0.003797316961801034,0.0005817989150808609,0.9999926209197317,16.947017365975363,0.011672373436520885,13.429278911790592,-6.983792153346023,-1.44659423828125,5356.25390625,True
1599563142.8756835,0.0,10,0.5,0.5,-17.878990699768067,-0.2,-0.001,-0.12575,0.0011203208648818234,10,1,100,0.0471670739645959,-10,-1,-100,15030.134206262766,-0.0038513430501772783,0.000526455799489053,0.9999924449719612,16.947935777997603,0.011677246085839853,13.787682916946638,-7.169596466655642,-1.178924560546875,5356.25390625,True
1599563142.9155765,0.0,10,0.5,0.5,-17.847017517089846,-0.2,-0.001,-0.12575,0.006484341876362185,10,1,100,0.041871706021549486,-10,-1,-100,15030.134206262766,-0.0038513430501772783,0.000526455799489053,0.9999924449719612,16.947935777997603,0.011677246085839853,13.787682916946638,-7.169596466655642,-1.178924560546875,5356.25390625,True
1599563142.953476,0.0,10,0.5,0.5,-17.975701362609865,-0.2,-0.001,-0.12575,-0.00842177738039692,10,1,100,0.061006243066550725,-10,-1,-100,15029.691824317444,-0.00402431846972658,0.0003924937203157923,0.9999918253713547,17.03005203722658,0.01173429465295967,14.932912341313946,-7.727016278968982,-0.7890625,5356.25390625,True
1599563142.9913738,0.0,10,0.5,0.5,-17.852933641052246,-0.2,-0.001,-0.12575,-0.006213662205828048,10,1,100,0.06253318944222205,-10,-1,-100,15029.188897089218,-0.004194542804165231,0.0002920295250460725,0.9999911602256395,17.23236314224828,0.011868996610751753,16.201858646637092,-8.284442846442005,-1.019012451171875,5356.25390625,True
1599563143.029273,0.0,10,0.5,0.5,-17.720691174316407,-0.2,-0.001,-0.12575,-0.0005048813869240952,10,1,100,0.05883314578640479,-10,-1,-100,15028.894953235169,-0.004314690180859232,0.00025373302749904066,0.9999906594904744,17.433375092959405,0.012011059029707599,17.127220414251408,-8.65606195427305,-1.516510009765625,5356.25390625,True
1599563143.0681689,0.0,10,0.5,0.5,-17.784102899169923,-0.2,-0.001,-0.12575,0.003195914740129861,10,1,100,0.04693660120638181,-10,-1,-100,15028.894953235169,-0.004314690180859232,0.00025373302749904066,0.9999906594904744,17.433375092959405,0.012011059029707599,17.127220414251408,-8.65606195427305,-1.516510009765625,5356.25390625,True
1599563143.1080625,0.0,10,0.5,0.5,-17.191487266540527,-0.2,-0.001,-0.12575,0.0007291404583397742,10,1,100,0.07316852014636731,-10,-1,-100,15028.120542056975,-0.004552197698176891,0.00023230410114271325,0.9999896117115025,17.985948725161254,0.012444407901134498,19.189987869438095,-9.399298067142748,-3.33770751953125,5356.25390625,True
1599563143.146958,0.0,10,0.5,0.5,-17.42061897277832,-0.2,-0.001,-0.12575,0.002796310966265963,10,1,100,0.04952664638519079,-10,-1,-100,15028.120542056975,-0.004552197698176891,0.00023230410114271325,0.9999896117115025,17.985948725161254,0.012444407901134498,19.189987869438095,-9.399298067142748,-3.33770751953125,5356.25390625,True
1599563143.1874547,0.0,10,0.5,0.5,-16.468546551513672,-0.2,-0.001,-0.12575,0.009580738639408552,10,1,100,0.07579099855413157,-10,-1,-100,15027.34417781292,-0.004790074470731772,0.000294530301548801,0.9999884841529257,18.720489266397404,0.013110588541763156,21.556356158367358,-10.142520803354035,-6.2603759765625,5356.25390625,True
1599563143.22635,0.0,10,0.5,0.5,-16.83576667175293,-0.2,-0.001,-0.12575,0.003303886847313324,10,1,100,0.05212501616380286,-10,-1,-100,15027.34417781292,-0.004790074470731772,0.000294530301548801,0.9999884841529257,18.720489266397404,0.013110588541763156,21.556356158367358,-10.142520803354035,-6.2603759765625,5356.25390625,True
1599563143.264249,0.0,10,0.5,0.5,-15.524461647033693,-0.2,-0.001,-0.12575,0.01941062505789707,10,1,100,0.07712445148086192,-10,-1,-100,15026.506290389225,-0.0050164395576969174,0.00044121634765731876,0.9999873202507613,19.597236774735574,0.014035499911368465,24.223420445832474,-10.885715219929722,-10.284393310546875,5356.25390625,True
1599563143.3026862,0.0,10,0.5,0.5,-16.029571279907227,-0.2,-0.001,-0.12575,0.0047334965018621215,10,1,100,0.05460445243509936,-10,-1,-100,15026.506290389225,-0.0050164395576969174,0.00044121634765731876,0.9999873202507613,19.597236774735574,0.014035499911368465,24.223420445832474,-10.885715219929722,-10.284393310546875,5356.25390625,True
1599563143.3355966,0.0,10,0.5,0.5,-15.238691136169434,-0.2,-0.001,-0.12575,0.015870993032665592,10,1,100,0.06677736670540302,-10,-1,-100,15026.0238699303,-0.0051260432360564784,0.0005425438065299246,0.9999867145752288,20.082873916981367,0.014603592909026585,25.673261477452847,-11.25729658771256,-12.70947265625,5356.25390625,True
1599563143.3764877,0.0,10,0.5,0.5,-15.11387207336426,-0.2,-0.001,-0.12575,0.012801478023105939,10,1,100,0.0611185655934293,-10,-1,-100,15025.813908869633,-0.0051732377292142,0.0006066185871579202,0.999986434720635,20.35737326191572,0.014929742630977912,26.454826544640323,-11.443082051057884,-14.025146484375,5356.25390625,True
1599563143.4163811,0.0,10,0.5,0.5,-14.353554690551757,-0.2,-0.001,-0.12575,0.021757829168418195,10,1,100,0.066898266713701,-10,-1,-100,15025.332465048414,-0.005267794828700918,0.0007460037717206533,0.9999858468078511,20.91250885825019,0.015623979275812437,28.061166079358536,-11.814641018705416,-16.86309814453125,5356.25390625,True
1599563143.4552782,0.0,10,0.5,0.5,-12.590930928039553,-0.2,-0.001,-0.12575,0.045584802570912124,10,1,100,0.07435238795882274,-10,-1,-100,15024.368600871647,-0.0054206541080555485,0.0010888789061237903,0.9999847153090734,22.020722547522,0.017135708048757727,31.412381316233784,-12.557704205120213,-23.364898681640625,5356.25390625,True
1599563143.4951704,0.0,10,0.5,0.5,-13.40634750671387,-0.2,-0.001,-0.12575,0.011380803718460899,10,1,100,0.059177056416079316,-10,-1,-100,15024.368600871647,-0.0054206541080555485,0.0010888789061237903,0.9999847153090734,22.020722547522,0.017135708048757727,31.412381316233784,-12.557704205120213,-23.364898681640625,5356.25390625,True
1599563143.5360606,0.0,10,0.5,0.5,-10.92764868927002,-0.2,-0.001,-0.12575,0.05748330672730455,10,1,100,0.06818091881244068,-10,-1,-100,15023.340283867205,-0.005501717896740762,0.0015072138654723861,0.9999837295709108,23.113837965287413,0.018704607875298374,34.929063179683844,-13.300679940666502,-30.96795654296875,5356.25390625,True
1599563143.5759537,0.0,10,0.5,0.5,-11.880970190429688,-0.2,-0.001,-0.12575,0.01577730176887793,10,1,100,0.060169491963775704,-10,-1,-100,15023.340283867205,-0.005501717896740762,0.0015072138654723861,0.9999837295709108,23.113837965287413,0.018704607875298374,34.929063179683844,-13.300679940666502,-30.96795654296875,5356.25390625,True
1599563143.6153603,0.0,10,0.5,0.5,-9.043028996276854,-0.2,-0.001,-0.12575,0.06827527689042634,10,1,100,0.060435126109304335,-10,-1,-100,15022.250442082528,-0.005503485804040105,0.001983365745155623,0.9999828888057662,23.94596228516115,0.019938163759500867,38.2149902755919,-14.043564280558808,-39.672393798828125,5356.25390625,True
1599563143.654255,0.0,10,0.5,0.5,-8.582017552185059,-0.2,-0.001,-0.12575,0.04944979412016151,10,1,100,0.05737631141747394,-10,-1,-100,15021.64399772603,-0.005476637030447133,0.0022435550329165154,0.9999824863004606,24.209862112799684,0.02030820955492553,39.661791488490636,-14.414976472971913,-44.43756103515625,5356.25390625,True
1599563143.6952374,0.0,10,0.5,0.5,-9.17782201538086,-0.2,-0.001,-0.12575,0.023611099212598182,10,1,100,0.06010720852404617,-10,-1,-100,15021.64399772603,-0.005476637030447133,0.0022435550329165154,0.9999824863004606,24.209862112799684,0.02030820955492553,39.661791488490636,-14.414976472971913,-44.43756103515625,5356.25390625,True
1599563143.7341335,0.0,10,0.5,0.5,-7.53236544647217,-0.2,-0.001,-0.12575,0.05137135299087042,10,1,100,0.0523675858134057,-10,-1,-100,15021.099076825427,-0.005405858462647901,0.002494282486641482,0.9999822774675352,24.340939042552144,0.020452331941659994,40.90793623989965,-14.786374592851203,-49.478363037109375,5356.25390625,True
1599563143.7750251,0.0,10,0.5,0.5,-4.609411122131348,-0.2,-0.001,-0.12575,0.08406825953683486,10,1,100,0.0370046545866954,-10,-1,-100,15019.820756980567,-0.005201596921472514,0.003017686832554663,0.9999819183143499,24.110723185823232,0.019959423174679563,42.56516811573986,-15.529154988810827,-60.385986328125,5356.25390625,True
1599563143.812433,0.0,10,0.5,0.5,-4.065182279968261,-0.2,-0.001,-0.12575,0.05921458138816216,10,1,100,0.04145414375815787,-10,-1,-100,15019.212358997553,-0.005056328731787949,0.0032653745563556245,0.9999818852703096,23.77908692985023,0.01937984860028003,42.98824406488842,-15.900551558189903,-66.25314331054688,5356.25390625,True
1599563143.856577,0.0,10,0.5,0.5,-4.79803826599121,-0.2,-0.001,-0.12575,0.03469774608652952,10,1,100,0.05595981611692303,-10,-1,-100,15019.212358997553,-0.005056328731787949,0.0032653745563556245,0.9999818852703096,23.77908692985023,0.01937984860028003,42.98824406488842,-15.900551558189903,-66.25314331054688,5356.25390625,True
1599563143.8945167,0.0,10,0.5,0.5,-2.7927250885009767,-0.2,-0.001,-0.12575,0.05990320173286963,10,1,100,0.03752552024848489,-10,-1,-100,15018.542437172262,-0.004889075428780573,0.003492536429822142,0.999981949402457,23.292119219542215,0.01862503758460937,43.096222293947555,-16.27196059686238,-72.39596557617188,5356.25390625,True
1599563143.93441,0.0,10,0.5,0.5,-0.39051209869384773,-0.2,-0.001,-0.12575,0.07357030789802427,10,1,100,0.021823105809045115,-10,-1,-100,15017.59712464991,-0.0045947610026692105,0.0038211085003624743,0.999982143491151,22.126580650687263,0.01720669902074839,42.348846558189315,-16.82910868263055,-82.12664794921875,5356.25390625,True
1599563143.9772956,0.0,10,0.5,0.5,0.6163952896118163,-0.2,-0.001,-0.12575,0.06193182441361125,10,1,100,0.02686800407423753,-10,-1,-100,15016.864702042076,-0.00437388965124615,0.004011902446781849,0.9999823867089241,21.046858977399673,0.016184789950438115,41.176462774464106,-17.200566467835156,-88.95834350585938,5356.25390625,True
1599563144.016191,0.0,10,0.5,0.5,0.909489049911499,-0.2,-0.001,-0.12575,0.052533645164864945,10,1,100,0.03612955587005366,-10,-1,-100,15016.528763444745,-0.004258318737410327,0.004097636506191487,0.9999825378958342,20.414519740798017,0.015678372424974676,40.3731102816748,-17.386302017195266,-92.47754669189453,5356.25390625,True
1599563144.0540898,0.0,10,0.5,0.5,5.129869233703613,-0.2,-0.001,-0.12575,0.07541964860401726,10,1,100,-0.005311393117717375,-10,-1,-100,15015.124464794062,-0.0037776503404585967,0.004381709072591601,0.9999832648517215,22.79805713327717,0.017958147551713065,47.02517894076276,-18.12917127837436,-106.77574920654297,5356.25390625,True
1599563144.0920298,0.0,10,0.5,0.5,3.338104086303711,-0.2,-0.001,-0.12575,0.04722620736797336,10,1,100,0.0425855479084568,-10,-1,-100,15015.124464794062,-0.0037776503404585967,0.004381709072591601,0.9999832648517215,22.79805713327717,0.017958147551713065,47.02517894076276,-18.12917127837436,-106.77574920654297,5356.25390625,True
1599563144.1318474,0.0,10,0.5,0.5,7.790885548782349,-0.2,-0.001,-0.12575,0.06774010633697705,10,1,100,-0.011179936777534823,-10,-1,-100,15013.594189291587,-0.003290417740304117,0.004566255286819203,0.9999841611064396,24.78461448427722,0.020356817581423877,53.23029547416034,-18.871869292307245,-120.42593383789062,5356.25390625,True
1599563144.1737356,0.0,10,0.5,0.5,8.174936240386963,-0.2,-0.001,-0.12575,0.055465836943760116,10,1,100,0.00936004601730691,-10,-1,-100,15012.859812575392,-0.0030361292571371,0.004620556693633071,0.9999847160706881,25.509115228559168,0.021280376600519152,55.870967555839485,-19.243162314685264,-126.8525390625,5356.25390625,True
1599563144.212427,0.0,10,0.5,0.5,9.377294855499269,-0.2,-0.001,-0.12575,0.054344768697721854,10,1,100,0.010448204382180415,-10,-1,-100,15012.06195982988,-0.0028168188645426033,0.004658272924989804,0.9999851829026473,25.980329639797276,0.021862279716673247,58.007901141544494,-19.614428937545746,-133.00405883789062,5356.25390625,True
1599563144.252087,0.0,10,0.5,0.5,10.524535582733156,-0.2,-0.001,-0.12575,0.05225993043881183,10,1,100,0.007770881797628526,-10,-1,-100,15011.26508318598,-0.0025951424022037212,0.004672341061716167,0.9999857171304575,26.24734802581732,0.02211104711149448,59.72059908068419,-19.985679255591357,-138.88009643554688,5356.25390625,True
1599563144.2866328,0.0,10,0.5,0.5,10.716275664520266,-0.2,-0.001,-0.12575,0.05103155135471721,10,1,100,0.01824096949926308,-10,-1,-100,15010.866645914153,-0.002491038403119219,0.004672684133879854,0.9999859802770532,26.32492599079233,0.02212609825846616,60.45715904303523,-20.17130075106733,-141.71475219726562,5356.25390625,True
1599563144.3275163,0.0,10,0.5,0.5,12.146171879577636,-0.2,-0.001,-0.12575,0.04994509592167786,10,1,100,0.006828126610089625,-10,-1,-100,15010.069769795984,-0.002294825320436878,0.004662046288542796,0.9999864994594437,26.34651099160132,0.021929222353609956,61.62808729938061,-20.54254108595656,-147.1772918701172,5356.25390625,True
1599563144.3674147,0.0,10,0.5,0.5,13.155396853637695,-0.2,-0.001,-0.12575,0.04783450425605087,10,1,100,0.006156624189722699,-10,-1,-100,15009.212345953798,-0.0021124360738879887,0.00463242383419597,0.999987039047634,26.213234681536463,0.021477276591389517,62.43255183865848,-20.913783438448455,-152.36419677734375,5356.25390625,True
1599563144.6755917,0.0,10,0.5,0.5,12.509484146881103,-0.2,-0.001,-0.12575,0.05085880182947486,10,1,100,0.024169403486875803,-10,-1,-100,15009.212345953798,-0.0021124360738879887,0.00463242383419597,0.999987039047634,26.213234681536463,0.021477276591389517,62.43255183865848,-20.913783438448455,-152.36419677734375,5356.25390625,True
1599563144.7064726,0.0,10,0.5,0.5,14.115254443359374,-0.2,-0.001,-0.12575,0.04665400620758533,10,1,100,0.00586927327663295,-10,-1,-100,15008.35199304088,-0.0019480220562162558,0.004593712249153334,0.9999875514314368,25.952498883804264,0.020839675372526765,62.917262407859226,-21.285032895078594,-157.2752685546875,5356.25390625,True
1599563144.7423775,0.0,10,0.5,0.5,15.012720784759523,-0.2,-0.001,-0.12575,0.04442273138962903,10,1,100,0.005746667532994817,-10,-1,-100,15007.492616851698,-0.0017991034681945541,0.004538042852427188,0.9999880846259022,25.59109502386866,0.020091077426627305,63.13204473203423,-21.656292562921386,-161.91067504882812,5356.25390625,True
1599563144.7802768,0.0,10,0.5,0.5,14.435331910705568,-0.2,-0.001,-0.12575,0.050005304440227216,10,1,100,0.020440671647938585,-10,-1,-100,15007.492616851698,-0.0017991034681945541,0.004538042852427188,0.9999880846259022,25.59109502386866,0.020091077426627305,63.13204473203423,-21.656292562921386,-161.91067504882812,5356.25390625,True
1599563144.8331358,0.0,10,0.5,0.5,17.189894760131835,-0.2,-0.001,-0.12575,0.0353915557713618,10,1,100,-0.006509355287393562,-10,-1,-100,15005.772887176834,-0.0015554589635752706,0.004405216239468768,0.9999890872491041,24.662671706076395,0.01853400083086808,62.946247576246996,-22.39884622080495,-170.35400390625,5356.25390625,True
1599563144.8830023,0.0,10,0.5,0.5,17.372966777038574,-0.2,-0.001,-0.12575,0.03935893460542156,10,1,100,0.0075058896452056476,-10,-1,-100,15004.851987401955,-0.0014627213408482437,0.004320727617501806,0.9999895958254438,24.138321379113115,0.017834595701756786,62.638739165161056,-22.770138643170437,-174.16204833984375,5356.25390625,True
1599563144.9199364,0.0,10,0.5,0.5,16.898220988464356,-0.2,-0.001,-0.12575,0.047774042271368965,10,1,100,0.016644242165538906,-10,-1,-100,15004.851987401955,-0.0014627213408482437,0.004320727617501806,0.9999895958254438,24.138321379113115,0.017834595701756786,62.638739165161056,-22.770138643170437,-174.16204833984375,5356.25390625,True
1599563144.9578362,0.0,10,0.5,0.5,18.052322280883793,-0.2,-0.001,-0.12575,0.03914343038295127,10,1,100,0.00784919473954935,-10,-1,-100,15003.927182015963,-0.00138379583794048,0.004242587158010931,0.9999900427320693,23.598596215850794,0.01723832056422748,62.2464092812808,-23.141439265930433,-177.69412231445312,5356.25390625,True
1599563144.9957,0.0,10,0.5,0.5,-97.62658519897461,-0.2,-0.001,-0.12575,0.026691127649171732,10,1,100,0.00503603953683014,-10,-1,-100,15002.018976429477,-0.001287477826695228,0.004058738621781111,0.9999909344797311,23.304298280842843,0.016989167178508763,63.46282522126451,-23.884045721373173,176.06903076171875,5356.25390625,True
1599563145.0346315,0.0,10,0.5,0.5,-53.17319333190918,-0.2,-0.001,-0.12575,0.04501565050547752,10,1,100,0.014567105911981163,-10,-1,-100,15002.018976429477,-0.001287477826695228,0.004058738621781111,0.9999909344797311,23.304298280842843,0.016989167178508763,63.46282522126451,-23.884045721373173,176.06903076171875,5356.25390625,True
1599563145.0685387,0.0,10,0.5,0.5,-52.32500657196045,-0.2,-0.001,-0.12575,0.03472692787283471,10,1,100,0.011917593178543781,-10,-1,-100,15001.033623625059,-0.0012641413093432453,0.003965726311677463,0.9999913374432656,23.94195338668388,0.01760922547618322,66.22350418147532,-24.255322915475627,173.36441040039062,5356.25390625,True
1599563145.1104267,0.0,10,0.5,0.5,-51.34625239868164,-0.2,-0.001,-0.12575,0.028075268394954674,10,1,100,0.013746980181466608,-10,-1,-100,14999.588309242856,-0.0012603282615630546,0.003821306123168435,0.999991904563325,24.798890654801685,0.018650982759189645,70.18576300943984,-24.812195182902574,169.21572875976562,5356.25390625,True
1599563145.1483378,0.0,10,0.5,0.5,-51.90059821472168,-0.2,-0.001,-0.12575,0.042440046633258934,10,1,100,0.014059515580020356,-10,-1,-100,14999.588309242856,-0.0012603282615630546,0.003821306123168435,0.999991904563325,24.798890654801685,0.018650982759189645,70.18576300943984,-24.812195182902574,169.21572875976562,5356.25390625,True
1599563145.1852262,0.0,10,0.5,0.5,-50.93196598205567,-0.2,-0.001,-0.12575,0.03163545321394275,10,1,100,0.016094637417328715,-10,-1,-100,14998.601003159536,-0.001279319164817341,0.003723734125473978,0.9999922485432762,25.40706010166627,0.019492397214871202,72.99475548347917,-25.18341184581008,166.14053344726562,5356.25390625,True
1599563145.2221344,0.0,10,0.5,0.5,-49.08070078277588,-0.2,-0.001,-0.12575,0.019750321215689842,10,1,100,0.023871404053306847,-10,-1,-100,14996.506275341962,-0.0013677540320150183,0.003527725935519402,0.9999928421736988,26.673018986815734,0.021463466685777005,78.91660996005771,-25.92575780889127,159.16961669921875,5356.25390625,True
1599563145.2609932,0.0,10,0.5,0.5,-48.720359733581546,-0.2,-0.001,-0.12575,0.028422262340098335,10,1,100,0.02243557209264963,-10,-1,-100,14995.45646996121,-0.001435266988853805,0.003429170218786183,0.9999930903762692,27.28081074653564,0.022514273121575265,81.88360427656004,-26.296884838589307,155.27127075195312,5356.25390625,True
1599563145.298929,0.0,10,0.5,0.5,-47.88390052719116,-0.2,-0.001,-0.12575,0.026977097706082382,10,1,100,0.024778376085858304,-10,-1,-100,14994.409594413126,-0.0015179655807836848,0.0033272467590819434,0.9999933125823891,27.90587714485685,0.023594037016406496,84.95544863798047,-26.667979509869124,151.0974578857422,5356.25390625,True
1599563145.338821,0.0,10,0.5,0.5,-46.99197529067994,-0.2,-0.001,-0.12575,0.026269967895875285,10,1,100,0.02771665756469901,-10,-1,-100,14993.359789705602,-0.0016198075466730953,0.0032290637800384066,0.9999934746640181,28.468497693543004,0.024591974863028027,87.88825091691139,-27.03904257438723,146.6483154296875,5356.25390625,True
1599563145.378716,0.0,10,0.5,0.5,-46.04488745880127,-0.2,-0.001,-0.12575,0.025017949628572896,10,1,100,0.030438109732885115,-10,-1,-100,14992.250414288952,-0.0017369170701844942,0.0031293459270033265,0.9999935951360691,28.947115557576666,0.02543791125544721,90.60654193952055,-27.41007671004686,141.923828125,5356.25390625,True
1599563145.4175746,0.0,10,0.5,0.5,-46.63557721710205,-0.2,-0.001,-0.12575,0.03489679566260313,10,1,100,0.018772101306094146,-10,-1,-100,14992.250414288952,-0.0017369170701844942,0.0031293459270033265,0.9999935951360691,28.947115557576666,0.02543791125544721,90.60654193952055,-27.41007671004686,141.923828125,5356.25390625,True
1599563145.4555054,0.0,10,0.5,0.5,-44.15552127456665,-0.2,-0.001,-0.12575,0.018380676597037064,10,1,100,0.041555238577536985,-10,-1,-100,14990.55119641032,-0.0019436279187944388,0.002980044292493433,0.9999936708032348,29.45722623533798,0.0262678782863944,94.09759925234093,-27.96658295753049,134.32093811035156,5356.25390625,True
1599563145.4914105,0.0,10,0.5,0.5,-44.237307124328616,-0.2,-0.001,-0.12575,0.027790874710636612,10,1,100,0.029495798141705047,-10,-1,-100,14990.026781343971,-0.0020212978802873244,0.0029307588639891475,0.999993662483598,29.55980410916669,0.026396437861810656,95.05912841592202,-28.152076166717656,131.64903259277344,5356.25390625,True
1599563145.530308,0.0,10,0.5,0.5,-43.67677702102661,-0.2,-0.001,-0.12575,0.02765398451597518,10,1,100,0.030760933929939283,-10,-1,-100,14989.439867981127,-0.002102716380065964,0.0028855190610875834,0.9999936261614736,29.623791680474948,0.026441448397188046,95.90026034269361,-28.337566386808415,128.90838623046875,5356.25390625,True
1599563145.5701978,0.0,10,0.5,0.5,-40.22225290908814,-0.2,-0.001,-0.12575,0.012230485040675258,10,1,100,0.063613073608312,-10,-1,-100,14987.155689460924,-0.002474623205924022,0.002705029051458054,0.9999932795063272,29.432511595327988,0.025749049963794193,97.80781709316717,-29.079519499728818,117.25794982910156,5356.25390625,True
1599563145.610132,0.0,10,0.5,0.5,-41.68240702819825,-0.2,-0.001,-0.12575,0.03017761549622662,10,1,100,0.026541921426616856,-10,-1,-100,14987.155689460924,-0.002474623205924022,0.002705029051458054,0.9999932795063272,29.432511595327988,0.025749049963794193,97.80781709316717,-29.079519499728818,117.25794982910156,5356.25390625,True
1599563145.6490304,0.0,10,0.5,0.5,-39.64628462524414,-0.2,-0.001,-0.12575,0.0210731599589793,10,1,100,0.0499787711115869,-10,-1,-100,14985.979908801732,-0.0026866792310838326,0.002623009180104952,0.9999929507639294,29.029075855052138,0.02492017345250437,97.71458638441659,-29.45050740980642,111.02024841308594,5356.25390625,True
1599563145.6879303,0.0,10,0.5,0.5,-38.304705184173585,-0.2,-0.001,-0.12575,0.01986727251869042,10,1,100,0.05544408773305621,-10,-1,-100,14984.804128956865,-0.002928004484840445,0.0025382159212710346,0.9999924920966525,28.39355704956482,0.02385919277875787,96.7965821614867,-29.82151447640532,104.5074462890625,5356.25390625,True
1599563145.7288494,0.0,10,0.5,0.5,-34.607451208496094,-0.2,-0.001,-0.12575,0.01395287306050908,10,1,100,0.08930146691657902,-10,-1,-100,14982.331475940533,-0.003453903581829339,0.0024080811734729255,0.9999911358082679,26.366709213596664,0.021477109208568476,92.15801536661795,-30.563612258094405,90.65762329101562,5356.25390625,True
1599563145.7687426,0.0,10,0.5,0.5,-33.953407978820806,-0.2,-0.001,-0.12575,0.02128833662204513,10,1,100,0.06970896853028938,-10,-1,-100,14981.155697249807,-0.0037522126882755585,0.0023572092374945773,0.9999901821840816,26.026578431517205,0.021237132095325403,92.09131328863081,-30.93469386814645,83.32052612304688,5356.25390625,True
1599563145.8126266,0.0,10,0.5,0.5,-34.87018761749268,-0.2,-0.001,-0.12575,0.026298316550929082,10,1,100,0.04007958744747653,-10,-1,-100,14981.155697249807,-0.0037522126882755585,0.0023572092374945773,0.9999901821840816,26.026578431517205,0.021237132095325403,92.09131328863081,-30.93469386814645,83.32052612304688,5356.25390625,True
1599563145.852486,0.0,10,0.5,0.5,-32.38479797515869,-0.2,-0.001,-0.12575,0.022183857691235688,10,1,100,0.07699335725450088,-10,-1,-100,14979.857848964399,-0.004085960326868424,0.002320507008487827,0.999988960026775,27.62204602192833,0.022881804839888394,98.92793767125907,-31.305725827638277,75.70877075195312,5356.25390625,True
1599563145.9003575,0.0,10,0.5,0.5,-30.767150568389894,-0.2,-0.001,-0.12575,0.023829966674965168,10,1,100,0.08216995259440538,-10,-1,-100,14978.619571444113,-0.0044344796537628215,0.0023027055522283272,0.9999875163907497,29.005870953441836,0.0245744486834502,105.13507945529099,-31.676697591979316,67.82246398925781,5356.25390625,True
1599563145.942254,0.0,10,0.5,0.5,-26.346341165161135,-0.2,-0.001,-0.12575,0.02858648119108213,10,1,100,0.13102315093902991,-10,-1,-100,14976.022901835502,-0.005193241588823882,0.0023303344087859915,0.9999837997604478,31.022129647544652,0.027359775618460255,115.11866069431107,-32.41847711055083,51.22651672363281,5356.25390625,True
1599563145.9831717,0.0,10,0.5,0.5,-28.425513346862797,-0.2,-0.001,-0.12575,0.025768077070085545,10,1,100,0.055456009953799616,-10,-1,-100,14976.022901835502,-0.005193241588823882,0.0023303344087859915,0.9999837997604478,31.022129647544652,0.027359775618460255,115.11866069431107,-32.41847711055083,51.22651672363281,5356.25390625,True
1599563146.0232177,0.0,10,0.5,0.5,-22.655601590728757,-0.2,-0.001,-0.12575,0.04380118551660667,10,1,100,0.14820790799807634,-10,-1,-100,14973.419399995357,-0.006033969190696489,0.002494612389793158,0.9999786838352258,31.806756504900015,0.02807340448565655,120.77430892418316,-33.160116813754364,33.534088134765625,5356.25390625,True
1599563146.0671082,0.0,10,0.5,0.5,-21.85643400039673,-0.2,-0.001,-0.12575,0.04021245161393143,10,1,100,0.11167413445142,-10,-1,-100,14972.057103273808,-0.006462906027443099,0.002611522443104139,0.9999757051029837,31.53667652558138,0.027356613585674622,121.11077954929335,-33.530935245296824,24.276626586914062,5356.25390625,True
1599563146.1079972,0.0,10,0.5,0.5,-19.907289503479006,-0.2,-0.001,-0.12575,0.05051026902442621,10,1,100,0.11818935682612809,-10,-1,-100,14970.69383067463,-0.006908644967167946,0.002811431274152257,0.9999721828525573,30.78253834019558,0.026083046820237325,119.54582143650279,-33.90178204685847,14.746017456054688,5356.25390625,True
1599563146.157901,0.0,10,0.5,0.5,-17.90294529953003,-0.2,-0.001,-0.12575,0.055182184398535804,10,1,100,0.12214791582007246,-10,-1,-100,14969.330559774651,-0.00734623032096973,0.003035390155458014,0.999968409154347,29.530888010734643,0.024520509685953786,115.96381951627599,-34.27267365587172,4.941436767578125,5356.25390625,True
1599563146.2027438,0.0,10,0.5,0.5,-15.84436042480469,-0.2,-0.001,-0.12575,0.06355249002089233,10,1,100,0.12555087177004565,-10,-1,-100,14967.96924248687,-0.007771432672390072,0.003314512545046502,0.9999643087834721,27.82083929766991,0.02297992896278758,110.45485441390002,-34.64361732523572,-5.13665771484375,5356.25390625,True
1599563146.2496195,0.0,10,0.5,0.5,-13.730793721008302,-0.2,-0.001,-0.12575,0.07159610830503914,10,1,100,0.1277790957610507,-10,-1,-100,14966.605972824735,-0.008174583009977598,0.0036405136987941425,0.999959960624735,29.7338923582781,0.024941765381400537,119.33974716589334,-35.014521068340585,-15.48828125,5356.25390625,True
1599563146.2954965,0.0,10,0.5,0.5,-11.561446279907226,-0.2,-0.001,-0.12575,0.07958548564192097,10,1,100,0.1286194591325761,-10,-1,-100,14965.178250598954,-0.008544702647233123,0.004008342446662469,0.9999554596318282,31.431448047448637,0.027070285979194923,127.51597679439874,-35.385343604640866,-26.113555908203125,5356.25390625,True
1599563146.3413734,0.0,10,0.5,0.5,-9.337087144470216,-0.2,-0.001,-0.12575,0.08719920736831928,10,1,100,0.1281183859374062,-10,-1,-100,14963.75541122281,-0.008872566431763542,0.004410413473657137,0.9999509117041223,32.58525129712997,0.028765856408961572,133.6091473389125,-35.75609508368342,-37.012420654296875,5356.25390625,True
1599563146.3922374,0.0,10,0.5,0.5,-8.888541438293457,-0.2,-0.001,-0.12575,0.07035605336284366,10,1,100,0.11171206177775903,-10,-1,-100,14963.0405729739,-0.009017441391905311,0.004620896909128485,0.9999486652136191,32.985164569185926,0.029365688054443558,135.96351032603593,-35.94145044466774,-42.56451416015625,5356.25390625,True
