Timestamp,Input Throttle,horizon,dT,dt,Input Roll,Roll P,Roll I,Roll D,Input Pitch,Pitch P,Pitch I,Pitch D,Input Yaw,Yaw P,Yaw I,Yaw D,Altitude,Direction X,Direction Y,Direction Z,Drag X,Drag Y,Drag Z,Vertical Velocity,Roll,Mass,Has Fuel
1599562707.1549528,0.0,10,0.5,0.5,-8.746172302246093,-0.15025,-0.02275,-0.37525,-0.00028152846637662137,10,1,100,0.17500397558132008,-10,-1,-100,14993.952916234615,-0.016812870178509798,-7.552362208819444e-05,0.9998586508564814,28.644412184065665,0.027274989340636453,-87.50335885647753,27.008978287706828,-31.792022705078125,5356.25390625,True
1599562707.185869,0.0,10,0.5,0.5,-8.87847643966675,-0.15025,-0.02275,-0.37525,-0.0004989588890442087,10,1,100,0.17374415677497532,-10,-1,-100,14994.494910430512,-0.016848635341891856,-7.312517032413484e-05,0.9998580489948687,28.571767892457125,0.027439404791699103,-86.68206671246523,26.8230107522064,-31.79144287109375,5356.25390625,True
1599562707.221813,0.0,10,0.5,0.5,-9.011004064178465,-0.15025,-0.02275,-0.37525,-0.00048722850667128287,10,1,100,0.17589415272711595,-10,-1,-100,14995.040810250677,-0.016885377603311467,-7.077164236221395e-05,0.9998574293440882,28.499172073083287,0.027602335791944387,-85.86396859119053,26.637046992275657,-31.79083251953125,5356.25390625,True
1599562707.2577147,0.0,10,0.5,0.5,-8.98536485671997,-0.15025,-0.02275,-0.37525,0.011512858192791374,10,1,100,0.18431904108282854,-10,-1,-100,14997.090620605159,-0.01698001921001458,4.052396363679485e-05,0.9998558282599725,28.220376005135694,0.028247561778649448,-82.65596735887797,25.8932315535366,-32.0911865234375,5356.25390625,True
1599562707.2950308,0.0,10,0.5,0.5,-8.952792328643797,-0.15025,-0.02275,-0.37525,0.012325108982767018,10,1,100,0.1786838868406173,-10,-1,-100,14998.116011930397,-0.016999391978260933,0.00014904904539600252,0.9998554887866303,28.106449722290265,0.028576862008276367,-81.1430216751876,25.521345851635576,-32.61834716796875,5356.25390625,True
1599562707.32598,0.0,10,0.5,0.5,-9.088821031951904,-0.15025,-0.02275,-0.37525,0.009530758392057668,10,1,100,0.17797102035241869,-10,-1,-100,14998.658980579581,-0.016995068988611937,0.00022216952431120085,0.9998555487022988,28.05699873704022,0.02874170781138985,-80.41164938065047,25.33540803726851,-32.984344482421875,5356.25390625,True
1599562707.361899,0.0,10,0.5,0.5,-9.127489404296876,-0.15025,-0.02275,-0.37525,0.011729926354911125,10,1,100,0.17883679481372072,-10,-1,-100,14999.1423785527,-0.01698355961222595,0.0003084331506924933,0.9998557213777843,28.012202202628952,0.028905206844436874,-79.69558202066676,25.14947339235493,-33.4189453125,5356.25390625,True
1599562707.39975,0.0,10,0.5,0.5,-8.517599617004393,-0.15025,-0.02275,-0.37525,0.039741435369540196,10,1,100,0.17255946148094986,-10,-1,-100,15000.647258188692,-0.01690059027647511,0.0006412243173987576,0.9998569692109375,27.901158100826652,0.029373303257464612,-77.62352003238883,24.591687694125998,-35.13482666015625,5356.25390625,True
1599562707.436654,0.0,10,0.5,0.5,-9.286302362060546,-0.15025,-0.02275,-0.37525,0.006526441130653647,10,1,100,0.18254645408368128,-10,-1,-100,15000.647258188692,-0.01690059027647511,0.0006412243173987576,0.9998569692109375,27.901158100826652,0.029373303257464612,-77.62352003238883,24.591687694125998,-35.13482666015625,5356.25390625,True
1599562707.4701502,0.0,10,0.5,0.5,-8.184483546447755,-0.15025,-0.02275,-0.37525,0.0549716895031334,10,1,100,0.16540385594031037,-10,-1,-100,15002.093541027745,-0.016729384302193125,0.0010810527350418474,0.9998594696385353,27.81187827933149,0.029770383675397517,-75.62446614201015,24.033928097371867,-37.46905517578125,5356.25390625,True
1599562707.509045,0.0,10,0.5,0.5,-8.181640310668946,-0.15025,-0.02275,-0.37525,0.04979402766236013,10,1,100,0.16620198372224512,-10,-1,-100,15003.05447237799,-0.016565789683316005,0.0014328443227694066,0.9998617512282959,27.75374994949255,0.029966959120099137,-74.30164583102385,23.662102329211187,-39.36871337890625,5356.25390625,True
1599562707.5469449,0.0,10,0.5,0.5,-8.877250080108642,-0.15025,-0.02275,-0.37525,0.014765705684089957,10,1,100,0.18253673756043767,-10,-1,-100,15003.05447237799,-0.016565789683316005,0.0014328443227694066,0.9998617512282959,27.75374994949255,0.029966959120099137,-74.30164583102385,23.662102329211187,-39.36871337890625,5356.25390625,True
1599562707.5838459,0.0,10,0.5,0.5,-7.717167963409423,-0.15025,-0.02275,-0.37525,0.05666555625339373,10,1,100,0.15873630207138187,-10,-1,-100,15003.955831957748,-0.01634967922037784,0.0018123829920420832,0.9998646924745773,27.68734896048623,0.03008530784678083,-72.96184012829198,23.29028786380851,-41.543487548828125,5356.25390625,True
1599562707.6207476,0.0,10,0.5,0.5,-5.7920897048950195,-0.15025,-0.02275,-0.37525,0.11607320252624886,10,1,100,0.1176336456515243,-10,-1,-100,15005.818117857096,-0.01578004164878347,0.0026957756987391955,0.9998718533286877,27.4906446745826,0.02999838566938913,-70.1357846968139,22.5466968114363,-46.717559814453125,5356.25390625,True
1599562707.6576498,0.0,10,0.5,0.5,-6.1240296562194825,-0.15025,-0.02275,-0.37525,0.08004023420647342,10,1,100,0.1341702069801609,-10,-1,-100,15006.714591229684,-0.015413612575377312,0.003168873673070337,0.999876181728028,27.3374956471402,0.02974897260671274,-68.59761904833498,22.174923192509468,-49.71728515625,5356.25390625,True
1599562707.6965444,0.0,10,0.5,0.5,-5.489654955291748,-0.15025,-0.02275,-0.37525,0.08479302596296437,10,1,100,0.12439732231622748,-10,-1,-100,15007.551492804545,-0.014993092447520395,0.0036394246433143155,0.9998809737999447,27.13071221718078,0.02933726997545524,-66.9400031330457,21.80316747102964,-52.99249267578125,5356.25390625,True
1599562707.7289462,0.0,10,0.5,0.5,-6.673158039855957,-0.15025,-0.02275,-0.37525,0.038079654450466814,10,1,100,0.16624913744780997,-10,-1,-100,15007.551492804545,-0.014993092447520395,0.0036394246433143155,0.9998809737999447,27.13071221718078,0.02933726997545524,-66.9400031330457,21.80316747102964,-52.99249267578125,5356.25390625,True
1599562708.0231593,0.0,10,0.5,0.5,-5.713910537719727,-0.15025,-0.02275,-0.37525,0.0657887559411599,10,1,100,0.1408728586371777,-10,-1,-100,15007.971408158424,-0.014764208519391652,0.0038882973918727783,0.9998834428523098,27.00285234568104,0.029066576786786473,-66.05786781633367,21.617297130001262,-54.733154296875,5356.25390625,True
1599562708.0539763,0.0,10,0.5,0.5,-4.384485810852051,-0.15025,-0.02275,-0.37525,0.0951591112241158,10,1,100,0.1085034213367557,-10,-1,-100,15008.869831603137,-0.014263806774504489,0.00437859669033964,0.9998886796575522,26.688992376454422,0.028391325158249447,-64.16997014479178,21.245573797833767,-58.421112060546875,5356.25390625,True
1599562708.0918841,0.0,10,0.5,0.5,-5.715415662384033,-0.15025,-0.02275,-0.37525,0.04650291861472373,10,1,100,0.15827991747527495,-10,-1,-100,15008.869831603137,-0.014263806774504489,0.00437859669033964,0.9998886796575522,26.688992376454422,0.028391325158249447,-64.16997014479178,21.245573797833767,-58.421112060546875,5356.25390625,True
1599562708.1297805,0.0,10,0.5,0.5,-1.3574886550903327,-0.15025,-0.02275,-0.37525,0.1537258769603286,10,1,100,0.029967895335657732,-10,-1,-100,15010.541677421541,-0.013099575280078594,0.005350353089885777,0.9998998824128819,25.77390609051702,0.026518812787589358,-59.80677265646637,20.502210015695,-66.62332153320312,5356.25390625,True
1599562708.1786368,0.0,10,0.5,0.5,-4.373363526153565,-0.15025,-0.02275,-0.37525,0.05694198788242652,10,1,100,0.14604442333792342,-10,-1,-100,15010.541677421541,-0.013099575280078594,0.005350353089885777,0.9998998824128819,25.77390609051702,0.026518812787589358,-59.80677265646637,20.502210015695,-66.62332153320312,5356.25390625,True
1599562708.231499,0.0,10,0.5,0.5,-1.9392322784423828,-0.15025,-0.02275,-0.37525,0.11127052091578649,10,1,100,0.07183048771488407,-10,-1,-100,15011.31900606223,-0.012428054242053907,0.005840687473128035,0.9999057104735416,25.13964154418052,0.0253535101115977,-57.280365201681086,20.130578134360857,-71.13735961914062,5356.25390625,True
1599562708.2674117,0.0,10,0.5,0.5,-1.0483287811279296,-0.15025,-0.02275,-0.37525,0.10784658945802515,10,1,100,0.06339340933638278,-10,-1,-100,15012.0914513428,-0.011744444972207202,0.006251657258749451,0.9999114884797624,24.365551691648882,0.024077805298669926,-54.494631916436845,19.75898456275745,-75.927978515625,5356.25390625,True
1599562708.304274,0.0,10,0.5,0.5,-0.11767151870727566,-0.15025,-0.02275,-0.37525,0.11568580342166943,10,1,100,0.04679186040037607,-10,-1,-100,15012.926397316856,-0.010975727551725205,0.006693299116656587,0.9999173631613991,23.434649777804182,0.022735064597803032,-51.429856668538,19.38743154930429,-80.993408203125,5356.25390625,True
1599562708.3411753,0.0,10,0.5,0.5,0.8598575767517089,-0.15025,-0.02275,-0.37525,0.11233238944227954,10,1,100,0.037833596549119886,-10,-1,-100,15013.639272603788,-0.010199489211751653,0.007061102109992633,0.9999230526679597,22.353931252643136,0.021393050916655432,-48.120765659943615,19.015919663616046,-86.3353271484375,5356.25390625,True
1599562708.3741245,0.0,10,0.5,0.5,3.3944835441589354,-0.15025,-0.02275,-0.37525,0.12957483236534004,10,1,100,-0.019804664300774197,-10,-1,-100,15014.769133861177,-0.008974191625172814,0.0075491073328107896,0.9999312350672681,21.668044190236316,0.020642389735651356,-45.28143032559118,18.458711012887797,-94.82881164550781,5356.25390625,True
1599562708.4099894,0.0,10,0.5,0.5,1.823172396469116,-0.15025,-0.02275,-0.37525,0.09642983494291973,10,1,100,0.05617976037129341,-10,-1,-100,15015.122642956441,-0.008556523953322072,0.007687876029087569,0.9999338390413626,22.152554030146085,0.021171361616268584,-45.82945815826984,18.272974611087285,-97.72261047363281,5356.25390625,True
1599562708.4469264,0.0,10,0.5,0.5,3.819029515838623,-0.15025,-0.02275,-0.37525,0.10943012778019776,10,1,100,0.006144662934434303,-10,-1,-100,15015.895090767532,-0.007727604897273651,0.00792875970728061,0.9999387075676468,23.085316429684312,0.02231648094605636,-46.790907567516065,17.901491930629383,-103.40092468261719,5356.25390625,True
1599562708.487822,0.0,10,0.5,0.5,3.2359888576507565,-0.15025,-0.02275,-0.37525,0.09696656500125339,10,1,100,0.04317526857160307,-10,-1,-100,15016.253482938628,-0.007316625990183194,0.00803121233217757,0.9999409815647099,23.476725809156253,0.022862665831256183,-47.09180637329968,17.71574526949452,-106.15148162841797,5356.25390625,True
1599562708.5257165,0.0,10,0.5,0.5,7.740159335517882,-0.15025,-0.02275,-0.37525,0.1194598426507168,10,1,100,-0.10012090594021263,-10,-1,-100,15017.609906132799,-0.005646631925252019,0.008325514864677348,0.9999493993948587,24.587356409040783,0.024711036356112544,-47.255961020459814,16.972726976332893,-116.48017883300781,5356.25390625,True
1599562708.565196,0.0,10,0.5,0.5,6.475388573646545,-0.15025,-0.02275,-0.37525,0.09879144977876994,10,1,100,-0.024880392242026664,-10,-1,-100,15018.258334201179,-0.0048192355756206656,0.008402463448318728,0.9999530856877569,24.99384537927159,0.0254506081320884,-46.987940522584495,16.601203969526463,-121.23307800292969,5356.25390625,True
1599562708.6040583,0.0,10,0.5,0.5,7.168914828300476,-0.15025,-0.02275,-0.37525,0.09807777730361211,10,1,100,-0.026042339818717168,-10,-1,-100,15018.905786934774,-0.0040640214977172105,0.008463154128801791,0.9999559284045765,25.25346531724395,0.025958711393256118,-46.41564229462271,16.229677707344017,-125.71036529541016,5356.25390625,True
1599562708.6449816,0.0,10,0.5,0.5,5.612966359710693,-0.15025,-0.02275,-0.37525,0.09227095592087321,10,1,100,0.048642664697194665,-10,-1,-100,15018.905786934774,-0.0040640214977172105,0.008463154128801791,0.9999559284045765,25.25346531724395,0.025958711393256118,-46.41564229462271,16.229677707344017,-125.71036529541016,5356.25390625,True
1599562708.6818504,0.0,10,0.5,0.5,7.9344142103195185,-0.15025,-0.02275,-0.37525,0.09418268711915459,10,1,100,-0.03616358061783941,-10,-1,-100,15019.554217450903,-0.003300037834375528,0.008478523051631574,0.9999586113420669,25.38421759302975,0.02622986636812998,-45.589941368071734,15.858153340734368,-129.91244506835938,5356.25390625,True
1599562708.7138026,0.0,10,0.5,0.5,9.509768024635314,-0.15025,-0.02275,-0.37525,0.08943684949934444,10,1,100,-0.07898057427049149,-10,-1,-100,15020.494639482233,-0.002223239734238388,0.008447727890446762,0.9999618458214159,25.379967970493592,0.026220110734980234,-43.983352273960584,15.300881059574214,-135.69911193847656,5356.25390625,True
1599562708.751714,0.0,10,0.5,0.5,7.450623892021179,-0.15025,-0.02275,-0.37525,0.09265502819587107,10,1,100,0.027901610795471155,-10,-1,-100,15020.494639482233,-0.002223239734238388,0.008447727890446762,0.9999618458214159,25.379967970493592,0.026220110734980234,-43.983352273960584,15.300881059574214,-135.69911193847656,5356.25390625,True
1599562708.788641,0.0,10,0.5,0.5,9.389910099601746,-0.15025,-0.02275,-0.37525,0.08709363966697595,10,1,100,-0.047342876180340755,-10,-1,-100,15021.07861882064,-0.0015453361725409475,0.008396352885131683,0.9999635559330861,25.269956650180255,0.02596906109759957,-42.73128187850736,14.929382054514463,-139.21253967285156,5356.25390625,True
1599562708.825542,0.0,10,0.5,0.5,9.867209821891784,-0.15025,-0.02275,-0.37525,0.08660956254846185,10,1,100,-0.049945411555207375,-10,-1,-100,15021.66259987303,-0.000911774601936106,0.008344603563898715,0.999964767508554,25.093251181818232,0.025557884928000884,-41.37844922841721,14.55789967484196,-142.4500732421875,5356.25390625,True
1599562708.8634367,0.0,10,0.5,0.5,10.297992798042296,-0.15025,-0.02275,-0.37525,0.08000001617413412,10,1,100,-0.056245326839124477,-10,-1,-100,15022.24658124044,-0.0002847337899827651,0.008237093901323385,0.9999660340285212,24.865240466100772,0.02502131701154193,-39.958001996758895,14.186436126101558,-145.4126434326172,5356.25390625,True
1599562708.897316,0.0,10,0.5,0.5,10.6873354511261,-0.15025,-0.02275,-0.37525,0.08099271416824166,10,1,100,-0.05716054398494869,-10,-1,-100,15022.830563330674,0.0002872308383912191,0.008148195206593021,0.9999667616542666,24.629992697027728,0.024422666701492107,-38.5453735837304,13.814992284905298,-148.09909057617188,5356.25390625,True
1599562708.938208,0.0,10,0.5,0.5,11.01809316329956,-0.15025,-0.02275,-0.37525,0.07827316371757356,10,1,100,-0.06020532656250479,-10,-1,-100,15023.353999661049,0.0008294841032874937,0.008042816225157602,0.9999673119973926,24.39058901983606,0.023781293688162487,-37.14616618613238,13.443568455273075,-150.5099639892578,5356.25390625,True
1599562708.9743407,0.0,10,0.5,0.5,10.75913749771118,-0.15025,-0.02275,-0.37525,0.08290370229182745,10,1,100,-0.03492440635553299,-10,-1,-100,15023.584467620007,0.0010874798697853559,0.007989439908366949,0.999967492590376,24.264300727140384,0.02344434548147106,-36.444204863048896,13.25786389205544,-151.61199951171875,5356.25390625,True
1599562709.011242,0.0,10,0.5,0.5,11.924462431526184,-0.15025,-0.02275,-0.37525,0.07068166246282215,10,1,100,-0.08853170392849359,-10,-1,-100,15024.39696723409,0.0018046773614762337,0.007830237180312156,0.9999677147414916,23.875628901345856,0.02240422453044009,-34.3559950103834,12.700778611309653,-154.50436401367188,5356.25390625,True
1599562709.049141,0.0,10,0.5,0.5,11.33877033805847,-0.15025,-0.02275,-0.37525,0.08090330684508586,10,1,100,-0.04167325510736055,-10,-1,-100,15024.62450627773,0.002025354002040192,0.007779006846417915,0.9999676919749207,23.746946342949173,0.022056168642342656,-33.672030934453105,12.515092559772144,-155.33055114746094,5356.25390625,True
1599562709.086624,0.0,10,0.5,0.5,11.846265951538085,-0.15025,-0.02275,-0.37525,0.07398422259143612,10,1,100,-0.06596841136138772,-10,-1,-100,15025.145990883582,0.0024419929213745683,0.007670168973485619,0.9999676020644319,23.497409556653974,0.021370139310381172,-32.33105354221918,12.143732802435581,-156.77621459960938,5356.25390625,True
1599562709.12552,0.0,10,0.5,0.5,11.966284540176392,-0.15025,-0.02275,-0.37525,0.07595208002003989,10,1,100,-0.06624168610201593,-10,-1,-100,15025.60595297208,0.0028189987705427915,0.0075898219373680765,0.9999672233872923,23.264346627003754,0.020707470763768946,-31.032957567473904,11.772388207652096,-157.9456787109375,5356.25390625,True
1599562709.1639957,0.0,10,0.5,0.5,12.047825540924073,-0.15025,-0.02275,-0.37525,0.07342038394630296,10,1,100,-0.0670400854184414,-10,-1,-100,15026.064938327414,0.003164405683113425,0.0074945436729118645,0.9999669086283842,23.05393075124258,0.020076865991027763,-29.78363216348382,11.401056833741224,-158.83963012695312,5356.25390625,True
1599562709.1979048,0.0,10,0.5,0.5,12.08169071083069,-0.15025,-0.02275,-0.37525,0.07499020190483405,10,1,100,-0.06688195664907572,-10,-1,-100,15026.52197063691,0.0034726928494964453,0.007423017967767609,0.9999664190404712,22.870810660365088,0.01948364606055879,-28.586025025668008,11.029736768041008,-159.45745849609375,5356.25390625,True
1599562709.2367983,0.0,10,0.5,0.5,12.103742749404907,-0.15025,-0.02275,-0.37525,0.07192728492641011,10,1,100,-0.08026060077041361,-10,-1,-100,15027.146972808521,0.0038705920678100514,0.007330987704738187,0.9999656369777502,22.65480743074221,0.018669605998831943,-26.887943741402676,10.472773779809716,-159.86697387695312,5356.25390625,True
1599562709.274698,0.0,10,0.5,0.5,11.945172562408448,-0.15025,-0.02275,-0.37525,0.07598460723718493,10,1,100,-0.06523079017659379,-10,-1,-100,15027.542482110439,0.004091906419189701,0.007285032310442652,0.9999650916937514,22.552636160427888,0.01817785323342904,-25.818788440775265,10.101473840027042,-159.79507446289062,5356.25390625,True
1599562709.312597,0.0,10,0.5,0.5,11.998761180877684,-0.15025,-0.02275,-0.37525,0.08049383037712338,10,1,100,-0.04347982259670864,-10,-1,-100,15027.542482110439,0.004091906419189701,0.007285032310442652,0.9999650916937514,22.552636160427888,0.01817785323342904,-25.818788440775265,10.101473840027042,-159.79507446289062,5356.25390625,True
1599562709.351494,0.0,10,0.5,0.5,11.837063151931764,-0.15025,-0.02275,-0.37525,0.07740527669353975,10,1,100,-0.06432509033754051,-10,-1,-100,15027.938968002796,0.004278443014728262,0.007257643444150723,0.9999645101387385,22.484322129171872,0.01772555052783457,-24.79545878921943,9.730178793007992,-159.44717407226562,5356.25390625,True
1599562709.38936,0.0,10,0.5,0.5,11.439442525863646,-0.15025,-0.02275,-0.37525,0.07684176505163881,10,1,100,-0.06966555195631402,-10,-1,-100,15028.499516794109,0.004493670513438582,0.007228286911199158,0.9999637787408332,22.442546892071462,0.017117008212012803,-23.33414657986838,9.17324177051096,-158.40817260742188,5356.25390625,True
1599562709.4292874,0.0,10,0.5,0.5,10.966021398544312,-0.15025,-0.02275,-0.37525,0.07948770475700241,10,1,100,-0.06339152761286843,-10,-1,-100,15029.06104184594,0.004629850751733039,0.007226200378809325,0.9999631725769214,22.465102972024635,0.016586414609872414,-21.94069819396616,8.616307167195904,-156.74844360351562,5356.25390625,True
1599562709.468184,0.0,10,0.5,0.5,11.228854724121092,-0.15025,-0.02275,-0.37525,0.08017872894149483,10,1,100,-0.05305349597791252,-10,-1,-100,15029.227058036951,0.004657301138274134,0.007231088120557234,0.9999630097712116,22.484411084891462,0.016425796770844436,-21.48679753404015,8.430662129172973,-156.05728149414062,5356.25390625,True
1599562709.5070832,0.0,10,0.5,0.5,11.08714449005127,-0.15025,-0.02275,-0.37525,0.08038031144269613,10,1,100,-0.052578346038960645,-10,-1,-100,15029.392097451258,0.004675922573669295,0.007237763254750735,0.9999628745764281,22.508405329412867,0.016272911775422578,-21.036439165254308,8.24501686251796,-155.29718017578125,5356.25390625,True
1599562709.8312619,0.0,10,0.5,0.5,10.458765953063963,-0.15025,-0.02275,-0.37525,0.08160196621056456,10,1,100,-0.052032094791437805,-10,-1,-100,15029.663581966772,0.004686197118320937,0.007255257564346009,0.9999626997014653,22.56705137847671,0.015989570074966316,-20.142132125785636,7.8737250832067,-153.57009887695312,5356.25390625,True
1599562709.8661256,0.0,10,0.5,0.5,10.042389624023436,-0.15025,-0.02275,-0.37525,0.08225454496407786,10,1,100,-0.04848252489764357,-10,-1,-100,15029.994637316791,0.004661885349483202,0.007277311549108712,0.9999626530834068,22.63355168786127,0.01573570696353835,-19.249474585959653,7.502431254552873,-151.56729125976562,5356.25390625,True
1599562709.9000356,0.0,10,0.5,0.5,8.925613382720947,-0.15025,-0.02275,-0.37525,0.0845423112747778,10,1,100,-0.039610003134300575,-10,-1,-100,15030.429206853034,0.004558043368600337,0.007318290962098132,0.9999628327383192,22.72799502900258,0.015410822479184532,-17.895649688479637,6.945486825393462,-148.04611206054688,5356.25390625,True
1599562709.9598765,0.0,10,0.5,0.5,8.805388692474365,-0.15025,-0.02275,-0.37525,0.08341332180634578,10,1,100,-0.03759864477584415,-10,-1,-100,15030.698737348896,0.004444731536083774,0.007345292975777895,0.9999631448371845,22.771357907290554,0.015230931138293116,-16.97176531920277,6.574188328175553,-145.35409545898438,5356.25390625,True
1599562710.0167246,0.0,10,0.5,0.5,9.782714694976805,-0.15025,-0.02275,-0.37525,0.08071914650490301,10,1,100,-0.048965110539189866,-10,-1,-100,15030.698737348896,0.004444731536083774,0.007345292975777895,0.9999631448371845,22.771357907290554,0.015230931138293116,-16.97176531920277,6.574188328175553,-145.35409545898438,5356.25390625,True
1599562710.0526283,0.0,10,0.5,0.5,6.486158144378663,-0.15025,-0.02275,-0.37525,0.08458562358190061,10,1,100,-0.013134946330192326,-10,-1,-100,15031.175296896952,0.0041186820204411655,0.007380387984963932,0.999964282527934,22.74980943124085,0.014943878314220532,-15.041236226300136,5.831587528129919,-139.1434326171875,5356.25390625,True
1599562710.0885315,0.0,10,0.5,0.5,6.921477783203125,-0.15025,-0.02275,-0.37525,0.08207206364671076,10,1,100,-0.02212844864989164,-10,-1,-100,15031.381349743693,0.003904177719121776,0.007389330407957864,0.9999650769864213,22.652756791310956,0.014819350403524048,-14.023811664172422,5.4602848137252895,-135.6248016357422,5356.25390625,True
1599562710.1284244,0.0,10,0.5,0.5,8.190011890029908,-0.15025,-0.02275,-0.37525,0.08119392569699341,10,1,100,-0.043519929502398906,-10,-1,-100,15031.381349743693,0.003904177719121776,0.007389330407957864,0.9999650769864213,22.652756791310956,0.014819350403524048,-14.023811664172422,5.4602848137252895,-135.6248016357422,5356.25390625,True
1599562710.1633706,0.0,10,0.5,0.5,4.009849418640137,-0.15025,-0.02275,-0.37525,0.07680309702908758,10,1,100,0.01200477990853005,-10,-1,-100,15031.790523480508,0.003400067336324796,0.007349265483677676,0.9999672133819983,22.19789656147329,0.014532123510301236,-11.873774836393395,4.7176691021254324,-127.76161193847656,5356.25390625,True
1599562710.1952791,0.0,10,0.5,0.5,5.772651521682739,-0.15025,-0.02275,-0.37525,0.07887255815277969,10,1,100,-0.022167937891976436,-10,-1,-100,15031.896967535256,0.003253589180879372,0.007331548674217324,0.9999678307583096,22.016307183624235,0.014438189244985031,-11.313305988934799,4.5320113714672825,-125.62367248535156,5356.25390625,True
1599562710.2311502,0.0,10,0.5,0.5,4.152017662811279,-0.15025,-0.02275,-0.37525,0.07425565244670841,10,1,100,-0.003681685811624393,-10,-1,-100,15032.038565515191,0.0029536634146465047,0.007273385354271386,0.9999691863942214,21.55218340584351,0.01420243521300891,-10.167616062274895,4.160688581774952,-121.14148712158203,5356.25390625,True
1599562710.2700462,0.0,10,0.5,0.5,3.2601165391922,-0.15025,-0.02275,-0.37525,0.0716284642833719,10,1,100,0.0024667013970844157,-10,-1,-100,15032.183092780528,0.0026266842286317036,0.00719660960029936,0.9999706542395252,20.940478654924235,0.013883404464793449,-8.997506100452785,3.78935295978678,-116.38398742675781,5356.25390625,True
1599562710.3107612,0.0,10,0.5,0.5,4.965326283454895,-0.15025,-0.02275,-0.37525,0.07929796948569354,10,1,100,-0.030027697092310537,-10,-1,-100,15032.183092780528,0.0026266842286317036,0.00719660960029936,0.9999706542395252,20.940478654924235,0.013883404464793449,-8.997506100452785,3.78935295978678,-116.38398742675781,5356.25390625,True
1599562710.352164,0.0,10,0.5,0.5,-0.5406537729263299,-0.15025,-0.02275,-0.37525,0.05349810529046547,10,1,100,0.04528870795674343,-10,-1,-100,15032.469217186212,0.0019437454183130027,0.0069621759997625585,0.9999738746382814,19.425440474774277,0.013029149676040559,-6.710787789355109,3.0466243296347586,-106.04345703125,5356.25390625,True
1599562710.3910635,0.0,10,0.5,0.5,0.31633596858978263,-0.15025,-0.02275,-0.37525,0.05950345006784433,10,1,100,0.017839336248745265,-10,-1,-100,15032.61081438302,0.0015747053209303223,0.006803996876319833,0.9999756126674586,18.484570288132804,0.012443662814340294,-5.607356028497103,2.675220739741005,-100.46046447753906,5356.25390625,True
1599562710.4309535,0.0,10,0.5,0.5,0.8215537958145143,-0.15025,-0.02275,-0.37525,0.06567094482179278,10,1,100,-0.0001961204890451769,-10,-1,-100,15032.651827331865,0.001405782135667029,0.006716757894680031,0.9999764541927832,17.931286321819663,0.012083397514277571,-5.061931298140815,2.4895063813389418,-97.62950897216797,5356.25390625,True
1599562710.4688523,0.0,10,0.5,0.5,0.31244720687866234,-0.15025,-0.02275,-0.37525,0.06410154126523454,10,1,100,0.002079934311253388,-10,-1,-100,15032.690887681558,0.00123399046895657,0.006623785724575394,0.9999773011074788,17.34806640682607,0.011697091508695476,-4.531966751558125,2.3037844749865672,-94.81889343261719,5356.25390625,True
1599562710.506751,0.0,10,0.5,0.5,-4.735523653030395,-0.15025,-0.02275,-0.37525,0.024353548210331005,10,1,100,0.06296748498129946,-10,-1,-100,15032.851034810068,0.0005267204815377026,0.0061786161282387665,0.999980773449307,16.48754894471439,0.011104807199334914,-2.918237418924021,1.5608545594611365,-83.38250732421875,5356.25390625,True
1599562710.5416512,0.0,10,0.5,0.5,-2.1146419509887693,-0.15025,-0.02275,-0.37525,0.05473956157992636,10,1,100,0.011369604206345276,-10,-1,-100,15032.828571842518,0.00035588982478157373,0.006051253629728808,0.9999816276671994,17.049733503443605,0.011479364528524933,-2.6586566083535006,1.3751187543657575,-80.4295654296875,5356.25390625,True
1599562710.5845351,0.0,10,0.5,0.5,-2.6796333156585694,-0.15025,-0.02275,-0.37525,0.05270737679010304,10,1,100,0.013195203154948026,-10,-1,-100,15032.868608617922,0.0001867603077537436,0.005918175143770405,0.9999824700081272,17.578259013342617,0.011836779551968254,-2.3708551044333546,1.1893841797382634,-77.45068359375,5356.25390625,True
1599562710.6234238,0.0,10,0.5,0.5,-4.7414100471496585,-0.15025,-0.02275,-0.37525,0.036065761239624315,10,1,100,0.03180262071897629,-10,-1,-100,15032.949658821803,-0.00013336411387806292,0.005647192172922456,0.999984045590016,18.5175934283519,0.012487446865583146,-1.717544454324305,0.8179199606285965,-71.60861206054688,5356.25390625,True
1599562710.66314,0.0,10,0.5,0.5,-4.149627344322204,-0.15025,-0.02275,-0.37525,0.04667746852290157,10,1,100,0.017719993283875003,-10,-1,-100,15032.926219102112,-0.00029355604092558025,0.005498792441255341,0.9999848384383329,18.908665107459214,0.012761735992606892,-1.3555765148376417,0.6321897731198023,-68.7774658203125,5356.25390625,True
1599562710.7030325,0.0,10,0.5,0.5,-6.06541154346466,-0.15025,-0.02275,-0.37525,0.02767207782091479,10,1,100,0.035657976012240813,-10,-1,-100,15032.943793373415,-0.0005996028718906877,0.005192650785320851,0.9999863383337884,19.51666146891747,0.013182335997055528,-0.5770527356797632,0.2607280243050565,-63.316253662109375,5356.25390625,True
1599562710.7440956,0.0,10,0.5,0.5,-6.862755803489685,-0.15025,-0.02275,-0.37525,0.02371155328857176,10,1,100,0.03692330878864601,-10,-1,-100,15032.960391296656,-0.000886397300643994,0.004880157201281813,0.9999876991071021,19.90426923812272,0.013446931234444149,0.2499732303407025,-0.11074341366576457,-58.128936767578125,5356.25390625,True
1599562710.782819,0.0,10,0.5,0.5,-7.606245483207703,-0.15025,-0.02275,-0.37525,0.018124952819074683,10,1,100,0.038547822352572765,-10,-1,-100,15032.913512983825,-0.0011593149567109184,0.0045471775922495145,0.9999889895217726,20.213236807699474,0.013662079641733195,1.1054138780810752,-0.4822275634648465,-53.217376708984375,5356.25390625,True
1599562710.821715,0.0,10,0.5,0.5,-10.598139935493467,-0.15025,-0.02275,-0.37525,-0.021930413487546777,10,1,100,0.0655252879686139,-10,-1,-100,15032.885186891886,-0.0016501861312106408,0.0038823808169636577,0.9999911019628747,20.4522577683552,0.013846137752414904,2.8419328539385704,-1.2252321263837211,-44.221221923828125,5356.25390625,True
1599562710.8606114,0.0,10,0.5,0.5,-9.490227086257935,-0.15025,-0.02275,-0.37525,0.007645403305456579,10,1,100,0.041039171271071026,-10,-1,-100,15032.776786536444,-0.0018710534396264734,0.0035494678803471968,0.9999919501859965,20.40622990530138,0.013833202570918721,3.6954183854687686,-1.596750686186083,-40.136749267578125,5356.25390625,True
1599562710.9005044,0.0,10,0.5,0.5,-10.08363528137207,-0.15025,-0.02275,-0.37525,0.006581416046166799,10,1,100,0.04248151902476493,-10,-1,-100,15032.728932853905,-0.002082131386939372,0.003239941979106169,0.9999925837249292,20.292842284298654,0.013781441459491657,4.5300526156236876,-1.9682778872173292,-36.327606201171875,5356.25390625,True
1599562710.9409063,0.0,10,0.5,0.5,-10.618066635894776,-0.15025,-0.02275,-0.37525,0.0025644870542588863,10,1,100,0.04305016871060614,-10,-1,-100,15032.622486307751,-0.0022768182890328574,0.002924708781823465,0.9999931310649188,20.122029768921166,0.013700144796476002,5.339952987594474,-2.3398110619558183,-32.794281005859375,5356.25390625,True
1599562710.979802,0.0,10,0.5,0.5,-9.400556628417968,-0.15025,-0.02275,-0.37525,0.03377515229773874,10,1,100,0.023844749312639055,-10,-1,-100,15032.622486307751,-0.0022768182890328574,0.002924708781823465,0.9999931310649188,20.122029768921166,0.013700144796476002,5.339952987594474,-2.3398110619558183,-32.794281005859375,5356.25390625,True
1599562711.0186977,0.0,10,0.5,0.5,-12.781441219329833,-0.15025,-0.02275,-0.37525,-0.030484477427703507,10,1,100,0.0636405789014925,-10,-1,-100,15032.4027581173,-0.0026363589411162645,0.0023432516628303056,0.999993779372241,19.647801948340515,0.013487960572079905,6.8703724197122575,-3.0828871571015473,-26.553955078125,5356.25390625,True
1599562711.057599,0.0,10,0.5,0.5,-10.54225825958252,-0.15025,-0.02275,-0.37525,0.027330840420603235,10,1,100,0.02793681317587561,-10,-1,-100,15032.4027581173,-0.0026363589411162645,0.0023432516628303056,0.999993779372241,19.647801948340515,0.013487960572079905,6.8703724197122575,-3.0828871571015473,-26.553955078125,5356.25390625,True
1599562711.0964942,0.0,10,0.5,0.5,-12.060653187561034,-0.15025,-0.02275,-0.37525,-0.004401834146307446,10,1,100,0.04546901843994118,-10,-1,-100,15032.294359124382,-0.002793612804516687,0.0020576414765660495,0.9999939809014113,19.37689989984355,0.013381613416270513,7.592453142511101,-3.4544285190482613,-23.847320556640625,5356.25390625,True
1599562711.1353912,0.0,10,0.5,0.5,-12.412543406677246,-0.15025,-0.02275,-0.37525,-0.0035342998002885484,10,1,100,0.04826118629596368,-10,-1,-100,15032.122483700048,-0.002959959651814889,0.0018087325370248564,0.9999939835446356,19.13985576965494,0.013312495099720652,8.306457159812464,-3.8259728255055476,-21.415802001953125,5356.25390625,True
1599562711.1737983,0.0,10,0.5,0.5,-13.228552238464355,-0.15025,-0.02275,-0.37525,-0.02073519550249692,10,1,100,0.05533517889311236,-10,-1,-100,15031.865648328909,-0.0031736080253771774,0.0014288721080257475,0.999993943249958,18.836194250121064,0.013266043481879205,9.365939937485548,-4.3832968232733185,-18.285614013671875,5356.25390625,True
1599562711.2136917,0.0,10,0.5,0.5,-13.452685679626464,-0.15025,-0.02275,-0.37525,-0.02014791583794097,10,1,100,0.05718836881426259,-10,-1,-100,15031.605883070733,-0.003382849825109109,0.0010917181745081787,0.9999936822192871,18.609010515635713,0.01329187593130826,10.430071061868807,-4.940632632854033,-15.775115966796875,5356.25390625,True
1599562711.254091,0.0,10,0.5,0.5,-12.575336178588866,-0.15025,-0.02275,-0.37525,0.013288411249570361,10,1,100,0.03643745521045929,-10,-1,-100,15031.605883070733,-0.003382849825109109,0.0010917181745081787,0.9999936822192871,18.609010515635713,0.01329187593130826,10.430071061868807,-4.940632632854033,-15.775115966796875,5356.25390625,True
1599562711.2919917,0.0,10,0.5,0.5,-13.624362516784666,-0.15025,-0.02275,-0.37525,-0.019461332435008694,10,1,100,0.05961083062841831,-10,-1,-100,15031.285571827088,-0.003592142514012843,0.0007962275498354955,0.999993231244016,18.455295470954418,0.013382476902808247,11.511507546055082,-5.497982623735059,-13.88433837890625,5356.25390625,True
1599562711.3259003,0.0,10,0.5,0.5,-13.224743636322021,-0.15025,-0.02275,-0.37525,6.759506510743349e-05,10,1,100,0.046455143602637174,-10,-1,-100,15031.136158092297,-0.0036614387026663426,0.0007073569723425398,0.9999930467321961,18.421503461061448,0.013427150970314912,11.878967860205455,-5.68376923983692,-13.39178466796875,5356.25390625,True
1599562711.3667896,0.0,10,0.5,0.5,-13.306646919250486,-0.15025,-0.02275,-0.37525,-0.0011904055938987846,10,1,100,0.04672619196510979,-10,-1,-100,15031.050221193233,-0.00372564056799779,0.0006171449430029608,0.9999928693418156,18.39767010148976,0.013479844938383617,12.251662956091696,-5.869557509310856,-12.96820068359375,5356.25390625,True
1599562711.6939151,0.0,10,0.5,0.5,-13.64356900100708,-0.15025,-0.02275,-0.37525,-0.017855684984547718,10,1,100,0.06260126526578412,-10,-1,-100,15030.666433751816,-0.003927007637142541,0.00038572925263273544,0.9999922148816768,18.429565039588542,0.013719256540785934,13.439292499653408,-6.426931553306403,-12.11041259765625,5356.25390625,True
1599562711.728822,0.0,10,0.5,0.5,-13.479615544891356,-0.15025,-0.02275,-0.37525,-0.016471029652815286,10,1,100,0.06409909059036883,-10,-1,-100,15030.28069334291,-0.004122511885955788,0.00018971869386664138,0.9999914844150262,18.551130694899555,0.014037120057042572,14.70231140896882,-6.984316986494438,-11.872406005859375,5356.25390625,True
1599562711.7647254,0.0,10,0.5,0.5,-13.326215249633789,-0.15025,-0.02275,-0.37525,-0.008192156028418416,10,1,100,0.059428387822707526,-10,-1,-100,15029.983819936286,-0.004256431038857419,8.87475215455853e-05,0.9999909374182792,18.68345664539257,0.014297839755622243,15.595850383619062,-7.355911420491671,-12.05792236328125,5356.25390625,True
1599562711.8195803,0.0,10,0.5,0.5,-13.319629537200928,-0.15025,-0.02275,-0.37525,-0.0031011555565910367,10,1,100,0.05342959003529299,-10,-1,-100,15029.83635951369,-0.004322311363214823,4.502727277489275e-05,0.9999906577548733,18.76473289950785,0.01444384521143691,16.05979646895614,-7.541709413733814,-12.25396728515625,5356.25390625,True
1599562711.874432,0.0,10,0.5,0.5,-12.887897088623047,-0.15025,-0.02275,-0.37525,-0.009920558219905154,10,1,100,0.06867601265499332,-10,-1,-100,15029.32561979082,-0.004519567907617558,-5.5109609170183417e-05,0.9999897851822585,19.067409619984964,0.014948830851910216,17.52653390812014,-8.099104162492402,-13.25518798828125,5356.25390625,True
1599562711.9113362,0.0,10,0.5,0.5,-12.743391173553466,-0.15025,-0.02275,-0.37525,-0.004710453344326517,10,1,100,0.06339322941711129,-10,-1,-100,15029.026793290745,-0.004649643136837261,-9.74294741448142e-05,0.9999891856046232,19.322524258373623,0.015349647813587212,18.577121421014837,-8.470698987865626,-14.26690673828125,5356.25390625,True
1599562711.9512272,0.0,10,0.5,0.5,-13.126469810485839,-0.15025,-0.02275,-0.37525,-0.0005973816117287386,10,1,100,0.05051238582631376,-10,-1,-100,15029.026793290745,-0.004649643136837261,-9.74294741448142e-05,0.9999891856046232,19.322524258373623,0.015349647813587212,18.577121421014837,-8.470698987865626,-14.26690673828125,5356.25390625,True
1599562711.988128,0.0,10,0.5,0.5,-11.63255955581665,-0.15025,-0.02275,-0.37525,-0.0017294081971462457,10,1,100,0.07872707371422394,-10,-1,-100,15028.306093306514,-0.004904988669171237,-0.00010663958160437972,0.9999879647846542,19.987169448442074,0.016343555359707353,20.904932795217736,-9.213877890289304,-17.11627197265625,5356.25390625,True
1599562712.020043,0.0,10,0.5,0.5,-12.694431211090087,-0.15025,-0.02275,-0.37525,-0.0008986841643336806,10,1,100,0.05332380509634218,-10,-1,-100,15028.306093306514,-0.004904988669171237,-0.00010663958160437972,0.9999879647846542,19.987169448442074,0.016343555359707353,20.904932795217736,-9.213877890289304,-17.11627197265625,5356.25390625,True
1599562712.0559802,0.0,10,0.5,0.5,-11.720210626983642,-0.15025,-0.02275,-0.37525,0.0015014909622942528,10,1,100,0.06691398203524788,-10,-1,-100,15027.881290321588,-0.005027405232282648,-8.407981085871949e-05,0.9999873589837103,20.362842136609956,0.01691407614211549,22.1583768969281,-9.58545779053299,-18.95404052734375,5356.25390625,True
1599562712.0928485,0.0,10,0.5,0.5,-10.67631275100708,-0.15025,-0.02275,-0.37525,0.007970889334726658,10,1,100,0.07370011215574968,-10,-1,-100,15027.308050517226,-0.0051992016865118704,-4.120738837041339e-06,0.9999864840510807,21.01114275570998,0.017887439345680992,24.196031926691663,-10.142808968843983,-22.2269287109375,5356.25390625,True
1599562712.1317446,0.0,10,0.5,0.5,-11.88144896774292,-0.15025,-0.02275,-0.37525,-6.400286658813465e-05,10,1,100,0.056647686137764414,-10,-1,-100,15027.308050517226,-0.0051992016865118704,-4.120738837041339e-06,0.9999864840510807,21.01114275570998,0.017887439345680992,24.196031926691663,-10.142808968843983,-22.2269287109375,5356.25390625,True
1599562712.1686456,0.0,10,0.5,0.5,-10.530446841430663,-0.15025,-0.02275,-0.37525,0.00883999699051665,10,1,100,0.06824101921451858,-10,-1,-100,15026.885200188612,-0.005303616814663676,7.700093207546006e-05,0.9999859327608263,21.458009925548524,0.01857465510718995,25.617857805187793,-10.514361098753932,-24.75299072265625,5356.25390625,True
1599562712.201558,0.0,10,0.5,0.5,-9.977355081176759,-0.15025,-0.02275,-0.37525,0.012007097534534874,10,1,100,0.06804402209639138,-10,-1,-100,15026.46039705933,-0.005395796788477064,0.00017955040747741802,0.9999854264631404,21.903308426173034,0.019272634789601936,27.075694405498858,-10.885898711935123,-27.554351806640625,5356.25390625,True
1599562712.238459,0.0,10,0.5,0.5,-10.203422644805908,-0.15025,-0.02275,-0.37525,0.008005774378847016,10,1,100,0.06394633968125932,-10,-1,-100,15026.2494602761,-0.005441369210510523,0.00023627924448685152,0.9999851677266186,22.121373041220806,0.019618650868038958,27.813031227010896,-11.071661546766482,-29.058319091796875,5356.25390625,True
1599562712.2803469,0.0,10,0.5,0.5,-7.208828874206544,-0.15025,-0.02275,-0.37525,0.03335463825993662,10,1,100,0.07460506923791044,-10,-1,-100,15025.337353214389,-0.005578858225326048,0.0005180302326383719,0.9999843038696056,22.91898918197767,0.020896847936424285,30.754840544645223,-11.814669864591986,-35.762420654296875,5356.25390625,True
1599562712.3227463,0.0,10,0.5,0.5,-7.697109456634521,-0.15025,-0.02275,-0.37525,0.023717336280868216,10,1,100,0.06618273785936896,-10,-1,-100,15024.849073052173,-0.00562643684890934,0.0006859961495966022,0.9999839361798109,23.243286657196105,0.021409106084806683,32.17345745070477,-12.186147770724643,-39.5274658203125,5356.25390625,True
1599562712.3616433,0.0,10,0.5,0.5,-8.008932082366943,-0.15025,-0.02275,-0.37525,0.01670603450061655,10,1,100,0.06273614899227435,-10,-1,-100,15024.575636026217,-0.005637469522727771,0.0007742411255347586,0.9999838096129655,23.37867019203765,0.021616145024081743,32.85550426720824,-12.371880544616978,-41.513275146484375,5356.25390625,True
1599562712.399541,0.0,10,0.5,0.5,-7.61889764251709,-0.15025,-0.02275,-0.37525,0.018118300633485428,10,1,100,0.06250092642311307,-10,-1,-100,15024.362745872815,-0.005644694947521645,0.0008665018133163097,0.9999836931638219,23.492995390320004,0.02178377977077555,33.51328340811815,-12.557609508934608,-43.567901611328125,5356.25390625,True
1599562712.437948,0.0,10,0.5,0.5,-3.6491315773010253,-0.15025,-0.02275,-0.37525,0.052949429959642844,10,1,100,0.0600041591885869,-10,-1,-100,15023.265090125147,-0.005627893171312792,0.0012661371220874047,0.9999833617192039,23.687268774053194,0.02197040537892308,35.795801297987104,-13.300496080832328,-52.474822998046875,5356.25390625,True
1599562712.4758463,0.0,10,0.5,0.5,-4.35783983001709,-0.15025,-0.02275,-0.37525,0.03652119151064037,10,1,100,0.05686149640966807,-10,-1,-100,15022.776809489122,-0.0055835032695518184,0.0014788668560402449,0.9999833185828957,23.631681355375562,0.02176717095415506,36.712494684367144,-13.671929993904412,-57.341339111328125,5356.25390625,True
1599562712.5143247,0.0,10,0.5,0.5,-3.4019144309997555,-0.15025,-0.02275,-0.37525,0.03793913475357622,10,1,100,0.053188485033318036,-10,-1,-100,15022.163527749479,-0.005509408435817715,0.0016837997458469007,0.9999834054808626,23.426496873630043,0.021333692519391812,37.386037691555124,-14.043364817319768,-62.483489990234375,5356.25390625,True
1599562712.5482354,0.0,10,0.5,0.5,-3.834585636901855,-0.15025,-0.02275,-0.37525,0.02927380872600788,10,1,100,0.05585642662225059,-10,-1,-100,15021.888136792812,-0.0054660215043685475,0.0017897922086162537,0.9999834594895877,23.258399013192356,0.021029283723290815,37.61048936270876,-14.229084610430483,-65.15777587890625,5356.25390625,True
1599562712.58713,0.0,10,0.5,0.5,-1.8268975463867188,-0.15025,-0.02275,-0.37525,0.04158804093704002,10,1,100,0.04845343115459429,-10,-1,-100,15021.339308417519,-0.005359131239990879,0.0019965394755281935,0.9999836466375214,22.811559320708593,0.020288435531765,37.85469515442613,-14.600532325401058,-70.71304321289062,5356.25390625,True
1599562712.625063,0.0,10,0.5,0.5,-0.7492667221069338,-0.15025,-0.02275,-0.37525,0.04326186907538834,10,1,100,0.04463702691008997,-10,-1,-100,15020.725049578352,-0.005227297020650674,0.0021980563475530773,0.9999839218278217,22.218000752109713,0.019417392607465615,37.811725208575446,-14.971994484118735,-76.54379272460938,5356.25390625,True
1599562712.6645563,0.0,10,0.5,0.5,-2.829226023864746,-0.15025,-0.02275,-0.37525,0.023306359583206586,10,1,100,0.05779904162512447,-10,-1,-100,15020.725049578352,-0.005227297020650674,0.0021980563475530773,0.9999839218278217,22.218000752109713,0.019417392607465615,37.811725208575446,-14.971994484118735,-76.54379272460938,5356.25390625,True
1599562712.7052822,0.0,10,0.5,0.5,3.8076206741333007,-0.15025,-0.02275,-0.37525,0.06320793936980909,10,1,100,0.022247995452352162,-10,-1,-100,15019.499461673782,-0.004904425292902449,0.0025592706855086323,0.9999846982559806,20.401189735009233,0.017387908781193114,36.450868271478626,-15.714971740594754,-88.996826171875,5356.25390625,True
1599562712.745176,0.0,10,0.5,0.5,0.9621540809631346,-0.15025,-0.02275,-0.37525,0.03672213512486286,10,1,100,0.0439733877654898,-10,-1,-100,15019.162546988227,-0.004809065481028957,0.002645164340936069,0.9999849378839706,19.81582730191911,0.01686932155296675,35.825559248133594,-15.90072619516731,-92.26036834716797,5356.25390625,True
1599562712.7845743,0.0,10,0.5,0.5,3.3452259923934933,-0.15025,-0.02275,-0.37525,0.0448018173626904,10,1,100,0.0320586411419887,-10,-1,-100,15018.548288203776,-0.004614811959150043,0.0027950002996545336,0.9999854456360385,20.74886754201626,0.017773626535058665,38.393336200356906,-16.27222059160804,-98.90597534179688,5356.25390625,True
1599562712.8235393,0.0,10,0.5,0.5,6.034836531257629,-0.15025,-0.02275,-0.37525,0.05129561189465326,10,1,100,0.016543846773907703,-10,-1,-100,15017.535590588814,-0.004298110520448814,0.0029884961228834016,0.9999862974745591,22.65738400240267,0.019871277770804573,43.3680325357454,-16.829392791509203,-108.53010559082031,5356.25390625,True
1599562712.8614104,0.0,10,0.5,0.5,2.550907423210144,-0.15025,-0.02275,-0.37525,0.032118265471846055,10,1,100,0.048081012378944195,-10,-1,-100,15017.535590588814,-0.004298110520448814,0.0029884961228834016,0.9999862974745591,22.65738400240267,0.019871277770804573,43.3680325357454,-16.829392791509203,-108.53010559082031,5356.25390625,True
1599562712.903334,0.0,10,0.5,0.5,5.868456791877746,-0.15025,-0.02275,-0.37525,0.04351097166147543,10,1,100,0.024025320940899868,-10,-1,-100,15016.858830988174,-0.004080590955329414,0.003090693788910175,0.9999868981088493,23.61457619685639,0.021106035156830332,46.2030810913531,-17.200791634654408,-114.62162780761719,5356.25390625,True
1599562712.9432273,0.0,10,0.5,0.5,9.670995867729186,-0.15025,-0.02275,-0.37525,0.04933098288122453,10,1,100,-0.0037382144340600415,-10,-1,-100,15015.443788624834,-0.003631749044976222,0.0032352309563476304,0.9999881717698132,25.027842709301844,0.023074612707154066,51.09434542217868,-17.943484752385643,-125.98179626464844,5356.25390625,True
1599562712.9851081,0.0,10,0.5,0.5,8.31422679157257,-0.15025,-0.02275,-0.37525,0.03971154381853191,10,1,100,0.016849148862719127,-10,-1,-100,15014.703552700463,-0.003412536313225306,0.003277864900041083,0.9999888050361405,25.477029199059203,0.023687241782730156,53.093740440635464,-18.31479015444994,-131.2487030029297,5356.25390625,True
1599562713.0230181,0.0,10,0.5,0.5,9.098444067192077,-0.15025,-0.02275,-0.37525,0.03888094467928416,10,1,100,0.015532564366354765,-10,-1,-100,15013.965269800508,-0.00320305269341822,0.003307907288110594,0.9999893990452181,25.752995492348088,0.02400891450020894,54.76320527280705,-18.686078061006796,-136.23995971679688,5356.25390625,True
1599562713.0649087,0.0,10,0.5,0.5,7.361283765220642,-0.15025,-0.02275,-0.37525,0.0359876909663888,10,1,100,0.036278501914340094,-10,-1,-100,15013.965269800508,-0.00320305269341822,0.003307907288110594,0.9999893990452181,25.752995492348088,0.02400891450020894,54.76320527280705,-18.686078061006796,-136.23995971679688,5356.25390625,True
1599562713.103803,0.0,10,0.5,0.5,11.159908371543883,-0.15025,-0.02275,-0.37525,0.036956188416917925,10,1,100,0.0017804883412392072,-10,-1,-100,15012.825618794071,-0.002891274610323878,0.0033157028549876248,0.9999903232760331,25.935642078259974,0.02402795671948317,56.80541036306839,-19.24299116358398,-143.21011352539062,5356.25390625,True
1599562713.141703,0.0,10,0.5,0.5,12.00462960948944,-0.15025,-0.02275,-0.37525,0.03298411481650311,10,1,100,0.0006831161742210552,-10,-1,-100,15011.622491577175,-0.002599694015703928,0.0032859923083543552,0.9999912218842593,25.910894566971646,0.023593544929802427,58.40439251390499,-19.799895844454824,-149.5601348876953,5356.25390625,True
1599562713.1805975,0.0,10,0.5,0.5,11.79561407699585,-0.15025,-0.02275,-0.37525,0.03290833613429068,10,1,100,0.010215456534891025,-10,-1,-100,15010.820732140332,-0.0024232869070239956,0.003257711252515435,0.9999917574650111,25.789709604930405,0.023102118651427497,59.228815671912066,-20.171167052236523,-153.44876098632812,5356.25390625,True
1599562713.2150555,0.0,10,0.5,0.5,11.427907192993164,-0.15025,-0.02275,-0.37525,0.03363225727434263,10,1,100,0.018180210575638324,-10,-1,-100,15010.420340631274,-0.0023373159586418746,0.0032381616567051974,0.9999920255998018,25.70539883153979,0.022814239574413853,59.58237895900105,-20.356803931537804,-155.28970336914062,5356.25390625,True
1599562713.5132947,0.0,10,0.5,0.5,10.843471648788451,-0.15025,-0.02275,-0.37525,0.03561218340874858,10,1,100,0.02658122595766973,-10,-1,-100,15010.420340631274,-0.0023373159586418746,0.0032381616567051974,0.9999920255998018,25.70539883153979,0.022814239574413853,59.58237895900105,-20.356803931537804,-155.28970336914062,5356.25390625,True
1599562713.5452063,0.0,10,0.5,0.5,12.776013552093506,-0.15025,-0.02275,-0.37525,0.030303560312452994,10,1,100,0.008445024103604738,-10,-1,-100,15009.617604902945,-0.0021742239368429265,0.003189674478071763,0.9999925493357421,25.501207184365473,0.02218366220536319,60.1951779462212,-20.72808091987057,-158.76480102539062,5356.25390625,True
1599562713.5820742,0.0,10,0.5,0.5,13.253726624679565,-0.15025,-0.02275,-0.37525,0.028330445366680924,10,1,100,0.007906708783549406,-10,-1,-100,15008.753345926758,-0.0020227977477692764,0.003127567833726021,0.9999930632802995,25.263972879298592,0.02151597370435054,60.71172208029003,-21.099362718707454,-161.96426391601562,5356.25390625,True
1599562713.6180174,0.0,10,0.5,0.5,12.134988288879395,-0.15025,-0.02275,-0.37525,0.03453034348899299,10,1,100,0.022888432561193713,-10,-1,-100,15008.753345926758,-0.0020227977477692764,0.003127567833726021,0.9999930632802995,25.263972879298592,0.02151597370435054,60.71172208029003,-21.099362718707454,-161.96426391601562,5356.25390625,True
1599562713.6728318,0.0,10,0.5,0.5,15.132706888198852,-0.15025,-0.02275,-0.37525,0.019265116351143155,10,1,100,-0.006476904693941715,-10,-1,-100,15007.022874947404,-0.0017571035350548235,0.0029889296752603997,0.9999939894252183,24.750500668463122,0.020209877377487383,61.58869767321287,-21.841939151491772,-167.53579711914062,5356.25390625,True
1599562713.7297175,0.0,10,0.5,0.5,13.113187083816529,-0.15025,-0.02275,-0.37525,0.03309703443642026,10,1,100,0.019947921661667242,-10,-1,-100,15007.022874947404,-0.0017571035350548235,0.0029889296752603997,0.9999939894252183,24.750500668463122,0.020209877377487383,61.58869767321287,-21.841939151491772,-167.53579711914062,5356.25390625,True
1599562713.768576,0.0,10,0.5,0.5,15.532665127944945,-0.15025,-0.02275,-0.37525,0.01446127374410329,10,1,100,-0.004262244661640512,-10,-1,-100,15005.229903946863,-0.0015383256131687197,0.0028198036486146547,0.9999948411175386,24.268948591434736,0.01910406549308863,62.462263398157184,-22.58452549757638,-172.00445556640625,5356.25390625,True
1599562713.807471,0.0,10,0.5,0.5,13.92130817375183,-0.15025,-0.02275,-0.37525,0.03132428648804049,10,1,100,0.017480252627254347,-10,-1,-100,15005.229903946863,-0.0015383256131687197,0.0028198036486146547,0.9999948411175386,24.268948591434736,0.01910406549308863,62.462263398157184,-22.58452549757638,-172.00445556640625,5356.25390625,True
1599562713.8463693,0.0,10,0.5,0.5,14.929215850830078,-0.15025,-0.02275,-0.37525,0.020223486004081092,10,1,100,0.0076501766107306135,-10,-1,-100,15004.364668304683,-0.0014499261661117177,0.0027193110884511508,0.9999952515193845,24.065765254198503,0.018661002516135106,62.96729110399782,-22.95581862055441,-173.82528686523438,5356.25390625,True
1599562713.8842666,0.0,10,0.5,0.5,15.771204397583006,-0.15025,-0.02275,-0.37525,0.008313808778008532,10,1,100,3.9973463314846996e-05,-10,-1,-100,15002.446697678883,-0.0013012642408478565,0.002520173877305546,0.9999959777094124,23.772842815959553,0.018015510973218532,64.23314460152415,-23.698397168263767,-176.63955688476562,5356.25390625,True
1599562713.9241595,0.0,10,0.5,0.5,15.0428843460083,-0.15025,-0.02275,-0.37525,0.022474563456457673,10,1,100,0.01136373100111353,-10,-1,-100,15001.980877043214,-0.001270002151604147,0.0024685268985948972,0.9999961467273192,23.727599793275047,0.017903414601613554,64.61827734398328,-23.884039096914453,-177.17079162597656,5356.25390625,True
1599562713.9620585,0.0,10,0.5,0.5,15.136270324325562,-0.15025,-0.02275,-0.37525,0.02170410389430539,10,1,100,0.01131439986633706,-10,-1,-100,15001.51798585907,-0.001242103890891023,0.002415270589891205,0.9999963118161496,23.694717290595666,0.017809970626751236,65.03550975714755,-24.069679607152374,-177.63311767578125,5356.25390625,True
1599562713.9969645,0.0,10,0.5,0.5,15.517239678573606,-0.15025,-0.02275,-0.37525,0.008905625406466666,10,1,100,0.006221323999063616,-10,-1,-100,15000.062906238134,-0.0011712885278547444,0.0022512099628967516,0.9999967800632598,23.674894784072833,0.01763345156494029,66.50082475387735,-24.626590748977765,-178.60653686523438,5356.25390625,True
1599562714.0348969,0.0,10,0.5,0.5,15.189825298690796,-0.15025,-0.02275,-0.37525,0.025224052318829085,10,1,100,0.01321770938070003,-10,-1,-100,15000.062906238134,-0.0011712885278547444,0.0022512099628967516,0.9999967800632598,23.674894784072833,0.01763345156494029,66.50082475387735,-24.626590748977765,-178.60653686523438,5356.25390625,True
1599562714.0717645,0.0,10,0.5,0.5,15.402730186080932,-0.15025,-0.02275,-0.37525,-0.00027317988046365177,10,1,100,0.006362237049129852,-10,-1,-100,14998.018959822133,-0.0011097401514040288,0.0020202136318766624,0.9999973436033106,23.843377118381625,0.0176008238255472,69.01631293410578,-25.3691082139773,-178.93963623046875,5356.25390625,True
1599562714.112659,0.0,10,0.5,0.5,15.303678383255004,-0.15025,-0.02275,-0.37525,0.022729581617206892,10,1,100,0.01245233835583634,-10,-1,-100,14998.018959822133,-0.0011097401514040288,0.0020202136318766624,0.9999973436033106,23.843377118381625,0.0176008238255472,69.01631293410578,-25.3691082139773,-178.93963623046875,5356.25390625,True
1599562714.1575356,0.0,10,0.5,0.5,15.199898926925659,-0.15025,-0.02275,-0.37525,0.009090312641376885,10,1,100,0.011013173827526812,-10,-1,-100,14997.026771603967,-0.001097245349677261,0.0018971009284994658,0.9999975985274715,24.013876021524446,0.01764872992555007,70.53891296589751,-25.740350696533213,-178.69277954101562,5356.25390625,True
1599562714.199424,0.0,10,0.5,0.5,15.033178577041626,-0.15025,-0.02275,-0.37525,0.007799697115134792,10,1,100,0.010566719593552435,-10,-1,-100,14995.973060031421,-0.0010822287462199701,0.0017742862412999181,0.9999978403423053,24.24169368492009,0.01772396707221811,72.24739919738384,-26.111580521212176,-178.1702880859375,5356.25390625,True
1599562714.2413116,0.0,10,0.5,0.5,14.823919583511351,-0.15025,-0.02275,-0.37525,0.005627755088136335,10,1,100,0.012430176191088504,-10,-1,-100,14994.920324859326,-0.001085932436569987,0.001643842068516084,0.9999980592651153,24.525623243719924,0.017813873884928225,74.14550755655239,-26.482796029269558,-177.37228393554688,5356.25390625,True
1599562714.284197,0.0,10,0.5,0.5,14.567274882888794,-0.15025,-0.02275,-0.37525,0.003917441763956163,10,1,100,0.012508854595840939,-10,-1,-100,14993.866613971535,-0.0010903455894127896,0.0015106858530563561,0.9999982644858686,24.863327291072803,0.017905004382805605,76.23330469370833,-26.853995612143194,-176.2987060546875,5356.25390625,True
1599562714.3300745,0.0,10,0.5,0.5,13.851677753829955,-0.15025,-0.02275,-0.37525,-0.005772969777448431,10,1,100,0.014299492100044196,-10,-1,-100,14992.222081986023,-0.0011108278135366716,0.0013024578141022428,0.9999985348315322,25.463414031559793,0.018014202305690407,79.71299280988042,-27.410761337801866,-174.17181396484375,5356.25390625,True
1599562714.371962,0.0,10,0.5,0.5,14.198041160583495,-0.15025,-0.02275,-0.37525,0.006999879834821201,10,1,100,0.013275910697578417,-10,-1,-100,14991.632237727288,-0.0011202874357523914,0.0012303364743323116,0.9999986156131524,25.686088742179887,0.018036529680148614,80.96166657639436,-27.59634004528087,-173.32513427734375,5356.25390625,True
1599562714.4148486,0.0,10,0.5,0.5,13.507542332458495,-0.15025,-0.02275,-0.37525,-0.0021501954746195907,10,1,100,0.014750874561627792,-10,-1,-100,14990.5160261743,-0.0011424065969445297,0.0010826663300152386,0.9999987613696254,26.16118292669819,0.01805078098185462,83.583061632769,-27.96748092147628,-171.42520141601562,5356.25390625,True
1599562714.4597282,0.0,10,0.5,0.5,11.773187879943848,-0.15025,-0.02275,-0.37525,-0.02176427432607015,10,1,100,0.018325462863297167,-10,-1,-100,14988.279697606456,-0.00119503743888975,0.000771173248925514,0.9999989885881583,27.204658776028094,0.017924080531536647,89.25562158162519,-28.70969078291683,-166.7991943359375,5356.25390625,True
1599562714.5059466,0.0,10,0.5,0.5,12.78405707168579,-0.15025,-0.02275,-0.37525,0.00031034225401921356,10,1,100,0.01454761250877058,-10,-1,-100,14987.689854042721,-0.0012085179747887676,0.000690021541130187,0.9999990316768199,27.478665001563982,0.017855732075249084,90.7454121326421,-28.895226800709164,-165.47059631347656,5356.25390625,True
1599562714.549829,0.0,10,0.5,0.5,12.517629746627808,-0.15025,-0.02275,-0.37525,-0.000804634605752203,10,1,100,0.014772104761133626,-10,-1,-100,14987.101963552414,-0.0012227240480608252,0.0006073203735826463,0.9999990680534987,27.75540191281981,0.017772462109991373,92.25614479879638,-29.080755781871634,-164.07318115234375,5356.25390625,True
1599562714.5943978,0.0,10,0.5,0.5,9.7092359790802,-0.15025,-0.02275,-0.37525,-0.030483880702196868,10,1,100,0.019026063647543532,-10,-1,-100,14984.74063506769,-0.001274208301005825,0.000263610614261107,0.9999991534509665,28.85939162004945,0.017307326590225942,98.40875555230474,-29.82279863960201,-157.79544067382812,5356.25390625,True
1599562714.6392808,0.0,10,0.5,0.5,12.017416647720337,-0.15025,-0.02275,-0.37525,0.00372374619853323,10,1,100,0.013895334648176402,-10,-1,-100,14984.74063506769,-0.001274208301005825,0.000263610614261107,0.9999991534509665,28.85939162004945,0.017307326590225942,98.40875555230474,-29.82279863960201,-157.79544067382812,5356.25390625,True
1599562714.6881495,0.0,10,0.5,0.5,10.104663250350951,-0.15025,-0.02275,-0.37525,-0.016260752140277942,10,1,100,0.01668434921240475,-10,-1,-100,14983.55997106689,-0.0012993884519944593,8.330669811467706e-05,0.9999991523244632,29.385777268296366,0.01702101167396457,101.468258839852,-30.19377486186989,-154.2437744140625,5356.25390625,True
1599562714.7360187,0.0,10,0.5,0.5,8.31407038154602,-0.15025,-0.02275,-0.37525,-0.02864800282777266,10,1,100,0.016888672290707143,-10,-1,-100,14981.727940149372,-0.0013239429299546717,-0.00019179865429530085,0.9999991051937969,30.099554701314478,0.01659156804986381,105.87625209264107,-30.750183446060007,-148.4003143310547,5356.25390625,True
1599562714.7858853,0.0,10,0.5,0.5,9.347512501525879,-0.15025,-0.02275,-0.37525,-0.01180143225614362,10,1,100,0.01557185517333661,-10,-1,-100,14981.073643323383,-0.001334081756723731,-0.0002871960744646971,0.9999990688717071,30.308465590165348,0.016464160649415884,107.2634954486554,-30.935638858957123,-146.31497192382812,5356.25390625,True
1599562714.8325217,0.0,10,0.5,0.5,5.32181552734375,-0.15025,-0.02275,-0.37525,-0.043956136323614885,10,1,100,0.01567230199624937,-10,-1,-100,14978.58829201071,-0.0013440090667737308,-0.0006647913535151897,0.9999988758454105,30.93523747728491,0.016143832689369423,112.14596986816407,-31.677400247222476,-137.2857666015625,5356.25390625,True
1599562714.8803952,0.0,10,0.5,0.5,6.038847625732422,-0.15025,-0.02275,-0.37525,-0.027611270374829015,10,1,100,0.014771651892112601,-10,-1,-100,14977.283605194069,-0.0013446427825715588,-0.0008577472550922683,0.999998728101908,31.087149737716434,0.016143175109391766,114.03600487321783,-32.04825331138239,-132.35867309570312,5356.25390625,True
1599562714.9271522,0.0,10,0.5,0.5,5.06506194152832,-0.15025,-0.02275,-0.37525,-0.028395585926912256,10,1,100,0.012905164304249726,-10,-1,-100,14975.976965016685,-0.0013280669677838972,-0.001038527840103908,0.9999985788480173,31.103037259848218,0.016262044693654113,115.43492200569496,-32.419096283583066,-127.15638732910156,5356.25390625,True
1599562714.974026,0.0,10,0.5,0.5,5.505962770462037,-0.15025,-0.02275,-0.37525,-0.0206267084907968,10,1,100,0.01370862188747687,-10,-1,-100,14975.32462171733,-0.0013201812691618206,-0.0011306024851597766,0.9999984894285777,31.053191495424738,0.01636137908870742,115.91946617529618,-32.60451642151291,-124.45216369628906,5356.25390625,True
1599562715.01791,0.0,10,0.5,0.5,3.4768647006988527,-0.15025,-0.02275,-0.37525,-0.031193791271573068,10,1,100,0.01186523526957026,-10,-1,-100,14974.017004609806,-0.001296152879984079,-0.0013087159841028142,0.9999983036236534,30.82469462137648,0.01661316669198757,116.3964445805856,-32.97535908246661,-118.83743286132812,5356.25390625,True
1599562715.0647833,0.0,10,0.5,0.5,3.9514216121673584,-0.15025,-0.02275,-0.37525,-0.02301873481865977,10,1,100,0.012624853725175285,-10,-1,-100,14973.363684680662,-0.001281147758662611,-0.001394576800517559,0.9999982069063765,30.64099316888871,0.016748705232005737,116.36418664370859,-33.16078373413293,-115.92694854736328,5356.25390625,True
1599562715.1291554,0.0,10,0.5,0.5,-1.5307571725845333,-0.15025,-0.02275,-0.37525,-0.05055688412618624,10,1,100,0.0059080335872020665,-10,-1,-100,14970.68985756929,-0.0012064384294272867,-0.001721471456949587,0.9999977905187285,29.579823248357354,0.017185282659327256,114.8912793674513,-33.90252367405706,-103.59757232666016,5356.25390625,True
1599562715.1755087,0.0,10,0.5,0.5,-0.48369827995300274,-0.15025,-0.02275,-0.37525,-0.034856754089682106,10,1,100,0.008551212143785875,-10,-1,-100,14969.32071791438,-0.0011626113623382796,-0.0018741153424002923,0.9999975680102944,28.761793182841004,0.01710781477932926,112.95897243034624,-34.273427485877434,-97.02052307128906,5356.25390625,True
