Timestamp,Input Throttle,horizon,dT,dt,Input Roll,Roll P,Roll I,Roll D,Input Pitch,Pitch P,Pitch I,Pitch D,Input Yaw,Yaw P,Yaw I,Yaw D,Altitude,Direction X,Direction Y,Direction Z,Drag X,Drag Y,Drag Z,Vertical Velocity,Roll,Mass,Has Fuel
1599562808.068086,0.0,10,0.5,0.5,-8.745717071533202,-0.15025,-0.03,-0.001,-0.0005074843082807853,10,1,100,0.17112999990946745,-10,-1,-100,14994.000765907113,-0.01677412470497748,-7.696780199009334e-05,0.9998593015101371,28.64907782316547,0.027034403413358048,-87.51377662370932,27.009298322296367,-31.792236328125,5356.25390625,True
1599562808.1102436,0.0,10,0.5,0.5,-8.920515182495116,-0.15025,-0.03,-0.001,-0.0002431852875237548,10,1,100,0.17714004218871224,-10,-1,-100,14995.089636461227,-0.016844319092872387,-7.211153369394617e-05,0.9998581217923993,28.503916590914805,0.027363319108144664,-85.87451747545173,26.63736740913949,-31.79107666015625,5356.25390625,True
1599562808.1501362,0.0,10,0.5,0.5,-9.09514079284668,-0.15025,-0.03,-0.001,-0.0007360232705078657,10,1,100,0.17180503530850885,-10,-1,-100,14995.089636461227,-0.016844319092872387,-7.211153369394617e-05,0.9998581217923993,28.503916590914805,0.027363319108144664,-85.87451747545173,26.63736740913949,-31.79107666015625,5356.25390625,True
1599562808.1900296,0.0,10,0.5,0.5,-9.2243344039917,-0.15025,-0.03,-0.001,0.011500906162745982,10,1,100,0.18334427516846874,-10,-1,-100,14997.14823500067,-0.01693390825606032,3.919883527535602e-05,0.9998566103270141,28.22528887051992,0.02801161394167161,-82.66678479219972,25.893552028707173,-32.091461181640625,5356.25390625,True
1599562808.2319186,0.0,10,0.5,0.5,-9.318622741699219,-0.15025,-0.03,-0.001,0.012134563449062375,10,1,100,0.17809736256001937,-10,-1,-100,14998.175579855102,-0.01695225928228521,0.00014611496527280218,0.9998562894514607,28.111442394735633,0.02834222387144981,-81.15394568587682,25.521666241620903,-32.61865234375,5356.25390625,True
1599562808.2857738,0.0,10,0.5,0.5,-9.370203506469727,-0.15025,-0.03,-0.001,0.018947182851112652,10,1,100,0.17600889717229207,-10,-1,-100,14999.202923330711,-0.01693454483961733,0.0003051115189570532,0.9998565537606061,28.01724252154521,0.0286717005144883,-79.70651172196187,25.14979388191732,-33.41925048828125,5356.25390625,True
1599562808.3276618,0.0,10,0.5,0.5,-9.378113830566406,-0.15025,-0.03,-0.001,0.02590970704140446,10,1,100,0.1741020087890367,-10,-1,-100,15000.169718158548,-0.016885710411126374,0.000512672140837246,0.9998572947932056,27.939903073260872,0.028990082835871272,-78.31418672428022,24.777933832198585,-34.4945068359375,5356.25390625,True
1599562808.6974807,0.0,10,0.5,0.5,-9.54570556640625,-0.15025,-0.03,-0.001,0.005204912067468907,10,1,100,0.1806740226792449,-10,-1,-100,15000.169718158548,-0.016885710411126374,0.000512672140837246,0.9998572947932056,27.939903073260872,0.028990082835871272,-78.31418672428022,24.777933832198585,-34.4945068359375,5356.25390625,True
1599562808.7364109,0.0,10,0.5,0.5,-9.262252372741699,-0.15025,-0.03,-0.001,0.06648166521641014,10,1,100,0.15886370248992654,-10,-1,-100,15002.101350504556,-0.016672084127213365,0.0010692674675177687,0.9998604394003885,27.81714785743862,0.02953965135260438,-75.63561032910965,24.034248682870277,-37.469512939453125,5356.25390625,True
1599562808.7772996,0.0,10,0.5,0.5,-9.135495536804198,-0.15025,-0.03,-0.001,0.04980806507328386,10,1,100,0.16398737635794275,-10,-1,-100,15003.065211519715,-0.01650930082779513,0.0014227129745920798,0.9998627000113411,27.759114179562356,0.029737110926958917,-74.31289565395696,23.66242288227355,-39.369171142578125,5356.25390625,True
1599562808.816261,0.0,10,0.5,0.5,-9.289287681579589,-0.15025,-0.03,-0.001,0.014605785663311955,10,1,100,0.18191663638254593,-10,-1,-100,15003.065211519715,-0.01650930082779513,0.0014227129745920798,0.9998627000113411,27.759114179562356,0.029737110926958917,-74.31289565395696,23.66242288227355,-39.369171142578125,5356.25390625,True
1599562808.8581488,0.0,10,0.5,0.5,-8.567085632324218,-0.15025,-0.03,-0.001,0.1015694993065649,10,1,100,0.12902152327114513,-10,-1,-100,15004.932382553932,-0.016028676912125287,0.0022119288433702137,0.9998690858743651,27.608583546999302,0.029875271780627696,-71.59253194432702,22.91880634314623,-43.9937744140625,5356.25390625,True
1599562808.8980427,0.0,10,0.5,0.5,-8.535102142333985,-0.15025,-0.03,-0.001,0.02287631646645793,10,1,100,0.17700235062005457,-10,-1,-100,15004.932382553932,-0.016028676912125287,0.0022119288433702137,0.9998690858743651,27.608583546999302,0.029875271780627696,-71.59253194432702,22.91880634314623,-43.9937744140625,5356.25390625,True
1599562808.9379375,0.0,10,0.5,0.5,-7.632637649536132,-0.15025,-0.03,-0.001,0.12270320640842343,10,1,100,0.1023428406588289,-10,-1,-100,15006.738025579136,-0.015350695587187551,0.0031173696243180235,0.9998773115495795,27.342891912440592,0.02952392360738406,-68.60835814231537,22.1752440644005,-49.71844482421875,5356.25390625,True
1599562808.9768314,0.0,10,0.5,0.5,-7.090193931579589,-0.15025,-0.03,-0.001,0.08842531711088275,10,1,100,0.12416594791151406,-10,-1,-100,15007.575903732446,-0.014934180096512996,0.003626082094484715,0.9998819039234028,27.136169361819004,0.0291144958018134,-66.95075197758054,21.803488401290362,-52.993072509765625,5356.25390625,True
1599562809.0172343,0.0,10,0.5,0.5,-6.495298866271972,-0.15025,-0.03,-0.001,0.08880993520617599,10,1,100,0.11358820841304068,-10,-1,-100,15008.478233867558,-0.014461202999718889,0.004088880898112362,0.9998870709539162,26.86176779662359,0.028531099934468295,-65.14642084266296,21.431753593909576,-56.543792724609375,5356.25390625,True
1599562809.0571263,0.0,10,0.5,0.5,-5.8508413162231445,-0.15025,-0.03,-0.001,0.09675820709513208,10,1,100,0.10275919614661913,-10,-1,-100,15009.320993316593,-0.013935026747338503,0.004578424310056046,0.9998924207435458,26.504530897030843,0.027769703578643178,-63.1677978805183,21.060042850957387,-60.369476318359375,5356.25390625,True
1599562809.0960221,0.0,10,0.5,0.5,-5.15671768951416,-0.15025,-0.03,-0.001,0.1000887888960375,10,1,100,0.0915825058106382,-10,-1,-100,15010.15789270436,-0.013357760863632679,0.00505004565349561,0.9998980284327036,26.049041489899363,0.026835505701629833,-60.98925022052072,20.68836042725486,-64.47079467773438,5356.25390625,True
1599562809.1379106,0.0,10,0.5,0.5,-5.0708901443481444,-0.15025,-0.03,-0.001,0.053380391903347,10,1,100,0.14895629922647127,-10,-1,-100,15010.15789270436,-0.013357760863632679,0.00505004565349561,0.9998980284327036,26.049041489899363,0.026835505701629833,-60.98925022052072,20.68836042725486,-64.47079467773438,5356.25390625,True
1599562809.1768076,0.0,10,0.5,0.5,-4.327867523193359,-0.15025,-0.03,-0.001,0.10346491962441598,10,1,100,0.07979136843428565,-10,-1,-100,15010.935221362277,-0.01273200178667061,0.005501740652608984,0.9999038088637805,25.478641921614447,0.02574435431282685,-58.58487084112345,20.316710458011944,-68.8477783203125,5356.25390625,True
1599562809.2187016,0.0,10,0.5,0.5,-3.5400909194946286,-0.15025,-0.03,-0.001,0.10575847541275277,10,1,100,0.06826187494252943,-10,-1,-100,15011.774073326844,-0.012061750229544695,0.005929514770171462,0.9999096734385512,24.776670896519605,0.024525247283310746,-55.93152055234817,19.945097165083638,-73.50045776367188,5356.25390625,True
1599562809.2822323,0.0,10,0.5,0.5,-1.9098403167724607,-0.15025,-0.03,-0.001,0.1506796435013591,10,1,100,-0.028778272257783732,-10,-1,-100,15013.325799717102,-0.010574290703607608,0.006722677494401427,0.9999214919099509,22.91260778969436,0.021869273126571716,-49.8018725338309,19.201991321822593,-83.63275146484375,5356.25390625,True
1599562809.3261116,0.0,10,0.5,0.5,-0.9722086334228516,-0.15025,-0.03,-0.001,0.10931663687348697,10,1,100,0.03222803639255495,-10,-1,-100,15014.104105319595,-0.009781616109766533,0.007063606502856166,0.9999272100755403,21.765549081619067,0.020566083447323916,-46.39608640708439,18.83049879513523,-89.11273193359375,5356.25390625,True
1599562809.3749814,0.0,10,0.5,0.5,-0.8423317413330078,-0.15025,-0.03,-0.001,0.0757089037939617,10,1,100,0.11087078969642661,-10,-1,-100,15014.104105319595,-0.009781616109766533,0.007063606502856166,0.9999272100755403,21.765549081619067,0.020566083447323916,-46.39608640708439,18.83049879513523,-89.11273193359375,5356.25390625,True
1599562809.4179065,0.0,10,0.5,0.5,1.0581967582702636,-0.15025,-0.03,-0.001,0.13571278518663354,10,1,100,-0.0685432223208007,-10,-1,-100,15015.531811573659,-0.008155642436407576,0.007605508845627239,0.9999378189325817,22.663831851435244,0.021583216306898353,-46.41019674040752,18.087555160467804,-100.89683532714844,5356.25390625,True
1599562809.4657815,0.0,10,0.5,0.5,1.1901239433288575,-0.15025,-0.03,-0.001,0.0819204935846405,10,1,100,0.09337629124908439,-10,-1,-100,15015.531811573659,-0.008155642436407576,0.007605508845627239,0.9999378189325817,22.663831851435244,0.021583216306898353,-46.41019674040752,18.087555160467804,-100.89683532714844,5356.25390625,True
1599562809.5102596,0.0,10,0.5,0.5,3.21894543838501,-0.15025,-0.03,-0.001,0.1214980351597918,10,1,100,-0.0886230079480662,-10,-1,-100,15016.959520951728,-0.006506835680581945,0.007962107743630873,0.9999471315673168,24.293365073560395,0.023848272733745367,-47.70873246370665,17.344553252316306,-113.43080139160156,5356.25390625,True
1599562809.5521476,0.0,10,0.5,0.5,3.365595447540283,-0.15025,-0.03,-0.001,0.08617651370278581,10,1,100,0.0755148485278213,-10,-1,-100,15016.959520951728,-0.006506835680581945,0.007962107743630873,0.9999471315673168,24.293365073560395,0.023848272733745367,-47.70873246370665,17.344553252316306,-113.43080139160156,5356.25390625,True
1599562809.6030128,0.0,10,0.5,0.5,5.292933250427247,-0.15025,-0.03,-0.001,0.10689854708637224,10,1,100,-0.10388904634460068,-10,-1,-100,15018.324734802824,-0.004882119295544518,0.00814784253612699,0.9999548877690386,25.23424433757175,0.025410679402861687,-47.437930729815534,16.60149430209254,-125.20242309570312,5356.25390625,True
1599562809.6498852,0.0,10,0.5,0.5,5.46335651397705,-0.15025,-0.03,-0.001,0.08863484752502365,10,1,100,0.057735028002333134,-10,-1,-100,15018.324734802824,-0.004882119295544518,0.00814784253612699,0.9999548877690386,25.23424433757175,0.025410679402861687,-47.437930729815534,16.60149430209254,-125.20242309570312,5356.25390625,True
1599562809.690776,0.0,10,0.5,0.5,6.8594342269897455,-0.15025,-0.03,-0.001,0.09238849446676103,10,1,100,-0.07239057624261892,-10,-1,-100,15019.271010603523,-0.0037062955137641598,0.00817956105206686,0.9999596782643588,25.483903560849328,0.025815033356024916,-46.30208995389413,16.044191107671786,-133.31491088867188,5356.25390625,True
1599562809.7321758,0.0,10,0.5,0.5,7.796708244323731,-0.15025,-0.03,-0.001,0.08803585790514222,10,1,100,-0.03692022546902293,-10,-1,-100,15019.919441607082,-0.002967418405283598,0.008166781146650301,0.9999622483442616,25.439229672589157,0.025685282697049904,-45.152563482660334,15.672666251841402,-138.37899780273438,5356.25390625,True
1599562809.778054,0.0,10,0.5,0.5,9.026631626129149,-0.15025,-0.03,-0.001,0.08369247140255912,10,1,100,-0.07817981821655734,-10,-1,-100,15020.801270486554,-0.001927540074685796,0.008114364897473357,0.9999652202309695,25.111238899066436,0.02497562917996134,-42.98851637657482,15.115412988449204,-145.4583282470703,5356.25390625,True
1599562809.8219357,0.0,10,0.5,0.5,9.85031937408447,-0.15025,-0.03,-0.001,0.08232229831185581,10,1,100,-0.04715533591579417,-10,-1,-100,15021.454586536274,-0.00127137695509026,0.008053302407947362,0.9999667634081465,24.750245807230463,0.024234323944220565,-41.33113242834318,14.743941162567724,-149.83340454101562,5356.25390625,True
1599562809.865427,0.0,10,0.5,0.5,10.648089149475098,-0.15025,-0.03,-0.001,0.08298100373002311,10,1,100,-0.0494374323012622,-10,-1,-100,15021.977044427884,-0.000661855278457951,0.008002879561356986,0.9999677574133662,24.366626495052582,0.02341008291568695,-39.66728173739357,14.372496645327434,-153.93246459960938,5356.25390625,True
1599562809.910309,0.0,10,0.5,0.5,10.803096977233887,-0.15025,-0.03,-0.001,0.08806302546063365,10,1,100,0.010765356646173736,-10,-1,-100,15021.977044427884,-0.000661855278457951,0.008002879561356986,0.9999677574133662,24.366626495052582,0.02341008291568695,-39.66728173739357,14.372496645327434,-153.93246459960938,5356.25390625,True
1599562809.9601738,0.0,10,0.5,0.5,11.540496940612792,-0.15025,-0.03,-0.001,0.08109737224185634,10,1,100,-0.05357242833599516,-10,-1,-100,15022.563957161852,-8.377885785455162e-05,0.007939194195081075,0.9999684805915813,23.94297877664269,0.022520368893763385,-37.9722121016952,14.001080467236745,-157.75588989257812,5356.25390625,True
1599562810.0060503,0.0,10,0.5,0.5,12.20620132446289,-0.15025,-0.03,-0.001,0.08116947877915318,10,1,100,-0.05555249533800136,-10,-1,-100,15023.089346832945,0.00045390662741884297,0.007881974752031626,0.9999688337357229,23.46374853391263,0.021583562853465306,-36.2269359806127,13.629692801468213,-161.3033447265625,5356.25390625,True
1599562810.0489352,0.0,10,0.5,0.5,12.841159671783446,-0.15025,-0.03,-0.001,0.07815671822793688,10,1,100,-0.05830162121280445,-10,-1,-100,15023.676260187756,0.0009613757198855928,0.007802641192422524,0.9999690967960698,22.946368614296432,0.020644419973634847,-34.464616887710825,13.258332641869067,-164.57533264160156,5356.25390625,True
1599562810.0910728,0.0,10,0.5,0.5,13.820510387420654,-0.15025,-0.03,-0.001,0.07444073308015109,10,1,100,-0.10754358418412346,-10,-1,-100,15024.662589525455,0.0018650531991260561,0.007697051910837746,0.9999686379924353,21.8592124938619,0.018892207770034863,-30.9959695929928,12.515686473062335,-170.2910614013672,5356.25390625,True
1599562810.1429338,0.0,10,0.5,0.5,14.140108543395995,-0.15025,-0.03,-0.001,0.08238768647549356,10,1,100,-0.040494442798651456,-10,-1,-100,15024.89598790172,0.0020709067381179404,0.007673716495377688,0.9999684122113213,21.58677378691866,0.018497317925791387,-30.156403037864095,12.33003837310047,-171.54757690429688,5356.25390625,True
1599562810.191805,0.0,10,0.5,0.5,14.761023132324219,-0.15025,-0.03,-0.001,0.0816414105330352,10,1,100,-0.08284820706438936,-10,-1,-100,15025.649897568277,0.0026378285375701052,0.007646178013261368,0.9999672883761728,20.791157309742974,0.017441381332021225,-27.735190612957624,11.773120731085392,-174.90277099609375,5356.25390625,True
1599562810.2396765,0.0,10,0.5,0.5,15.153413230895996,-0.15025,-0.03,-0.001,0.08261873944552933,10,1,100,-0.06375280545011995,-10,-1,-100,15026.114743715734,0.002974521752448848,0.007630501113390468,0.9999664632741955,20.292152071647326,0.01685134316020976,-26.217211127396343,11.401860784496757,-176.79483032226562,5356.25390625,True
1599562810.289543,0.0,10,0.5,0.5,15.372926307678222,-0.15025,-0.03,-0.001,0.08550505944101462,10,1,100,-0.047719729640759,-10,-1,-100,15026.343259803369,0.003130394838774301,0.007642928535088682,0.9999658925541216,20.055492012099563,0.01659084528291443,-25.49022884120257,11.216235314956279,-177.63711547851562,5356.25390625,True
1599562810.3394098,0.0,10,0.5,0.5,15.775080478668212,-0.15025,-0.03,-0.001,0.09046940435636691,10,1,100,-0.07900435196797234,-10,-1,-100,15026.974124970613,0.0035525016913231394,0.007699729666656496,0.9999640463010626,19.407702886425106,0.015942853550234812,-23.443909756077087,10.659373869293903,-179.7500762939453,5356.25390625,True
1599562810.3892758,0.0,10,0.5,0.5,15.850420352935789,-0.15025,-0.03,-0.001,0.08475897621011542,10,1,100,-0.037215102410066626,-10,-1,-100,15026.974124970613,0.0035525016913231394,0.007699729666656496,0.9999640463010626,19.407702886425106,0.015942853550234812,-23.443909756077087,10.659373869293903,-179.7500762939453,5356.25390625,True
1599562810.4411392,0.0,10,0.5,0.5,-38.24216106796264,-0.15025,-0.03,-0.001,0.10133584198580103,10,1,100,-0.0869350613550828,-10,-1,-100,15027.771007434698,0.004000670084487122,0.00785070403724882,0.9999611797889929,19.49344819855254,0.015998326423689854,-21.90927337051377,9.916907145336278,178.39891052246094,5356.25390625,True
1599562810.4920008,0.0,10,0.5,0.5,-38.89247648239135,-0.15025,-0.03,-0.001,0.0862295559107854,10,1,100,-0.04252666693291873,-10,-1,-100,15027.771007434698,0.004000670084487122,0.00785070403724882,0.9999611797889929,19.49344819855254,0.015998326423689854,-21.90927337051377,9.916907145336278,178.39891052246094,5356.25390625,True
1599562810.540871,0.0,10,0.5,0.5,-39.75608903503417,-0.15025,-0.03,-0.001,0.11222578872621394,10,1,100,-0.07787618635858581,-10,-1,-100,15028.567890658742,0.0043188050215776696,0.008087061854402519,0.9999579727937312,19.45712574361513,0.016036285439719297,-20.232870570730338,9.17444509655034,177.370849609375,5356.25390625,True
1599562810.5977185,0.0,10,0.5,0.5,-40.78295564270019,-0.15025,-0.03,-0.001,0.0886184490770421,10,1,100,-0.04639843557970024,-10,-1,-100,15028.567890658742,0.0043188050215776696,0.008087061854402519,0.9999579727937312,19.45712574361513,0.016036285439719297,-20.232870570730338,9.17444509655034,177.370849609375,5356.25390625,True
1599562810.6485822,0.0,10,0.5,0.5,-41.640938457489014,-0.15025,-0.03,-0.001,0.11411921151095199,10,1,100,-0.06327033713575111,-10,-1,-100,15029.07180309121,0.00446995526133954,0.008318532412943913,0.9999554097650837,19.456720971228158,0.016123024452309315,-19.005518129390445,8.617596967320928,176.14768981933594,5356.25390625,True
1599562810.6974523,0.0,10,0.5,0.5,-42.60318109130859,-0.15025,-0.03,-0.001,0.10150400769092649,10,1,100,-0.05174507407773957,-10,-1,-100,15029.24172820046,0.0045004084983018425,0.008413690326056253,0.9999544770330525,19.47698799403987,0.016178427877336282,-18.615860128235383,8.431979595487679,175.6051025390625,5356.25390625,True
1599562810.7483165,0.0,10,0.5,0.5,-43.45992810440063,-0.15025,-0.03,-0.001,0.11328813954494052,10,1,100,-0.05389418828137865,-10,-1,-100,15029.576693867682,0.0045459374065181715,0.008606628252728694,0.9999526290796056,19.54711090361837,0.0163314329912614,-17.860946926583146,8.060741676018202,174.31373596191406,5356.25390625,True
1599562810.8011742,0.0,10,0.5,0.5,-44.27763776397705,-0.15025,-0.03,-0.001,0.11916705261915417,10,1,100,-0.04947008100278459,-10,-1,-100,15029.851113356533,0.004545679606314825,0.008834583643888002,0.999950642246284,19.653180100695614,0.016540105077617447,-17.13136777217753,7.6894982309133555,172.74740600585938,5356.25390625,True
1599562810.8621323,0.0,10,0.5,0.5,-44.73162589263916,-0.15025,-0.03,-0.001,0.15375130901534756,10,1,100,-0.03924405769607086,-10,-1,-100,15030.458546331269,0.004451194771734803,0.009355134825717495,0.99994633271866,19.949916029305143,0.01710678448420333,-15.711765219253556,6.946988407366105,168.78884887695312,5356.25390625,True
1599562810.9189763,0.0,10,0.5,0.5,-45.78120122528076,-0.15025,-0.03,-0.001,0.10186173134830431,10,1,100,-0.04878241046211422,-10,-1,-100,15030.458546331269,0.004451194771734803,0.009355134825717495,0.99994633271866,19.949916029305143,0.01710678448420333,-15.711765219253556,6.946988407366105,168.78884887695312,5356.25390625,True
1599562810.9778192,0.0,10,0.5,0.5,-46.46500287246704,-0.15025,-0.03,-0.001,0.1349996340103239,10,1,100,-0.03754841748760265,-10,-1,-100,15030.732966723153,0.004348250569166142,0.009654883572500345,0.999943936398531,20.173284936741418,0.01748815117233279,-15.039006142868805,6.57571982154329,166.3966827392578,5356.25390625,True
1599562811.0929403,0.0,10,0.5,0.5,-45.81061391448975,-0.15025,-0.03,-0.001,0.1603875552635375,10,1,100,-0.022384918002002454,-10,-1,-100,15031.110905909794,0.004116498952884922,0.010156541554118286,0.9999399477468786,20.550055001655984,0.018121356498218992,-14.022919139651139,6.018797520952766,162.29238891601562,5356.25390625,True
1599562811.1547766,0.0,10,0.5,0.5,-45.051972259521484,-0.15025,-0.03,-0.001,0.17289256350357884,10,1,100,-0.011245008778751685,-10,-1,-100,15031.428301596432,0.0038044384643557165,0.010724179941846908,0.9999352570104456,20.936827219833567,0.018766859244764896,-12.965275101399666,5.461853319199223,157.56890869140625,5356.25390625,True
1599562811.2126212,0.0,10,0.5,0.5,-44.18923005294799,-0.15025,-0.03,-0.001,0.1869035702319688,10,1,100,0.0013735994478857663,-10,-1,-100,15031.739838891313,0.0034065000968663004,0.011365190248142433,0.9999296116265952,21.33928435330857,0.01939805412457688,-11.867358435204329,4.9048904254763785,152.2263641357422,5356.25390625,True
1599562811.2684715,0.0,10,0.5,0.5,-43.828981746673584,-0.15025,-0.03,-0.001,0.14856102372326632,10,1,100,-0.021415130154848167,-10,-1,-100,15031.84433740098,0.0032527375818323318,0.011596378168883124,0.9999274692254374,21.45398110980177,0.01957806368073908,-11.47965094732983,4.719232701833226,150.30796813964844,5356.25390625,True
1599562811.3299625,0.0,10,0.5,0.5,-42.4887624092102,-0.15025,-0.03,-0.001,0.2382028437184243,10,1,100,0.043686898441050136,-10,-1,-100,15032.202762203291,0.002522223415183746,0.012618494782461607,0.9999172025615265,21.89049116793494,0.020185659844822745,-9.87035297261663,3.9765873195549606,141.9468536376953,5356.25390625,True
1599562811.394788,0.0,10,0.5,0.5,-42.054001502990715,-0.15025,-0.03,-0.001,0.16728073795131368,10,1,100,-0.007064452551297687,-10,-1,-100,15032.245738461032,0.00232129389550921,0.012899122738326127,0.9999141084249349,21.941316112528813,0.02025898872558273,-9.431447460231873,3.7909223317095915,139.68472290039062,5356.25390625,True
1599562811.4576218,0.0,10,0.5,0.5,-41.59983226776123,-0.15025,-0.03,-0.001,0.17176054720095746,10,1,100,-0.003613367697047676,-10,-1,-100,15032.347310099402,0.0021092796003219128,0.013191062332758272,0.9999107694260028,21.961305438566587,0.020294838038818517,-8.977781943158476,3.60525556499536,137.35385131835938,5356.25390625,True
1599562811.514469,0.0,10,0.5,0.5,-39.9818992614746,-0.15025,-0.03,-0.001,0.2858723450379421,10,1,100,0.08516993430306899,-10,-1,-100,15032.579774260055,0.0011116333137923937,0.014489881509224747,0.999894398226745,21.66955620065518,0.020017192572093025,-7.033883834720291,2.8625627218676986,127.3433837890625,5356.25390625,True
1599562811.568324,0.0,10,0.5,0.5,-39.46307836151123,-0.15025,-0.03,-0.001,0.19579653857589469,10,1,100,0.015310111383409767,-10,-1,-100,15032.62373198336,0.0008428074084514986,0.014847087295736104,0.9998894207233644,21.494305305838537,0.019837873667128133,-6.5244837854675355,2.676880641762807,124.66903686523438,5356.25390625,True
1599562811.6161969,0.0,10,0.5,0.5,-38.918512786865236,-0.15025,-0.03,-0.001,0.20150370191589845,10,1,100,0.019254136738186177,-10,-1,-100,15032.66573858587,0.0005658457979738843,0.015218710447955537,0.9998840286107356,21.27267915114754,0.01961150734844458,-6.009342272611115,2.491194033713452,121.926025390625,5356.25390625,True
1599562811.662074,0.0,10,0.5,0.5,-37.92698170471191,-0.15025,-0.03,-0.001,0.2543747618148269,10,1,100,0.061008822833464586,-10,-1,-100,15032.747802208527,-6.208698989812128e-05,0.016032137651894866,0.9998714750944325,20.6824225504988,0.01901656261119973,-4.9716561752617014,2.1198049963040404,116.234375,5356.25390625,True
1599562811.7149327,0.0,10,0.5,0.5,-35.9481512184143,-0.15025,-0.03,-0.001,0.37183523013312203,10,1,100,0.1380404616555096,-10,-1,-100,15032.915852779057,-0.0013294238900341871,0.017834097916462597,0.9998400760039712,18.83188406351425,0.017246262414251326,-2.9405422363635645,1.3769497599042926,104.02711486816406,5356.25390625,True
1599562811.7598128,0.0,10,0.5,0.5,-35.79973309707641,-0.15025,-0.03,-0.001,0.1923501954738105,10,1,100,0.011820157877341973,-10,-1,-100,15032.915852779057,-0.0013294238900341871,0.017834097916462597,0.9998400760039712,18.83188406351425,0.017246262414251326,-2.9405422363635645,1.3769497599042926,104.02711486816406,5356.25390625,True
1599562811.804722,0.0,10,0.5,0.5,-34.16157160186768,-0.15025,-0.03,-0.001,0.3699956690029086,10,1,100,0.12857876306581148,-10,-1,-100,15032.97843338619,-0.002386560369941273,0.019443175941574107,0.9998081152095665,16.868506363697385,0.015450471976429814,-1.568106366661548,0.8197387684780888,94.15231323242188,5356.25390625,True
1599562811.8515675,0.0,10,0.5,0.5,-32.41607762145996,-0.15025,-0.03,-0.001,0.4074821126054587,10,1,100,0.13967071318653612,-10,-1,-100,15032.979515581392,-0.003443302809179963,0.02123962654463258,0.9997684841652136,15.783964660955418,0.014446116882371064,-0.46988655139020774,0.2625100236667275,83.660400390625,5356.25390625,True
1599562811.9014342,0.0,10,0.5,0.5,-31.14214270401001,-0.15025,-0.03,-0.001,0.38263108847134064,10,1,100,0.11569962041340895,-10,-1,-100,15033.000108228298,-0.004180635523073649,0.0226390076627736,0.9997349636872106,16.983655600476368,0.015512207602441902,0.20988451101219993,-0.10897132727047065,76.32441711425781,5356.25390625,True
1599562811.9468255,0.0,10,0.5,0.5,-30.95939776992798,-0.15025,-0.03,-0.001,0.2436669651496835,10,1,100,0.04261654196589866,-10,-1,-100,15033.000108228298,-0.004180635523073649,0.0226390076627736,0.9997349636872106,16.983655600476368,0.015512207602441902,0.20988451101219993,-0.10897132727047065,76.32441711425781,5356.25390625,True
1599562812.3011007,0.0,10,0.5,0.5,-28.433014560699462,-0.15025,-0.03,-0.001,0.5936086387283577,10,1,100,0.19436077640354885,-10,-1,-100,15032.919271585182,-0.005554410458758291,0.025811706563188805,0.9996513914003979,19.143025642827336,0.01741230715276956,1.8495640295875506,-0.851936734256838,60.83155822753906,5356.25390625,True
1599562812.3389554,0.0,10,0.5,0.5,-27.015147575378418,-0.15025,-0.03,-0.001,0.4679220606481457,10,1,100,0.12645721907385216,-10,-1,-100,15032.875459366944,-0.006179931657499313,0.02754308046733346,0.9996015141860675,19.90019228699031,0.018089115279584813,2.761203483397532,-1.223435678350405,52.674041748046875,5356.25390625,True
1599562812.377852,0.0,10,0.5,0.5,-25.532479885101317,-0.15025,-0.03,-0.001,0.5174630498531343,10,1,100,0.12004350110558004,-10,-1,-100,15032.834597668261,-0.006683896457492359,0.029555887560990684,0.9995407820787641,20.377024656511264,0.018514507975447063,3.686013903227647,-1.5949488560287672,44.24534606933594,5356.25390625,True
1599562812.4157507,0.0,10,0.5,0.5,-23.991479652404784,-0.15025,-0.03,-0.001,0.5445956316341347,10,1,100,0.1155228666582526,-10,-1,-100,15032.731257251813,-0.007094358924096273,0.031619338228585404,0.9994748058462717,20.499625560678314,0.018613269496620757,4.572078887028294,-1.966473532763416,35.541961669921875,5356.25390625,True
1599562812.48959,0.0,10,0.5,0.5,-22.400444568634033,-0.15025,-0.03,-0.001,0.5849074164910225,10,1,100,0.10237943301208055,-10,-1,-100,15032.68750902405,-0.007341627886103541,0.03384750306093714,0.9994000435443866,20.234553393957896,0.018345977058921412,5.365735646181296,-2.338003016594587,26.565689086914062,5356.25390625,True
1599562812.5264554,0.0,10,0.5,0.5,-22.17703656387329,-0.15025,-0.03,-0.001,0.3636922737702966,10,1,100,0.07825375721096066,-10,-1,-100,15032.68750902405,-0.007341627886103541,0.03384750306093714,0.9994000435443866,20.234553393957896,0.018345977058921412,5.365735646181296,-2.338003016594587,26.565689086914062,5356.25390625,True
1599562812.5640361,0.0,10,0.5,0.5,-19.105107551574708,-0.15025,-0.03,-0.001,0.8903182790954934,10,1,100,0.06906818437894265,-10,-1,-100,15032.416480725748,-0.007252657038543314,0.03862045455921668,0.9992276314511728,18.40761101641199,0.016602449610029005,6.432921374680129,-3.08104138677447,7.791839599609375,5356.25390625,True
1599562812.6019337,0.0,10,0.5,0.5,-17.382764152526857,-0.15025,-0.03,-0.001,0.6867856096376186,10,1,100,0.047406791009583296,-10,-1,-100,15032.311268043472,-0.006970428967704749,0.04109177049111045,0.9991310622325342,16.688815224442124,0.015020252290320708,6.5356586896989795,-3.4525447577181874,-2.006744384765625,5356.25390625,True
1599562812.6393845,0.0,10,0.5,0.5,-17.13556130218506,-0.15025,-0.03,-0.001,0.4416392308428892,10,1,100,0.07598231070929236,-10,-1,-100,15032.311268043472,-0.006970428967704749,0.04109177049111045,0.9991310622325342,16.688815224442124,0.015020252290320708,6.5356586896989795,-3.4525447577181874,-2.006744384765625,5356.25390625,True
1599562812.6723335,0.0,10,0.5,0.5,-14.599382705688475,-0.15025,-0.03,-0.001,0.8477705930309477,10,1,100,-0.047439436821806694,-10,-1,-100,15032.06069493154,-0.005845876905199638,0.04476709854479431,0.9989803464588729,18.137612011153287,0.01640069589301043,8.249903818942851,-4.009825110349653,-17.22119140625,5356.25390625,True
1599562812.7121892,0.0,10,0.5,0.5,-12.74771856689453,-0.15025,-0.03,-0.001,0.7475385256037566,10,1,100,-0.04176421668561802,-10,-1,-100,15031.89495698351,-0.004873635902903866,0.04717698880709425,0.9988746565010954,19.58533707491653,0.017832465694990224,9.734181133850216,-4.381371255731558,-27.708740234375,5356.25390625,True
1599562812.754587,0.0,10,0.5,0.5,-10.864215202331541,-0.15025,-0.03,-0.001,0.7492999003015566,10,1,100,-0.09051980086171667,-10,-1,-100,15031.72823953256,-0.0035471667488121343,0.04936438764985246,0.9987745365396593,20.54372695560823,0.018843547773927886,11.076843713025692,-4.752933496452393,-38.474822998046875,5356.25390625,True
1599562812.7914877,0.0,10,0.5,0.5,-8.93123950958252,-0.15025,-0.03,-0.001,0.7581386402283804,10,1,100,-0.1224739910585881,-10,-1,-100,15031.498034042888,-0.0020531864841287174,0.05141344668152876,0.9986753436055118,21.048009939147622,0.019405857712564215,12.236467303606142,-5.12450346239557,-49.518096923828125,5356.25390625,True
1599562812.8283894,0.0,10,0.5,0.5,-8.660992454528808,-0.15025,-0.03,-0.001,0.5554184929728043,10,1,100,0.02646096441241723,-10,-1,-100,15031.498034042888,-0.0020531864841287174,0.05141344668152876,0.9986753436055118,21.048009939147622,0.019405857712564215,12.236467303606142,-5.12450346239557,-49.518096923828125,5356.25390625,True
1599562812.867794,0.0,10,0.5,0.5,-6.693328834533691,-0.15025,-0.03,-0.001,0.7549276856890674,10,1,100,-0.15878344653638954,-10,-1,-100,15031.330311166821,-0.0003737292686304445,0.05320917197126484,0.998583318679301,20.932185109011602,0.01931605785686057,13.052072647564891,-5.496073546581724,-60.840301513671875,5356.25390625,True
1599562812.9056926,0.0,10,0.5,0.5,-3.7946026000976563,-0.15025,-0.03,-0.001,0.8218823316337782,10,1,100,-0.2946302839728897,-10,-1,-100,15030.955635395134,0.002381686814320284,0.05543272658969471,0.9984595837542702,19.464286683653047,0.017826773562761675,13.368482435052359,-6.053427861214455,-78.34661865234375,5356.25390625,True
1599562812.9441,0.0,10,0.5,0.5,-2.593684631347656,-0.15025,-0.03,-0.001,0.6702991193812942,10,1,100,-0.1267624812810944,-10,-1,-100,15030.808270882815,0.0033517002155315128,0.056056487746400416,0.9984219730590884,18.60614290168084,0.01698578197627649,13.171609886366165,-6.239216513595241,-84.3214111328125,5356.25390625,True
1599562812.9810014,0.0,10,0.5,0.5,0.45143330764770523,-0.15025,-0.03,-0.001,0.7569510076847488,10,1,100,-0.33480072373469294,-10,-1,-100,15030.431560563855,0.006115147005070731,0.05739543684326684,0.998332794616443,17.368603347773206,0.01588460168160912,13.394943669139018,-6.796602656550709,-102.66688537597656,5356.25390625,True
1599562813.0169053,0.0,10,0.5,0.5,2.6376158256530764,-0.15025,-0.03,-0.001,0.6910842592586788,10,1,100,-0.25333690091229,-10,-1,-100,15030.139687524526,0.007874895173563833,0.05799905315804281,0.9982855783085198,19.59156619492542,0.01812991338591898,15.936224897668374,-7.168182473756291,-115.24571228027344,5356.25390625,True
1599562813.058794,0.0,10,0.5,0.5,2.9647539024353025,-0.15025,-0.03,-0.001,0.6324133560477749,10,1,100,-0.07884661647710663,-10,-1,-100,15030.139687524526,0.007874895173563833,0.05799905315804281,0.9982855783085198,19.59156619492542,0.01812991338591898,15.936224897668374,-7.168182473756291,-115.24571228027344,5356.25390625,True
1599562813.0946977,0.0,10,0.5,0.5,5.194467895507812,-0.15025,-0.03,-0.001,0.6748376733126642,10,1,100,-0.2544342155302278,-10,-1,-100,15029.847783598234,0.009458672644884241,0.058372699719893395,0.9982500495563262,20.945156188060967,0.01961390878056407,17.921414540084978,-7.539747911097098,-128.0433349609375,5356.25390625,True
1599562813.1325965,0.0,10,0.5,0.5,9.279915439605713,-0.15025,-0.03,-0.001,0.6663847527332628,10,1,100,-0.3844054633541067,-10,-1,-100,15029.199448712985,0.01206699777307643,0.05862535576093319,0.9982071204047026,21.473919502248616,0.02020241080265932,20.187211333732428,-8.282859783024323,-153.14906311035156,5356.25390625,True
1599562813.174484,0.0,10,0.5,0.5,10.523385444641113,-0.15025,-0.03,-0.001,0.6446004828077891,10,1,100,-0.17886920397374928,-10,-1,-100,15029.052001101081,0.012555496291137091,0.05864858519154589,0.9981997309997199,21.15000052194606,0.019825739123291813,20.329319696782026,-8.468641653327023,-159.26181030273438,5356.25390625,True
1599562813.2133803,0.0,10,0.5,0.5,13.557785175323486,-0.15025,-0.03,-0.001,0.6527928126605622,10,1,100,-0.2579733061074008,-10,-1,-100,15028.486608001636,0.013705433433520646,0.05873760118302809,0.9981793703045876,19.116944199008795,0.017691350987142175,19.586548411319676,-9.026023343356794,-177.18763732910156,5356.25390625,True
1599562813.2502818,0.0,10,0.5,0.5,-38.771684871673585,-0.15025,-0.03,-0.001,0.6509525393640783,10,1,100,-0.1985978802164796,-10,-1,-100,15028.13116596837,0.014196728218572185,0.05879513673213342,0.9981691163347709,17.444784617897415,0.016164264988419417,18.610517930534524,-9.397640917479638,171.2061004638672,5356.25390625,True
1599562813.2901754,0.0,10,0.5,0.5,-38.257508895874025,-0.15025,-0.03,-0.001,0.6564075183070384,10,1,100,-0.16884265472466572,-10,-1,-100,15027.922197446227,0.01435961192097782,0.058891954344655294,0.9981610788139086,18.64617156084235,0.017379056675261753,20.286223939780758,-9.583443168160901,165.5074462890625,5356.25390625,True
1599562813.3320637,0.0,10,0.5,0.5,-38.14334690093994,-0.15025,-0.03,-0.001,0.6612139698874284,10,1,100,-0.16669609945557246,-10,-1,-100,15027.77475766954,0.014477284852439678,0.05902052061790149,0.9981517852357392,19.676116789860608,0.018487464142730767,21.822582559425967,-9.769235834216328,159.87820434570312,5356.25390625,True
1599562813.372169,0.0,10,0.5,0.5,-35.419208713531496,-0.15025,-0.03,-0.001,0.7447628343206396,10,1,100,-0.16149628120782827,-10,-1,-100,15026.936997069744,0.014526875001846504,0.05989423960399858,0.9980990181164089,22.037514079089245,0.02142081635223978,26.30466217938876,-10.512314597429505,136.9865264892578,5356.25390625,True
1599562813.4122274,0.0,10,0.5,0.5,-36.16106062698364,-0.15025,-0.03,-0.001,0.6576408159870033,10,1,100,-0.15737843906682325,-10,-1,-100,15026.936997069744,0.014526875001846504,0.05989423960399858,0.9980990181164089,22.037514079089245,0.02142081635223978,26.30466217938876,-10.512314597429505,136.9865264892578,5356.25390625,True
1599562813.4501631,0.0,10,0.5,0.5,-33.29990377807617,-0.15025,-0.03,-0.001,0.8474560730086123,10,1,100,-0.11575858674875926,-10,-1,-100,15026.034902316518,0.014142465453656574,0.06161810995288052,0.9979995987958747,22.079594667299386,0.021588770663144363,28.222011123392498,-11.255313312111873,113.06683349609375,5356.25390625,True
1599562813.4900537,0.0,10,0.5,0.5,-32.13839478302002,-0.15025,-0.03,-0.001,0.8068388813179294,10,1,100,-0.12977871393903534,-10,-1,-100,15025.616143178311,0.013914760138595427,0.06281272756668077,0.9979283244331324,21.01567678547198,0.02038694757984571,27.751120818373217,-11.626836570934783,100.70077514648438,5356.25390625,True
1599562813.5299468,0.0,10,0.5,0.5,-32.836993171691894,-0.15025,-0.03,-0.001,0.6878211227225833,10,1,100,-0.15299485419452116,-10,-1,-100,15025.616143178311,0.013914760138595427,0.06281272756668077,0.9979283244331324,21.01567678547198,0.02038694757984571,27.751120818373217,-11.626836570934783,100.70077514648438,5356.25390625,True
1599562813.5678444,0.0,10,0.5,0.5,-29.735293289184572,-0.15025,-0.03,-0.001,1.0489148482700528,10,1,100,-0.11960450134526411,-10,-1,-100,15024.652812129236,0.0136095316923608,0.0660915910972889,0.9977207436118302,18.942305725419,0.018421134104706614,26.616747500477505,-12.369968837609022,75.15863037109375,5356.25390625,True
1599562813.6017585,0.0,10,0.5,0.5,-29.4726171875,-0.15025,-0.03,-0.001,0.8258379575270389,10,1,100,-0.15062730427803914,-10,-1,-100,15024.379543668358,0.01361311855389889,0.06703763802208186,0.9976575755697231,20.20190353748274,0.01982216250177067,28.814294273919323,-12.55573794216477,68.6033935546875,5356.25390625,True
1599562813.6416495,0.0,10,0.5,0.5,-30.216545516967773,-0.15025,-0.03,-0.001,0.7320632687316486,10,1,100,-0.15025938663626787,-10,-1,-100,15024.379543668358,0.01361311855389889,0.06703763802208186,0.9976575755697231,20.20190353748274,0.01982216250177067,28.814294273919323,-12.55573794216477,68.6033935546875,5356.25390625,True
1599562813.6795459,0.0,10,0.5,0.5,-27.89518946075439,-0.15025,-0.03,-0.001,0.9667984994820662,10,1,100,-0.1694947280852928,-10,-1,-100,15023.834029729245,0.013788515848585184,0.06916410148227661,0.9975100019031601,22.10937022785281,0.022132177424309497,32.47093932507115,-12.927232865753385,55.290679931640625,5356.25390625,True
1599562813.7194393,0.0,10,0.5,0.5,-23.427131469726564,-0.15025,-0.03,-0.001,1.2676714845977317,10,1,100,-0.2737967660291487,-10,-1,-100,15022.808600623277,0.014896687457855407,0.07382312072247096,0.9971600852168013,23.251006289799317,0.023702408674220986,36.116480216443726,-13.67011758949386,27.847900390625,5356.25390625,True
1599562813.7573411,0.0,10,0.5,0.5,-23.058483337402343,-0.15025,-0.03,-0.001,0.8032498205887536,10,1,100,-0.16302154536266802,-10,-1,-100,15022.808600623277,0.014896687457855407,0.07382312072247096,0.9971600852168013,23.251006289799317,0.023702408674220986,36.116480216443726,-13.67011758949386,27.847900390625,5356.25390625,True
1599562813.7982354,0.0,10,0.5,0.5,-19.509495079040526,-0.15025,-0.03,-0.001,1.2082090975884159,10,1,100,-0.3599748264749483,-10,-1,-100,15021.930515620974,0.016686835638461583,0.07749190607599656,0.9968533262266239,21.99949436283516,0.022223456618070805,35.570644673000714,-14.227319776420085,6.548248291015625,5356.25390625,True
1599562813.8370926,0.0,10,0.5,0.5,-18.044768325805663,-0.15025,-0.03,-0.001,0.9728471337202151,10,1,100,-0.2661426451323313,-10,-1,-100,15021.658340806724,0.01745925964441012,0.078671513392698,0.9967476948722639,21.18027280455537,0.021352947839383525,34.695035568723576,-14.413076707416845,-0.68951416015625,5356.25390625,True
1599562813.8759882,0.0,10,0.5,0.5,-15.49009274291992,-0.15025,-0.03,-0.001,1.1116879427842565,10,1,100,-0.3811765560293255,-10,-1,-100,15021.0515018492,0.01920421084507169,0.08099056975988167,0.996529841949446,19.65042273381138,0.019967575385044026,33.0223495831414,-14.784608340482741,-15.3714599609375,5356.25390625,True
1599562813.913923,0.0,10,0.5,0.5,-12.893628486633299,-0.15025,-0.03,-0.001,1.102020501685626,10,1,100,-0.4415208727888712,-10,-1,-100,15020.446604904602,0.021334306224663098,0.08299439168170364,0.9963216239384229,22.194535482871316,0.023070485170934827,38.23892985494402,-15.156084735361187,-30.332977294921875,5356.25390625,True
1599562813.9544013,0.0,10,0.5,0.5,-10.21044945526123,-0.15025,-0.03,-0.001,1.097099282562291,10,1,100,-0.490832618762601,-10,-1,-100,15019.837771141436,0.02371230012761095,0.08475296265122509,0.9961198031082897,23.640118813294453,0.025128859731123377,41.73188134903374,-15.527490874283721,-45.572906494140625,5356.25390625,True
1599562813.9932976,0.0,10,0.5,0.5,-6.326170478820801,-0.15025,-0.03,-0.001,1.1285334521535306,10,1,100,-0.674681766715728,-10,-1,-100,15018.896092867944,0.02753628432219629,0.08662046382747955,0.9958607574817072,23.634480631191703,0.025453808149315506,43.225272020707166,-16.084548943365377,-68.96017456054688,5356.25390625,True
1599562814.0351825,0.0,10,0.5,0.5,-4.7364909515380855,-0.15025,-0.03,-0.001,0.9899889960947705,10,1,100,-0.4363325686168557,-10,-1,-100,15018.56230340316,0.02883316527476749,0.08704089454553543,0.9957873925979134,23.125004900829023,0.024883530901926864,42.78403814533151,-16.270245464134167,-76.89654541015625,5356.25390625,True
1599562814.0751238,0.0,10,0.5,0.5,-0.6429537124633788,-0.15025,-0.03,-0.001,1.0225384950578094,10,1,100,-0.7145856025269604,-10,-1,-100,15017.556897076196,0.03252788458835965,0.08770082404659253,0.9956156397856327,20.44483186212775,0.0220202772118853,39.12736973828213,-16.827408352327847,-101.12777709960938,5356.25390625,True
1599562814.1150162,0.0,10,0.5,0.5,3.5625043964385985,-0.15025,-0.03,-0.001,0.9462742632448752,10,1,100,-0.7010885814663963,-10,-1,-100,15016.551283328678,0.035746984346765785,0.08759059719237748,0.9955149624157311,22.701782956303784,0.02521523088082937,44.89279054137129,-17.384534394018925,-125.99015045166016,5356.25390625,True
1599562814.156902,0.0,10,0.5,0.5,3.9991561756134035,-0.15025,-0.03,-0.001,0.958673696313371,10,1,100,-0.38126363531467405,-10,-1,-100,15016.551283328678,0.035746984346765785,0.08759059719237748,0.9955149624157311,22.701782956303784,0.02521523088082937,44.89279054137129,-17.384534394018925,-125.99015045166016,5356.25390625,True
1599562814.1987903,0.0,10,0.5,0.5,7.012521343231201,-0.15025,-0.03,-0.001,0.9286398145739336,10,1,100,-0.5644489102843413,-10,-1,-100,15015.817954844679,0.03739335021295466,0.08730504601613723,0.9954795659881581,24.07292348920489,0.027234940516432767,48.62625757568692,-17.755862963997085,-142.8618927001953,5356.25390625,True
1599562814.238684,0.0,10,0.5,0.5,9.988838520050047,-0.15025,-0.03,-0.001,0.9194966384279253,10,1,100,-0.5469404575112198,-10,-1,-100,15015.08360229549,0.03871205459830299,0.08695341321828225,0.9954599342808673,24.029564847385366,0.027351668248607464,49.5591495925047,-18.127179484200724,-159.6880645751953,5356.25390625,True
1599562814.2795365,0.0,10,0.5,0.5,-39.024413269042974,-0.15025,-0.03,-0.001,0.8884878921578729,10,1,100,-0.5881702192627445,-10,-1,-100,15013.618741003564,0.04026637206003907,0.08634432034520853,0.9954512934469704,21.1699013771811,0.024157633699971613,45.4614209890026,-18.86993600568979,167.408935546875,5356.25390625,True
1599562814.3184326,0.0,10,0.5,0.5,-39.24565745544434,-0.15025,-0.03,-0.001,0.9499325545237772,10,1,100,-0.43484468921063335,-10,-1,-100,15013.618741003564,0.04026637206003907,0.08634432034520853,0.9954512934469704,21.1699013771811,0.024157633699971613,45.4614209890026,-18.86993600568979,167.408935546875,5356.25390625,True
1599562814.3573956,0.0,10,0.5,0.5,-34.98804071807861,-0.15025,-0.03,-0.001,0.985567858933345,10,1,100,-0.49792147877249593,-10,-1,-100,15012.089536931599,0.04082258645075112,0.08666523226832869,0.995400750427358,24.1520094582638,0.0287983300959587,53.91985337504443,-19.61262767936571,135.33724975585938,5356.25390625,True
1599562814.394306,0.0,10,0.5,0.5,-33.10338715362549,-0.15025,-0.03,-0.001,1.0230292994955636,10,1,100,-0.4516090279515743,-10,-1,-100,15011.292806910002,0.04089165881091447,0.08729579050389709,0.995342813908852,24.8069731242704,0.03004170812182599,56.43695567268793,-19.983886254524556,119.07638549804688,5356.25390625,True
1599562814.4282172,0.0,10,0.5,0.5,-32.43937241744995,-0.15025,-0.03,-0.001,1.0111429210884455,10,1,100,-0.45208519997492425,-10,-1,-100,15010.893498600111,0.04094663945264914,0.08776035334464327,0.9952997001397911,24.741636186626383,0.030063877856730765,56.81451543400742,-20.169514481991794,110.84904479980469,5356.25390625,True
1599562814.4662492,0.0,10,0.5,0.5,-33.01083652877808,-0.15025,-0.03,-0.001,0.9647585828937381,10,1,100,-0.4477984832192456,-10,-1,-100,15010.893498600111,0.04094663945264914,0.08776035334464327,0.9952997001397911,24.741636186626383,0.030063877856730765,56.81451543400742,-20.169514481991794,110.84904479980469,5356.25390625,True
1599562814.5041523,0.0,10,0.5,0.5,-31.127806900024414,-0.15025,-0.03,-0.001,1.0940056876442987,10,1,100,-0.4677357718675006,-10,-1,-100,15010.036362630082,0.04112023411775665,0.08893527290665014,0.9951882452979037,23.832664694898575,0.028994201553683412,55.74158889333331,-20.540797689274353,94.19476318359375,5356.25390625,True
1599562814.5410507,0.0,10,0.5,0.5,-29.245570789337158,-0.15025,-0.03,-0.001,1.1408970581058453,10,1,100,-0.4890354354433297,-10,-1,-100,15009.236949256388,0.041466795982388296,0.0904284443529302,0.9950392963510858,21.920774899243582,0.026790246598844325,52.20371420273206,-20.912134063294623,77.27281188964844,5356.25390625,True
1599562814.581253,0.0,10,0.5,0.5,-27.272116050720214,-0.15025,-0.03,-0.001,1.1832184010266684,10,1,100,-0.5224026495513454,-10,-1,-100,15008.378071421292,0.04207999070427573,0.09216803256050086,0.9948539230240058,22.47245844794735,0.027991867448638276,54.475035220816146,-21.283470141106005,60.081634521484375,5356.25390625,True
1599562814.621545,0.0,10,0.5,0.5,-25.257069465637205,-0.15025,-0.03,-0.001,1.2205416825766375,10,1,100,-0.5686496532726995,-10,-1,-100,15007.520267750951,0.043053607175739056,0.09408435804825177,0.9946328571286018,24.707817955147924,0.0315050458058235,60.9461194571851,-21.654716676310425,42.620025634765625,5356.25390625,True
1599562814.660449,0.0,10,0.5,0.5,-20.47526023864746,-0.15025,-0.03,-0.001,1.4519532110410218,10,1,100,-0.8188059056057342,-10,-1,-100,15005.73846396408,0.04620891394139018,0.0979237306187652,0.9941205556943589,25.146710746102645,0.03268464535975515,64.17169275863623,-22.3971322296876,6.8765869140625,5356.25390625,True
1599562814.6993449,0.0,10,0.5,0.5,-20.029406631469726,-0.15025,-0.03,-0.001,1.069173895017034,10,1,100,-0.503869483228757,-10,-1,-100,15005.73846396408,0.04620891394139018,0.0979237306187652,0.9941205556943589,25.146710746102645,0.03268464535975515,64.17169275863623,-22.3971322296876,6.8765869140625,5356.25390625,True
1599562814.7392383,0.0,10,0.5,0.5,-15.383112586975097,-0.15025,-0.03,-0.001,1.3269806643444388,10,1,100,-0.8732809201955967,-10,-1,-100,15004.35772335669,0.04956179742119658,0.10025690178512929,0.9937264119871361,22.334787949936924,0.02938279883819873,58.425726943500656,-22.95405231626543,-20.658599853515625,5356.25390625,True
1599562814.7786422,0.0,10,0.5,0.5,-13.533207595825195,-0.15025,-0.03,-0.001,1.1593326833665958,10,1,100,-0.6754339078158298,-10,-1,-100,15003.89810434496,0.05080331937123139,0.1008415378642828,0.9936045526174038,22.747435994248338,0.03026685175912521,59.990657835742574,-23.139691127791775,-29.977294921875,5356.25390625,True
1599562814.8125536,0.0,10,0.5,0.5,-8.80335570526123,-0.15025,-0.03,-0.001,1.231945289162463,10,1,100,-0.9936893277450013,-10,-1,-100,15002.516197147197,0.05481619617920067,0.10202082549132988,0.9932708270167363,25.755676113526874,0.03554880713632802,69.57232817364071,-23.696468750258905,-58.354217529296875,5356.25390625,True
1599562814.851962,0.0,10,0.5,0.5,-5.409338523864746,-0.15025,-0.03,-0.001,1.1356551461846738,10,1,100,-0.8840987490019969,-10,-1,-100,15001.53129752865,0.057455379328121295,0.10220457615053215,0.9931027660822176,25.751026763684145,0.03598106790854437,70.65847824919669,-24.067612863196786,-77.62551879882812,5356.25390625,True
1599562814.8918557,0.0,10,0.5,0.5,-1.9057508220672605,-0.15025,-0.03,-0.001,1.0913073615907851,10,1,100,-0.8821636031831739,-10,-1,-100,15000.609726262745,0.05982203655617304,0.10195532941458442,0.9929886377729784,24.419948464549492,0.0343317239009944,68.04908330864444,-24.438799562554752,-97.1788101196289,5356.25390625,True
1599562814.929792,0.0,10,0.5,0.5,0.14343044471740707,-0.15025,-0.03,-0.001,1.0897122719937173,10,1,100,-0.7681524607711926,-10,-1,-100,15000.087362759863,0.06092007655753078,0.10170240424328775,0.9929478159718967,23.29642405555632,0.03292202120739281,65.4160951726328,-24.624415350634578,-107.06055450439453,5356.25390625,True
1599562814.969936,0.0,10,0.5,0.5,2.1917281665801993,-0.15025,-0.03,-0.001,1.0802099954312407,10,1,100,-0.769932687517526,-10,-1,-100,14999.562033248949,0.06191679381957254,0.10137583888254975,0.9929195586420704,21.818997027681373,0.031106221583734224,61.73380970879646,-24.810042785531408,-117.01215362548828,5356.25390625,True
1599562815.0108292,0.0,10,0.5,0.5,7.284265846252441,-0.15025,-0.03,-0.001,0.979235530983369,10,1,100,-0.9285602742092545,-10,-1,-100,14998.05325830821,0.06424693593397594,0.10015264087205997,0.9928956540087421,25.631339943572684,0.0378158323567438,74.16279585604782,-25.366771048883024,-147.23501586914062,5356.25390625,True
1599562815.0507581,0.0,10,0.5,0.5,12.391669212341307,-0.15025,-0.03,-0.001,0.9695981451079052,10,1,100,-0.8464440219105591,-10,-1,-100,14996.547253597644,0.06559946890002886,0.09894751346108885,0.9929280433444821,25.667578499658234,0.0384701828259256,75.91302956954377,-25.92342668897601,-177.43707275390625,5356.25390625,True
1599562815.3748527,0.0,10,0.5,0.5,-40.030869461059574,-0.15025,-0.03,-0.001,1.0598061701297468,10,1,100,-0.7428305398561579,-10,-1,-100,14996.019857271924,0.06586947580052911,0.09867108533054791,0.9929376763309241,25.045951328678022,0.03766265744490371,74.61036461785542,-26.109000980872572,172.61434936523438,5356.25390625,True
1599562815.4107566,0.0,10,0.5,0.5,-38.68366674041748,-0.15025,-0.03,-0.001,1.0642315260844906,10,1,100,-0.7404074527358673,-10,-1,-100,14995.496375206974,0.06607503531638202,0.0984593381253613,0.9929450379773569,24.06759039899712,0.03637973897098602,72.21103965812736,-26.29459013982562,162.7342529296875,5356.25390625,True
1599562815.4457052,0.0,10,0.5,0.5,-36.286734352111814,-0.15025,-0.03,-0.001,1.0633697833006721,10,1,100,-0.7488187805703734,-10,-1,-100,14994.447507985984,0.06632336218574819,0.0982606407895749,0.9929481648605833,23.943835281422103,0.03691938964916335,72.864746794766,-26.665768567933306,143.18389892578125,5356.25390625,True
1599562815.518469,0.0,10,0.5,0.5,-33.86920651245117,-0.15025,-0.03,-0.001,1.10405699040508,10,1,100,-0.7393047311272675,-10,-1,-100,14993.336233971524,0.06644851339676691,0.09845223681896799,0.9929208186621438,26.118249357134633,0.04121134908018024,80.59923417153419,-27.036850428364538,123.63638305664062,5356.25390625,True
1599562815.5553944,0.0,10,0.5,0.5,-31.444607307434083,-0.15025,-0.03,-0.001,1.1502374790000454,10,1,100,-0.7488385743301187,-10,-1,-100,14992.228010768653,0.0666383836929757,0.09904948182261808,0.992848692384423,26.682055254900476,0.04272030723354392,83.4806536419128,-27.407890085708267,103.86700439453125,5356.25390625,True
1599562815.5863113,0.0,10,0.5,0.5,-27.44980546951294,-0.15025,-0.03,-0.001,1.2568955692193842,10,1,100,-0.8060091763169512,-10,-1,-100,14990.590841553989,0.06732237761271412,0.10056491909550117,0.9926501873872218,24.849885120395783,0.04029234999598025,79.34522537228452,-27.96451720907904,73.72453308105469,5356.25390625,True
1599562815.6222148,0.0,10,0.5,0.5,-24.902690814971923,-0.15025,-0.03,-0.001,1.2459319455301656,10,1,100,-0.8353153434746774,-10,-1,-100,14989.480035333545,0.06820379147658606,0.10184418404669206,0.9924595734860346,23.906410939591005,0.03946739786732965,77.35771725525196,-28.33564791332794,53.29499816894531,5356.25390625,True
1599562815.6591163,0.0,10,0.5,0.5,-22.273123222351074,-0.15025,-0.03,-0.001,1.2625373320411684,10,1,100,-0.8926935607107722,-10,-1,-100,14988.30683939252,0.06952007540505319,0.10315798135259889,0.9922325281903089,26.467968930955657,0.04468465106278894,86.78065964107618,-28.706685561189964,32.59375,5356.25390625,True
1599562815.696019,0.0,10,0.5,0.5,-19.570020187377928,-0.15025,-0.03,-0.001,1.2627218496457844,10,1,100,-0.9534894792590807,-10,-1,-100,14987.133710867027,0.07126247525265748,0.10435239984303793,0.9919839899251717,27.309258512317843,0.0467946157178399,90.70919936619039,-29.077673587222563,11.61773681640625,5356.25390625,True
1599562815.7279325,0.0,10,0.5,0.5,-18.465489791870116,-0.15025,-0.03,-0.001,1.1979761939022135,10,1,100,-0.8919978615651578,-10,-1,-100,14986.54617691692,0.07228108264479056,0.10484582000124916,0.9918582555587077,27.04830650950318,0.0465620726465749,90.42242965667526,-29.26317538532681,1.02557373046875,5356.25390625,True
1599562815.7638366,0.0,10,0.5,0.5,-15.775574737548828,-0.15025,-0.03,-0.001,1.2267016053095157,10,1,100,-1.0394329999771765,-10,-1,-100,14985.376944738906,0.07454133461070739,0.10555016178828924,0.9916162326126577,25.588398664635847,0.04450538251542795,86.64050029811122,-29.63422173194387,-20.3687744140625,5356.25390625,True
1599562815.8007374,0.0,10,0.5,0.5,-15.218019714355467,-0.15025,-0.03,-0.001,1.1569553342512815,10,1,100,-0.8142749892665121,-10,-1,-100,14985.376944738906,0.07454133461070739,0.10555016178828924,0.9916162326126577,25.588398664635847,0.04450538251542795,86.64050029811122,-29.63422173194387,-20.3687744140625,5356.25390625,True
1599562815.8376393,0.0,10,0.5,0.5,-8.068975410461425,-0.15025,-0.03,-0.001,1.1577294743509914,10,1,100,-1.3542779602675328,-10,-1,-100,14982.965909252758,0.07944275589317637,0.1055507532222294,0.991235535597023,27.0605205444645,0.049110275935529836,93.94812838522965,-30.37626983805029,-64.00338745117188,5356.25390625,True
1599562815.875108,0.0,10,0.5,0.5,-7.491048164367675,-0.15025,-0.03,-0.001,1.1583993422002412,10,1,100,-0.8654477713913773,-10,-1,-100,14982.965909252758,0.07944275589317637,0.1055507532222294,0.991235535597023,27.0605205444645,0.049110275935529836,93.94812838522965,-30.37626983805029,-64.00338745117188,5356.25390625,True
1599562815.908016,0.0,10,0.5,0.5,-1.866222743988037,-0.15025,-0.03,-0.001,1.0222237586726162,10,1,100,-1.2395339133519017,-10,-1,-100,14981.144027462113,0.0828317260541844,0.10430634017524802,0.991089850900578,26.892258445515218,0.04976608663305466,95.09543427451935,-30.9326916522657,-97.47053527832031,5356.25390625,True
1599562815.9479096,0.0,10,0.5,0.5,0.412820442199707,-0.15025,-0.03,-0.001,1.0817052980680473,10,1,100,-1.0057254573641874,-10,-1,-100,14980.493672479875,0.08377235538033866,0.10371101789217557,0.9910732653249199,25.965340053526983,0.048311931276687564,92.37569091034875,-31.118191337210632,-108.76638793945312,5356.25390625,True
1599562815.9848175,0.0,10,0.5,0.5,6.137258232116699,-0.15025,-0.03,-0.001,0.9134414237436705,10,1,100,-1.1553106186906243,-10,-1,-100,14978.609755848069,0.08597238352729411,0.10163728414207295,0.9910996981852327,25.80485473770713,0.049362253842078846,93.46839408867692,-31.674705708051107,-143.06893920898438,5356.25390625,True
1599562816.021727,0.0,10,0.5,0.5,10.172447635650634,-0.15025,-0.03,-0.001,0.9691342097334834,10,1,100,-1.0333408254862322,-10,-1,-100,14977.371248432202,0.08684743954807668,0.10025855778725487,0.991163832993498,27.46179869315858,0.053438678549110434,100.64957072237016,-32.045613808175915,-166.07984924316406,5356.25390625,True
1599562816.0596106,0.0,10,0.5,0.5,10.745457523345948,-0.15025,-0.03,-0.001,1.1067169028587562,10,1,100,-0.9475679598222777,-10,-1,-100,14977.371248432202,0.08684743954807668,0.10025855778725487,0.991163832993498,27.46179869315858,0.053438678549110434,100.64957072237016,-32.045613808175915,-166.07984924316406,5356.25390625,True
1599562816.0975132,0.0,10,0.5,0.5,-36.302757396698,-0.15025,-0.03,-0.001,0.8840173705252765,10,1,100,-1.0261127135531587,-10,-1,-100,14974.770179513958,0.08754731461445249,0.0982377382588194,0.9913046022719706,25.162863426450343,0.05009325453756015,94.38888251655493,-32.78749364588314,148.50730895996094,5356.25390625,True
1599562816.1370037,0.0,10,0.5,0.5,-34.739489231109616,-0.15025,-0.03,-0.001,1.0553772176172125,10,1,100,-0.9618788442723163,-10,-1,-100,14974.059160626493,0.08758574201590497,0.09796445373538878,0.9913282521949277,24.956026767819505,0.05015190351669992,94.15013703613104,-32.972982189012725,137.32630920410156,5356.25390625,True
1599562816.1689005,0.0,10,0.5,0.5,-33.543423278808596,-0.15025,-0.03,-0.001,1.0639725386239607,10,1,100,-0.9629798472129488,-10,-1,-100,14973.40676668752,0.08761882658268097,0.09780104863965221,0.9913414629244852,26.388269446761015,0.053572782671684915,100.12114511173228,-33.158440022572634,126.2166748046875,5356.25390625,True
1599562816.2077973,0.0,10,0.5,0.5,-30.623460899353027,-0.15025,-0.03,-0.001,1.0729289429507753,10,1,100,-0.9803257033200503,-10,-1,-100,14972.107945268159,0.08779470443347646,0.0977409650584524,0.9913318282103531,27.895538477542562,0.057595580037869944,107.03975911735161,-33.52929975028917,103.93020629882812,5356.25390625,True
1599562816.2472465,0.0,10,0.5,0.5,-29.45221139907837,-0.15025,-0.03,-0.001,1.0917440671957594,10,1,100,-0.9794349200653749,-10,-1,-100,14971.396093312884,0.08793890267866596,0.09786449001246494,0.9913068601549534,27.990791528915707,0.058128220131465146,108.00750091040786,-33.714723968904664,92.70814514160156,5356.25390625,True
1599562816.286174,0.0,10,0.5,0.5,-23.04613796234131,-0.15025,-0.03,-0.001,1.1877189695299488,10,1,100,-1.1319245174582804,-10,-1,-100,14968.669210222433,0.08944853728987782,0.0988562720493415,0.991073355838612,24.926948224684338,0.05308344961654015,98.33356734867444,-34.45654557337102,47.171417236328125,5356.25390625,True
1599562816.3240721,0.0,10,0.5,0.5,-20.020651359558105,-0.15025,-0.03,-0.001,1.1444709519932486,10,1,100,-1.1346606375053514,-10,-1,-100,14967.309377066442,0.09083979092664772,0.09936968289446464,0.9908954528636492,27.630395796044642,0.05994387256134599,110.18858393281478,-34.82739997952905,23.998199462890625,5356.25390625,True
1599562816.3619735,0.0,10,0.5,0.5,-20.442118339538574,-0.15025,-0.03,-0.001,1.0926957339811632,10,1,100,-0.9962420173829927,-10,-1,-100,14967.309377066442,0.09083979092664772,0.09936968289446464,0.9908954528636492,27.630395796044642,0.05994387256134599,110.18858393281478,-34.82739997952905,23.998199462890625,5356.25390625,True
1599562816.4018683,0.0,10,0.5,0.5,-15.607413803100586,-0.15025,-0.03,-0.001,1.1236659791284846,10,1,100,-1.3049752951116769,-10,-1,-100,14965.17156050622,0.09364203217199998,0.09965329203330175,0.9906060726634092,28.271278999313427,0.062469070150130326,114.57208203775585,-35.38360867078947,-11.280517578125,5356.25390625,True
1599562816.4407616,0.0,10,0.5,0.5,-10.675688613891602,-0.15025,-0.03,-0.001,1.0196575557293794,10,1,100,-1.3847766983829077,-10,-1,-100,14963.034590574098,0.09690881461330966,0.09896613764293813,0.9903607349093976,25.611585595094446,0.057816629395046254,105.4518447012859,-35.93991707471203,-47.19061279296875,5356.25390625,True
1599562816.478626,0.0,10,0.5,0.5,-11.068266418457032,-0.15025,-0.03,-0.001,1.0882437527513102,10,1,100,-1.0591045917584632,-10,-1,-100,14963.034590574098,0.09690881461330966,0.09896613764293813,0.9903607349093976,25.611585595094446,0.057816629395046254,105.4518447012859,-35.93991707471203,-47.19061279296875,5356.25390625,True
1599562816.516768,0.0,10,0.5,0.5,-6.806851898193359,-0.15025,-0.03,-0.001,0.9689173047336397,10,1,100,-1.2945565953461142,-10,-1,-100,14961.610089025577,0.09904077691865298,0.09788068957061011,0.9902576912685565,28.027916588990248,0.06444003887294766,116.60957422979666,-36.310718856505616,-71.483642578125,5356.25390625,True
1599562816.5516741,0.0,10,0.5,0.5,-2.487836791992187,-0.15025,-0.03,-0.001,0.9090629855885919,10,1,100,-1.2888021059022345,-10,-1,-100,14960.120941004367,0.10091619726047278,0.09634986457096127,0.9902184732308537,28.51563252964667,0.06640440973490175,119.86875407034378,-36.681477026394596,-96.05804443359375,5356.25390625,True
1599562816.5885766,0.0,10,0.5,0.5,3.80850796508789,-0.15025,-0.03,-0.001,0.7513266342755651,10,1,100,-1.325523190698053,-10,-1,-100,14957.920539992396,0.10294286436874568,0.09352555790849726,0.9902806353218577,25.562402757535256,0.06060848619394284,109.11095225982989,-37.23770846636129,-133.44049072265625,5356.25390625,True
1599562816.6303399,0.0,10,0.5,0.5,4.483237609863281,-0.15025,-0.03,-0.001,1.0333357598069708,10,1,100,-1.12437129586429,-10,-1,-100,14957.920539992396,0.10294286436874568,0.09352555790849726,0.9902806353218577,25.562402757535256,0.06060848619394284,109.11095225982989,-37.23770846636129,-133.44049072265625,5356.25390625,True
1599562816.669236,0.0,10,0.5,0.5,8.982615409851075,-0.15025,-0.03,-0.001,0.8181823517233738,10,1,100,-1.210227348833184,-10,-1,-100,14956.369427818223,0.10370973397601738,0.09157356231874089,0.9903830439596991,27.62366591414547,0.06656936500786753,119.10205397010814,-37.608496269667825,-158.70285034179688,5356.25390625,True
1599562816.7126431,0.0,10,0.5,0.5,-39.159553070068355,-0.15025,-0.03,-0.001,0.7276062177140386,10,1,100,-1.1798118996972748,-10,-1,-100,14954.104173220927,0.10411741935713234,0.0889822221186326,0.9905764620327101,28.338215351725488,0.06943097235796888,124.01907169568202,-38.16458975206813,163.5089111328125,5356.25390625,True
