Timestamp,Input Throttle,horizon,dT,dt,Input Roll,Roll P,Roll I,Roll D,Input Pitch,Pitch P,Pitch I,Pitch D,Input Yaw,Yaw P,Yaw I,Yaw D,Altitude,Direction X,Direction Y,Direction Z,Drag X,Drag Y,Drag Z,Vertical Velocity,Roll,Mass,Has Fuel
1599559373.5486798,0.0,10,0.5,0.5,-0.058481903076171876,-0.001,-0.03,-0.5,-0.000541163275394492,10,1,100,0.171134847890625,-10,-1,-100,14993.951938505517,-0.01677504322943804,-7.72062088893342e-05,0.9998592860817224,28.649094685746476,0.02703437350394611,-87.51382029580179,27.00929773447548,-31.792755126953125,5356.25390625,True
1599559373.5757058,0.0,10,0.5,0.5,-0.23339468383789064,-0.001,-0.03,-0.5,-0.00026852864207325256,10,1,100,0.1771758232367921,-10,-1,-100,14995.02616045333,-0.016845478562342295,-7.255844463743399e-05,0.9998581022261498,28.503910209468977,0.027363255416446575,-85.87448976192779,26.637366648012076,-31.7916259765625,5356.25390625,True
1599559373.6086152,0.0,10,0.5,0.5,-0.4070882873535156,-0.001,-0.03,-0.5,0.0033768328454849296,10,1,100,0.17780020924971351,-10,-1,-100,14996.092570084496,-0.016899872848225136,-3.512759229914357e-05,0.9998571863340115,28.358890815124152,0.02768614604760467,-84.24783225235053,26.265451262383586,-31.7923583984375,5356.25390625,True
1599559373.6415246,0.0,10,0.5,0.5,-0.5820774230957031,-0.001,-0.03,-0.5,-0.00036976514757402687,10,1,100,0.1740507679462519,-10,-1,-100,14996.092570084496,-0.016899872848225136,-3.512759229914357e-05,0.9998571863340115,28.358890815124152,0.02768614604760467,-84.24783225235053,26.265451262383586,-31.7923583984375,5356.25390625,True
1599559373.6775422,0.0,10,0.5,0.5,-0.7507222290039062,-0.001,-0.03,-0.5,0.0035392587196295356,10,1,100,0.17775613653522904,-10,-1,-100,14996.572062453255,-0.016918194496444723,4.409224866153107e-07,0.9998568771053115,28.287221337700426,0.0278459858819524,-83.4415446001765,26.079499423269827,-31.804290771484375,5356.25390625,True
1599559373.7074678,0.0,10,0.5,0.5,-0.8943212890625,-0.001,-0.03,-0.5,0.009500864130830457,10,1,100,0.18076601175960622,-10,-1,-100,14997.6413998137,-0.016946832865505555,8.697194791868937e-05,0.999856388333699,28.147648933763346,0.028163689020660396,-81.84893859714046,25.707607369786302,-31.8780517578125,5356.25390625,True
1599559373.7415373,0.0,10,0.5,0.5,-1.0059883728027343,-0.001,-0.03,-0.5,0.01552425461722514,10,1,100,0.18007905771972815,-10,-1,-100,14998.64335321833,-0.01695121649804787,0.00022031554641696412,0.999856293534374,28.016978104930757,0.028480805472268573,-80.29354356538988,25.335730354756674,-32.076812744140625,5356.25390625,True
1599559373.775538,0.0,10,0.5,0.5,-1.0904989624023436,-0.001,-0.03,-0.5,0.022697911399041176,10,1,100,0.17833918124766665,-10,-1,-100,14999.658977364423,-0.01692397436288755,0.00040655177438970785,0.9998566966357825,27.899290620132714,0.028798106174594787,-78.7857547368708,24.963867809798728,-32.453338623046875,5356.25390625,True
1599559373.810518,0.0,10,0.5,0.5,-0.9490258483886718,-0.001,-0.03,-0.5,0.04529848972236972,10,1,100,0.17120730012085514,-10,-1,-100,15001.131630060961,-0.01681898807125908,0.0007809476466002892,0.9998582458333941,27.752066397237414,0.029269352141979704,-76.62343852383756,24.406099514633834,-33.456085205078125,5356.25390625,True
1599559373.841438,0.0,10,0.5,0.5,-1.6200308837890622,-0.001,-0.03,-0.5,0.007936997265971612,10,1,100,0.18338782809082832,-10,-1,-100,15001.131630060961,-0.01681898807125908,0.0007809476466002892,0.9998582458333941,27.752066397237414,0.029269352141979704,-76.62343852383756,24.406099514633834,-33.456085205078125,5356.25390625,True
1599559373.87965,0.0,10,0.5,0.5,-0.9844207153320312,-0.001,-0.03,-0.5,0.06086452038678823,10,1,100,0.16410255985327982,-10,-1,-100,15002.54666156345,-0.016628377461762038,0.0012613969952926219,0.999860943301922,27.64076771397331,0.0297163044571492,-74.57646548267653,23.848359331810588,-35.0633544921875,5356.25390625,True
1599559373.9091141,0.0,10,0.5,0.5,-1.7782435607910154,-0.001,-0.03,-0.5,0.012953445837973166,10,1,100,0.18314895422621624,-10,-1,-100,15002.54666156345,-0.016628377461762038,0.0012613969952926219,0.999860943301922,27.64076771397331,0.0297163044571492,-74.57646548267653,23.848359331810588,-35.0633544921875,5356.25390625,True
1599559373.944517,0.0,10,0.5,0.5,-1.062200012207031,-0.001,-0.03,-0.5,0.05578338461343138,10,1,100,0.16439461394142213,-10,-1,-100,15003.481225746451,-0.016458080823809892,0.001649547388305942,0.9998631959268283,27.580272401233906,0.02998075045612125,-73.25591886935314,23.476547080515573,-36.472991943359375,5356.25390625,True
1599559373.9755945,0.0,10,0.5,0.5,-0.43788241577148423,-0.001,-0.03,-0.5,0.08798912938018105,10,1,100,0.14295461844927862,-10,-1,-100,15004.891371290083,-0.016108758277583377,0.002293659357124316,0.9998676147538271,27.495381120997855,0.030286995795234757,-71.29966437924851,22.9188497553046,-39.097930908203125,5356.25390625,True
1599559374.0094962,0.0,10,0.5,0.5,-1.7284351806640625,-0.001,-0.03,-0.5,0.023810811193285968,10,1,100,0.1778077616148659,-10,-1,-100,15004.891371290083,-0.016108758277583377,0.002293659357124316,0.9998676147538271,27.495381120997855,0.030286995795234757,-71.29966437924851,22.9188497553046,-39.097930908203125,5356.25390625,True
1599559374.0422344,0.0,10,0.5,0.5,-0.6583499755859374,-0.001,-0.03,-0.5,0.07604061486867153,10,1,100,0.14549636437890254,-10,-1,-100,15005.820073221694,-0.01581575415381904,0.002766391010141787,0.9998710961925668,27.43191931020802,0.030403100667928167,-69.98382994058952,22.54706577818113,-41.190155029296875,5356.25390625,True
1599559374.0781972,0.0,10,0.5,0.5,-1.1123961791992187,-0.001,-0.03,-0.5,0.055581079744020025,10,1,100,0.15634203231802052,-10,-1,-100,15006.230223888764,-0.0156490120032177,0.0030077154489679078,0.9998730229739679,27.394942547195345,0.03042696017525652,-69.31461633300596,22.361178161078797,-42.316162109375,5356.25390625,True
1599559374.108288,0.0,10,0.5,0.5,-0.4523145141601561,-0.001,-0.03,-0.5,0.08898054475105072,10,1,100,0.13254137265379612,-10,-1,-100,15007.101306861034,-0.015282242418900653,0.0035281988025987047,0.9998769948747991,27.304567113703403,0.030394737658774356,-67.93995070698584,21.989412499191435,-44.696136474609375,5356.25390625,True
1599559374.1521327,0.0,10,0.5,0.5,-0.3121132507324218,-0.001,-0.03,-0.5,0.09532290203348087,10,1,100,0.12241726968410196,-10,-1,-100,15007.973366071354,-0.014858270707927924,0.004056185420259513,0.9998813825406524,27.184594419624887,0.030241879397281565,-66.50044159704183,21.617660822087252,-47.27789306640625,5356.25390625,True
1599559374.31473,0.0,10,0.5,0.5,0.5919880065917968,-0.001,-0.03,-0.5,0.13441842409057975,10,1,100,0.08373317409068196,-10,-1,-100,15009.240926617407,-0.01412295075379738,0.004888609602494184,0.9998883156423821,26.93022331517092,0.029755999126001565,-64.18271326463886,21.06006329091992,-51.576324462890625,5356.25390625,True
1599559374.3406315,0.0,10,0.5,0.5,0.035023223876953,-0.001,-0.03,-0.5,0.11263841481195241,10,1,100,0.09560052483682727,-10,-1,-100,15010.108101531514,-0.013564814018023173,0.0054436245365782785,0.9998931756805629,26.69898072285506,0.02924796887003231,-62.51101978125586,20.688354678831264,-54.645965576171875,5356.25390625,True
1599559374.397208,0.0,10,0.5,0.5,-1.4410494995117187,-0.001,-0.03,-0.5,0.057555144157671545,10,1,100,0.15110784206987418,-10,-1,-100,15010.108101531514,-0.013564814018023173,0.0054436245365782785,0.9998931756805629,26.69898072285506,0.02924796887003231,-62.51101978125586,20.688354678831264,-54.645965576171875,5356.25390625,True
1599559374.431292,0.0,10,0.5,0.5,0.14095666503906257,-0.001,-0.03,-0.5,0.11662256102577877,10,1,100,0.0839040700056553,-10,-1,-100,15010.91082292539,-0.01295665569329731,0.005976799028523539,0.9998981962913115,26.41621284197178,0.028600460013538425,-60.74031755414092,20.31666744366554,-57.6864013671875,5356.25390625,True
1599559374.505095,0.0,10,0.5,0.5,0.1757897033691409,-0.001,-0.03,-0.5,0.12223392773161018,10,1,100,0.07177013425906356,-10,-1,-100,15011.709637646214,-0.012296659095968884,0.0065085816715811365,0.9999032105857556,26.090473614646548,0.027839992348656632,-58.896419624299284,19.945003445231443,-60.66326904296875,5356.25390625,True
1599559374.530059,0.0,10,0.5,0.5,1.9081622924804689,-0.001,-0.03,-0.5,0.18186570369764876,10,1,100,-0.025112354991075503,-10,-1,-100,15013.307267776225,-0.010819377831743245,0.007530295744675251,0.9999131140800843,25.26778160178803,0.026010896587501407,-54.91878653506004,19.201754237526526,-66.962890625,5356.25390625,True
1599559374.576139,0.0,10,0.5,0.5,-0.3607315673828124,-0.001,-0.03,-0.5,0.10623078212490752,10,1,100,0.07857714272453867,-10,-1,-100,15013.641245333478,-0.010423835189358103,0.007766775945565389,0.9999155068561326,25.025183046260334,0.025503914053549712,-53.86653518724129,19.015959888905197,-68.55435180664062,5356.25390625,True
1599559374.6090972,0.0,10,0.5,0.5,-0.28204711914062486,-0.001,-0.03,-0.5,0.10849846262967724,10,1,100,0.07284511567616246,-10,-1,-100,15014.040654122946,-0.0100170433767177,0.007997827419203945,0.9999178434244292,24.77018347596693,0.024986032179041124,-52.798054412378626,18.830173097018978,-70.13583374023438,5356.25390625,True
1599559374.6440053,0.0,10,0.5,0.5,0.5204288024902345,-0.001,-0.03,-0.5,0.1296756985605688,10,1,100,0.023687309878236473,-10,-1,-100,15014.778923265985,-0.009205463465814825,0.008395858074637795,0.9999223814924686,24.23179823308179,0.023939334973912367,-50.63393903238687,18.45862237557281,-73.14932250976562,5356.25390625,True
1599559374.6959662,0.0,10,0.5,0.5,1.325212890625,-0.001,-0.03,-0.5,0.1532336200319133,10,1,100,-0.04060370726229612,-10,-1,-100,15015.844335542875,-0.007888724099128356,0.00896744190270621,0.9999286739652031,23.40702366371546,0.022435013179969626,-47.43773366060788,17.90135177260371,-77.5927734375,5356.25390625,True
1599559374.7232957,0.0,10,0.5,0.5,-0.8055679321289062,-0.001,-0.03,-0.5,0.09656636287331649,10,1,100,0.09037327474547079,-10,-1,-100,15015.844335542875,-0.007888724099128356,0.00896744190270621,0.9999286739652031,23.40702366371546,0.022435013179969626,-47.43773366060788,17.90135177260371,-77.5927734375,5356.25390625,True
1599559374.778219,0.0,10,0.5,0.5,1.4449237060546873,-0.001,-0.03,-0.5,0.144852972838136,10,1,100,-0.05621718145376112,-10,-1,-100,15016.903891960043,-0.00656175106700322,0.00940270305484074,0.999934264138497,22.50975252309256,0.021015439829987458,-44.20304489841516,17.34414655149662,-81.92898559570312,5356.25390625,True
1599559374.8101022,0.0,10,0.5,0.5,0.029683776855468746,-0.001,-0.03,-0.5,0.11486669906681446,10,1,100,0.026857990651697666,-10,-1,-100,15017.237871214398,-0.006117007205076376,0.00952219336020715,0.9999359529772213,22.204152841991206,0.020578701836674148,-43.137264767580746,17.158425199232546,-83.26834106445312,5356.25390625,True
1599559374.8460374,0.0,10,0.5,0.5,0.8147247924804688,-0.001,-0.03,-0.5,0.1285594515007022,10,1,100,-0.03366619925634084,-10,-1,-100,15017.908761124243,-0.005169245428536119,0.009751592688281387,0.9999390908159064,21.58467238997479,0.019766315578554027,-41.02840487444672,16.78700167411035,-86.00057983398438,5356.25390625,True
1599559374.8789158,0.0,10,0.5,0.5,0.8684267272949219,-0.001,-0.03,-0.5,0.12274338229268178,10,1,100,-0.03738899115438765,-10,-1,-100,15018.570863645873,-0.004280879714667061,0.009903832544948908,0.9999417923908324,20.918105540215212,0.01901052097672873,-38.88394904845104,16.415602612721806,-88.66500854492188,5356.25390625,True
1599559374.9168477,0.0,10,0.5,0.5,1.5218098144531251,-0.001,-0.03,-0.5,0.12554126382614705,10,1,100,-0.10180420657469356,-10,-1,-100,15019.558160270564,-0.0028949687249481383,0.01006458110961146,0.9999451601778818,20.944434164541665,0.01899040943852076,-37.614952011245464,15.858534071435686,-92.46060180664062,5356.25390625,True
1599559374.9427779,0.0,10,0.5,0.5,0.29470993041992194,-0.001,-0.03,-0.5,0.1128479943350692,10,1,100,-0.013410657264387116,-10,-1,-100,15019.889211401227,-0.0024458313726671717,0.010093018913599493,0.9999460729849916,21.123412434540914,0.019181042387294435,-37.493273813907294,15.672847171173933,-93.64663696289062,5356.25390625,True
1599559374.9798064,0.0,10,0.5,0.5,0.8771762466430664,-0.001,-0.03,-0.5,0.11283566618779345,10,1,100,-0.06611798191755199,-10,-1,-100,15020.486864108709,-0.0015656199226708768,0.010116644622278804,0.9999475997950314,21.432622439325343,0.019573364808607767,-37.1428298550108,15.301476891710484,-95.84265899658203,5356.25390625,True
1599559375.0117757,0.0,10,0.5,0.5,-0.14371429443359374,-0.001,-0.03,-0.5,0.11068497704016986,10,1,100,0.021058020736672817,-10,-1,-100,15020.486864108709,-0.0015656199226708768,0.010116644622278804,0.9999475997950314,21.432622439325343,0.019573364808607767,-37.1428298550108,15.301476891710484,-95.84265899658203,5356.25390625,True
1599559375.0457149,0.0,10,0.5,0.5,0.9063252563476563,-0.001,-0.03,-0.5,0.10861499366681054,10,1,100,-0.07515788079646846,-10,-1,-100,15021.08451703412,-0.0006978752210451779,0.010096262240204955,0.9999487879181378,21.674875046955833,0.019966790723596306,-36.653090663160405,14.930111009632501,-97.80265808105469,5356.25390625,True
1599559375.077602,0.0,10,0.5,0.5,1.2876549072265624,-0.001,-0.03,-0.5,0.09881633021100215,10,1,100,-0.12690580827119616,-10,-1,-100,15021.948772490025,0.0005548821675865427,0.009987627842960017,0.9999499684463473,21.940888423705136,0.02055679711937996,-35.721603769694845,14.373070637883407,-100.39886474609375,5356.25390625,True
1599559375.113536,0.0,10,0.5,0.5,0.8753820495605469,-0.001,-0.03,-0.5,0.09639267102418002,10,1,100,-0.09085247804149706,-10,-1,-100,15022.533732255339,0.0013583189676483743,0.00986590859291146,0.9999504081789348,22.07903062003194,0.020959060720956508,-35.019668150573274,14.001716045521114,-102.03042602539062,5356.25390625,True
1599559375.156421,0.0,10,0.5,0.5,0.11990573120117189,-0.001,-0.03,-0.5,0.10861091658284285,10,1,100,-0.011300805038779053,-10,-1,-100,15022.533732255339,0.0013583189676483743,0.00986590859291146,0.9999504081789348,22.07903062003194,0.020959060720956508,-35.019668150573274,14.001716045521114,-102.03042602539062,5356.25390625,True
1599559375.1823483,0.0,10,0.5,0.5,0.886219741821289,-0.001,-0.03,-0.5,0.09246305381144795,10,1,100,-0.09425525098886706,-10,-1,-100,15023.070841467706,0.0021056545434012426,0.009718797372050865,0.9999505543758576,22.209259207814455,0.02138174599825171,-34.29378521866845,13.630365679221875,-103.44764709472656,5356.25390625,True
1599559375.2112682,0.0,10,0.5,0.5,0.8157945938110351,-0.001,-0.03,-0.5,0.0870825930412264,10,1,100,-0.10067720334665667,-10,-1,-100,15023.593302607536,0.0028368183610001764,0.009536176432735794,0.9999505056754711,22.2871155828867,0.02177349281335717,-33.478171538419424,13.259020372841203,-104.61699676513672,5356.25390625,True
1599559375.2471447,0.0,10,0.5,0.5,0.542085578918457,-0.001,-0.03,-0.5,0.09336607298224774,10,1,100,-0.06825303911763128,-10,-1,-100,15023.855020630406,0.0032002769766665516,0.00942761417474248,0.999950437930923,22.309228378035254,0.021957857352521936,-33.04296135978378,13.073349841419365,-105.14216613769531,5356.25390625,True
1599559375.280059,0.0,10,0.5,0.5,1.01292236328125,-0.001,-0.03,-0.5,0.06574223399843779,10,1,100,-0.1421715046129241,-10,-1,-100,15024.644084768603,0.004197138817500814,0.00907837446483653,0.9999499823205273,22.357923863614495,0.02250565656230572,-31.706562065104574,12.516346668389277,-106.53014373779297,5356.25390625,True
1599559375.3100085,0.0,10,0.5,0.5,0.3575840835571289,-0.001,-0.03,-0.5,0.10056474054415643,10,1,100,-0.04314961754851465,-10,-1,-100,15024.644084768603,0.004197138817500814,0.00907837446483653,0.9999499823205273,22.357923863614495,0.02250565656230572,-31.706562065104574,12.516346668389277,-106.53014373779297,5356.25390625,True
1599559375.3441312,0.0,10,0.5,0.5,0.8798866882324219,-0.001,-0.03,-0.5,0.056030684474760534,10,1,100,-0.14443959380617993,-10,-1,-100,15025.36771886726,0.005112717911897615,0.008674463291621515,0.9999493056161176,22.364846268196683,0.02301981290707857,-30.307162796831953,11.959356784002846,-107.5086669921875,5356.25390625,True
1599559375.3840866,0.0,10,0.5,0.5,0.42562308502197266,-0.001,-0.03,-0.5,0.0962775836631963,10,1,100,-0.05354951814995668,-10,-1,-100,15025.36771886726,0.005112717911897615,0.008674463291621515,0.9999493056161176,22.364846268196683,0.02301981290707857,-30.307162796831953,11.959356784002846,-107.5086669921875,5356.25390625,True
1599559375.4150374,0.0,10,0.5,0.5,0.7349711685180664,-0.001,-0.03,-0.5,0.031079855646420906,10,1,100,-0.17056398864803385,-10,-1,-100,15026.280807352858,0.006171203468122914,0.008083049217785906,0.9999482889445324,22.252355974429285,0.023573221516201563,-28.28484656041404,11.216726098435885,-108.06800842285156,5356.25390625,True
1599559375.443959,0.0,10,0.5,0.5,0.47830788421630854,-0.001,-0.03,-0.5,0.09003080516746446,10,1,100,-0.06527706515555759,-10,-1,-100,15026.280807352858,0.006171203468122914,0.008083049217785906,0.9999482889445324,22.252355974429285,0.023573221516201563,-28.28484656041404,11.216726098435885,-108.06800842285156,5356.25390625,True
1599559375.47883,0.0,10,0.5,0.5,0.49963903045654295,-0.001,-0.03,-0.5,0.052752438390065756,10,1,100,-0.11893465522728405,-10,-1,-100,15026.73100412963,0.006654624391956359,0.007745775755605123,0.9999478581066844,22.146307084249454,0.023788397924164963,-27.21941372437295,10.845421153631978,-108.07443237304688,5356.25390625,True
1599559375.5137691,0.0,10,0.5,0.5,0.432524299621582,-0.001,-0.03,-0.5,0.052567315048678134,10,1,100,-0.11484281179244438,-10,-1,-100,15027.128466225462,0.007052084559284306,0.007439407971280256,0.9999474602759915,22.016108105567447,0.023968934757704223,-26.134129321668812,10.474123099630244,-107.91069030761719,5356.25390625,True
1599559375.5456803,0.0,10,0.5,0.5,0.45545457458496097,-0.001,-0.03,-0.5,0.0631869677523991,10,1,100,-0.09784797020166519,-10,-1,-100,15027.322803110932,0.007254416669651825,0.007259506273201269,0.9999473351169312,21.93947021177187,0.024042857781366504,-25.582100937825277,10.288476533534979,-107.76631927490234,5356.25390625,True
1599559375.5775976,0.0,10,0.5,0.5,0.2140976333618163,-0.001,-0.03,-0.5,0.024928947370783425,10,1,100,-0.1334353514699236,-10,-1,-100,15027.912646398298,0.007757860601234963,0.00675022878980526,0.999947123607132,21.672202279523248,0.024205570659522623,-23.90400239775776,9.73154668081177,-107.12162780761719,5356.25390625,True
1599559375.6104822,0.0,10,0.5,0.5,0.5423817520141602,-0.001,-0.03,-0.5,0.07558895717189058,10,1,100,-0.08354671667406664,-10,-1,-100,15027.912646398298,0.007757860601234963,0.00675022878980526,0.999947123607132,21.672202279523248,0.024205570659522623,-23.90400239775776,9.73154668081177,-107.12162780761719,5356.25390625,True
1599559375.6494117,0.0,10,0.5,0.5,0.24954273223876955,-0.001,-0.03,-0.5,0.03652366253462655,10,1,100,-0.11499182151739384,-10,-1,-100,15028.297412176034,0.008040488170916361,0.006397206243716524,0.9999472117578252,21.464550179028873,0.024263956908590383,-22.772609251822466,9.36026743036265,-106.53357696533203,5356.25390625,True
1599559375.677301,0.0,10,0.5,0.5,0.37776592254638675,-0.001,-0.03,-0.5,0.05287832304592449,10,1,100,-0.10036115512631422,-10,-1,-100,15028.491748288157,0.008160922313113803,0.006227392813939582,0.9999473080746507,21.35189178498139,0.024277320525226083,-22.20424069337016,9.174629647648928,-106.2026138305664,5356.25390625,True
1599559375.711243,0.0,10,0.5,0.5,-0.02449825286865237,-0.001,-0.03,-0.5,0.010504839912837571,10,1,100,-0.12224726070240169,-10,-1,-100,15029.006394482916,0.008466601398165713,0.00569002809518492,0.9999479687668956,20.997709432816574,0.024272908673976096,-20.511585412585504,8.617722062375787,-105.07720947265625,5356.25390625,True
1599559375.7433288,0.0,10,0.5,0.5,0.09966319274902335,-0.001,-0.03,-0.5,0.02406471598923729,10,1,100,-0.1084898333915742,-10,-1,-100,15029.38920509012,0.008616374969490592,0.005327499438099257,0.9999486865995286,20.751405090301223,0.024234814314753033,-19.398337256289686,8.246453483521687,-104.21643829345703,5356.25390625,True
1599559375.7794003,0.0,10,0.5,0.5,0.2845829696655273,-0.001,-0.03,-0.5,0.03962103557816006,10,1,100,-0.10038730345869833,-10,-1,-100,15029.518111165497,0.008676650515394912,0.005141854064084031,0.9999491372427987,20.621073298965236,0.024199851534173353,-18.842887374118316,8.06081974683428,-103.74954986572266,5356.25390625,True
1599559375.8103178,0.0,10,0.5,0.5,-0.22155249023437495,-0.001,-0.03,-0.5,-0.001985534999525952,10,1,100,-0.107372824443072,-10,-1,-100,15029.96537132666,0.008792673523304716,0.004597517805321864,0.9999507746496036,20.209896957474214,0.024039252539077335,-17.192125907438257,7.503918615142808,-102.29920196533203,5356.25390625,True
1599559375.8442276,0.0,10,0.5,0.5,0.48629576873779295,-0.001,-0.03,-0.5,0.05213326508166246,10,1,100,-0.09598432856522639,-10,-1,-100,15029.96537132666,0.008792673523304716,0.004597517805321864,0.9999507746496036,20.209896957474214,0.024039252539077335,-17.192125907438257,7.503918615142808,-102.29920196533203,5356.25390625,True
1599559375.8772671,0.0,10,0.5,0.5,0.21627420806884762,-0.001,-0.03,-0.5,0.031210921138773946,10,1,100,-0.0983596215502838,-10,-1,-100,15030.151894033886,0.008812684742292493,0.004409898215082839,0.9999514435138165,20.074432094029188,0.02397675138189274,-16.65468058250384,7.318284207420916,-101.79383850097656,5356.25390625,True
1599559375.9171553,0.0,10,0.5,0.5,-0.6270754928588866,-0.001,-0.03,-0.5,-0.03328571017779456,10,1,100,-0.09464361019424039,-10,-1,-100,15030.658721441636,0.008795678230796767,0.003655592492040484,0.9999546353150188,19.49260008415067,0.023622216606491345,-14.531871711109838,6.5757383074287805,-99.64191436767578,5356.25390625,True
1599559375.9440827,0.0,10,0.5,0.5,0.42644743347167974,-0.001,-0.03,-0.5,0.0418353984966645,10,1,100,-0.09644804310676917,-10,-1,-100,15030.658721441636,0.008795678230796767,0.003655592492040484,0.9999546353150188,19.49260008415067,0.023622216606491345,-14.531871711109838,6.5757383074287805,-99.64191436767578,5356.25390625,True
1599559375.97804,0.0,10,0.5,0.5,-0.487186279296875,-0.001,-0.03,-0.5,-0.02033420762543959,10,1,100,-0.08480991223391712,-10,-1,-100,15031.038595968625,0.008688933570471237,0.003093227560292051,0.9999574662837757,18.99989770718117,0.0232255024145002,-12.965365173005921,6.018813224128312,-97.86308288574219,5356.25390625,True
1599559376.0111487,0.0,10,0.5,0.5,0.3762179794311523,-0.001,-0.03,-0.5,0.035571887681061246,10,1,100,-0.09554922280642554,-10,-1,-100,15031.038595968625,0.008688933570471237,0.003093227560292051,0.9999574662837757,18.99989770718117,0.0232255024145002,-12.965365173005921,6.018813224128312,-97.86308288574219,5356.25390625,True
1599559376.046207,0.0,10,0.5,0.5,-0.20421143341064457,-0.001,-0.03,-0.5,-0.006824066406939125,10,1,100,-0.08288756310066162,-10,-1,-100,15031.281754368567,0.00857334756291215,0.0027106590369953636,0.9999595742024527,18.660995527203085,0.022917995583188445,-11.948798976211924,5.647518661896772,-96.75447845458984,5356.25390625,True
1599559376.077168,0.0,10,0.5,0.5,0.05556829071044922,-0.001,-0.03,-0.5,0.01092051243953707,10,1,100,-0.08707152083756842,-10,-1,-100,15031.407728752121,0.008506208311680544,0.002526892340837422,0.9999606288425841,18.489571812001564,0.022753199608616676,-11.449961317425906,5.461867268817598,-96.21644592285156,5356.25390625,True
1599559376.111043,0.0,10,0.5,0.5,-0.21315523529052738,-0.001,-0.03,-0.5,-0.012391725687182935,10,1,100,-0.07580654557712575,-10,-1,-100,15031.593269826146,0.008342863914245796,0.0021504482769029855,0.999962885408212,18.148732811574032,0.022409966105308057,-10.475031825859903,5.090555092720653,-95.1910171508789,5356.25390625,True
1599559376.1499705,0.0,10,0.5,0.5,-0.47805601501464845,-0.001,-0.03,-0.5,-0.03599264230239581,10,1,100,-0.05913554852574148,-10,-1,-100,15031.897947448771,0.008043117931202668,0.0015963920729944545,0.9999663793279723,17.628161846381957,0.021846458336470854,-9.06151267650305,4.533560611014299,-93.69013977050781,5356.25390625,True
1599559376.1808913,0.0,10,0.5,0.5,-0.24692217254638676,-0.001,-0.03,-0.5,-0.021452207752783968,10,1,100,-0.06302337507519748,-10,-1,-100,15032.079581828904,0.0078066468748786075,0.0012276186796489226,0.9999687741209464,17.28296976845822,0.02145068826603394,-8.156480097069561,4.162211634769536,-92.70515441894531,5356.25390625,True
1599559376.2128065,0.0,10,0.5,0.5,-0.23504122924804685,-0.001,-0.03,-0.5,-0.02390009074684881,10,1,100,-0.05833909946778962,-10,-1,-100,15032.192856699228,0.007549985251469778,0.0008731802031393704,0.9999711172224103,16.94935685245954,0.021053253523515943,-7.285421184981663,3.790843415123345,-91.80329895019531,5356.25390625,True
1599559376.2457385,0.0,10,0.5,0.5,0.18591488647460938,-0.001,-0.03,-0.5,0.011190085102912063,10,1,100,-0.08387899185959033,-10,-1,-100,15032.192856699228,0.007549985251469778,0.0008731802031393704,0.9999711172224103,16.94935685245954,0.021053253523515943,-7.285421184981663,3.790843415123345,-91.80329895019531,5356.25390625,True
1599559376.2786484,0.0,10,0.5,0.5,-0.433172966003418,-0.001,-0.03,-0.5,-0.047321998769863045,10,1,100,-0.035922630855015195,-10,-1,-100,15032.43015280948,0.007115150781409392,0.00034378163364950687,0.9999746278999013,16.46381055391723,0.020452437035351673,-6.036836849973431,3.2337508805473716,-90.61453247070312,5356.25390625,True
1599559376.3145547,0.0,10,0.5,0.5,0.1341281280517578,-0.001,-0.03,-0.5,0.005286677093284219,10,1,100,-0.07923802511611504,-10,-1,-100,15032.43015280948,0.007115150781409392,0.00034378163364950687,0.9999746278999013,16.46381055391723,0.020452437035351673,-6.036836849973431,3.2337508805473716,-90.61453247070312,5356.25390625,True
1599559376.345471,0.0,10,0.5,0.5,-0.5844123840332032,-0.001,-0.03,-0.5,-0.06891819558521065,10,1,100,-0.007677739826422239,-10,-1,-100,15032.656703543733,0.006466033444947695,-0.000328308621676226,0.999979041092831,16.038195046794474,0.01990078829099501,-4.52991622962631,2.4908882266468972,-89.22372436523438,5356.25390625,True
1599559376.3813736,0.0,10,0.5,0.5,0.08507359313964843,-0.001,-0.03,-0.5,-0.002051323670834192,10,1,100,-0.07236718346003954,-10,-1,-100,15032.656703543733,0.006466033444947695,-0.000328308621676226,0.999979041092831,16.038195046794474,0.01990078829099501,-4.52991622962631,2.4908882266468972,-89.22372436523438,5356.25390625,True
1599559376.4122906,0.0,10,0.5,0.5,-0.4052032699584961,-0.001,-0.03,-0.5,-0.0563892739241805,10,1,100,-0.012388832608490954,-10,-1,-100,15032.759233777295,0.005922691450040858,-0.0008195272897442183,0.9999821248907448,16.032675593386724,0.01986920186234003,-3.515448714011625,1.9336973534391366,-88.29022216796875,5356.25390625,True
1599559376.4481966,0.0,10,0.5,0.5,-0.10841190338134765,-0.001,-0.03,-0.5,-0.025723647861969314,10,1,100,-0.04495274850819479,-10,-1,-100,15032.813919667038,0.005727128432724349,-0.0009842690968490354,0.9999831154645863,16.028609644664563,0.019856143428664725,-3.176990703914699,1.747961338116633,-87.99844360351562,5356.25390625,True
1599559376.478115,0.0,10,0.5,0.5,0.015899658203125,-0.001,-0.03,-0.5,-0.009562938888862811,10,1,100,-0.0642474766916935,-10,-1,-100,15032.813919667038,0.005727128432724349,-0.0009842690968490354,0.9999831154645863,16.028609644664563,0.019856143428664725,-3.176990703914699,1.747961338116633,-87.99844360351562,5356.25390625,True
1599559376.512026,0.0,10,0.5,0.5,-0.28682554626464846,-0.001,-0.03,-0.5,-0.044163199004916096,10,1,100,-0.020921623046226863,-10,-1,-100,15032.86078981834,0.005335362480945996,-0.0012964708604769348,0.9999849264216462,16.025413635462947,0.019837771137423698,-2.501340114561436,1.3764835437776268,-87.42828369140625,5356.25390625,True
1599559376.5439932,0.0,10,0.5,0.5,-0.40708657836914064,-0.001,-0.03,-0.5,-0.06401486401109799,10,1,100,0.009324584314280161,-10,-1,-100,15032.891055773245,0.004706492716410096,-0.001758465700612928,0.9999873782826912,16.022380176003768,0.019818092992437735,-1.4884970233746089,0.8192596011102888,-86.65081787109375,5356.25390625,True
1599559376.5808923,0.0,10,0.5,0.5,-0.033811111450195316,-0.001,-0.03,-0.5,-0.018078544587873904,10,1,100,-0.05327804288580392,-10,-1,-100,15032.891055773245,0.004706492716410096,-0.001758465700612928,0.9999873782826912,16.022380176003768,0.019818092992437735,-1.4884970233746089,0.8192596011102888,-86.65081787109375,5356.25390625,True
1599559376.6118104,0.0,10,0.5,0.5,-0.2976280517578125,-0.001,-0.03,-0.5,-0.050605190909055645,10,1,100,-0.005138982935156612,-10,-1,-100,15032.934020910412,0.004271449891890629,-0.0020517700799838963,0.9999887724146507,16.033554880071488,0.019825470860535755,-0.8141338755587503,0.44777673274656804,-86.15509033203125,5356.25390625,True
1599559376.650851,0.0,10,0.5,0.5,-0.2711383361816406,-0.001,-0.03,-0.5,-0.05137362001204193,10,1,100,-0.0006884398572413811,-10,-1,-100,15032.914486885304,0.0038380821151550834,-0.0023232183696995307,0.9999899358403983,16.03909554441914,0.01982877221646557,-0.13876829168181784,0.07629575850975545,-85.73992919921875,5356.25390625,True
1599559376.6778126,0.0,10,0.5,0.5,-0.3401944274902344,-0.001,-0.03,-0.5,-0.06915591937223814,10,1,100,0.03284877504289435,-10,-1,-100,15032.939874565927,0.003142206790545403,-0.0027292222636215737,0.9999913389036533,16.143803851592168,0.019954418749962607,0.8804351070763478,-0.48091957412716035,-85.21694946289062,5356.25390625,True
1599559376.714678,0.0,10,0.5,0.5,-0.16365487670898438,-0.001,-0.03,-0.5,-0.04235092549914562,10,1,100,-0.011254433290867512,-10,-1,-100,15032.92815409461,0.0029135527772566213,-0.0028524523013935487,0.999991687328491,16.202610836895975,0.020025541785743322,1.2249230787219585,-0.6666556194133673,-85.07138061523438,5356.25390625,True
1599559376.746593,0.0,10,0.5,0.5,-0.16723678588867186,-0.001,-0.03,-0.5,-0.043540390686913996,10,1,100,-0.008166609849522652,-10,-1,-100,15032.911552487058,0.002680843898134313,-0.0029729982522753136,0.99999198714659,16.25732017071305,0.02009116096088762,1.5714961041694573,-0.8523907164437814,-84.94381713867188,5356.25390625,True
1599559376.7786343,0.0,10,0.5,0.5,-0.24291824340820312,-0.001,-0.03,-0.5,-0.06826025139748201,10,1,100,0.04510942395128655,-10,-1,-100,15032.810964000062,0.001987909925790228,-0.0033053537859343263,0.999992561397572,16.39064597928164,0.020245179349151644,2.6201487777985863,-1.4095920005295224,-84.68548583984375,5356.25390625,True
1599559376.8125367,0.0,10,0.5,0.5,-0.12369146728515625,-0.001,-0.03,-0.5,-0.03525680650048926,10,1,100,-0.02381005143242856,-10,-1,-100,15032.810964000062,0.001987909925790228,-0.0033053537859343263,0.999992561397572,16.39064597928164,0.020245179349151644,2.6201487777985863,-1.4095920005295224,-84.68548583984375,5356.25390625,True
1599559376.8484068,0.0,10,0.5,0.5,-0.19691278076171875,-0.001,-0.03,-0.5,-0.06749605602987427,10,1,100,0.052837994455428194,-10,-1,-100,15032.708425457124,0.001294508798179652,-0.0035963277955750215,0.9999926953099998,16.496665285497542,0.020353890606837025,3.679622550334134,-1.966793167552186,-84.55917358398438,5356.25390625,True
1599559376.879334,0.0,10,0.5,0.5,-0.14852557373046876,-0.001,-0.03,-0.5,-0.047931280395724314,10,1,100,0.008638426264465529,-10,-1,-100,15032.685963903321,0.0010696318963449403,-0.0036808972468151103,0.9999926534145462,16.523463005900926,0.02037615738354291,4.033691749274327,-2.152528665500609,-84.546875,5356.25390625,True
1599559376.9122462,0.0,10,0.5,0.5,-0.13419384765624998,-0.001,-0.03,-0.5,-0.06601927709110236,10,1,100,0.06301055267434677,-10,-1,-100,15032.516043824027,0.00037421252805997754,-0.003920467234676626,0.9999922449207523,16.578832364011138,0.020400148424067996,5.0950555609281425,-2.709745436385852,-84.5758056640625,5356.25390625,True
1599559376.9453304,0.0,10,0.5,0.5,-0.15488421630859375,-0.001,-0.03,-0.5,-0.04227847845835719,10,1,100,-0.006098156135314483,-10,-1,-100,15032.516043824027,0.00037421252805997754,-0.003920467234676626,0.9999922449207523,16.578832364011138,0.020400148424067996,5.0950555609281425,-2.709745436385852,-84.5758056640625,5356.25390625,True
1599559376.9822648,0.0,10,0.5,0.5,-0.09666070556640627,-0.001,-0.03,-0.5,-0.06370533941168063,10,1,100,0.0688076433515937,-10,-1,-100,15032.338310718187,-0.0003032063423993417,-0.004113558064111664,0.9999914933168017,16.606729536253205,0.020371573590317688,6.153373189580811,-3.2669850056218968,-84.70147705078125,5356.25390625,True
1599559377.0125248,0.0,10,0.5,0.5,-0.09619500732421876,-0.001,-0.03,-0.5,-0.05615175136102332,10,1,100,0.05057655344588703,-10,-1,-100,15032.179132490885,-0.0007495396905308854,-0.0042187986179608025,0.9999908199220998,16.619057714412115,0.020334800097226678,6.8583794014323916,-3.6384939100425817,-84.83404541015625,5356.25390625,True
1599559377.0454428,0.0,10,0.5,0.5,-0.12392156982421873,-0.001,-0.03,-0.5,-0.05029598022171491,10,1,100,0.029403445795612347,-10,-1,-100,15032.102962911595,-0.0009592765315742678,-0.004259883405325998,0.9999904665455112,16.62777809996822,0.020316803375872727,7.2124108101202395,-3.824253528939841,-84.91329956054688,5356.25390625,True
1599559377.0786712,0.0,10,0.5,0.5,-0.07401473999023436,-0.001,-0.03,-0.5,-0.05391586546556695,10,1,100,0.05456030842540677,-10,-1,-100,15031.940854943707,-0.001375124384331082,-0.004328861776871256,0.999989684941122,16.645554130729995,0.02027648731414652,7.921798720218945,-4.195782838082378,-85.09295654296875,5356.25390625,True
1599559377.1142564,0.0,10,0.5,0.5,-0.05803720092773437,-0.001,-0.03,-0.5,-0.0528930433257448,10,1,100,0.05890408019477706,-10,-1,-100,15031.76995919866,-0.0017889694772111292,-0.004381038401073475,0.9999888029826823,16.666561492997037,0.02023513930512974,8.634445911860976,-4.567324331414704,-85.30325317382812,5356.25390625,True
1599559377.155118,0.0,10,0.5,0.5,-0.16133221435546877,-0.001,-0.03,-0.5,-0.047782949367036844,10,1,100,0.017897258847072484,-10,-1,-100,15031.76995919866,-0.0017889694772111292,-0.004381038401073475,0.9999888029826823,16.666561492997037,0.02023513930512974,8.634445911860976,-4.567324331414704,-85.30325317382812,5356.25390625,True
1599559377.1820781,0.0,10,0.5,0.5,0.021959289550781247,-0.001,-0.03,-0.5,-0.051814344379332945,10,1,100,0.08169718810762311,-10,-1,-100,15031.46527427365,-0.0023655353073952245,-0.004416709551535131,0.9999874483809519,16.70317433007579,0.02017343268424178,9.70987032801969,-5.124655008835585,-85.6654052734375,5356.25390625,True
1599559377.211994,0.0,10,0.5,0.5,-0.02157324218749998,-0.001,-0.03,-0.5,-0.04841214384091583,10,1,100,0.0656905801727479,-10,-1,-100,15031.233831657562,-0.002740844131695014,-0.004417462972736518,0.999986486805862,16.72908870603821,0.020131519225503356,10.430450757147614,-5.496220225623179,-85.93331909179688,5356.25390625,True
1599559377.2478683,0.0,10,0.5,0.5,-0.15137081909179687,-0.001,-0.03,-0.5,-0.04841045829336933,10,1,100,0.02854074534557295,-10,-1,-100,15031.233831657562,-0.002740844131695014,-0.004417462972736518,0.999986486805862,16.72908870603821,0.020131519225503356,10.430450757147614,-5.496220225623179,-85.93331909179688,5356.25390625,True
1599559377.2788925,0.0,10,0.5,0.5,0.0025675048828125158,-0.001,-0.03,-0.5,-0.046391643632940335,10,1,100,0.06761277186304263,-10,-1,-100,15031.00727129518,-0.0030932125030722337,-0.004398658297879836,0.9999855418162752,16.75386412574952,0.020087318230569362,11.152561333470443,-5.867794092993767,-86.23245239257812,5356.25390625,True
1599559377.3128145,0.0,10,0.5,0.5,0.09328851318359374,-0.001,-0.03,-0.5,-0.04137926067454187,10,1,100,0.0882587562466849,-10,-1,-100,15030.684033981874,-0.0035980859486926977,-0.004335561301967227,0.9999841282168946,16.794228423171944,0.020025421928403734,12.242183607481696,-6.425169531417161,-86.7021484375,5356.25390625,True
1599559377.3457136,0.0,10,0.5,0.5,-0.13555749511718748,-0.001,-0.03,-0.5,-0.0477111605895883,10,1,100,0.03810089964526784,-10,-1,-100,15030.684033981874,-0.0035980859486926977,-0.004335561301967227,0.9999841282168946,16.794228423171944,0.020025421928403734,12.242183607481696,-6.425169531417161,-86.7021484375,5356.25390625,True
1599559377.3826923,0.0,10,0.5,0.5,0.0351254577636719,-0.001,-0.03,-0.5,-0.04062343712880094,10,1,100,0.0720234287438635,-10,-1,-100,15030.390090672183,-0.0039038829893543294,-0.0042710213044291545,0.999983258897179,16.82268425048084,0.019987813445523896,12.97277224124935,-6.796761483170594,-87.03164672851562,5356.25390625,True
1599559377.4126387,0.0,10,0.5,0.5,0.11611602783203125,-0.001,-0.03,-0.5,-0.0330173714572378,10,1,100,0.08823048460842806,-10,-1,-100,15029.942827396211,-0.004326540255581145,-0.004143192402472057,0.999982057342097,16.90027549824314,0.019977490699889255,14.102514770347812,-7.35415946288136,-87.50946044921875,5356.25390625,True
1599559377.444537,0.0,10,0.5,0.5,-0.11554132080078125,-0.001,-0.03,-0.5,-0.04578169471550763,10,1,100,0.04625989957287151,-10,-1,-100,15029.942827396211,-0.004326540255581145,-0.004143192402472057,0.999982057342097,16.90027549824314,0.019977490699889255,14.102514770347812,-7.35415946288136,-87.50946044921875,5356.25390625,True
1599559377.4791348,0.0,10,0.5,0.5,0.050315429687499996,-0.001,-0.03,-0.5,-0.03421970401407698,10,1,100,0.07401571154889885,-10,-1,-100,15029.64400106261,-0.0045765589364737845,-0.004038299619730507,0.9999813734487669,16.9612242901161,0.019985251349564418,14.869377492562187,-7.725763135305805,-87.82730102539062,5356.25390625,True
1599559377.515039,0.0,10,0.5,0.5,0.122435791015625,-0.001,-0.03,-0.5,-0.024223328653751854,10,1,100,0.08584937157735681,-10,-1,-100,15029.18404307845,-0.004908893201671927,-0.0038523779855819083,0.9999805307861701,17.06304175957248,0.020015825744145475,16.03934287677227,-8.283174002249336,-88.27334594726562,5356.25390625,True
1599559377.5451329,0.0,10,0.5,0.5,0.05248556518554687,-0.001,-0.03,-0.5,-0.02738889281561891,10,1,100,0.07362601126081195,-10,-1,-100,15028.826622289023,-0.005097581659979578,-0.003712649202887386,0.9999801152508565,17.135875073989894,0.020046895294519702,16.831528076170816,-8.654783625736489,-88.56326293945312,5356.25390625,True
1599559377.5795677,0.0,10,0.5,0.5,-0.015674194335937502,-0.001,-0.03,-0.5,-0.03324606789843696,10,1,100,0.06412705541124654,-10,-1,-100,15028.671348400065,-0.005180619989328408,-0.003639510822799665,0.9999799573678948,17.173679899045894,0.020065663057945386,17.23137534804837,-8.840588854839925,-88.7008056640625,5356.25390625,True
1599559377.612787,0.0,10,0.5,0.5,-0.07614309692382813,-0.001,-0.03,-0.5,-0.040482110692215356,10,1,100,0.05606720006212688,-10,-1,-100,15028.671348400065,-0.005180619989328408,-0.003639510822799665,0.9999799573678948,17.173679899045894,0.020065663057945386,17.23137534804837,-8.840588854839925,-88.7008056640625,5356.25390625,True
1599559377.6536794,0.0,10,0.5,0.5,0.05886651611328125,-0.001,-0.03,-0.5,-0.023179732570682315,10,1,100,0.07286523474197495,-10,-1,-100,15028.298302313196,-0.005331431752339522,-0.0034829066103085286,0.9999797223929162,17.254750779804734,0.02011282595783206,18.041683712802083,-9.212199688555348,-88.95550537109375,5356.25390625,True
1599559377.6795802,0.0,10,0.5,0.5,0.06179904174804689,-0.001,-0.03,-0.5,-0.020036369115399105,10,1,100,0.07225767543227213,-10,-1,-100,15027.878380842856,-0.005461434319712647,-0.0033127382536246104,0.9999795990421176,17.341446835077797,0.020170889420959136,18.86511655527758,-9.5838102361328,-89.20205688476562,5356.25390625,True
1599559377.7134907,0.0,10,0.5,0.5,0.07488128662109375,-0.001,-0.03,-0.5,-0.016743684262280314,10,1,100,0.07133811768515277,-10,-1,-100,15027.505334052024,-0.005569564902922567,-0.003129036088018462,0.9999795943317803,17.428878722309015,0.020234527074111334,19.696868003588794,-9.955419710157486,-89.45925903320312,5356.25390625,True
1599559377.746235,0.0,10,0.5,0.5,0.018756652832031255,-0.001,-0.03,-0.5,-0.024810033356968887,10,1,100,0.06532731722424154,-10,-1,-100,15027.285608044127,-0.005611707536274603,-0.0030364027339795053,0.9999796442913047,17.471687204193056,0.02026727734816894,20.11453171269635,-10.141223771212013,-89.58938598632812,5356.25390625,True
1599559377.7821374,0.0,10,0.5,0.5,0.023735229492187503,-0.001,-0.03,-0.5,-0.02342749311631353,10,1,100,0.06533081404900257,-10,-1,-100,15027.066857051337,-0.00564888247656456,-0.002940628218727671,0.9999797212106079,17.51481967211177,0.020301792412175296,20.53442655473745,-10.327027297964962,-89.71673583984375,5356.25390625,True
1599559377.8140562,0.0,10,0.5,0.5,0.08833914184570313,-0.001,-0.03,-0.5,-0.011065272369276718,10,1,100,0.0681904292799214,-10,-1,-100,15026.690879801754,-0.005707472249635617,-0.0027422698927836186,0.9999799521572194,17.618452286688875,0.020395154167849625,21.40091083744625,-10.698632364094944,-89.95956420898438,5356.25390625,True
1599559377.8460507,0.0,10,0.5,0.5,0.14562841033935547,-0.001,-0.03,-0.5,0.004140511982983656,10,1,100,0.0675772793033114,-10,-1,-100,15026.033652666607,-0.0057541334859917935,-0.002424887947565701,0.9999805047431011,17.896077195412843,0.020686747155363585,22.87355773532339,-11.25603268404722,-90.3034896850586,5356.25390625,True
1599559377.8798935,0.0,10,0.5,0.5,-0.020243896484375,-0.001,-0.03,-0.5,-0.02745493353500649,10,1,100,0.06299567969612571,-10,-1,-100,15026.033652666607,-0.0057541334859917935,-0.002424887947565701,0.9999805047431011,17.896077195412843,0.020686747155363585,22.87355773532339,-11.25603268404722,-90.3034896850586,5356.25390625,True
1599559377.9217856,0.0,10,0.5,0.5,0.188962890625,-0.001,-0.03,-0.5,0.020358910139148007,10,1,100,0.06088409986250137,-10,-1,-100,15025.095173119451,-0.005734340440389743,-0.001991387333487316,0.9999815756883733,18.263481709905548,0.02109117098320623,24.888777073469107,-11.999215666410414,-90.71064758300781,5356.25390625,True
1599559377.9467227,0.0,10,0.5,0.5,-0.008586532592773437,-0.001,-0.03,-0.5,-0.02282633891975924,10,1,100,0.06291877646781255,-10,-1,-100,15025.095173119451,-0.005734340440389743,-0.001991387333487316,0.9999815756883733,18.263481709905548,0.02109117098320623,24.888777073469107,-11.999215666410414,-90.71064758300781,5356.25390625,True
1599559377.9796233,0.0,10,0.5,0.5,0.08452706146240234,-0.001,-0.03,-0.5,0.0030275587545758632,10,1,100,0.05830954742300787,-10,-1,-100,15024.588335682172,-0.005691934975936008,-0.0017578501941654628,0.9999822557620334,18.43904789911975,0.02129147269577071,25.908566763257703,-12.370798323267127,-90.88446807861328,5356.25390625,True
1599559378.0135415,0.0,10,0.5,0.5,0.04296478271484375,-0.001,-0.03,-0.5,-0.00850630242988578,10,1,100,0.05937832933081372,-10,-1,-100,15024.307083861204,-0.005662773022663942,-0.0016519652204735594,0.9999826018549544,18.526054389650344,0.021392528496910215,26.423003810687494,-12.556587530256248,-90.96343231201172,5356.25390625,True
1599559378.0486138,0.0,10,0.5,0.5,0.10420264434814452,-0.001,-0.03,-0.5,0.018388441929074906,10,1,100,0.04914361345847916,-10,-1,-100,15023.577589459368,-0.005543036249301794,-0.0013127182711568691,0.9999837756283246,18.777055659494273,0.021690458226491006,27.973801948323285,-13.113944785163444,-91.15392303466797,5356.25390625,True
1599559378.0795274,0.0,10,0.5,0.5,0.040709648132324215,-0.001,-0.03,-0.5,-0.003121672122733841,10,1,100,0.055647364782704004,-10,-1,-100,15023.297313879011,-0.005493333766150631,-0.0012015096429916499,0.999984189704373,18.85805832411373,0.021788566430223325,28.493900930344964,-13.29972704855453,-91.2071533203125,5356.25390625,True
1599559378.1134765,0.0,10,0.5,0.5,0.04358270263671875,-0.001,-0.03,-0.5,-0.001448256606314858,10,1,100,0.05453673025188739,-10,-1,-100,15023.009227717295,-0.005438160625524081,-0.0010868661064112669,0.9999846224473043,18.93789656402893,0.021886191122179585,29.01570082049403,-13.485507499163795,-91.2563247680664,5356.25390625,True
1599559378.1543663,0.0,10,0.5,0.5,0.06371577453613281,-0.001,-0.03,-0.5,0.01108463018296756,10,1,100,0.04673696442635536,-10,-1,-100,15022.441842704662,-0.005317287828223327,-0.0008703946133559117,0.999985484326332,19.094218457518885,0.022079911274611026,30.064330874950404,-13.857062828765871,-91.33636474609375,5356.25390625,True
1599559378.18329,0.0,10,0.5,0.5,0.04399845123291016,-0.001,-0.03,-0.5,0.002058385613500883,10,1,100,0.05117952172715174,-10,-1,-100,15022.209418874583,-0.0052481450647038925,-0.0007573608205547655,0.9999859415901643,19.170225220972473,0.022175307438126284,30.590259611504965,-14.042837538989088,-91.36864471435547,5356.25390625,True
1599559378.2132092,0.0,10,0.5,0.5,0.06933453369140624,-0.001,-0.03,-0.5,0.027094447515164214,10,1,100,0.03264612999537193,-10,-1,-100,15021.296330129495,-0.005017262617053033,-0.0004285181981086123,0.9999873216436223,19.392638589134844,0.02245846870051295,32.17841298020959,-14.600149789225721,-91.44505310058594,5356.25390625,True
1599559378.2471194,0.0,10,0.5,0.5,0.05047119903564453,-0.001,-0.03,-0.5,0.018169249663998955,10,1,100,0.03642055288793193,-10,-1,-100,15020.715272708214,-0.004842352300820015,-0.0002125234033949364,0.9999882531600047,19.536213265276995,0.02264423369959496,33.24518889534908,-14.971680730168778,-91.47682189941406,5356.25390625,True
1599559378.2801273,0.0,10,0.5,0.5,0.03688532257080078,-0.001,-0.03,-0.5,-0.0032523434143593988,10,1,100,0.0538223856972768,-10,-1,-100,15020.715272708214,-0.004842352300820015,-0.0002125234033949364,0.9999882531600047,19.536213265276995,0.02264423369959496,33.24518889534908,-14.971680730168778,-91.47682189941406,5356.25390625,True
1599559378.3160594,0.0,10,0.5,0.5,0.04938945770263672,-0.001,-0.03,-0.5,0.04254425989376159,10,1,100,0.01084298138184648,-10,-1,-100,15019.50140062999,-0.004452441341715712,0.0002021922049242613,0.9999900673928771,19.812212818768273,0.02300681096155491,35.39607946994022,-15.714716729675864,-91.4971923828125,5356.25390625,True
1599559378.491078,0.0,10,0.5,0.5,0.041042388916015624,-0.001,-0.03,-0.5,0.0012687033017507888,10,1,100,0.049710127928854764,-10,-1,-100,15019.50140062999,-0.004452441341715712,0.0002021922049242613,0.9999900673928771,19.812212818768273,0.02300681096155491,35.39607946994022,-15.714716729675864,-91.4971923828125,5356.25390625,True
1599559378.5150132,0.0,10,0.5,0.5,0.027010353088378902,-0.001,-0.03,-0.5,0.04462720026090834,10,1,100,0.0013109059176582769,-10,-1,-100,15018.208427362842,-0.004013548715869333,0.0005946747614389683,0.9999917688604408,20.074253042349746,0.023355674992651957,37.568687800678745,-16.457716887245134,-91.46598815917969,5356.25390625,True
1599559378.5499208,0.0,10,0.5,0.5,0.03574346923828125,-0.001,-0.03,-0.5,0.016585163688809034,10,1,100,0.03156488343226553,-10,-1,-100,15017.857840066543,-0.003890982022081266,0.0006948154866763484,0.9999921887146638,20.137721853485136,0.023440520712006523,38.11508902342001,-16.64346119229547,-91.45040893554688,5356.25390625,True
1599559378.656634,0.0,10,0.5,0.5,0.03503957366943359,-0.001,-0.03,-0.5,0.017411082468981598,10,1,100,0.030014832333189828,-10,-1,-100,15017.509207075927,-0.0037669230647769435,0.0007916369302303827,0.9999925917733564,20.20047580212855,0.023524445984112262,38.662882567316586,-16.829203151447317,-91.43199920654297,5356.25390625,True
1599559378.712521,0.0,10,0.5,0.5,0.044771461486816405,-0.001,-0.03,-0.5,0.007916788417242334,10,1,100,0.04225360430754736,-10,-1,-100,15017.509207075927,-0.0037669230647769435,0.0007916369302303827,0.9999925917733564,20.20047580212855,0.023524445984112262,38.662882567316586,-16.829203151447317,-91.43199920654297,5356.25390625,True
1599559378.7364216,0.0,10,0.5,0.5,0.010580978393554687,-0.001,-0.03,-0.5,0.037025842195718583,10,1,100,0.001757567511557992,-10,-1,-100,15016.503343691817,-0.0034001866982347187,0.0010547537540859975,0.9999936630923896,20.38445143839069,0.023770157819072286,40.31417734294734,-17.386414804130364,-91.3631820678711,5356.25390625,True
1599559378.7613552,0.0,10,0.5,0.5,0.031082824707031248,-0.001,-0.03,-0.5,0.020382743415482116,10,1,100,0.02409336121540618,-10,-1,-100,15016.147874903749,-0.0032715226335644698,0.0011410025917938241,0.9999939976083575,20.4445544674426,0.02385012677161027,40.867511259832774,-17.572147270309408,-91.33545684814453,5356.25390625,True
1599559378.8132193,0.0,10,0.5,0.5,-0.004997154235839851,-0.001,-0.03,-0.5,0.03906482694469717,10,1,100,-0.006978714596798996,-10,-1,-100,15015.084395459737,-0.002873668921920095,0.0013878209119848012,0.9999949079770575,20.62025549790445,0.024082494581491257,42.53374966277974,-18.12933036493893,-91.2364273071289,5356.25390625,True
1599559378.8472507,0.0,10,0.5,0.5,0.025724472045898436,-0.001,-0.03,-0.5,0.022887923987869974,10,1,100,0.01807226472923383,-10,-1,-100,15014.725020434242,-0.002741509617369962,0.001463683590446006,0.9999951708660223,20.67761883337974,0.024157645658797813,43.09177405101541,-18.31505333200667,-91.20035552978516,5356.25390625,True
1599559378.8803315,0.0,10,0.5,0.5,-0.016074295043945322,-0.001,-0.03,-0.5,0.03978068335413412,10,1,100,-0.014429862781720988,-10,-1,-100,15013.590252100723,-0.002327800765573388,0.001684696376927829,0.9999958715623348,20.846651099834528,0.02437638317173129,44.774350644567946,-18.87220810155981,-91.08258056640625,5356.25390625,True
1599559378.920183,0.0,10,0.5,0.5,0.021421867370605467,-0.001,-0.03,-0.5,0.025139886130516258,10,1,100,0.011877109572680056,-10,-1,-100,15013.176189793972,-0.00219278759495846,0.0017511712042675026,0.9999960625332365,20.902339433767473,0.02444735566105257,45.3387272564766,-19.05792148436065,-91.04236602783203,5356.25390625,True
1599559378.9491389,0.0,10,0.5,0.5,0.01946675872802734,-0.001,-0.03,-0.5,0.026037799493284608,10,1,100,0.00956791639295421,-10,-1,-100,15012.809001122136,-0.002051109914353524,0.0018183575515111515,0.9999962432549104,20.957749526374883,0.024517393676653794,45.904939664824795,-19.2436327187531,-91.00105285644531,5356.25390625,True
1599559378.9791424,0.0,10,0.5,0.5,-0.0019027938842773456,-0.001,-0.03,-0.5,0.03244528906760035,10,1,100,-0.005898697364800531,-10,-1,-100,15012.032633305527,-0.0017834904785526445,0.0019365735153263643,0.9999965344163613,21.06800530271059,0.024654878730295704,47.04340547490992,-19.61504792466811,-90.91995239257812,5356.25390625,True
1599559379.013059,0.0,10,0.5,0.5,0.016648666381835937,-0.001,-0.03,-0.5,0.02713439076956559,10,1,100,0.005291218041928319,-10,-1,-100,15011.613688338082,-0.0016438424874707697,0.00199463280878656,0.9999966596053381,21.123248239951785,0.024722787747533566,47.61653323934373,-19.800751992457435,-90.87921905517578,5356.25390625,True
1599559379.0465956,0.0,10,0.5,0.5,-0.00712434387207031,-0.001,-0.03,-0.5,0.03311865513817736,10,1,100,-0.011201055375400747,-10,-1,-100,15010.832437613164,-0.0013688900832181702,0.002100722755393612,0.9999968565469818,21.232879548119747,0.024855558389219552,48.768117092789936,-20.17215291982601,-90.79442596435547,5356.25390625,True
1599559379.0805106,0.0,10,0.5,0.5,-0.03219342041015626,-0.001,-0.03,-0.5,0.037667022688755006,10,1,100,-0.02835412768731739,-10,-1,-100,15009.620522889658,-0.0009651763610452547,0.0022373268792914894,0.9999970313971074,21.395386392761417,0.02504693947616163,50.50902440443342,-20.72923660289388,-90.66358184814453,5356.25390625,True
1599559379.115524,0.0,10,0.5,0.5,-0.01400037384033203,-0.001,-0.03,-0.5,0.03269842117713057,10,1,100,-0.01759557022033682,-10,-1,-100,15008.774819211918,-0.000698182599985327,0.0023152682753427873,0.9999970760326603,21.502832871349415,0.025169571866981502,51.6794369592482,-21.10061385731696,-90.57350158691406,5356.25390625,True
1599559379.1793544,0.0,10,0.5,0.5,-0.014090568542480471,-0.001,-0.03,-0.5,0.032147901906482146,10,1,100,-0.01914948542159666,-10,-1,-100,15007.925210147514,-0.000443673897222648,0.002380051855034846,0.9999970692490253,21.621901715080448,0.025302533434679895,52.887773136915094,-21.47198142895826,-90.48798370361328,5356.25390625,True
1599559379.214469,0.0,10,0.5,0.5,0.00614942169189453,-0.001,-0.03,-0.5,0.02899502295715382,10,1,100,-0.008025890833368523,-10,-1,-100,15007.49649993144,-0.0003156350228083751,0.002409381454358233,0.9999970476234117,21.68489051976634,0.025371860667100413,53.50439977333603,-21.657661486528188,-90.44751739501953,5356.25390625,True
1599559379.2488663,0.0,10,0.5,0.5,-0.0514356918334961,-0.001,-0.03,-0.5,0.03555755767218648,10,1,100,-0.048953900613921075,-10,-1,-100,15005.674235006445,0.00017063142957820382,0.00249484440763987,0.9999968733132604,21.939012612125747,0.025644026997721024,56.00418048193644,-22.40035727135046,-90.29669952392578,5356.25390625,True
1599559379.27951,0.0,10,0.5,0.5,0.0216156005859375,-0.001,-0.03,-0.5,0.027092277147093943,10,1,100,-0.0005770985947783414,-10,-1,-100,15005.674235006445,0.00017063142957820382,0.00249484440763987,0.9999968733132604,21.939012612125747,0.025644026997721024,56.00418048193644,-22.40035727135046,-90.29669952392578,5356.25390625,True
1599559379.3134813,0.0,10,0.5,0.5,0.0013601531982421894,-0.001,-0.03,-0.5,0.028763183743150428,10,1,100,-0.01382386171531047,-10,-1,-100,15005.247476609773,0.00028890798610618984,0.0025093584010554997,0.9999968098212066,22.003264495525784,0.02571104493018789,56.637982104023244,-22.58602493060006,-90.26073455810547,5356.25390625,True
1599559379.346393,0.0,10,0.5,0.5,-0.052544044494628905,-0.001,-0.03,-0.5,0.030665791907326018,10,1,100,-0.05149635937549979,-10,-1,-100,15003.413492751191,0.0007367820908602075,0.0025392211957899007,0.9999965047478264,22.321569793735552,0.026043220438385018,59.36455492502877,-23.328668476928513,-90.1216812133789,5356.25390625,True
1599559379.3830135,0.0,10,0.5,0.5,0.014587814331054688,-0.001,-0.03,-0.5,0.027739777201932273,10,1,100,-0.0069609761570393015,-10,-1,-100,15003.413492751191,0.0007367820908602075,0.0025392211957899007,0.9999965047478264,22.321569793735552,0.026043220438385018,59.36455492502877,-23.328668476928513,-90.1216812133789,5356.25390625,True
1599559379.4149673,0.0,10,0.5,0.5,-0.03982515716552734,-0.001,-0.03,-0.5,0.027202154784781274,10,1,100,-0.04087890039958574,-10,-1,-100,15002.003337976523,0.0010429626525394198,0.002533838638918525,0.9999962459382821,22.56233254874382,0.02628670729616779,61.4517043892606,-23.885622913800198,-90.01760864257812,5356.25390625,True
1599559379.4462452,0.0,10,0.5,0.5,0.00988067626953125,-0.001,-0.03,-0.5,0.027783722060271344,10,1,100,-0.01050202950524028,-10,-1,-100,15002.003337976523,0.0010429626525394198,0.002533838638918525,0.9999962459382821,22.56233254874382,0.02628670729616779,61.4517043892606,-23.885622913800198,-90.01760864257812,5356.25390625,True
1599559379.4804156,0.0,10,0.5,0.5,-0.04145699310302735,-0.001,-0.03,-0.5,0.02472940228879649,10,1,100,-0.043153123294786384,-10,-1,-100,15000.522869439912,0.0013379651969774892,0.0025058025393963654,0.9999959653932435,22.800737427640605,0.026520494343988416,63.56402723213233,-24.442552574401503,-89.91900634765625,5356.25390625,True
1599559379.5154972,0.0,10,0.5,0.5,-0.023673561096191405,-0.001,-0.03,-0.5,0.02409682562421194,10,1,100,-0.0337918236865743,-10,-1,-100,14999.543377616676,0.0015191955611220218,0.002474391266276312,0.99999578470747,22.958310538797978,0.02667098437020287,64.98587435904204,-24.81382525263983,-89.86001586914062,5356.25390625,True
1599559379.5476365,0.0,10,0.5,0.5,-0.0221304931640625,-0.001,-0.03,-0.5,0.02289022198436362,10,1,100,-0.033558848085196845,-10,-1,-100,14998.548260845011,0.0016800480508242157,0.0024347806763401502,0.9999956246312306,23.114419365097245,0.0268169308813453,66.41740511785694,-25.1850869463142,-89.8079833984375,5356.25390625,True
1599559379.580549,0.0,10,0.5,0.5,-0.009423393249511719,-0.001,-0.03,-0.5,0.024292693525885,10,1,100,-0.02625950306685937,-10,-1,-100,14998.059004234383,0.001758105647592567,0.002411497700210214,0.9999955468617718,23.19174865410851,0.0268880778928362,67.13623772130016,-25.370713684880236,-89.78524780273438,5356.25390625,True
1599559379.6135054,0.0,10,0.5,0.5,-0.019725967407226562,-0.001,-0.03,-0.5,0.020698727134495862,10,1,100,-0.0344640120541581,-10,-1,-100,14997.009199930937,0.0019022103861592256,0.002357734706268034,0.9999954113308229,23.344889267455503,0.027026807633322106,68.57969121339842,-25.74195882277328,-89.74505615234375,5356.25390625,True
1599559379.65488,0.0,10,0.5,0.5,-0.010397499084472656,-0.001,-0.03,-0.5,0.022715874965291163,10,1,100,-0.02769200999137847,-10,-1,-100,14996.512129057082,0.0019700768761431176,0.0023273216099654382,0.9999953511748073,23.4208015516505,0.027094561458077666,69.30454884419669,-25.927577206889424,-89.72686767578125,5356.25390625,True
1599559379.6798162,0.0,10,0.5,0.5,-0.011573898315429688,-0.001,-0.03,-0.5,0.022170619863937875,10,1,100,-0.02813100503591663,-10,-1,-100,14995.953536123154,0.00203423621390606,0.002294881964033585,0.9999952976888429,23.496592006989765,0.027161636121842917,70.03240257484273,-26.11319284837336,-89.70956420898438,5356.25390625,True
1599559379.7137222,0.0,10,0.5,0.5,-0.026633796691894532,-0.001,-0.03,-0.5,0.013440981140830102,10,1,100,-0.04037972128177669,-10,-1,-100,14994.400801261538,0.0022027353467228756,0.002186253151368881,0.9999951841154788,23.722185666590896,0.027357713922255944,72.2306926129254,-26.670022911255995,-89.66470336914062,5356.25390625,True
1599559379.747705,0.0,10,0.5,0.5,-0.018187988281249998,-0.001,-0.03,-0.5,0.015130477721005042,10,1,100,-0.03439132766898013,-10,-1,-100,14993.286543587572,0.002300143749843773,0.002103179625170214,0.9999951429753019,23.871363502886577,0.02748464633707566,73.70913344494986,-27.041228923749536,-89.6395263671875,5356.25390625,True
1599559379.782611,0.0,10,0.5,0.5,-0.012115570068359375,-0.001,-0.03,-0.5,0.01876876616731557,10,1,100,-0.029248948942906066,-10,-1,-100,14992.726974179852,0.002340805054173639,0.002061125095423111,0.9999951361856914,23.94574702835123,0.027547213037465382,74.45268324241019,-27.226827768146855,-89.6287841796875,5356.25390625,True
1599559379.813653,0.0,10,0.5,0.5,-0.01619775390625,-0.001,-0.03,-0.5,0.0128430951125962,10,1,100,-0.03334291703165404,-10,-1,-100,14991.660567680257,0.0024138079112788315,0.001969453707467837,0.9999951473799569,24.093400901734405,0.027669831872339453,75.9461928332935,-27.598017044462743,-89.61224365234375,5356.25390625,True
1599559379.8466406,0.0,10,0.5,0.5,-0.014520111083984375,-0.001,-0.03,-0.5,0.01107941400235881,10,1,100,-0.03272522979870065,-10,-1,-100,14990.541426937678,0.002473580767698247,0.0018705702072626374,0.9999951911710803,24.239929621826803,0.027789714147829974,77.44924640920318,-27.969195048085737,-89.60092163085938,5356.25390625,True
1599559379.8801014,0.0,10,0.5,0.5,-0.011654571533203125,-0.001,-0.03,-0.5,0.01536101796366748,10,1,100,-0.029438616300424048,-10,-1,-100,14989.978926177602,0.002497173800634677,0.001820148716778002,0.9999952255794315,24.312792883639347,0.027848712654399,78.20437775650052,-28.154779901473976,-89.59689331054688,5356.25390625,True
1599559379.92096,0.0,10,0.5,0.5,-0.012643524169921873,-0.001,-0.03,-0.5,0.008764206692737243,10,1,100,-0.031170034340608894,-10,-1,-100,14988.851972866221,0.002533619334806012,0.0017148987429285694,0.9999953199367323,24.458040365915735,0.027965298362452033,79.722823619246,-28.525940679504547,-89.5921630859375,5356.25390625,True
1599559379.9469206,0.0,10,0.5,0.5,-0.011285766601562499,-0.001,-0.03,-0.5,0.006883957106766016,10,1,100,-0.03018810969920209,-10,-1,-100,14987.666425463045,0.0025571200385060603,0.0016027570422450575,0.9999954461431172,24.60257114758532,0.028080044594345543,81.25186681144342,-28.89709013138107,-89.59130859375,5356.25390625,True
1599559379.9805737,0.0,10,0.5,0.5,-0.01131976318359375,-0.001,-0.03,-0.5,0.018022629408714907,10,1,100,-0.027903530294431933,-10,-1,-100,14987.666425463045,0.0025571200385060603,0.0016027570422450575,0.9999954461431172,24.60257114758532,0.028080044594345543,81.25186681144342,-28.89709013138107,-89.59130859375,5356.25390625,True
1599559380.0144525,0.0,10,0.5,0.5,-0.01129833984375,-0.001,-0.03,-0.5,0.011777667375520948,10,1,100,-0.028615161310015767,-10,-1,-100,14987.11076209729,0.002563055735772856,0.0015466433551866764,0.9999955193097753,24.674663018244775,0.02813688662089791,82.02065419484552,-29.082660492842486,-89.5921630859375,5356.25390625,True
