Timestamp,Input Throttle,horizon,dT,dt,Input Roll,Roll P,Roll I,Roll D,Input Pitch,Pitch P,Pitch I,Pitch D,Input Yaw,Yaw P,Yaw I,Yaw D,Altitude,Direction X,Direction Y,Direction Z,Drag X,Drag Y,Drag Z,Vertical Velocity,Roll,Mass,Has Fuel
1599559799.6734388,0.0,10,0.5,0.5,-2.954233100891113,-0.05075,-0.00825,-0.37525,-0.0005261981523604889,10,1,100,0.17112103655202768,-10,-1,-100,14994.050571278785,-0.016775274577002907,-7.660293035151089e-05,0.9998592822466856,28.64908428221814,0.027034282146004,-87.51379453248752,27.00929840891002,-31.792572021484375,5356.25390625,True
1599559799.7003973,0.0,10,0.5,0.5,-3.002542116546631,-0.05075,-0.00825,-0.37525,-0.00025751483934634506,10,1,100,0.17720370673186353,-10,-1,-100,14995.122839728603,-0.016845942154313218,-7.191043255874802e-05,0.9998580944623209,28.503899677568025,0.02736315876167648,-85.8744634780539,26.63736740646429,-31.791412353515625,5356.25390625,True
1599559799.7347693,0.0,10,0.5,0.5,-3.0501290359497073,-0.05075,-0.00825,-0.37525,-0.0007339556618785062,10,1,100,0.17182154321626378,-10,-1,-100,14995.122839728603,-0.016845942154313218,-7.191043255874802e-05,0.9998580944623209,28.503899677568025,0.02736315876167648,-85.8744634780539,26.63736740646429,-31.791412353515625,5356.25390625,True
1599559799.7680087,0.0,10,0.5,0.5,-3.039427915191651,-0.05075,-0.00825,-0.37525,0.007306017514295479,10,1,100,0.18151242155709119,-10,-1,-100,14996.728312770487,-0.016918726555453182,1.245605799705247e-06,0.999856868101725,28.28981663802245,0.027847919961128568,-83.44920460510914,26.079500254032283,-31.92926025390625,5356.25390625,True
1599559799.8038106,0.0,10,0.5,0.5,-3.13906370010376,-0.05075,-0.00825,-0.37525,-9.461760969877697e-06,10,1,100,0.17592585409864006,-10,-1,-100,14996.728312770487,-0.016918726555453182,1.245605799705247e-06,0.999856868101725,28.28981663802245,0.027847919961128568,-83.44920460510914,26.079500254032283,-31.92926025390625,5356.25390625,True
1599559799.837717,0.0,10,0.5,0.5,-2.737207167816162,-0.05075,-0.00825,-0.37525,0.024145751163121804,10,1,100,0.18076705197550014,-10,-1,-100,14998.747845700593,-0.01694735678473786,0.00022083731819526624,0.9998563588480546,28.062029084398763,0.02850745283241557,-80.42261300366278,25.33572864726961,-32.98504638671875,5356.25390625,True
1599559799.8705971,0.0,10,0.5,0.5,-2.7808842445373534,-0.05075,-0.00825,-0.37525,0.022507793318198015,10,1,100,0.17652914830593233,-10,-1,-100,14999.749797618715,-0.016919451180923556,0.0004053748605844734,0.9998567736645878,27.976745070480405,0.02883277632909095,-79.00438029615448,24.963862488626944,-33.922943115234375,5356.25390625,True
1599559799.9035342,0.0,10,0.5,0.5,-3.1790935638427738,-0.05075,-0.00825,-0.37525,0.004094576565335749,10,1,100,0.18101165380545528,-10,-1,-100,14999.749797618715,-0.016919451180923556,0.0004053748605844734,0.9998567736645878,27.976745070480405,0.02883277632909095,-79.00438029615448,24.963862488626944,-33.922943115234375,5356.25390625,True
1599559799.9385846,0.0,10,0.5,0.5,-2.9816889839172367,-0.05075,-0.00825,-0.37525,0.016182028820765415,10,1,100,0.17923415002898774,-10,-1,-100,15000.217569755623,-0.016887910736427557,0.0005148922675787572,0.9998572564906009,27.939914793792425,0.028989779192889305,-78.31421544974023,24.77793399399125,-34.49493408203125,5356.25390625,True
1599559799.9685047,0.0,10,0.5,0.5,-1.9748066749572757,-0.05075,-0.00825,-0.37525,0.0676890608948825,10,1,100,0.1612245766391509,-10,-1,-100,15002.22342112509,-0.01668016156449047,0.0010822312089131898,0.9998602907335569,27.817099518746762,0.029539171329646664,-75.63547442611825,24.034248874009144,-37.4698486328125,5356.25390625,True
1599559800.0024261,0.0,10,0.5,0.5,-2.744492087554932,-0.05075,-0.00825,-0.37525,0.02981527079381114,10,1,100,0.17514083921814477,-10,-1,-100,15002.694121486624,-0.01660264637566171,0.0012527028535630133,0.9998613818269437,27.788540933854673,0.029646251433327483,-74.97475417881493,23.848334533397594,-38.38531494140625,5356.25390625,True
1599559800.0354958,0.0,10,0.5,0.5,-2.663303059387207,-0.05075,-0.00825,-0.37525,0.032968345647182346,10,1,100,0.1732697553151989,-10,-1,-100,15003.164821495884,-0.016515325103246364,0.0014351329330172143,0.9998625827733524,27.75896260635501,0.029736418989537893,-74.31248481857097,23.662422917946884,-39.369537353515625,5356.25390625,True
1599559800.0714004,0.0,10,0.5,0.5,-2.5777857177734376,-0.05075,-0.00825,-0.37525,0.03508271509023518,10,1,100,0.1705755783567534,-10,-1,-100,15003.634544770233,-0.01641175017147479,0.001618829960761899,0.9998640076759775,27.727318967366102,0.02980697783071834,-73.64595571058878,23.476514256423982,-40.422576904296875,5356.25390625,True
1599559800.1023145,0.0,10,0.5,0.5,-2.4879851516723632,-0.05075,-0.00825,-0.37525,0.039165133932350486,10,1,100,0.1687766969020627,-10,-1,-100,15004.09547858988,-0.01630163239480602,0.0018214031205550966,0.9998654605855416,27.692475901918993,0.02985526498966549,-72.9723088237917,23.29060845736045,-41.54425048828125,5356.25390625,True
1599559800.1362271,0.0,10,0.5,0.5,-1.8574766052246094,-0.05075,-0.00825,-0.37525,0.06654741941620153,10,1,100,0.15149483198820748,-10,-1,-100,15004.97828225966,-0.01604497845694541,0.0022528357179341443,0.9998687330832704,27.608182504246145,0.02987373930298834,-71.59148625710688,22.91880620795759,-43.993743896484375,5356.25390625,True
1599559800.1701357,0.0,10,0.5,0.5,-1.6060642158508303,-0.05075,-0.00825,-0.37525,0.07451236056045432,10,1,100,0.14328228156061065,-10,-1,-100,15005.909913117765,-0.015737791462365345,0.0027154088258518182,0.9998724661049505,27.495338874498515,0.02976927830159645,-70.14487214621597,22.54701742991527,-46.718231201171875,5356.25390625,True
1599559800.205042,0.0,10,0.5,0.5,-1.3393192077636724,-0.05075,-0.00825,-0.37525,0.08270010641955025,10,1,100,0.13435809784421893,-10,-1,-100,15006.779043097398,-0.015378501220163881,0.003208096094034524,0.9998765972957228,27.34185677544954,0.029520497662088693,-68.60575492810882,22.175243936853562,-49.71771240234375,5356.25390625,True
1599559800.4015605,0.0,10,0.5,0.5,-1.0568134483337404,-0.05075,-0.00825,-0.37525,0.08930467823583858,10,1,100,0.1245357257539354,-10,-1,-100,15007.651101635885,-0.0149639802991243,0.003713487244136469,0.9998811375889111,27.13464325433075,0.02910954486260849,-66.94698073085473,21.80348818599662,-52.992431640625,5356.25390625,True
1599559800.4284542,0.0,10,0.5,0.5,0.04247733612060545,-0.05075,-0.00825,-0.37525,0.12450542178022067,10,1,100,0.08618670784103921,-10,-1,-100,15008.983113353956,-0.014240293363409078,0.0044899331288293905,0.9998885210589341,26.69192051053032,0.028164829773501977,-64.17442845191651,21.245894616319212,-58.42059326171875,5356.25390625,True
1599559800.4854627,0.0,10,0.5,0.5,-1.1452444900512697,-0.05075,-0.00825,-0.37525,0.07563582948848359,10,1,100,0.12876688060626013,-10,-1,-100,15009.383497109753,-0.013971895553690902,0.004747910329660572,0.999891115813186,26.50164235028089,0.027760963700469692,-63.16090650743678,21.060042485434657,-60.36767578125,5356.25390625,True
1599559800.523814,0.0,10,0.5,0.5,0.7450772323608397,-0.05075,-0.00825,-0.37525,0.13181777371222578,10,1,100,0.058623393221363215,-10,-1,-100,15010.592460531276,-0.013092691537730588,0.005489847569613169,0.9998992164223154,25.781509574868196,0.026302873172706152,-59.822043251764235,20.502530786212212,-66.475830078125,5356.25390625,True
1599559800.5557225,0.0,10,0.5,0.5,-1.523832992553711,-0.05075,-0.00825,-0.37525,0.05804776418857112,10,1,100,0.14619279933360155,-10,-1,-100,15010.592460531276,-0.013092691537730588,0.005489847569613169,0.9998992164223154,25.781509574868196,0.026302873172706152,-59.822043251764235,20.502530786212212,-66.475830078125,5356.25390625,True
1599559800.6265395,0.0,10,0.5,0.5,2.1239888664245603,-0.05075,-0.00825,-0.37525,0.16001181198708211,10,1,100,-0.0015155657252877708,-10,-1,-100,15012.249657402746,-0.011752999704072972,0.0064131073544754546,0.999910365508837,24.467494478268602,0.023962489272003763,-54.72045786437139,19.75930118631838,-74.98629760742188,5356.25390625,True
1599559800.656457,0.0,10,0.5,0.5,0.8058653633117674,-0.05075,-0.00825,-0.37525,0.11697334632089436,10,1,100,0.04872973807485506,-10,-1,-100,15012.993783477112,-0.010996108753901349,0.006856817218845177,0.9999160312995785,23.671155580136652,0.022737379279416912,-51.94679857376057,19.387742081818686,-79.32177734375,5356.25390625,True
1599559800.6823885,0.0,10,0.5,0.5,0.13631083755493145,-0.05075,-0.00825,-0.37525,0.09269173057490354,10,1,100,0.08381217567591523,-10,-1,-100,15013.393190381,-0.010631780526155788,0.007034870212310198,0.9999187346199387,23.22630828282796,0.022119671086580365,-50.48360154945564,19.201976618694527,-81.49588012695312,5356.25390625,True
1599559800.7062924,0.0,10,0.5,0.5,0.2565120246887207,-0.05075,-0.00825,-0.37525,0.0944790285933078,10,1,100,0.07845576149370562,-10,-1,-100,15013.78771455551,-0.010256799461031363,0.007208637429723551,0.9999214137177096,22.776366845803455,0.021529790177817962,-49.028111969661815,19.016220338333717,-83.62051391601562,5356.25390625,True
1599559800.7352166,0.0,10,0.5,0.5,-0.5103124214172363,-0.05075,-0.00825,-0.37525,0.07755162971235968,10,1,100,0.1154057688060147,-10,-1,-100,15013.78771455551,-0.010256799461031363,0.007208637429723551,0.9999214137177096,22.776366845803455,0.021529790177817962,-49.028111969661815,19.016220338333717,-83.62051391601562,5356.25390625,True
1599559800.769174,0.0,10,0.5,0.5,1.2710982467651366,-0.05075,-0.00825,-0.37525,0.1160660285487235,10,1,100,0.026742710640928702,-10,-1,-100,15014.5220752405,-0.009455427752038883,0.007555131472476232,0.9999267547547968,21.865018348065703,0.020447959359560317,-46.14955707159381,18.644732804288257,-87.736572265625,5356.25390625,True
1599559800.8030827,0.0,10,0.5,0.5,2.330705499267578,-0.05075,-0.00825,-0.37525,0.1290998499825911,10,1,100,-0.030795330491910453,-10,-1,-100,15015.594320933102,-0.00820884269042635,0.007985122938715339,0.9999344242065764,21.57938755439023,0.02012076615098119,-44.18940090654741,18.08754518405621,-93.78233337402344,5356.25390625,True
1599559800.8380716,0.0,10,0.5,0.5,1.7562478656768798,-0.05075,-0.00825,-0.37525,0.11108473013533904,10,1,100,0.0018779435430226338,-10,-1,-100,15016.325753604644,-0.007378096444435243,0.008209073009585066,0.9999390855513048,22.184912736983083,0.020817265546816066,-44.498992435547,17.7160888681544,-97.69087982177734,5356.25390625,True
1599559800.8691268,0.0,10,0.5,0.5,1.1139755117416383,-0.05075,-0.00825,-0.37525,0.09964230855603842,10,1,100,0.03902214796982359,-10,-1,-100,15016.662661885144,-0.006966541532968113,0.008305495457218518,0.999941241295847,22.46195693375416,0.02118499985208761,-44.58363786243258,17.530359665837977,-99.5538330078125,5356.25390625,True
1599559800.9025762,0.0,10,0.5,0.5,0.442191681098938,-0.05075,-0.00825,-0.37525,0.0902816285814538,10,1,100,0.07956502411606033,-10,-1,-100,15016.662661885144,-0.006966541532968113,0.008305495457218518,0.999941241295847,22.46195693375416,0.02118499985208761,-44.58363786243258,17.530359665837977,-99.5538330078125,5356.25390625,True
1599559800.935613,0.0,10,0.5,0.5,1.9709269258499145,-0.05075,-0.00825,-0.37525,0.10847561078590154,10,1,100,-0.012898235033615993,-10,-1,-100,15017.386284130858,-0.006131535677066294,0.008468335615542947,0.9999453442874482,22.97935293622178,0.021954848934586445,-44.64664489130817,17.158898433102472,-103.07835388183594,5356.25390625,True
1599559800.971688,0.0,10,0.5,0.5,2.714858659172058,-0.05075,-0.00825,-0.37525,0.10987460071813168,10,1,100,-0.06999007214874284,-10,-1,-100,15018.388222488924,-0.004858533165224403,0.008627221824075368,0.9999509816481411,23.55687860352129,0.023036754693273414,-44.28610364058842,16.601700636758387,-107.87490844726562,5356.25390625,True
1599559801.0026014,0.0,10,0.5,0.5,0.9385078916549683,-0.05075,-0.00825,-0.37525,0.0941630203254126,10,1,100,0.056696421476578614,-10,-1,-100,15018.388222488924,-0.004858533165224403,0.008627221824075368,0.9999509816481411,23.55687860352129,0.023036754693273414,-44.28610364058842,16.601700636758387,-107.87490844726562,5356.25390625,True
1599559801.0355165,0.0,10,0.5,0.5,2.814068716239929,-0.05075,-0.00825,-0.37525,0.10195171117892304,10,1,100,-0.0789532292473278,-10,-1,-100,15019.321803779574,-0.0036306029289715548,0.008696580512187494,0.9999555931188983,23.999603801781213,0.024050600880095172,-43.60750559006731,16.04449867793608,-112.22654724121094,5356.25390625,True
1599559801.0693927,0.0,10,0.5,0.5,2.303832767677307,-0.05075,-0.00825,-0.37525,0.0947718498993456,10,1,100,-0.046733216741394024,-10,-1,-100,15019.982929769787,-0.0028132357338247816,0.008693009723309211,0.9999582577721214,24.246200945003853,0.024679629400625822,-43.03773587396193,15.673029941871384,-114.80663299560547,5356.25390625,True
1599559801.1052952,0.0,10,0.5,0.5,1.8682081722259523,-0.05075,-0.00825,-0.37525,0.09440061843644576,10,1,100,-0.007842165264073539,-10,-1,-100,15020.308122168528,-0.0024304965368735438,0.008685039290762968,0.9999593305625496,24.343490050158813,0.0249624450791689,-42.69940622299202,15.487296169514318,-115.9963607788086,5356.25390625,True
1599559801.136328,0.0,10,0.5,0.5,1.92280934009552,-0.05075,-0.00825,-0.37525,0.0936094573172777,10,1,100,-0.01163442016713423,-10,-1,-100,15020.58448665822,-0.002054463068903835,0.008669573880257322,0.9999603080473911,24.425084139064552,0.025223725940131697,-42.32975508707154,15.301563051662146,-117.1177978515625,5356.25390625,True
1599559801.1702387,0.0,10,0.5,0.5,2.7789090730667114,-0.05075,-0.00825,-0.37525,0.08430188131546162,10,1,100,-0.09722339244619875,-10,-1,-100,15021.504402047023,-0.0009401277860503522,0.008570277860743368,0.9999628325578584,24.58589667182245,0.02587961543019383,-41.05981081146016,14.744369822273704,-120.070068359375,5356.25390625,True
1599559801.2026746,0.0,10,0.5,0.5,1.689532395553589,-0.05075,-0.00825,-0.37525,0.0942676037519728,10,1,100,0.013566338973311061,-10,-1,-100,15021.504402047023,-0.0009401277860503522,0.008570277860743368,0.9999628325578584,24.58589667182245,0.02587961543019383,-41.05981081146016,14.744369822273704,-120.070068359375,5356.25390625,True
1599559801.2401888,0.0,10,0.5,0.5,2.3983280254364017,-0.05075,-0.00825,-0.37525,0.08319254343296874,10,1,100,-0.06474952118107427,-10,-1,-100,15022.094242577557,-0.00023364397896222895,0.008469354782931036,0.999964107075875,24.634663055366705,0.026218003153854374,-40.10662960732115,14.37291478128115,-121.69417572021484,5356.25390625,True
1599559801.2701087,0.0,10,0.5,0.5,2.381551344871521,-0.05075,-0.00825,-0.37525,0.08194067915887127,10,1,100,-0.066318154456752,-10,-1,-100,15022.631349509116,0.00041675351402949346,0.008366076983041018,0.9999649169207999,24.645923905295085,0.02648722152958041,-39.08976118137051,14.001467327403844,-123.04254150390625,5356.25390625,True
1599559801.303033,0.0,10,0.5,0.5,2.1353516775131225,-0.05075,-0.00825,-0.37525,0.08389875006631309,10,1,100,-0.038697502830545655,-10,-1,-100,15022.894043849781,0.0007509741390645508,0.008290081681056384,0.9999653546916332,24.639394363414826,0.02659879281952168,-38.561904646221784,13.815746783800428,-123.61367797851562,5356.25390625,True
1599559801.3360562,0.0,10,0.5,0.5,2.332504916954041,-0.05075,-0.00825,-0.37525,0.07499317810049538,10,1,100,-0.07445198356980173,-10,-1,-100,15023.42724576185,0.001374752252813032,0.008140341788783846,0.9999659218652429,24.606084698362697,0.026783030587115227,-37.47610427760874,13.444312508316418,-124.5490951538086,5356.25390625,True
1599559801.3729599,0.0,10,0.5,0.5,2.2763228828430178,-0.05075,-0.00825,-0.37525,0.07232410877176693,10,1,100,-0.0768864030995058,-10,-1,-100,15023.950682122493,0.0019582877288380177,0.007980392965579727,0.9999662386487287,24.549564689391698,0.026923436403467733,-36.358641756909265,13.072887869414945,-125.20890045166016,5356.25390625,True
1599559801.4038835,0.0,10,0.5,0.5,2.1360025129318236,-0.05075,-0.00825,-0.37525,0.0782667952588365,10,1,100,-0.05047073862651323,-10,-1,-100,15024.218260215246,0.002243551311235518,0.007889660446682621,0.9999663593019267,24.51368846802951,0.02697998103580478,-35.79054120633158,12.887179362469668,-125.4355697631836,5356.25390625,True
1599559801.4378514,0.0,10,0.5,0.5,2.1647511716842653,-0.05075,-0.00825,-0.37525,0.06694770750242683,10,1,100,-0.08153862231203836,-10,-1,-100,15024.739744043909,0.002780720067787965,0.007705005858333007,0.9999664496775017,24.42841246236709,0.027071164230413124,-34.63962793069853,12.515770343811717,-125.68213653564453,5356.25390625,True
1599559801.4708166,0.0,10,0.5,0.5,2.067831540107727,-0.05075,-0.00825,-0.37525,0.06430491036396994,10,1,100,-0.08325644057905907,-10,-1,-100,15025.202634649002,0.003279934361077049,0.00751400356169505,0.9999663903257259,24.32633461965633,0.027139211279300877,-33.4726870190564,12.144372248845343,-125.65306091308594,5356.25390625,True
1599559801.5067258,0.0,10,0.5,0.5,2.035598624610901,-0.05075,-0.00825,-0.37525,0.07189429526910203,10,1,100,-0.06027218030867929,-10,-1,-100,15025.464353849762,0.0035199682639455083,0.007410410036905892,0.9999663472569992,24.269083215684635,0.027166394122485293,-32.88398851031832,11.958677291176752,-125.5352554321289,5356.25390625,True
1599559801.5376446,0.0,10,0.5,0.5,1.5899280921936036,-0.05075,-0.00825,-0.37525,0.03655848167055509,10,1,100,-0.1309578938125243,-10,-1,-100,15026.385253475979,0.0043767236656336115,0.006996053861496082,0.9999659491804317,23.996469096526194,0.027241892409201187,-30.497656378994638,11.215926287088097,-124.37472534179688,5356.25390625,True
1599559801.5705714,0.0,10,0.5,0.5,2.0289683506011964,-0.05075,-0.00825,-0.37525,0.07783667681161129,10,1,100,-0.045814038788882364,-10,-1,-100,15026.385253475979,0.0043767236656336115,0.006996053861496082,0.9999659491804317,23.996469096526194,0.027241892409201187,-30.497656378994638,11.215926287088097,-124.37472534179688,5356.25390625,True
1599559801.6044796,0.0,10,0.5,0.5,1.8342224065780643,-0.05075,-0.00825,-0.37525,0.06551225344672017,10,1,100,-0.06764704865534282,-10,-1,-100,15026.580566392746,0.004571014330197256,0.006885353013562013,0.9999658482877662,23.915949588655575,0.027253408006720967,-29.892734664765495,11.030245718867524,-123.91238403320312,5356.25390625,True
1599559801.6393867,0.0,10,0.5,0.5,1.2413592924118044,-0.05075,-0.00825,-0.37525,0.04049313967145715,10,1,100,-0.10588921653411021,-10,-1,-100,15027.23584045202,0.005091521677956483,0.006558615502909994,0.9999655298907497,23.637472065844833,0.027267571541560502,-28.05435676286757,10.473221426278226,-122.11174011230469,5356.25390625,True
1599559801.6710606,0.0,10,0.5,0.5,1.2577108575820923,-0.05075,-0.00825,-0.37525,0.04760530969700631,10,1,100,-0.08810826720449655,-10,-1,-100,15027.62841898948,0.005399119229705755,0.006327811553620557,0.9999654035577857,23.414290401857127,0.027253145271275023,-26.80523227633924,10.101886412804374,-120.56690216064453,5356.25390625,True
1599559801.7039838,0.0,10,0.5,0.5,1.0585428598403932,-0.05075,-0.00825,-0.37525,0.045779879887043934,10,1,100,-0.08707847673285471,-10,-1,-100,15028.077637974522,0.00566573312066572,0.006103042719844287,0.9999653255677244,23.153753060798316,0.027209465441233375,-25.533609550479593,9.730562737684663,-118.74628448486328,5356.25390625,True
1599559801.7368956,0.0,10,0.5,0.5,0.8434236955642701,-0.05075,-0.00825,-0.37525,0.042556053183136586,10,1,100,-0.0866053842501461,-10,-1,-100,15028.409669201355,0.00590043813952122,0.005871106582962825,0.9999653568685534,22.84793274655883,0.02712300669279382,-24.235792269132283,9.359250188034588,-116.65010070800781,5356.25390625,True
1599559801.7729867,0.0,10,0.5,0.5,1.622768645858765,-0.05075,-0.00825,-0.37525,0.06554781148491083,10,1,100,-0.06350057104742463,-10,-1,-100,15028.409669201355,0.00590043813952122,0.005871106582962825,0.9999653568685534,22.84793274655883,0.02712300669279382,-24.235792269132283,9.359250188034588,-116.65010070800781,5356.25390625,True
1599559801.8039358,0.0,10,0.5,0.5,0.6049225172042849,-0.05075,-0.00825,-0.37525,0.03972192902309828,10,1,100,-0.08573027271693646,-10,-1,-100,15028.795411118073,0.006099690229178843,0.005637993014469411,0.9999655028119105,22.48841312980258,0.026977472662426297,-22.90891935022055,8.987948404120901,-114.27828216552734,5356.25390625,True
1599559801.8389935,0.0,10,0.5,0.5,-0.23918554649352997,-0.05075,-0.00825,-0.37525,0.022747919423454527,10,1,100,-0.09244451383802427,-10,-1,-100,15029.31005786953,0.0063393036337246605,0.005273467874521569,0.9999660013050523,21.827896262071427,0.026603647225957157,-20.85930970161743,8.431014237800802,-110.22957611083984,5356.25390625,True
1599559801.8711486,0.0,10,0.5,0.5,0.6416174591064454,-0.05075,-0.00825,-0.37525,0.045944221572574176,10,1,100,-0.07551296330095554,-10,-1,-100,15029.442869865336,0.006400647782638616,0.005154899532435878,0.9999662287891392,21.570472225705174,0.02642596382668822,-20.159771223130882,8.24537381084635,-108.76045227050781,5356.25390625,True
1599559801.9070513,0.0,10,0.5,0.5,-0.11430420837402333,-0.05075,-0.00825,-0.37525,0.030932914495683677,10,1,100,-0.08053145588451362,-10,-1,-100,15029.76611065003,0.006500197919577281,0.0049123174792308445,0.9999668077311314,21.058078957087865,0.026053716900636112,-18.795304779379773,7.874097815593936,-105.72212219238281,5356.25390625,True
1599559801.9369657,0.0,10,0.5,0.5,1.0104407558441162,-0.05075,-0.00825,-0.37525,0.054982746177960465,10,1,100,-0.07078878961604151,-10,-1,-100,15029.76611065003,0.006500197919577281,0.0049123174792308445,0.9999668077311314,21.058078957087865,0.026053716900636112,-18.795304779379773,7.874097815593936,-105.72212219238281,5356.25390625,True
1599559801.970939,0.0,10,0.5,0.5,-0.3442957786560056,-0.05075,-0.00825,-0.37525,0.026295939607440453,10,1,100,-0.0789128572392048,-10,-1,-100,15030.084468227345,0.006572299276524783,0.004653321997257327,0.9999675752126215,20.490713585126453,0.025579019432456506,-17.427105401934067,7.502826441519478,-102.57721710205078,5356.25390625,True
1599559802.0038507,0.0,10,0.5,0.5,-0.5452756422042844,-0.05075,-0.00825,-0.37525,0.023717889968117776,10,1,100,-0.07625194464360525,-10,-1,-100,15030.400872160331,0.006612309688700182,0.00439616682920179,0.9999684750419839,19.850179135610237,0.024968388497250162,-16.04740129510882,7.1315576443424575,-99.37301635742188,5356.25390625,True
1599559802.0407522,0.0,10,0.5,0.5,-0.06027530555725091,-0.05075,-0.00825,-0.37525,0.034056309349937294,10,1,100,-0.07348823752117416,-10,-1,-100,15030.528800301603,0.006622455280056631,0.004258131075099132,0.9999690052225674,19.50481279590737,0.024611805368484944,-15.357963612286737,6.9459235797782535,-97.7300796508789,5356.25390625,True
1599559802.0706732,0.0,10,0.5,0.5,-1.5402892669677732,-0.05075,-0.00825,-0.37525,0.002822320117433691,10,1,100,-0.07106008737805443,-10,-1,-100,15030.915514457622,0.006608734705298322,0.0038503758616600875,0.9999707491878544,18.473141149248022,0.023457452180426355,-13.379906938230812,6.389017603436138,-92.84935760498047,5356.25390625,True
1599559802.1045806,0.0,10,0.5,0.5,0.2715660676956177,-0.05075,-0.00825,-0.37525,0.04339576838920785,10,1,100,-0.072502974510463,-10,-1,-100,15030.915514457622,0.006608734705298322,0.0038503758616600875,0.9999707491878544,18.473141149248022,0.023457452180426355,-13.379906938230812,6.389017603436138,-92.84935760498047,5356.25390625,True
1599559802.1394897,0.0,10,0.5,0.5,-1.0789392810821534,-0.05075,-0.00825,-0.37525,0.01157353686132457,10,1,100,-0.06794551805040101,-10,-1,-100,15031.1635576759,0.006566659376965234,0.0035629198756986966,0.9999720919038623,17.73766645759015,0.02254859945864648,-12.100903779773914,6.01773990660036,-89.72525024414062,5356.25390625,True
1599559802.1763904,0.0,10,0.5,0.5,-1.1844764791488647,-0.05075,-0.00825,-0.37525,0.008750915916725048,10,1,100,-0.0647855831532973,-10,-1,-100,15031.416483816807,0.006499257880190769,0.003277822491818137,0.9999735074124309,17.65651804682176,0.022409816392580773,-11.302573173504019,5.646451980279444,-86.77313232421875,5356.25390625,True
1599559802.2551794,0.0,10,0.5,0.5,-1.9155941356658936,-0.05075,-0.00825,-0.37525,-0.014095799356902486,10,1,100,-0.05548885736857903,-10,-1,-100,15031.727024030872,0.006353322690310665,0.0028127598634234722,0.9999758615450394,18.418591528113815,0.02323560953279067,-10.627700257284339,5.089489342370163,-82.50189208984375,5356.25390625,True
1599559802.3050468,0.0,10,0.5,0.5,-1.4512294937133787,-0.05075,-0.00825,-0.37525,-0.0023623965188168394,10,1,100,-0.05628028060713992,-10,-1,-100,15031.911590207135,0.006227892115399604,0.0024987721722009304,0.9999774844952412,18.842303628169788,0.023642732624201933,-10.079126887265561,4.718161554721031,-79.88040161132812,5356.25390625,True
1599559802.3474464,0.0,10,0.5,0.5,-2.3785335857391354,-0.05075,-0.00825,-0.37525,-0.04212326890484464,10,1,100,-0.03430690309857744,-10,-1,-100,15032.221151926438,0.0059143538934064155,0.0018540604724047577,0.9999807912544062,19.429242832392838,0.02410800210430644,-8.757370441916091,3.9754653372678,-75.44448852539062,5356.25390625,True
1599559802.3853452,0.0,10,0.5,0.5,-1.5079541313171387,-0.05075,-0.00825,-0.37525,-0.014280455180209244,10,1,100,-0.04507797828376584,-10,-1,-100,15032.400834928034,0.005727770596938112,0.0015238556491838553,0.9999824350997117,19.608720715814496,0.024208110450571564,-8.012763900024359,3.6040993777699195,-73.6392822265625,5356.25390625,True
1599559802.4182582,0.0,10,0.5,0.5,-1.194894051551819,-0.05075,-0.00825,-0.37525,8.978560293398247e-05,10,1,100,-0.05258499567164024,-10,-1,-100,15032.461379863322,0.005627162784292682,0.001357152968237131,0.999983246447069,19.673747407643273,0.024232677495264,-7.6251958097580586,3.418412283613445,-72.84005737304688,5356.25390625,True
1599559802.4593852,0.0,10,0.5,0.5,-1.7622053659439088,-0.05075,-0.00825,-0.37525,-0.03660498750971746,10,1,100,-0.026792957690871026,-10,-1,-100,15032.634224850102,0.0053021236519756685,0.0008747789698623365,0.9999855610190245,19.77874398200165,0.02422030456784167,-6.4167635270522565,2.8613348686949687,-70.855712890625,5356.25390625,True
1599559802.4982815,0.0,10,0.5,0.5,-1.2627488269805909,-0.05075,-0.00825,-0.37525,-0.00720151572063994,10,1,100,-0.04619897916772284,-10,-1,-100,15032.692816831055,0.005184252210229837,0.000706637216790716,0.9999863120027517,19.790650609695756,0.02419664454036632,-6.003974948962473,2.675636861321056,-70.33224487304688,5356.25390625,True
1599559802.5381765,0.0,10,0.5,0.5,-1.2785493448257448,-0.05075,-0.00825,-0.37525,-0.008961484576082129,10,1,100,-0.04441921879764229,-10,-1,-100,15032.75140864402,0.005062211698455684,0.0005406393049896496,0.9999870407769604,19.79092093456516,0.0241632543703323,-5.587387628402087,2.489936097980964,-69.87765502929688,5356.25390625,True
1599559802.5963511,0.0,10,0.5,0.5,-1.531803367614746,-0.05075,-0.00825,-0.37525,-0.045650846517372765,10,1,100,-0.014062419679452653,-10,-1,-100,15032.862731507747,0.004676700807592769,5.920130984664751e-05,0.9999890624225652,19.72353271095917,0.024006572160761196,-4.322537719416931,1.9328166763744812,-68.92721557617188,5356.25390625,True
1599559802.7349803,0.0,10,0.5,0.5,-1.3328576202392577,-0.05075,-0.00825,-0.37525,-0.052010140996984,10,1,100,-0.005804433379051857,-10,-1,-100,15032.967219087644,0.004252881902776814,-0.0004330961641290456,0.9999908626698715,19.582626750636983,0.02379799352127685,-3.054624367938597,1.3756709523389055,-68.5972900390625,5356.25390625,True
1599559802.8387034,0.0,10,0.5,0.5,-0.7127129272460939,-0.05075,-0.00825,-0.37525,-0.1056402908260159,10,1,100,0.054965617702325144,-10,-1,-100,15033.040453977534,0.0033171791394565314,-0.001364812576501832,0.9999935667839007,19.06061362902906,0.023179056336535556,-0.5647710176832759,0.2613030636905558,-69.797607421875,5356.25390625,True
1599559802.927466,0.0,10,0.5,0.5,-0.5218595809936524,-0.05075,-0.00825,-0.37525,-0.059380387749170094,10,1,100,0.017099148167921532,-10,-1,-100,15033.07365471311,0.002813541026342538,-0.0017874851302876527,0.9999944444264689,18.73742262367042,0.022819359019792887,0.6287466197104447,-0.2959133276421917,-71.32754516601562,5356.25390625,True
1599559802.9759328,0.0,10,0.5,0.5,-0.5270251922607422,-0.05075,-0.00825,-0.37525,-0.04452845361654122,10,1,100,0.0043898314352959,-10,-1,-100,15032.99650541495,0.0024743313947982837,-0.002032818725884965,0.9999948726529433,18.582980711838754,0.022652969539563902,1.4063966049321464,-0.6673963403591123,-72.67965698242188,5356.25390625,True
1599559803.0178204,0.0,10,0.5,0.5,0.36874464874267565,-0.05075,-0.00825,-0.37525,-0.06593864656397512,10,1,100,0.04579939920705428,-10,-1,-100,15032.946699006832,0.0017926356795589836,-0.002446953858497112,0.9999953994264847,18.171277027628022,0.02218021671712302,2.906305261048431,-1.4103641760275987,-75.97879028320312,5356.25390625,True
1599559803.0876322,0.0,10,0.5,0.5,-0.06489589004516616,-0.05075,-0.00825,-0.37525,-0.04358089532036745,10,1,100,0.015663573447437663,-10,-1,-100,15032.864667809336,0.0014504517498082974,-0.002616578231832011,0.9999955248440254,17.91170252626276,0.021862314177796466,3.619430864359987,-1.781846689327518,-77.8624267578125,5356.25390625,True
1599559803.12653,0.0,10,0.5,0.5,0.4983875259399413,-0.05075,-0.00825,-0.37525,-0.049452195374673366,10,1,100,0.036701532313256346,-10,-1,-100,15032.755292425165,0.0009519182885588532,-0.0028205451797210014,0.9999955691784143,17.470563245449917,0.021296496644450946,4.634437271908157,-2.3390706546310938,-80.83419799804688,5356.25390625,True
1599559803.183894,0.0,10,0.5,0.5,-0.6085373817443848,-0.05075,-0.00825,-0.37525,-0.029425033000732674,10,1,100,-0.012716793275346392,-10,-1,-100,15032.755292425165,0.0009519182885588532,-0.0028205451797210014,0.9999955691784143,17.470563245449917,0.021296496644450946,4.634437271908157,-2.3390706546310938,-80.83419799804688,5356.25390625,True
1599559803.2527082,0.0,10,0.5,0.5,0.9932195640563964,-0.05075,-0.00825,-0.37525,-0.05200810769647432,10,1,100,0.05891075196995242,-10,-1,-100,15032.515058466932,0.0003046063626212922,-0.003022639329321824,0.9999953854225772,16.81964630162371,0.020427774454565638,5.879266839805412,-3.082048922888644,-84.5738525390625,5356.25390625,True
1599559803.2926009,0.0,10,0.5,0.5,1.1360441757202147,-0.05075,-0.00825,-0.37525,-0.04687085377716155,10,1,100,0.06493296253927855,-10,-1,-100,15032.203536039568,-0.0003342812976468787,-0.0031564196309339905,0.9999949626228762,16.14450359158977,0.01952401097508721,7.00411549981249,-3.8250670993084057,-88.1748046875,5356.25390625,True
1599559803.3449807,0.0,10,0.5,0.5,0.19244885787963867,-0.05075,-0.00825,-0.37525,-0.035900543031424904,10,1,100,0.017358387011497715,-10,-1,-100,15032.127364706947,-0.00047803668208789944,-0.00317538469749219,0.9999948441931856,15.957947583014407,0.019282521036135397,7.25950650026503,-4.010830451353438,-89.094482421875,5356.25390625,True
1599559803.3918545,0.0,10,0.5,0.5,0.5774600090026856,-0.05075,-0.00825,-0.37525,-0.03780040711098468,10,1,100,0.03518932372654335,-10,-1,-100,15031.968185562175,-0.0007665219848211834,-0.0032074041691471304,0.999994562486488,15.613890686530176,0.018848038317922127,7.761200388143364,-4.382368182528151,-90.76868438720703,5356.25390625,True
1599559803.4646616,0.0,10,0.5,0.5,0.8393046407699585,-0.05075,-0.00825,-0.37525,-0.03701311319883937,10,1,100,0.05235774380983453,-10,-1,-100,15031.664476010017,-0.0011811454415865635,-0.00322768047909335,0.9999940934696419,16.097646457737767,0.019437872265315806,9.019727227872481,-4.939695733122788,-92.8174819946289,5356.25390625,True
1599559803.5165277,0.0,10,0.5,0.5,1.0460042594909669,-0.05075,-0.00825,-0.37525,-0.03259045944695038,10,1,100,0.06669385455844727,-10,-1,-100,15031.278735090746,-0.0016847726032079985,-0.003204598276437463,0.9999934460241038,16.711689905982333,0.02024692974650101,10.773318286259533,-5.682829635539905,-95.0657958984375,5356.25390625,True
1599559803.5604053,0.0,10,0.5,0.5,0.4151015796661377,-0.05075,-0.00825,-0.37525,-0.03354142093320932,10,1,100,0.029310795416539977,-10,-1,-100,15031.1322512537,-0.0017989884815755946,-0.003191194306124872,0.9999932899371594,16.85140452753788,0.02044290274468042,11.218780533835755,-5.868617798397838,-95.52191925048828,5356.25390625,True
1599559803.5973055,0.0,10,0.5,0.5,0.5778255578994751,-0.05075,-0.00825,-0.37525,-0.030951068830406034,10,1,100,0.042246863007077695,-10,-1,-100,15030.903736839071,-0.0020171565998590843,-0.003154783640862825,0.9999929891851399,17.10595494988991,0.020816031814493825,12.10985495870786,-6.24019886886664,-96.26783752441406,5356.25390625,True
1599559803.6800854,0.0,10,0.5,0.5,0.5958713098526002,-0.05075,-0.00825,-0.37525,-0.026658375390924086,10,1,100,0.053061147432051606,-10,-1,-100,15030.470143699902,-0.0023106505582077765,-0.0030821692726211002,0.9999925805357621,17.419523864151692,0.021316841912193983,13.434313947751527,-6.79758037862229,-96.93161010742188,5356.25390625,True
1599559803.7259612,0.0,10,0.5,0.5,0.4519292131423951,-0.05075,-0.00825,-0.37525,-0.02722467997887427,10,1,100,0.04319807896526829,-10,-1,-100,15030.23772256996,-0.0024848330171478605,-0.003021066594025534,0.9999923493514894,17.59084402295599,0.021617053669911297,14.308805487323673,-7.169173265807415,-97.1472396850586,5356.25390625,True
1599559803.7668533,0.0,10,0.5,0.5,0.40467198219299316,-0.05075,-0.00825,-0.37525,-0.029574350916603948,10,1,100,0.03500955443658959,-10,-1,-100,15030.091238556546,-0.00256561525564567,-0.00298669705708683,0.9999922485994824,17.667936407382374,0.0217595753825819,14.744371970419245,-7.354970841229975,-97.19465637207031,5356.25390625,True
1599559803.8087401,0.0,10,0.5,0.5,0.3560437343597413,-0.05075,-0.00825,-0.37525,-0.020649486382291592,10,1,100,0.05083818649085613,-10,-1,-100,15029.588309382205,-0.002780341016938586,-0.002874349566169019,0.9999920038772315,17.864979247261356,0.022153273122024166,16.040060971823628,-7.912367217042181,-97.09783172607422,5356.25390625,True
1599559803.8725717,0.0,10,0.5,0.5,0.3000574361801148,-0.05075,-0.00825,-0.37525,-0.022346521388163947,10,1,100,0.04348585277671316,-10,-1,-100,15029.291434711195,-0.0029064831664223994,-0.0027878995018105436,0.9999918899530991,17.96959523765301,0.022386541654729676,16.89275111907968,-8.28396694765861,-96.86383819580078,5356.25390625,True
1599559803.9264266,0.0,10,0.5,0.5,0.24626591796875003,-0.05075,-0.00825,-0.37525,-0.020822058537558162,10,1,100,0.04300298484446687,-10,-1,-100,15028.928153384011,-0.003014560460674232,-0.002695802040293406,0.9999918225048585,18.056039049220413,0.022597594801140174,17.736574254135533,-8.655567864911834,-96.51640319824219,5356.25390625,True
1599559803.9713054,0.0,10,0.5,0.5,0.08207902736663819,-0.05075,-0.00825,-0.37525,-0.013331916246933279,10,1,100,0.04713565486399355,-10,-1,-100,15028.413504871423,-0.0031483386024662744,-0.0025444499654801943,0.9999918068356447,18.155294503041613,0.022871783822492178,18.984494445177155,-9.21297063848954,-95.81381225585938,5356.25390625,True
1599559804.0072098,0.0,10,0.5,0.5,0.10428633995056158,-0.05075,-0.00825,-0.37525,-0.016446160901587233,10,1,100,0.04168902162017367,-10,-1,-100,15027.997489307541,-0.0032186518899144233,-0.0024357896038865044,0.9999918535713265,18.20333882133143,0.023025409510404105,19.80391362113204,-9.584572548858024,-95.24124908447266,5356.25390625,True
1599559804.069044,0.0,10,0.5,0.5,0.04798472919464114,-0.05075,-0.00825,-0.37525,-0.014796210870416967,10,1,100,0.04076306316766183,-10,-1,-100,15027.629325378803,-0.0032727608204928997,-0.002322706828220285,0.9999919470023756,18.23804740980446,0.02315427944512798,20.61249010129796,-9.956173856979328,-94.6043930053711,5356.25390625,True
1599559804.1069448,0.0,10,0.5,0.5,0.0008472959518432965,-0.05075,-0.00825,-0.37525,-0.012996741392346443,10,1,100,0.039867557568386336,-10,-1,-100,15027.201590407407,-0.003312470004353631,-0.0022043350255211754,0.9999920841934529,18.263774877037587,0.02326171477027912,21.413643214271072,-10.327773745422867,-93.93453216552734,5356.25390625,True
1599559804.1712863,0.0,10,0.5,0.5,-0.19997781219482416,-0.05075,-0.00825,-0.37525,-0.004217619016870993,10,1,100,0.03964467813912742,-10,-1,-100,15026.556081699091,-0.003345365528138765,-0.0020177781365770643,0.9999923685213176,18.289627040281093,0.023383893464885064,22.604040908215943,-10.885169759626722,-92.87757110595703,5356.25390625,True
1599559804.2480807,0.0,10,0.5,0.5,-0.270909441947937,-0.05075,-0.00825,-0.37525,-0.0012625067494514003,10,1,100,0.03663336555794046,-10,-1,-100,15025.907643437386,-0.003346954330869068,-0.0018222839361386434,0.9999927385626174,18.30262787873187,0.023457223681709466,23.781432995848846,-11.442559727454329,-91.78787231445312,5356.25390625,True
1599559804.291973,0.0,10,0.5,0.5,-0.17354173355102537,-0.05075,-0.00825,-0.37525,-0.005952832062398099,10,1,100,0.03486868099674478,-10,-1,-100,15025.41350187303,-0.003331572363418727,-0.001688291059183128,0.9999930251251189,18.307179984470764,0.02348052884069398,24.561992987389935,-11.814148905477024,-91.06693267822266,5356.25390625,True
1599559804.3495483,0.0,10,0.5,0.5,-0.33087938747406,-0.05075,-0.00825,-0.37525,0.0033216839003019603,10,1,100,0.03130729877104928,-10,-1,-100,15024.694750966388,-0.0032845162299504826,-0.001483345940469844,0.9999935057978907,18.32088510741209,0.02349237005187625,25.743580310161114,-12.371524977313655,-90.07440948486328,5356.25390625,True
1599559804.3884313,0.0,10,0.5,0.5,-0.3273102693557739,-0.05075,-0.00825,-0.37525,0.0059966858642450695,10,1,100,0.027962993974431097,-10,-1,-100,15023.917405793676,-0.003210876814816448,-0.001273978545263466,0.9999940336065742,18.510775417923327,0.02369311387098146,27.186109958856576,-12.928889321760673,-89.22210693359375,5356.25390625,True
1599559804.4253314,0.0,10,0.5,0.5,-0.12387630004882812,-0.05075,-0.00825,-0.37525,-0.007026522485578605,10,1,100,0.03198471643070361,-10,-1,-100,15023.636155236862,-0.0031802162837076264,-0.0012034136445801984,0.9999942189932846,18.640625370663745,0.023837449256000152,27.771569335135446,-13.11467363830066,-88.96368408203125,5356.25390625,True
1599559804.4582446,0.0,10,0.5,0.5,-0.13527895469665527,-0.05075,-0.00825,-0.37525,-0.006322789125726376,10,1,100,0.031491241815826,-10,-1,-100,15023.41642804665,-0.0031477063445434165,-0.001134222875592856,0.999994402725954,18.767500961528427,0.023974204686595998,28.358086251956276,-13.300455883061892,-88.72390747070312,5356.25390625,True
1599559804.4891608,0.0,10,0.5,0.5,-0.3061825313568115,-0.05075,-0.00825,-0.37525,0.010020947688315773,10,1,100,0.02233004965346154,-10,-1,-100,15022.570723521174,-0.0030348688640616604,-0.0009240247755584229,0.9999949678619349,19.12057712666777,0.024328943864569484,30.106825132874178,-13.85778928389604,-88.125244140625,5356.25390625,True
1599559804.7046227,0.0,10,0.5,0.5,-0.08740482082366945,-0.05075,-0.00825,-0.37525,-0.010847685832294738,10,1,100,0.033595419399051876,-10,-1,-100,15022.570723521174,-0.0030348688640616604,-0.0009240247755584229,0.9999949678619349,19.12057712666777,0.024328943864569484,30.106825132874178,-13.85778928389604,-88.125244140625,5356.25390625,True
1599559804.7345784,0.0,10,0.5,0.5,-0.23535247459411618,-0.05075,-0.00825,-0.37525,0.00501282545844842,10,1,100,0.023904431977359773,-10,-1,-100,15022.00040982652,-0.0029469852438248514,-0.0007811098384177232,0.9999953525618971,19.33737594556446,0.024526966047745288,31.267809220394728,-14.229333827342021,-87.79049682617188,5356.25390625,True
1599559804.7634656,0.0,10,0.5,0.5,-0.23468487644195557,-0.05075,-0.00825,-0.37525,0.00643224779242794,10,1,100,0.02205608050218452,-10,-1,-100,15021.43302587478,-0.0028506201072539127,-0.0006395771699691854,0.9999957324439179,19.543477852244546,0.024700870419534084,32.42964801533365,-14.600869077282736,-87.50909423828125,5356.25390625,True
1599559804.806351,0.0,10,0.5,0.5,-0.13351754875183106,-0.05075,-0.00825,-0.37525,-0.007583198955765043,10,1,100,0.03164311961718991,-10,-1,-100,15021.43302587478,-0.0028506201072539127,-0.0006395771699691854,0.9999957324439179,19.543477852244546,0.024700870419534084,32.42964801533365,-14.600869077282736,-87.50909423828125,5356.25390625,True
1599559804.8377817,0.0,10,0.5,0.5,-0.3046238346099853,-0.05075,-0.00825,-0.37525,0.0233989763848075,10,1,100,0.007882712937131296,-10,-1,-100,15020.22989937407,-0.00263506762309303,-0.00035899621847868,0.9999964637639157,19.91956375542913,0.02497684178859337,34.74346699969588,-15.34391170388762,-87.11572265625,5356.25390625,True
1599559804.9196148,0.0,10,0.5,0.5,-0.16027089672088624,-0.05075,-0.00825,-0.37525,-0.004526189280172599,10,1,100,0.029368310879187,-10,-1,-100,15020.22989937407,-0.00263506762309303,-0.00035899621847868,0.9999964637639157,19.91956375542913,0.02497684178859337,34.74346699969588,-15.34391170388762,-87.11572265625,5356.25390625,True
1599559804.9495351,0.0,10,0.5,0.5,-0.2269082244873047,-0.05075,-0.00825,-0.37525,0.018677283001203734,10,1,100,0.00926024397578085,-10,-1,-100,15019.308022772078,-0.0024528574227046626,-0.00014907769748615988,0.9999969806285937,20.168733046451646,0.02512566423912811,36.46187917632595,-15.901168931999553,-86.96502685546875,5356.25390625,True
1599559804.9794548,0.0,10,0.5,0.5,-0.17222171630859376,-0.05075,-0.00825,-0.37525,-0.00220207901327055,10,1,100,0.027405462075406402,-10,-1,-100,15019.308022772078,-0.0024528574227046626,-0.00014907769748615988,0.9999969806285937,20.168733046451646,0.02512566423912811,36.46187917632595,-15.901168931999553,-86.96502685546875,5356.25390625,True
1599559805.00738,0.0,10,0.5,0.5,-0.18619507141113284,-0.05075,-0.00825,-0.37525,0.020972260239803718,10,1,100,0.005390669404943101,-10,-1,-100,15018.324623175198,-0.0022533841792104535,6.063962668079344e-05,0.9999974592880607,20.39169668922601,0.025232983363413616,38.1635393760383,-16.45840473495616,-86.93609619140625,5356.25390625,True
1599559805.0445502,0.0,10,0.5,0.5,-0.16875348129272463,-0.05075,-0.00825,-0.37525,0.007373237886353439,10,1,100,0.017845326554066492,-10,-1,-100,15017.97598994826,-0.002186082042994415,0.00012657802498095423,0.9999976025087786,20.46036326262354,0.02526069820303609,38.72649679080166,-16.644145208599387,-86.95501708984375,5356.25390625,True
1599559805.0745065,0.0,10,0.5,0.5,-0.16319447402954104,-0.05075,-0.00825,-0.37525,0.00867735158095467,10,1,100,0.01649196848513431,-10,-1,-100,15017.628333377419,-0.002113366652008694,0.00019742250902243943,0.9999977473503363,20.525719983592776,0.025284152983348594,39.28610078460485,-16.8298833287083,-86.98699951171875,5356.25390625,True
1599559805.1094158,0.0,10,0.5,0.5,-0.15694620895385744,-0.05075,-0.00825,-0.37525,0.008723444589544958,10,1,100,0.016042809580417018,-10,-1,-100,15017.27872370847,-0.0020440162176261116,0.0002612261152431733,0.9999978768770555,20.58823038468502,0.025304135385256922,39.84303925741799,-17.015619077888303,-87.03204345703125,5356.25390625,True
1599559805.1413298,0.0,10,0.5,0.5,-0.11996362609863284,-0.05075,-0.00825,-0.37525,0.01657552277831111,10,1,100,0.0070159647107670125,-10,-1,-100,15016.632238738704,-0.0018997290230325808,0.00038966434447475006,0.9999981195939008,20.704997362940517,0.02533489966878844,40.948761552845944,-17.387083576240634,-87.16000366210938,5356.25390625,True
1599559805.1772504,0.0,10,0.5,0.5,-0.09385389785766603,-0.05075,-0.00825,-0.37525,0.017651363699463254,10,1,100,0.004900876176336541,-10,-1,-100,15015.928136581206,-0.0017501952149838406,0.0005152710689553449,0.9999983356548324,20.811115462723983,0.025355217373782362,42.043168939370055,-17.758538848479972,-87.33468627929688,5356.25390625,True
1599559805.2081687,0.0,10,0.5,0.5,-0.013174938964843785,-0.05075,-0.00825,-0.37525,0.02488370718486222,10,1,100,-0.005526056518257813,-10,-1,-100,15014.808995357831,-0.001520465478527101,0.0006941577154059448,0.9999986031639219,20.951649217147033,0.02537124651845344,43.66337359095979,-18.31570480227758,-87.67828369140625,5356.25390625,True
1599559805.239932,0.0,10,0.5,0.5,-0.14164575500488283,-0.05075,-0.00825,-0.37525,0.007100357933190689,10,1,100,0.017335456912959565,-10,-1,-100,15014.808995357831,-0.001520465478527101,0.0006941577154059448,0.9999986031639219,20.951649217147033,0.02537124651845344,43.66337359095979,-18.31570480227758,-87.67828369140625,5356.25390625,True
1599559805.2738957,0.0,10,0.5,0.5,-0.025737306213378927,-0.05075,-0.00825,-0.37525,0.019620127139304402,10,1,100,0.00017981055596463097,-10,-1,-100,15014.041416766238,-0.0013655183317767524,0.0008070163864307198,0.9999987420413277,21.03442522938517,0.02537637319764605,44.73062579033867,-18.687137727138268,-87.94927978515625,5356.25390625,True
1599559805.3108044,0.0,10,0.5,0.5,0.05970641632080076,-0.05075,-0.00825,-0.37525,0.025761764260187583,10,1,100,-0.01019604939228782,-10,-1,-100,15012.91836929461,-0.0011313197798295295,0.0009645790665668016,0.9999988948507794,21.148635187332584,0.025386313887435688,46.32346619062675,-19.2442707417426,-88.38665771484375,5356.25390625,True
1599559805.33972,0.0,10,0.5,0.5,0.02955318145751952,-0.05075,-0.00825,-0.37525,0.020586890618577824,10,1,100,-0.003829034432854369,-10,-1,-100,15012.145908328472,-0.0009774953573658811,0.0010597611456176481,0.9999989607040303,21.219269071866776,0.02539697852482682,47.38154767005912,-19.615681865009005,-88.69839477539062,5356.25390625,True
1599559805.3735058,0.0,10,0.5,0.5,-0.019630762481689462,-0.05075,-0.00825,-0.37525,0.015999150999118538,10,1,100,0.003175512786078391,-10,-1,-100,15011.72403323953,-0.0009024925742272664,0.0011036752922879362,0.999998983703485,21.25336685430931,0.02540433066426117,47.91021239211487,-19.801384283613253,-88.8541259765625,5356.25390625,True
1599559805.4074204,0.0,10,0.5,0.5,-0.07650213088989258,-0.05075,-0.00825,-0.37525,0.011705446058820432,10,1,100,0.010547432153063148,-10,-1,-100,15011.72403323953,-0.0009024925742272664,0.0011036752922879362,0.999998983703485,21.25336685430931,0.02540433066426117,47.91021239211487,-19.801384283613253,-88.8541259765625,5356.25390625,True
1599559805.443043,0.0,10,0.5,0.5,0.054120096588134756,-0.05075,-0.00825,-0.37525,0.021040031375888772,10,1,100,-0.0061248706535057575,-10,-1,-100,15010.951572329737,-0.0007520269796928049,0.0011877112926401343,0.9999990118981653,21.322209896477602,0.025426847584798244,48.97362169462962,-20.172782609572526,-89.15713500976562,5356.25390625,True
1599559805.473948,0.0,10,0.5,0.5,0.07041897430419922,-0.05075,-0.00825,-0.37525,0.021417774374903113,10,1,100,-0.0078755399572814,-10,-1,-100,15010.11368172546,-0.0006004994357525461,0.0012666994246082657,0.9999990174360149,21.39204531496691,0.025459897860243545,50.04553749658345,-20.544172266915606,-89.45819091796875,5356.25390625,True
1599559805.507765,0.0,10,0.5,0.5,0.16040930099487302,-0.05075,-0.00825,-0.37525,0.025175334619969267,10,1,100,-0.01747344021541327,-10,-1,-100,15008.857822123682,-0.0003766746021759121,0.0013718691512797743,0.999998988045126,21.492607327692266,0.025522855836250153,51.65511278788252,-21.10124080603346,-89.93017578125,5356.25390625,True
1599559805.541674,0.0,10,0.5,0.5,0.05169524841308593,-0.05075,-0.00825,-0.37525,0.018181310967932383,10,1,100,-0.0031291010455832104,-10,-1,-100,15008.431064891396,-0.0003048492192072526,0.0014031172349786973,0.999998969163958,21.530967394869183,0.02555480091733362,52.20639567277823,-21.28692581951091,-90.08570861816406,5356.25390625,True
1599559805.5775783,0.0,10,0.5,0.5,0.05981959953308105,-0.05075,-0.00825,-0.37525,0.01840897106392866,10,1,100,-0.003995544285126195,-10,-1,-100,15008.013096224633,-0.00023278176547564394,0.0014329497123780727,0.9999989462333306,21.571537272127006,0.025591979230623722,52.764804469551876,-21.472608706033824,-90.23712158203125,5356.25390625,True
1599559805.6074982,0.0,10,0.5,0.5,0.06610146675109863,-0.05075,-0.00825,-0.37525,0.018452528516211566,10,1,100,-0.004533763276382963,-10,-1,-100,15007.595127380802,-0.00016354362008371223,0.001459794494128284,0.9999989211261776,21.65341469602905,0.02568071211497618,53.426950078653256,-21.658289000011813,-90.38028717041016,5356.25390625,True
1599559805.6414087,0.0,10,0.5,0.5,0.2275889184951782,-0.05075,-0.00825,-0.37525,0.026094814586674196,10,1,100,-0.027735894873081916,-10,-1,-100,15005.836338821333,0.00010923591323194976,0.0015530807344438658,0.9999987880031393,22.043667556511664,0.026132784078852802,56.27150207924991,-22.400982302550556,-90.88076782226562,5356.25390625,True
1599559805.6743195,0.0,10,0.5,0.5,0.041841194725036626,-0.05075,-0.00825,-0.37525,0.01682504072190372,10,1,100,-0.000581997110821864,-10,-1,-100,15005.836338821333,0.00010923591323194976,0.0015530807344438658,0.9999987880031393,22.043667556511664,0.026132784078852802,56.27150207924991,-22.400982302550556,-90.88076782226562,5356.25390625,True
1599559805.7102313,0.0,10,0.5,0.5,0.09193846645355225,-0.05075,-0.00825,-0.37525,0.018917577928081675,10,1,100,-0.007866152576896981,-10,-1,-100,15005.35391690943,0.00017446757085936188,0.0015716553276010961,0.9999987497295175,22.138451596975372,0.02624777523434548,56.98611889978174,-22.586648513264965,-90.994140625,5356.25390625,True
1599559805.7421448,0.0,10,0.5,0.5,0.21527899837493897,-0.05075,-0.00825,-0.37525,0.023356628600508834,10,1,100,-0.028612456533719903,-10,-1,-100,15003.538487564074,0.00042139278635986615,0.0016284708910976314,0.9999985852543377,22.506034302025913,0.026712993192346497,59.85525946099313,-23.329285944283424,-91.37939453125,5356.25390625,True
1599559805.7741234,0.0,10,0.5,0.5,0.07279581661224366,-0.05075,-0.00825,-0.37525,0.01772755181073628,10,1,100,-0.004052323519728187,-10,-1,-100,15003.538487564074,0.00042139278635986615,0.0016284708910976314,0.9999985852543377,22.506034302025913,0.026712993192346497,59.85525946099313,-23.329285944283424,-91.37939453125,5356.25390625,True
1599559805.807068,0.0,10,0.5,0.5,0.16931173686981202,-0.05075,-0.00825,-0.37525,0.020386128191666724,10,1,100,-0.02250498017709258,-10,-1,-100,15002.079503703164,0.0005880774652758582,0.0016522390767438559,0.9999984621342816,22.769619163859904,0.027064647386159154,62.01637233638509,-23.88623460539212,-91.60165405273438,5356.25390625,True
1599559805.8439317,0.0,10,0.5,0.5,0.08767720851898195,-0.05075,-0.00825,-0.37525,0.018047863592257837,10,1,100,-0.005955369975596214,-10,-1,-100,15002.079503703164,0.0005880774652758582,0.0016522390767438559,0.9999984621342816,22.769619163859904,0.027064647386159154,62.01637233638509,-23.88623460539212,-91.60165405273438,5356.25390625,True
1599559805.8738804,0.0,10,0.5,0.5,0.15290157604217527,-0.05075,-0.00825,-0.37525,0.01910864238862755,10,1,100,-0.023372578084177562,-10,-1,-100,15000.61368386459,0.0007455386734743688,0.001661627638596795,0.9999983415814634,23.02000702795575,0.027411922289442617,64.17538175937814,-24.443158081727628,-91.75152587890625,5356.25390625,True
1599559805.9078252,0.0,10,0.5,0.5,0.11123196811676025,-0.05075,-0.00825,-0.37525,0.01812477557700566,10,1,100,-0.012840250999190877,-10,-1,-100,15000.125402805279,0.0007919819002525163,0.0016609834416268878,0.9999983069479049,23.100612542828948,0.027526174641708173,64.89436538040422,-24.628793745554322,-91.78250122070312,5356.25390625,True
1599559805.940734,0.0,10,0.5,0.5,0.11071502857208253,-0.05075,-0.00825,-0.37525,0.018015743310024746,10,1,100,-0.013624509964279143,-10,-1,-100,14999.637121418025,0.0008404010391282453,0.001659199302200556,0.9999982703903888,23.179329823022087,0.027638831655113872,65.6115551160794,-24.814426697749767,-91.80558013916016,5356.25390625,True
1599559805.97705,0.0,10,0.5,0.5,0.11053030529022217,-0.05075,-0.00825,-0.37525,0.01719052539026871,10,1,100,-0.01796243845301723,-10,-1,-100,14998.653722668067,0.0009229414746772434,0.0016498940990805882,0.9999982130126512,23.332267761504625,0.027860165286656684,67.0434291470238,-25.18568430007315,-91.82271575927734,5356.25390625,True
1599559806.0069458,0.0,10,0.5,0.5,0.10270943946838379,-0.05075,-0.00825,-0.37525,0.017368564524522373,10,1,100,-0.014238775931991124,-10,-1,-100,14998.164465140318,0.0009633870244747814,0.0016429653489514356,0.9999981862735069,23.406133851121297,0.027968054131661386,67.75689824204596,-25.371309031884664,-91.817626953125,5356.25390625,True
1599559806.0410833,0.0,10,0.5,0.5,0.07875067214965821,-0.05075,-0.00825,-0.37525,0.014727933968330314,10,1,100,-0.0219494146380846,-10,-1,-100,14996.570715557784,0.0010694759206086267,0.0016125790395827258,0.9999981279032958,23.61910879664305,0.028280790686071127,69.89140674619038,-25.92816694319219,-91.75508880615234,5356.25390625,True
1599559806.0740516,0.0,10,0.5,0.5,0.08744031543731691,-0.05075,-0.00825,-0.37525,0.0163176026422202,10,1,100,-0.014794935936278479,-10,-1,-100,14996.076575117651,0.001100066012214113,0.001599369451999278,0.9999981159342877,23.68739295901041,0.028381085361499518,70.60113867606015,-26.113780927623083,-91.71892547607422,5356.25390625,True
1599559806.1110158,0.0,10,0.5,0.5,0.06125571441650392,-0.05075,-0.00825,-0.37525,0.014170604204886698,10,1,100,-0.018042268371937564,-10,-1,-100,14995.028723323834,0.0011567794147015883,0.0015678690242559286,0.9999981018222528,23.820146062943305,0.02857512472462605,72.01817610070394,-26.48500057579476,-91.62494659423828,5356.25390625,True
1599559806.141934,0.0,10,0.5,0.5,0.07258196353912354,-0.05075,-0.00825,-0.37525,0.015436589223611545,10,1,100,-0.01498754773049192,-10,-1,-100,14994.476965558832,0.0011798983323785676,0.0015507963190838747,0.9999981014335487,23.8846604747566,0.028668627385579883,72.72546064767484,-26.67060656378959,-91.56827545166016,5356.25390625,True
1599559806.1748455,0.0,10,0.5,0.5,0.006499242782592771,-0.05075,-0.00825,-0.37525,0.01036709537335794,10,1,100,-0.019436000525655483,-10,-1,-100,14992.874426604132,0.0012408179912526695,0.0014892815909775747,0.9999981212037626,24.072076193094006,0.028935060413450717,74.84554030146668,-27.22740827648405,-91.36329650878906,5356.25390625,True
1599559806.2078016,0.0,10,0.5,0.5,0.08322094612121582,-0.05075,-0.00825,-0.37525,0.01650227243541131,10,1,100,-0.013409308690842968,-10,-1,-100,14992.874426604132,0.0012408179912526695,0.0014892815909775747,0.9999981212037626,24.072076193094006,0.028935060413450717,74.84554030146668,-27.22740827648405,-91.36329650878906,5356.25390625,True
1599559806.244703,0.0,10,0.5,0.5,0.01433933181762697,-0.05075,-0.00825,-0.37525,0.01125096567931081,10,1,100,-0.01667330016242516,-10,-1,-100,14991.762121748994,0.0012700403870690728,0.0014416991168744967,0.9999981542488325,24.192621225617238,0.029100548585110585,76.2590375153478,-27.598596258357627,-91.20235443115234,5356.25390625,True
1599559806.2746236,0.0,10,0.5,0.5,-0.037003953361511216,-0.05075,-0.00825,-0.37525,0.007192253717310221,10,1,100,-0.0166638179769856,-10,-1,-100,14990.092199595994,0.0012960854011374284,0.0013617442901487408,0.9999982329059993,24.369208457389657,0.029331390717995055,78.38596100327018,-28.15535854741261,-90.9411849975586,5356.25390625,True
1599559806.3085327,0.0,10,0.5,0.5,0.06028675060272217,-0.05075,-0.00825,-0.37525,0.015157990888680629,10,1,100,-0.01410488500635096,-10,-1,-100,14990.092199595994,0.0012960854011374284,0.0013617442901487408,0.9999982329059993,24.369208457389657,0.029331390717995055,78.38596100327018,-28.15535854741261,-90.9411849975586,5356.25390625,True
1599559806.3404465,0.0,10,0.5,0.5,-0.022444342231750486,-0.05075,-0.00825,-0.37525,0.008595280891851652,10,1,100,-0.01489715652309543,-10,-1,-100,14988.920324611361,0.0013029486477201416,0.0013023452445493245,0.9999983031094031,24.484501178652714,0.02947325804021671,79.8092191623554,-28.526520049354495,-90.74868774414062,5356.25390625,True
1599559806.3763509,0.0,10,0.5,0.5,-0.07432325115203857,-0.05075,-0.00825,-0.37525,0.00391985702955254,10,1,100,-0.013540159159474562,-10,-1,-100,14987.236730524222,0.0012965429307412863,0.001206151913532956,0.999998432085766,24.65580764990134,0.029668886195272966,81.95816935347823,-29.08324240173997,-90.45941162109375,5356.25390625,True
1599559806.4072676,0.0,10,0.5,0.5,-0.05234228096008301,-0.05075,-0.00825,-0.37525,0.00585373547244769,10,1,100,-0.012551484699579398,-10,-1,-100,14986.056066354155,0.001281525177479523,0.0011366536231135313,0.999998532854804,24.769708990189795,0.02978845506157283,83.40267514170885,-29.454377194968828,-90.25870513916016,5356.25390625,True
1599559806.4411776,0.0,10,0.5,0.5,0.021768144607543945,-0.05075,-0.00825,-0.37525,0.012757292931501586,10,1,100,-0.014071405942282266,-10,-1,-100,14986.056066354155,0.001281525177479523,0.0011366536231135313,0.999998532854804,24.769708990189795,0.02978845506157283,83.40267514170885,-29.454377194968828,-90.25870513916016,5356.25390625,True
1599559806.4742422,0.0,10,0.5,0.5,-0.060664058303833,-0.05075,-0.00825,-0.37525,0.004923484238825393,10,1,100,-0.011587112415693913,-10,-1,-100,14984.877354941797,0.0012588272856352853,0.0010658291944538772,0.9999986396800714,24.885869659638193,0.0299019058803633,84.86518493726336,-29.825501141951456,-90.0678482055664,5356.25390625,True
1599559806.510114,0.0,10,0.5,0.5,-0.10107625770568847,-0.05075,-0.00825,-0.37525,-0.0007038870892888908,10,1,100,-0.008390279712802876,-10,-1,-100,14983.013096570154,0.0012090589694294628,0.0009507263082573617,0.9999988171472481,25.16134637057746,0.030177831974174143,87.43042783837315,-30.382164085828716,-89.80776977539062,5356.25390625,True
1599559806.5410554,0.0,10,0.5,0.5,-0.004765136337280275,-0.05075,-0.00825,-0.37525,0.01075254600209063,10,1,100,-0.01336393543120281,-10,-1,-100,14983.013096570154,0.0012090589694294628,0.0009507263082573617,0.9999988171472481,25.16134637057746,0.030177831974174143,87.43042783837315,-30.382164085828716,-89.80776977539062,5356.25390625,True
1599559806.5751538,0.0,10,0.5,0.5,-0.07460002059936523,-0.05075,-0.00825,-0.37525,0.0021445888080196575,10,1,100,-0.008671761304523542,-10,-1,-100,14981.823643419193,0.0011664317128431269,0.0008729617476591894,0.9999989386868601,25.345803233715777,0.030352578103738644,89.16384892786418,-30.75325673950303,-89.6468505859375,5356.25390625,True
1599559806.6389487,0.0,10,0.5,0.5,-0.04660855388641357,-0.05075,-0.00825,-0.37525,0.00557625549123765,10,1,100,-0.010337145110572012,-10,-1,-100,14981.195713697234,0.001142913703887104,0.0008339806963893921,0.999998999111731,25.436954278302583,0.030435719010518492,90.03290614173343,-30.938798317562263,-89.57382202148438,5356.25390625,True
1599559806.6808362,0.0,10,0.5,0.5,-0.1245055721282959,-0.05075,-0.00825,-0.37525,-0.008646760451025328,10,1,100,-9.786634786373115e-05,-10,-1,-100,14978.695712934947,0.001028588590354508,0.0006697230172087851,0.9999992467380123,25.790618856346775,0.030737906161131232,93.51011655415512,-31.680932476532394,-89.32928466796875,5356.25390625,True
1599559806.7326972,0.0,10,0.5,0.5,-0.05575756244659424,-0.05075,-0.00825,-0.37525,0.0030383343821411505,10,1,100,-0.00786879891198193,-10,-1,-100,14978.011142247356,0.0009955446893721164,0.0006272550994124193,0.9999993077206663,25.876750504653483,0.030806802347056107,94.38096298533407,-31.866457962201704,-89.27838134765625,5356.25390625,True
1599559806.774586,0.0,10,0.5,0.5,-0.08957203617095946,-0.05075,-0.00825,-0.37525,-0.006353002842277326,10,1,100,0.00047237264717632857,-10,-1,-100,14976.131259145914,0.0008899554051760924,0.0005038858267802252,0.9999994770390884,26.129901638045357,0.030999107382430724,96.99718198371026,-32.42301536909147,-89.15701293945312,5356.25390625,True
1599559806.8144777,0.0,10,0.5,0.5,-0.05686846179962158,-0.05075,-0.00825,-0.37525,0.0011315782890494574,10,1,100,-0.005671120463158095,-10,-1,-100,14975.438876368338,0.0008501847092059883,0.0004604120129327946,0.99999953260326,26.21153120883869,0.031057641648560928,97.86654173226816,-32.60852810059532,-89.12939453125,5356.25390625,True
1599559806.8482919,0.0,10,0.5,0.5,-0.06483098869323731,-0.05075,-0.00825,-0.37525,-0.003791046225749527,10,1,100,-0.0007153476644942373,-10,-1,-100,14974.128328978317,0.0007693691787619255,0.00037675399712803126,0.9999996330636789,26.371618336160672,0.031168239025999966,99.60429297906381,-32.97954429868785,-89.08856201171875,5356.25390625,True
1599559806.877214,0.0,10,0.5,0.5,-0.05961329708099365,-0.05075,-0.00825,-0.37525,-0.009300126041922367,10,1,100,0.005714106639389269,-10,-1,-100,14972.113679998321,0.0006379165265035798,0.00025130952954575286,0.9999997649529851,26.60353800234908,0.031319357910998664,102.20641663774722,-33.53604500673099,-89.06710815429688,5356.25390625,True
