Timestamp,Input Throttle,horizon,dT,dt,Input Roll,Roll P,Roll I,Roll D,Input Pitch,Pitch P,Pitch I,Pitch D,Input Yaw,Yaw P,Yaw I,Yaw D,Altitude,Direction X,Direction Y,Direction Z,Drag X,Drag Y,Drag Z,Vertical Velocity,Roll,Mass,Has Fuel
1599562342.2597907,0.0,10,0.5,0.5,-8.745723167419433,-0.15025,-0.0155,-0.12575,-0.0003013222333775601,10,1,100,0.1749076935031908,-10,-1,-100,14995.09940060752,-0.016809061085667033,-7.422652729252581e-05,0.9998587149971945,28.50856513932619,0.027123710766134578,-85.88476327291797,26.63768193870937,-31.793060302734375,5356.25390625,True
1599562342.299691,0.0,10,0.5,0.5,-8.835965057373047,-0.15025,-0.0155,-0.12575,-0.00048260161832294166,10,1,100,0.17369329164143035,-10,-1,-100,14995.64041771961,-0.016844713582723336,-7.179846995314791e-05,0.9998581151689953,28.43606321551357,0.02728666185063835,-85.06988338570184,26.451722421814942,-31.792510986328125,5356.25390625,True
1599562342.3361623,0.0,10,0.5,0.5,-8.926437657165527,-0.15025,-0.0155,-0.12575,-0.0001524921748744905,10,1,100,0.17997236251231724,-10,-1,-100,14996.663858898217,-0.016918894030161925,-6.652487882240649e-05,0.9998568630555258,28.291216544759003,0.02760808618228051,-83.44971029694574,26.079814782919833,-31.791351318359375,5356.25390625,True
1599562342.3750274,0.0,10,0.5,0.5,-8.870041845703126,-0.15025,-0.0155,-0.12575,0.016529192986395238,10,1,100,0.18183752289125846,-10,-1,-100,14998.711714080884,-0.01698790599125087,8.998145537964909e-05,0.9998556910641506,28.026143982924484,0.02825024820801492,-80.3163533026632,25.33604564207509,-32.322052001953125,5356.25390625,True
1599562342.4099662,0.0,10,0.5,0.5,-8.944038627624511,-0.15025,-0.0155,-0.12575,0.007642411192993546,10,1,100,0.17722815440951473,-10,-1,-100,14999.190230023349,-0.016993297236960195,0.00015138921430024816,0.9998555920383314,27.971883140184552,0.02841378644154864,-79.57410573771772,25.150112230786295,-32.619659423828125,5356.25390625,True
1599562342.448831,0.0,10,0.5,0.5,-8.969378607177733,-0.15025,-0.0155,-0.12575,0.009619021510215195,10,1,100,0.17814960403100652,-10,-1,-100,14999.732222406776,-0.016991126732130452,0.00022504600782617118,0.999855615059828,27.92259972708435,0.02857716466052272,-78.8481794178314,24.96418217267201,-32.985687255859375,5356.25390625,True
1599562342.4877522,0.0,10,0.5,0.5,-8.844902449035644,-0.15025,-0.0155,-0.12575,0.022478286823583903,10,1,100,0.17670093176918694,-10,-1,-100,15000.69315873331,-0.01696053731923948,0.0004087045538732475,0.9998560762101865,27.837480509659173,0.02889849178749986,-77.43989927408602,24.592331253940134,-33.92364501953125,5356.25390625,True
1599562342.5276456,0.0,10,0.5,0.5,-8.891891058349609,-0.15025,-0.0155,-0.12575,0.016392798862888046,10,1,100,0.17852010681955674,-10,-1,-100,15001.172649652814,-0.016933848046779013,0.0005199727010425606,0.9998564769099206,27.800733235333624,0.02905360457980189,-76.75446267659886,24.40641050772403,-34.49566650390625,5356.25390625,True
1599562342.5695426,0.0,10,0.5,0.5,-8.46247850036621,-0.15025,-0.0155,-0.12575,0.050112595116034546,10,1,100,0.1677163287459341,-10,-1,-100,15002.61209775845,-0.016795974500194037,0.0009271964619514112,0.9998585077636285,27.70654633749906,0.029476149123925176,-74.75061596366535,23.84866510832386,-36.62384033203125,5356.25390625,True
1599562342.8527505,0.0,10,0.5,0.5,-8.579095275878906,-0.15025,-0.0155,-0.12575,0.026936602147112253,10,1,100,0.1759581898148762,-10,-1,-100,15003.092563937418,-0.01673029185437972,0.001085866129912935,0.999859449237349,27.67801874074977,0.02959600347640956,-74.09294342809928,23.662755486123533,-37.470703125,5356.25390625,True
1599562342.8866913,0.0,10,0.5,0.5,-8.51433155822754,-0.15025,-0.0155,-0.12575,0.03005795496166436,10,1,100,0.1759579481094507,-10,-1,-100,15003.57205363852,-0.016655368804631584,0.0012575000662557823,0.9998604989615126,27.649457665668027,0.029701537026836804,-73.43636121645075,23.47684869502767,-38.386199951171875,5356.25390625,True
1599562342.9225943,0.0,10,0.5,0.5,-7.747369706726075,-0.15025,-0.0155,-0.12575,0.075916256583619,10,1,100,0.1510868233318458,-10,-1,-100,15004.948996477062,-0.01636129552713781,0.0018292139080456416,0.9998644718086308,27.55343302726371,0.029906852004554188,-71.44688986393786,22.919145233696646,-41.545135498046875,5356.25390625,True
1599562342.957023,0.0,10,0.5,0.5,-7.453403834533692,-0.15025,-0.0155,-0.12575,0.06650073715696622,10,1,100,0.1525570646079219,-10,-1,-100,15005.847425538115,-0.016107761484703786,0.002261629939995944,0.9998677037738374,27.469132344516584,0.029923650640863813,-70.0754764226038,22.547357842617288,-43.994720458984375,5356.25390625,True
1599562343.047778,0.0,10,0.5,0.5,-7.742523921203613,-0.15025,-0.0155,-0.12575,0.0234919494438178,10,1,100,0.17782935559677857,-10,-1,-100,15005.847425538115,-0.016107761484703786,0.002261629939995944,0.9998677037738374,27.469132344516584,0.029923650640863813,-70.0754764226038,22.547357842617288,-43.994720458984375,5356.25390625,True
1599562343.1195886,0.0,10,0.5,0.5,-6.144439097595215,-0.15025,-0.0155,-0.12575,0.12510404066835062,10,1,100,0.10415053255324905,-10,-1,-100,15007.639396892278,-0.01543875413385947,0.0031834019979602277,0.9998757476919389,27.202956165394838,0.029569677969318663,-67.11307199536614,21.80382528266856,-49.719329833984375,5356.25390625,True
1599562343.15449,0.0,10,0.5,0.5,-5.933998573303223,-0.15025,-0.0155,-0.12575,0.08964487525733864,10,1,100,0.125417789576867,-10,-1,-100,15008.473369311308,-0.015025317554309437,0.0036962641716606856,0.999880281565531,26.996115336219937,0.0291602660668282,-65.46978217410664,21.432084147537612,-52.993988037109375,5356.25390625,True
1599562343.1864054,0.0,10,0.5,0.5,-5.8342671401977535,-0.15025,-0.0155,-0.12575,0.06442300951984242,10,1,100,0.14139148063356494,-10,-1,-100,15008.891331368242,-0.014796468590850135,0.0039300571699894685,0.9998828027163387,26.868218583912114,0.02889110981181109,-64.59582114358204,21.24622111188756,-54.734954833984375,5356.25390625,True
1599562343.2242732,0.0,10,0.5,0.5,-5.003026150512695,-0.15025,-0.0155,-0.12575,0.09554351829979435,10,1,100,0.10953934973071862,-10,-1,-100,15009.786825846182,-0.01430082658743252,0.004422308745909638,0.9998879584954866,26.554201186440963,0.028219870114095356,-62.72652336388354,20.87451223073557,-58.42303466796875,5356.25390625,True
1599562343.2602103,0.0,10,0.5,0.5,-5.429714768981933,-0.15025,-0.0155,-0.12575,0.04670859431226415,10,1,100,0.1588402479265454,-10,-1,-100,15009.786825846182,-0.01430082658743252,0.004422308745909638,0.9998879584954866,26.554201186440963,0.028219870114095356,-62.72652336388354,20.87451223073557,-58.42303466796875,5356.25390625,True
1599562343.2951212,0.0,10,0.5,0.5,-3.1320993576049805,-0.15025,-0.0155,-0.12575,0.15523404474100688,10,1,100,0.031685603970676934,-10,-1,-100,15011.390312504373,-0.013147143595027135,0.0054057263750037,0.999898960264311,25.63876869229403,0.026357316241993545,-58.41257925517783,20.131176819379494,-66.62530517578125,5356.25390625,True
1599562343.3270276,0.0,10,0.5,0.5,-4.118345240783691,-0.15025,-0.0155,-0.12575,0.057324267856109674,10,1,100,0.14669558838528018,-10,-1,-100,15011.390312504373,-0.013147143595027135,0.0054057263750037,0.999898960264311,25.63876869229403,0.026357316241993545,-58.41257925517783,20.131176819379494,-66.62530517578125,5356.25390625,True
1599562343.3639383,0.0,10,0.5,0.5,-2.1770493591308595,-0.15025,-0.0155,-0.12575,0.13473013630113317,10,1,100,0.03639178276219865,-10,-1,-100,15012.57778983342,-0.012147571021371489,0.006105644973314143,0.9999075745376372,24.635866210314234,0.024573630839521746,-54.57758717440139,19.573764053947986,-73.50039672851562,5356.25390625,True
1599562343.3998032,0.0,10,0.5,0.5,-2.3215519454956057,-0.15025,-0.0155,-0.12575,0.0908762696924424,10,1,100,0.0958032208255539,-10,-1,-100,15012.995751003502,-0.011782803322720282,0.006339375428912567,0.9999104849260405,24.230267635844974,0.023927288280049714,-53.170933127704316,19.387979124275038,-75.92977905273438,5356.25390625,True
1599562343.4357364,0.0,10,0.5,0.5,-1.1793624954223632,-0.15025,-0.0155,-0.12575,0.1145123485317507,10,1,100,0.0498243128723842,-10,-1,-100,15013.701790864463,-0.011037138031792173,0.006763024063914922,0.9999162180350801,23.29932548545876,0.022589220692760148,-50.1510233130127,19.016440032922084,-80.99566650390625,5356.25390625,True
1599562343.4686544,0.0,10,0.5,0.5,-0.28471886138916025,-0.15025,-0.0155,-0.12575,0.11513773475314822,10,1,100,0.038082208704130135,-10,-1,-100,15014.474236879498,-0.010257123750739684,0.007149752339453478,0.9999218331718966,22.23521811235729,0.02126676252946358,-46.928246423458134,18.64494110526753,-86.33743286132812,5356.25390625,True
1599562343.5055208,0.0,10,0.5,0.5,-0.13397490844726562,-0.15025,-0.0155,-0.12575,0.09691089391980846,10,1,100,0.07064754423334443,-10,-1,-100,15014.827745102928,-0.009848778936760387,0.007332019172965901,0.9999246186829797,21.63992994710433,0.020615363741001747,-45.218204899621284,18.45920604962893,-89.11175537109375,5356.25390625,True
1599562343.5420384,0.0,10,0.5,0.5,1.9568288360595703,-0.15025,-0.0155,-0.12575,0.12979808167212598,10,1,100,-0.023845934734306184,-10,-1,-100,15015.949794728425,-0.00862323069581652,0.007793385496633439,0.9999324492358809,22.03470034410559,0.021046817583177727,-44.657190875900156,17.902021457887773,-97.74832153320312,5356.25390625,True
1599562343.5799327,0.0,10,0.5,0.5,1.7453081100463868,-0.15025,-0.0155,-0.12575,0.0987568273708915,10,1,100,0.05122907702975957,-10,-1,-100,15016.305257125874,-0.008197208072718178,0.007927104089659394,0.9999349812865655,22.528128523627714,0.021626494355323114,-45.18481184973694,17.7162883326738,-100.67533874511719,5356.25390625,True
1599562343.6158464,0.0,10,0.5,0.5,2.253973715209961,-0.15025,-0.0155,-0.12575,0.09893401397535775,10,1,100,0.04614522116699567,-10,-1,-100,15016.659742799704,-0.0077692466516170264,0.008047091056683818,0.9999374396090945,22.981661703094,0.022204125670878885,-45.61249726322992,17.53055143746807,-103.61463928222656,5356.25390625,True
1599562343.6497505,0.0,10,0.5,0.5,3.5414078712463377,-0.15025,-0.0155,-0.12575,0.10944253996742871,10,1,100,-0.0016448005197952226,-10,-1,-100,15017.305238482426,-0.006951673871586804,0.008248406915442328,0.9999418173142577,23.752507436515582,0.023302868774212847,-46.14593995848376,17.159066407365465,-109.36465454101562,5356.25390625,True
1599562343.6876173,0.0,10,0.5,0.5,3.65283352355957,-0.15025,-0.0155,-0.12575,0.09891120165629527,10,1,100,0.03228732418098784,-10,-1,-100,15017.658748585265,-0.006522531995860484,0.008333097638266633,0.9999440064624189,24.05897880379467,0.023794123182606427,-46.2365667532182,16.973318278655295,-112.14814758300781,5356.25390625,True
1599562343.7255478,0.0,10,0.5,0.5,4.854279652404784,-0.15025,-0.0155,-0.12575,0.10508623009636887,10,1,100,-0.018203972859615697,-10,-1,-100,15018.364792928565,-0.005679413600830313,0.008463564580050069,0.9999480548187241,24.556946009388877,0.0246573571259575,-46.16289215648739,16.601813196540437,-117.51376342773438,5356.25390625,True
1599562343.7634785,0.0,10,0.5,0.5,5.65314801864624,-0.15025,-0.0155,-0.12575,0.10229036664869279,10,1,100,-0.023826514498363843,-10,-1,-100,15019.009314476047,-0.004867708460832939,0.008554610387050013,0.9999515608545576,24.967568357817232,0.025378253882863175,-45.8866383895162,16.23029902330968,-122.60569763183594,5356.25390625,True
1599562343.8023639,0.0,10,0.5,0.5,7.050918486785888,-0.15025,-0.0155,-0.12575,0.09954849427256854,10,1,100,-0.07592347580051462,-10,-1,-100,15019.943872416508,-0.0036624724079629438,0.008610439340032344,0.9999562223568752,25.28391862727372,0.025966087559621754,-44.87553588531258,15.673023885795963,-129.72792053222656,5356.25390625,True
1599562343.8432372,0.0,10,0.5,0.5,6.8480731475830074,-0.15025,-0.0155,-0.12575,0.094468528459305,10,1,100,0.001459731161406283,-10,-1,-100,15020.235861059162,-0.0032769912101202558,0.008613331957826506,0.9999575350189592,25.31953009150066,0.02603063700890164,-44.40709072903231,15.48726740080761,-131.96429443359375,5356.25390625,True
1599562343.8811705,0.0,10,0.5,0.5,7.815034876251221,-0.15025,-0.0155,-0.12575,0.0924838230372444,10,1,100,-0.043499532772987216,-10,-1,-100,15020.879409608198,-0.0025241787513511616,0.008596588306876672,0.9999598627900588,25.300941438525022,0.02597367283867624,-43.3119055338241,15.115761526194289,-136.23046875,5356.25390625,True
1599562343.9210708,0.0,10,0.5,0.5,8.452956897735596,-0.15025,-0.0155,-0.12575,0.09142141680938534,10,1,100,-0.04665387957300096,-10,-1,-100,15021.463388998993,-0.0018177866362749594,0.00857055895927455,0.9999616198489173,25.178295364303487,0.025691528190572414,-42.04447308204952,14.744269501929175,-140.2209014892578,5356.25390625,True
1599562343.959686,0.0,10,0.5,0.5,9.526527513885497,-0.15025,-0.0155,-0.12575,0.08323347250747562,10,1,100,-0.0882534453904924,-10,-1,-100,15022.333500979003,-0.0008036208824644367,0.00847175353738013,0.9999637911371987,24.839084454260174,0.02492720632489625,-39.91316490352607,14.187066257274953,-145.6902313232422,5356.25390625,True
1599562343.9975572,0.0,10,0.5,0.5,9.819745932769775,-0.15025,-0.0155,-0.12575,0.08521578259112272,10,1,100,-0.055989778156698304,-10,-1,-100,15022.854006065987,-0.0001816795240259566,0.008399456291465886,0.9999647074404968,24.569698887644805,0.024285308485579363,-38.44836841431009,13.815624213007135,-148.99172973632812,5356.25390625,True
1599562344.036453,0.0,10,0.5,0.5,9.901989263153075,-0.15025,-0.0155,-0.12575,0.08800596109388129,10,1,100,-0.027328379133776753,-10,-1,-100,15023.145020975382,0.00011626574968465561,0.008358776449537303,0.9999650580588014,24.428837262237714,0.023939762481432487,-37.71493350879924,13.629911481316368,-150.53909301757812,5356.25390625,True
1599562344.0694,0.0,10,0.5,0.5,10.938206371307373,-0.15025,-0.0155,-0.12575,0.08012598549791491,10,1,100,-0.08961292003803578,-10,-1,-100,15023.951660186169,0.000946922788895502,0.008250058297335175,0.9999655193432034,23.95300857039237,0.022808467247176313,-35.47127590609647,13.072806824709122,-154.76727294921875,5356.25390625,True
1599562344.1092596,0.0,10,0.5,0.5,10.47257238922119,-0.15025,-0.0155,-0.12575,0.09098949678403462,10,1,100,-0.007294161595426739,-10,-1,-100,15023.951660186169,0.000946922788895502,0.008250058297335175,0.9999655193432034,23.95300857039237,0.022808467247176313,-35.47127590609647,13.072806824709122,-154.76727294921875,5356.25390625,True
1599562344.148764,0.0,10,0.5,0.5,11.81982021179199,-0.15025,-0.0155,-0.12575,0.07623571021328118,10,1,100,-0.11491115415424227,-10,-1,-100,15024.925293606473,0.0019192351427122561,0.00811612706149443,0.9999652219042363,23.25877433255047,0.021225521408482825,-32.48940916642953,12.3300760187835,-159.43939208984375,5356.25390625,True
1599562344.1876621,0.0,10,0.5,0.5,11.82003310470581,-0.15025,-0.0155,-0.12575,0.08050099990742204,10,1,100,-0.06620704012834885,-10,-1,-100,15025.442872854299,0.0023542208426706878,0.008033545374609175,0.999964959282543,22.914895646148143,0.020458589719922805,-31.046545342051896,11.95873993057964,-161.36199951171875,5356.25390625,True
1599562344.226557,0.0,10,0.5,0.5,12.081584542846679,-0.15025,-0.0155,-0.12575,0.08576729536996769,10,1,100,-0.06602674331915631,-10,-1,-100,15025.897952896426,0.0027425536050487537,0.008006870976159743,0.999964183567039,22.591214168538396,0.01973401494476746,-29.659029250195974,11.58742054582191,-163.00796508789062,5356.25390625,True
1599562344.2666805,0.0,10,0.5,0.5,12.300967056274413,-0.15025,-0.0155,-0.12575,0.08375500955451923,10,1,100,-0.06714992593386077,-10,-1,-100,15026.354009145172,0.003100321826603246,0.007964879343775879,0.9999634736837195,22.286692635501606,0.019053545541039798,-28.32298710854263,11.216115812896861,-164.37841796875,5356.25390625,True
1599562344.305544,0.0,10,0.5,0.5,12.47430538482666,-0.15025,-0.0155,-0.12575,0.0856091630899612,10,1,100,-0.0668652516731958,-10,-1,-100,15026.808113236446,0.0034178645342122353,0.007944135354624658,0.999962603758507,22.007927841761298,0.01842281274507445,-27.044102598888525,10.844823577264982,-165.4727783203125,5356.25390625,True
1599562344.345048,0.0,10,0.5,0.5,12.60169716720581,-0.15025,-0.0155,-0.12575,0.08722413201349924,10,1,100,-0.06669632100395145,-10,-1,-100,15027.200694340514,0.003700244306708652,0.007940528194341757,0.9999616273658032,21.76048830247798,0.017844145950504653,-25.82573229619595,10.473541568941556,-166.2911376953125,5356.25390625,True
1599562344.3829496,0.0,10,0.5,0.5,12.53071988067627,-0.15025,-0.0155,-0.12575,0.08753172550748547,10,1,100,-0.038908730273227075,-10,-1,-100,15027.200694340514,0.003700244306708652,0.007940528194341757,0.9999616273658032,21.76048830247798,0.017844145950504653,-25.82573229619595,10.473541568941556,-166.2911376953125,5356.25390625,True
1599562344.4238405,0.0,10,0.5,0.5,12.707233303833007,-0.15025,-0.0155,-0.12575,0.08870523063363658,10,1,100,-0.06622696046713167,-10,-1,-100,15027.59034515277,0.003945062832261662,0.007951613630122334,0.9999606033839167,21.5486234769387,0.017317193819927187,-24.668788385261678,10.102267776025176,-166.83352661132812,5356.25390625,True
1599562344.4643426,0.0,10,0.5,0.5,12.737815763854979,-0.15025,-0.0155,-0.12575,0.09047676944375614,10,1,100,-0.06496846707262374,-10,-1,-100,15027.984879555297,0.004152703554557439,0.007978166345305232,0.9999595511394221,21.382561607505792,0.01684537211360426,-23.58006268987548,9.73100000485088,-167.09994506835938,5356.25390625,True
1599562344.5052319,0.0,10,0.5,0.5,12.72084346923828,-0.15025,-0.0155,-0.12575,0.09112814695012741,10,1,100,-0.06364492310778222,-10,-1,-100,15028.376483391505,0.004326521283540802,0.008008473965485815,0.9999585719210207,21.26477965287071,0.016425298871352335,-22.55640586545414,9.359736072700699,-167.090576171875,5356.25390625,True
1599562344.5431309,0.0,10,0.5,0.5,12.507413865661622,-0.15025,-0.0155,-0.12575,0.10119908808168279,10,1,100,-0.07210225826926195,-10,-1,-100,15029.0971916673,0.004558349903634906,0.008127799979874893,0.9999565792141394,21.16251176711026,0.01571207157321646,-20.668669321918642,8.617212009951114,-166.24380493164062,5356.25390625,True
1599562344.5820274,0.0,10,0.5,0.5,12.62444218902588,-0.15025,-0.0155,-0.12575,0.08926765393461306,10,1,100,-0.04918330773594377,-10,-1,-100,15029.0971916673,0.004558349903634906,0.008127799979874893,0.9999565792141394,21.16251176711026,0.01571207157321646,-20.668669321918642,8.617212009951114,-166.24380493164062,5356.25390625,True
1599562344.6189284,0.0,10,0.5,0.5,12.400936477661133,-0.15025,-0.0155,-0.12575,0.09782988025271636,10,1,100,-0.05600742565041909,-10,-1,-100,15029.426295640063,0.00461838358552926,0.008205552714943772,0.9999556687362192,21.175046904012916,0.015409198495130776,-19.79059779239669,8.245948206842396,-165.40658569335938,5356.25390625,True
1599562344.6538355,0.0,10,0.5,0.5,12.0205501373291,-0.15025,-0.0155,-0.12575,0.10564936943302658,10,1,100,-0.05170677258587843,-10,-1,-100,15029.91751008958,0.0046321575139551385,0.008347142665064861,0.9999544331248775,21.264831670154024,0.01500997120439751,-18.533181365675073,7.689045907999029,-163.63345336914062,5356.25390625,True
1599562344.6957235,0.0,10,0.5,0.5,12.041170176696777,-0.15025,-0.0155,-0.12575,0.09714096003996496,10,1,100,-0.04901570481040352,-10,-1,-100,15030.08255009912,0.004618822436667664,0.008398164113127755,0.9999540676045212,21.311461028703032,0.014889915777386008,-18.125678802864126,7.503409540069499,-162.90447998046875,5356.25390625,True
1599562344.7336218,0.0,10,0.5,0.5,11.411095999145507,-0.15025,-0.0155,-0.12575,0.110501380363606,10,1,100,-0.03855767113247398,-10,-1,-100,15030.511263511376,0.0045105348257865495,0.00856559286089212,0.9999531417494157,21.49056989976578,0.014564462136251956,-16.922138688431488,6.9464915664135995,-160.30389404296875,5356.25390625,True
1599562344.7705233,0.0,10,0.5,0.5,11.155192724609375,-0.15025,-0.0155,-0.12575,0.10680948039218759,10,1,100,-0.03635415487340836,-10,-1,-100,15030.775912957964,0.004391322949431233,0.00868366984578633,0.9999526539595578,21.633187849840507,0.014374556639534191,-16.124405383760436,6.575205221456096,-158.2254638671875,5356.25390625,True
1599562344.8114145,0.0,10,0.5,0.5,11.088710385131835,-0.15025,-0.0155,-0.12575,0.10131131616896524,10,1,100,-0.03982691582814679,-10,-1,-100,15030.878452489735,0.004313890817203365,0.008740353664886822,0.9999524971536549,21.708130947801916,0.014287232977426588,-15.72363750133042,6.389559535909365,-157.08291625976562,5356.25390625,True
1599562344.8513076,0.0,10,0.5,0.5,10.882901939392088,-0.15025,-0.0155,-0.12575,0.10205537092084306,10,1,100,-0.03804587644318834,-10,-1,-100,15030.980992293684,0.00422697140441937,0.008797931507236373,0.9999523634223483,21.783802881693543,0.014204718119270118,-15.32020805416802,6.203912341563665,-155.87142944335938,5356.25390625,True
1599562344.888209,0.0,10,0.5,0.5,9.490210676574707,-0.15025,-0.0155,-0.12575,0.12082893277910392,10,1,100,0.002467399226316405,-10,-1,-100,15031.447789650876,0.003779583734120366,0.009020198503391126,0.9999521742392264,22.06540492385518,0.013923401947392888,-13.661399429213885,5.461309158308703,-150.33653259277344,5356.25390625,True
1599562344.9261086,0.0,10,0.5,0.5,9.730816101074218,-0.15025,-0.0155,-0.12575,0.10433872532894053,10,1,100,-0.02715289789310251,-10,-1,-100,15031.548375251936,0.003642640314524553,0.009071428682586775,0.9999522190350877,22.122141701708635,0.013865064976485332,-13.231074006151893,5.275655143128267,-148.7805938720703,5356.25390625,True
1599562344.964009,0.0,10,0.5,0.5,9.450957955169677,-0.15025,-0.0155,-0.12575,0.10472256338068728,10,1,100,-0.024603824473161028,-10,-1,-100,15031.650914218044,0.0034958053652462645,0.009120633165323506,0.9999522955598992,22.169550262250176,0.013810897410207676,-12.792961716064768,5.090000085365865,-147.15577697753906,5356.25390625,True
1599562345.0009074,0.0,10,0.5,0.5,8.671863256835936,-0.15025,-0.0155,-0.12575,0.10768070489617672,10,1,100,-0.003998721653782893,-10,-1,-100,15031.853061878588,0.0031759658807610997,0.009191354133238213,0.9999527150070255,22.227925636507777,0.01371211152335736,-11.891208860445806,4.71868681159394,-143.6998748779297,5356.25390625,True
1599562345.0348191,0.0,10,0.5,0.5,8.042906003570558,-0.15025,-0.0155,-0.12575,0.1082440762725906,10,1,100,0.003542820321463719,-10,-1,-100,15032.055208766018,0.002817954529367588,0.00925987129711144,0.999953155860729,22.22159704066733,0.013616981197917103,-10.952589983268302,4.347369447894955,-139.9683837890625,5356.25390625,True
1599562345.0767055,0.0,10,0.5,0.5,7.932038824462891,-0.15025,-0.0155,-0.12575,0.10409491941455057,10,1,100,-0.010965768693521841,-10,-1,-100,15032.093294099788,0.002626035203677526,0.00928361026680306,0.9999534581766909,22.187658427493957,0.013565881054765845,-10.468936549402992,4.161708783161675,-137.9994659423828,5356.25390625,True
1599562345.1136065,0.0,10,0.5,0.5,5.7774700378417965,-0.15025,-0.0155,-0.12575,0.10441451037423553,10,1,100,0.062385924799009604,-10,-1,-100,15032.43313383509,0.0017865411369662654,0.009307291569652872,0.9999550902887606,21.790268996923945,0.013287038308391274,-8.447020643180053,3.419047160786161,-129.43585205078125,5356.25390625,True
1599562345.151505,0.0,10,0.5,0.5,6.806499019622803,-0.15025,-0.0155,-0.12575,0.10212054996013038,10,1,100,-0.021291082503234415,-10,-1,-100,15032.43313383509,0.0017865411369662654,0.009307291569652872,0.9999550902887606,21.790268996923945,0.013287038308391274,-8.447020643180053,3.419047160786161,-129.43585205078125,5356.25390625,True
1599562345.1904016,0.0,10,0.5,0.5,4.0946380912780755,-0.15025,-0.0155,-0.12575,0.09017344343657041,10,1,100,0.08035166739955608,-10,-1,-100,15032.648948381771,0.0008648841213158653,0.009198114581507903,0.9999573224211132,20.877630768933784,0.012782213334042591,-6.335369526698178,2.6763346582102443,-119.7719497680664,5356.25390625,True
1599562345.2302947,0.0,10,0.5,0.5,4.537760829925538,-0.15025,-0.0155,-0.12575,0.09639510236772322,10,1,100,0.016161362533714904,-10,-1,-100,15032.687032784685,0.0006136977937739556,0.0091550071635533,0.9999579037233783,20.55117422049553,0.01260027595851541,-5.803661275589954,2.490644960821949,-117.18397521972656,5356.25390625,True
1599562345.2697024,0.0,10,0.5,0.5,4.069998578262329,-0.15025,-0.0155,-0.12575,0.09457273552360959,10,1,100,0.01915045224243032,-10,-1,-100,15032.725117006805,0.00036145783830266603,0.00909892701623325,0.9999585385781675,20.179297581128985,0.012388988593146388,-5.2738065607363955,2.3049495508617097,-114.52732849121094,5356.25390625,True
1599562345.3085988,0.0,10,0.5,0.5,1.225974406814575,-0.15025,-0.0155,-0.12575,0.06253801365069894,10,1,100,0.1002041391575062,-10,-1,-100,15032.87647635839,-0.0006015955241757255,0.008756648748449615,0.9999614788508212,18.43763057382847,0.011339623964622281,-3.2657499283992,1.562103397133399,-103.21358489990234,5356.25390625,True
1599562345.3484914,0.0,10,0.5,0.5,0.9029057636260986,-0.15025,-0.0155,-0.12575,0.07154907007914806,10,1,100,0.05754569189965868,-10,-1,-100,15032.952644147212,-0.001085436118776831,0.0085276915452087,0.9999630494700001,17.367706093077945,0.010659295993351461,-2.344746410578226,1.1906395320951986,-97.14422607421875,5356.25390625,True
1599562345.386391,0.0,10,0.5,0.5,-0.16247162780761726,-0.15025,-0.0155,-0.12575,0.06615226310175801,10,1,100,0.05819775319285124,-10,-1,-100,15032.965335086687,-0.0015270542697304746,0.008271025789395335,0.9999646284932524,16.170934860280607,0.009910666809874537,-1.5020437419199248,0.819161328459725,-90.79972839355469,5356.25390625,True
1599562345.4242897,0.0,10,0.5,0.5,-0.3495380561828613,-0.15025,-0.0155,-0.12575,0.07608283091254636,10,1,100,0.03935943725092369,-10,-1,-100,15033.00341908005,-0.0017529924255339988,0.00812880783543021,0.9999654241526208,15.553675945532486,0.009529062728060145,-1.1171360882005643,0.6334212341382668,-87.52838134765625,5356.25390625,True
1599562345.456922,0.0,10,0.5,0.5,-0.9397626220703125,-0.15025,-0.0155,-0.12575,0.07358792178171314,10,1,100,0.04113316330044796,-10,-1,-100,15032.979002648848,-0.0019703601249375126,0.00797786603378314,0.9999662350972283,15.858265671588294,0.009712876301731467,-0.8050222885176134,0.4476815912632848,-84.19390869140625,5356.25390625,True
1599562345.4958189,0.0,10,0.5,0.5,-3.3764771537780764,-0.15025,-0.0155,-0.12575,0.03475344017850062,10,1,100,0.08670803472215827,-10,-1,-100,15033.029777970398,-0.0025781055961120597,0.007488792512468435,0.9999686351872445,17.722306496505844,0.010882590133295258,0.2201165429122489,-0.10953185920726582,-74.14816284179688,5356.25390625,True
1599562345.5337172,0.0,10,0.5,0.5,-4.001882445526123,-0.15025,-0.0155,-0.12575,0.04406809591114613,10,1,100,0.0673031550269841,-10,-1,-100,15032.979968675296,-0.002950225621102721,0.0071305120898038305,0.9999702255398016,18.74905286847496,0.01153810030200963,1.0226609721107702,-0.48100914535064665,-67.61569213867188,5356.25390625,True
1599562345.5746088,0.0,10,0.5,0.5,-3.2762455024719235,-0.15025,-0.0155,-0.12575,0.07967846022962169,10,1,100,0.03056482920372489,-10,-1,-100,15032.979968675296,-0.002950225621102721,0.0071305120898038305,0.9999702255398016,18.74905286847496,0.01153810030200963,1.0226609721107702,-0.48100914535064665,-67.61569213867188,5356.25390625,True
1599562345.6154985,0.0,10,0.5,0.5,-6.748995294570923,-0.15025,-0.0155,-0.12575,-0.0010013425642738522,10,1,100,0.10172304026720938,-10,-1,-100,15032.940898784203,-0.003593650167368563,0.006398938975760875,0.9999730692665973,20.070721489144898,0.012349378818157298,2.7858576542201994,-1.2239971752498984,-55.326171875,5356.25390625,True
1599562345.6553915,0.0,10,0.5,0.5,-5.29946771659851,-0.15025,-0.0155,-0.12575,0.07188036202124247,10,1,100,0.03780132043673942,-10,-1,-100,15032.940898784203,-0.003593650167368563,0.006398938975760875,0.9999730692665973,20.070721489144898,0.012349378818157298,2.7858576542201994,-1.2239971752498984,-55.326171875,5356.25390625,True
1599562345.6932902,0.0,10,0.5,0.5,-6.973605363845825,-0.15025,-0.0155,-0.12575,0.027701250955770515,10,1,100,0.06881391029238826,-10,-1,-100,15032.890113647096,-0.0038719872496874876,0.005999765227929741,0.9999745049409752,20.3809259829744,0.012539811479262941,3.687642963483021,-1.5955115883073367,-49.592926025390625,5356.25390625,True
1599562345.7311893,0.0,10,0.5,0.5,-7.842256104278564,-0.15025,-0.0155,-0.12575,0.02823524654662113,10,1,100,0.06853354207636822,-10,-1,-100,15032.779758695746,-0.004119499075535863,0.0056442407657460066,0.9999755858387468,20.499419672264747,0.012620860181728387,4.572878198934478,-1.967038233401957,-44.134613037109375,5356.25390625,True
1599562345.7680905,0.0,10,0.5,0.5,-10.022531798553466,-0.15025,-0.0155,-0.12575,-0.02038351359431797,10,1,100,0.08899923792649367,-10,-1,-100,15032.612760762568,-0.0045278033677111995,0.004881669299551768,0.9999778339050887,20.310838396972628,0.012557902104597386,6.242719330046929,-2.710115667067793,-34.045867919921875,5356.25390625,True
1599562345.8079877,0.0,10,0.5,0.5,-8.841840583801268,-0.15025,-0.0155,-0.12575,0.055534697376121545,10,1,100,0.04846888361875806,-10,-1,-100,15032.612760762568,-0.0045278033677111995,0.004881669299551768,0.9999778339050887,20.310838396972628,0.012557902104597386,6.242719330046929,-2.710115667067793,-34.045867919921875,5356.25390625,True
1599562346.1331165,0.0,10,0.5,0.5,-10.202931472778321,-0.15025,-0.0155,-0.12575,0.015558037876033909,10,1,100,0.06697110615487818,-10,-1,-100,15032.499476981582,-0.004693482835364858,0.00452119706640177,0.999978764772513,20.025225878124353,0.012435667518386866,6.998947570311809,-3.081659828330161,-29.41473388671875,5356.25390625,True
1599562346.172011,0.0,10,0.5,0.5,-10.907701383972169,-0.15025,-0.0155,-0.12575,0.015008726416203683,10,1,100,0.06798677062522177,-10,-1,-100,15032.323693509446,-0.004850858280498191,0.00419164372205548,0.999979449437262,19.6434951407358,0.012274366389806411,7.6935142587886425,-3.4532042266388037,-25.058837890625,5356.25390625,True
1599562346.206917,0.0,10,0.5,0.5,-12.096710598754884,-0.15025,-0.0155,-0.12575,-0.006361610129086488,10,1,100,0.07197428022108185,-10,-1,-100,15032.121542460402,-0.005028110815414144,0.003700771393865681,0.9999805110064486,19.041040025822436,0.0120431786191695,8.6615591294308,-4.010521293624515,-19.041900634765625,5356.25390625,True
1599562346.2946832,0.0,10,0.5,0.5,-12.427502073669434,-0.15025,-0.0155,-0.12575,0.010049295966446069,10,1,100,0.06608655869080685,-10,-1,-100,15031.9457600686,-0.005133835755794954,0.0034068318242851943,0.9999810184335268,18.667119933577396,0.01191712688888964,9.278458946663877,-4.382068634305338,-15.374755859375,5356.25390625,True
1599562346.3355746,0.0,10,0.5,0.5,-12.983464637756347,-0.15025,-0.0155,-0.12575,0.009068360389734319,10,1,100,0.06657219781261786,-10,-1,-100,15031.769977429765,-0.0052323791389442525,0.0031340816014832984,0.9999813996975451,18.25451301448432,0.011766800264049318,9.843050697540047,-4.753620986992379,-11.98297119140625,5356.25390625,True
1599562346.3844445,0.0,10,0.5,0.5,-13.063693031311034,-0.15025,-0.0155,-0.12575,0.021753265889364843,10,1,100,0.06152911780788367,-10,-1,-100,15031.681110169739,-0.005274628097244599,0.003004412228363923,0.9999815757330721,18.04040135870265,0.011683688597412761,10.107957248011429,-4.9393997995261465,-10.390350341796875,5356.25390625,True
1599562346.4253333,0.0,10,0.5,0.5,-13.353624461364747,-0.15025,-0.0155,-0.12575,0.02074652993467247,10,1,100,0.061957876349223034,-10,-1,-100,15031.530718926224,-0.005315405884320838,0.0028804647684376483,0.9999817245245048,17.824607408262686,0.01159570834588603,10.362881084982355,-5.125180759110936,-8.866607666015625,5356.25390625,True
1599562346.468219,0.0,10,0.5,0.5,-14.009248133850098,-0.15025,-0.0155,-0.12575,0.00756385484100713,10,1,100,0.06662346652034319,-10,-1,-100,15031.352983745863,-0.0053935788571870275,0.0026507784862527064,0.9999819411772034,17.457167529932832,0.011445282734410997,10.885503739510705,-5.496749840008105,-6.025634765625,5356.25390625,True
1599562346.5140986,0.0,10,0.5,0.5,-14.744708628845213,-0.15025,-0.0155,-0.12575,-0.003372203789242842,10,1,100,0.06974878687064177,-10,-1,-100,15030.963334968546,-0.005491898944993867,0.002345275389700026,0.9999821692056936,16.95922025041849,0.011200108513462556,11.648073138300745,-6.054122775573566,-2.280548095703125,5356.25390625,True
1599562346.556982,0.0,10,0.5,0.5,-14.62953306274414,-0.15025,-0.0155,-0.12575,0.01694547879289221,10,1,100,0.06331281487491104,-10,-1,-100,15030.874467796646,-0.005521895556150458,0.002254557319862319,0.9999822126621846,16.806181808392353,0.011109647837689213,11.897479809597295,-6.239918969694619,-1.169921875,5356.25390625,True
1599562346.5998676,0.0,10,0.5,0.5,-15.576991885375975,-0.15025,-0.0155,-0.12575,-0.007601643215562462,10,1,100,0.07354221990682214,-10,-1,-100,15030.332475405652,-0.005641256073684333,0.0019513189762781693,0.9999821841333795,17.003042495268783,0.011189370430769204,13.47182522103953,-6.9831228944271935,2.58428955078125,5356.25390625,True
1599562346.644748,0.0,10,0.5,0.5,-15.154498284912108,-0.15025,-0.0155,-0.12575,0.022465203333840136,10,1,100,0.061700945477266594,-10,-1,-100,15030.332475405652,-0.005641256073684333,0.0019513189762781693,0.9999821841333795,17.003042495268783,0.011189370430769204,13.47182522103953,-6.9831228944271935,2.58428955078125,5356.25390625,True
1599562346.689628,0.0,10,0.5,0.5,-15.929476235961912,-0.15025,-0.0155,-0.12575,-0.0009655968130681258,10,1,100,0.07406211981407541,-10,-1,-100,15029.727984029218,-0.005752911842388789,0.0017403483610751644,0.9999819374333296,17.840065585314395,0.011556604665635633,15.641166982639325,-7.726337742334053,5.2369384765625,5356.25390625,True
1599562346.7345092,0.0,10,0.5,0.5,-15.885600090026854,-0.15025,-0.0155,-0.12575,0.011975817926932475,10,1,100,0.06832713566510147,-10,-1,-100,15029.425250238157,-0.005801621957104919,0.001667988320374975,0.9999817793328186,18.17256669585481,0.011643676506447324,16.70000840013424,-8.097945607717417,6.15020751953125,5356.25390625,True
1599562346.7843747,0.0,10,0.5,0.5,-15.98019149017334,-0.15025,-0.0155,-0.12575,0.014143482750186238,10,1,100,0.07027682660623683,-10,-1,-100,15029.059039298678,-0.0058630212643105304,0.0016234932758624828,0.9999814944543911,18.452380734286105,0.011676129145692517,17.736435479028422,-8.469552739340651,6.78814697265625,5356.25390625,True
1599562346.8302515,0.0,10,0.5,0.5,-15.929065837097168,-0.15025,-0.0155,-0.12575,0.018441928368873386,10,1,100,0.06419996009821227,-10,-1,-100,15029.059039298678,-0.0058630212643105304,0.0016234932758624828,0.9999814944543911,18.452380734286105,0.011676129145692517,17.736435479028422,-8.469552739340651,6.78814697265625,5356.25390625,True
1599562346.8771265,0.0,10,0.5,0.5,-16.055755984497072,-0.15025,-0.0155,-0.12575,0.015815623304746007,10,1,100,0.07027982915073215,-10,-1,-100,15028.692829397507,-0.0059177578982724695,0.001600873156145417,0.9999812084967374,18.681605962797217,0.01166037000310399,18.745890539052237,-8.841158627942026,7.15069580078125,5356.25390625,True
1599562346.9200118,0.0,10,0.5,0.5,-16.059081645202635,-0.15025,-0.0155,-0.12575,0.01835287806649888,10,1,100,0.07104688703249695,-10,-1,-100,15028.327596161864,-0.005973944135332138,0.0016045386284297399,0.9999808685406226,18.861812032499632,0.011602615295305744,19.723616464552585,-9.212763128798517,7.23797607421875,5356.25390625,True
1599562346.9658895,0.0,10,0.5,0.5,-16.016737867736815,-0.15025,-0.0155,-0.12575,0.02065836265602352,10,1,100,0.07143322393474888,-10,-1,-100,15027.962362612947,-0.006028007081517631,0.0016297809539182783,0.9999805032822728,18.993704501373823,0.011508904307145188,20.66417906032773,-9.584366278751837,7.049835205078125,5356.25390625,True
1599562347.012763,0.0,10,0.5,0.5,-15.723074130249023,-0.15025,-0.0155,-0.12575,0.03218196239980403,10,1,100,0.07765665966126076,-10,-1,-100,15027.167443155311,-0.006133244531803166,0.0017581389697020285,0.9999796459222938,19.109484770459485,0.011236940599718186,22.40575894922585,-10.327568121494524,5.84771728515625,5356.25390625,True
1599562347.0566466,0.0,10,0.5,0.5,-15.605243287658693,-0.15025,-0.0155,-0.12575,0.030491726310941263,10,1,100,0.0723936080651919,-10,-1,-100,15026.736780443112,-0.0061805132457569785,0.0018599135817431948,0.9999791707718154,19.08954241961603,0.011070905049506101,23.189627068958536,-10.699167089971988,4.83367919921875,5356.25390625,True
1599562347.099532,0.0,10,0.5,0.5,-15.380413343811036,-0.15025,-0.0155,-0.12575,0.03456877710675531,10,1,100,0.07200216552409991,-10,-1,-100,15026.310023671365,-0.006219436001548633,0.001989583150283051,0.9999786798600812,19.013665680031387,0.010893777596470944,23.901694082955988,-11.070765425479967,3.54443359375,5356.25390625,True
1599562347.143418,0.0,10,0.5,0.5,-15.112201448059082,-0.15025,-0.0155,-0.12575,0.03847223061409832,10,1,100,0.07182290192238672,-10,-1,-100,15025.88033757126,-0.006252665037772867,0.0021429157315914884,0.9999781558074619,18.877851814526963,0.01071310613099331,24.529663828235485,-11.442363069432577,1.9798583984375,5356.25390625,True
1599562347.192065,0.0,10,0.5,0.5,-15.059500843811035,-0.15025,-0.0155,-0.12575,0.03276483207683254,10,1,100,0.06996919033826071,-10,-1,-100,15025.604947760003,-0.006265567007943404,0.002230057575741728,0.9999778845120915,18.78594777929317,0.01062394634527931,24.807727081470226,-11.628161759751773,1.0943603515625,5356.25390625,True
1599562347.249976,0.0,10,0.5,0.5,-14.617248570251464,-0.15025,-0.0155,-0.12575,0.04536303325925983,10,1,100,0.07054802203010214,-10,-1,-100,15025.173308657715,-0.006282136409796234,0.002423295563668224,0.9999773309434269,18.55095514645096,0.010453303132776669,25.282581933453756,-11.999758608239167,-0.883056640625,5356.25390625,True
1599562347.2978456,0.0,10,0.5,0.5,-14.552640339660643,-0.15025,-0.0155,-0.12575,0.03777010751759915,10,1,100,0.0693251782505422,-10,-1,-100,15024.898895421647,-0.006285701726988729,0.002529212771142845,0.9999770462548416,18.701343040481408,0.010539845846894142,25.883387915197773,-12.185555122547568,-1.975006103515625,5356.25390625,True
1599562347.3467147,0.0,10,0.5,0.5,-13.658291606140136,-0.15025,-0.0155,-0.12575,0.06619490929266121,10,1,100,0.06812280434957711,-10,-1,-100,15024.129366461188,-0.006277627997643425,0.002883085049079174,0.9999761393189954,19.53650506692587,0.011111105151618759,28.280176906378514,-12.742928420430234,-5.6636962890625,5356.25390625,True
1599562347.3915944,0.0,10,0.5,0.5,-13.7249383392334,-0.15025,-0.0155,-0.12575,0.045199561224045004,10,1,100,0.06768286202986881,-10,-1,-100,15023.910617144778,-0.006265961613423646,0.003012754672131204,0.9999758302250833,19.826665763766545,0.011342958761429989,29.12007952795668,-12.928712882898912,-7.0308837890625,5356.25390625,True
1599562347.4344795,0.0,10,0.5,0.5,-12.175418286132812,-0.15025,-0.0155,-0.12575,0.09527653671292399,10,1,100,0.058311838732564805,-10,-1,-100,15022.803198935231,-0.006169899218268272,0.003584601182946766,0.9999745411649217,21.050808384196884,0.012494541689645915,32.70174754078748,-13.671808703587097,-13.1878662109375,5356.25390625,True
1599562347.47637,0.0,10,0.5,0.5,-11.954665632629393,-0.15025,-0.0155,-0.12575,0.07309911438657543,10,1,100,0.059512645574097425,-10,-1,-100,15022.247536646551,-0.006093357201107546,0.0039010716077859005,0.9999738259766257,21.71645192258791,0.013211577687029925,34.656158431355024,-14.043325532450687,-16.67926025390625,5356.25390625,True
1599562347.5192525,0.0,10,0.5,0.5,-11.848451042175292,-0.15025,-0.0155,-0.12575,0.05920172621332155,10,1,100,0.06069217090953307,-10,-1,-100,15021.970193828805,-0.006034532767947843,0.004060483980939093,0.9999735480922047,22.04140262794723,0.01358901942641792,35.641858442275016,-14.229074984368172,-18.5283203125,5356.25390625,True
1599562347.5686326,0.0,10,0.5,0.5,-11.515433561706542,-0.15025,-0.0155,-0.12575,0.06145848282840631,10,1,100,0.05948574621370106,-10,-1,-100,15021.692851304542,-0.005970221222820375,0.004223919770852588,0.9999732571225693,22.358111331675346,0.013974406779375906,36.6278694510081,-14.414818014648581,-20.4461669921875,5356.25390625,True
1599562347.6109545,0.0,10,0.5,0.5,-10.603760124206543,-0.15025,-0.0155,-0.12575,0.08269566065558248,10,1,100,0.050166246647277035,-10,-1,-100,15021.074688654277,-0.0058272600173540304,0.004563531799547758,0.9999726082339478,22.966932261519627,0.014757252785202315,38.598943454956334,-14.78628421823324,-24.4884033203125,5356.25390625,True
1599562347.6528409,0.0,10,0.5,0.5,-8.611707646179198,-0.15025,-0.0155,-0.12575,0.12634986204388365,10,1,100,0.022229708322334542,-10,-1,-100,15019.901840390754,-0.005443713486721893,0.005266925823647963,0.9999713123264301,24.1271894927262,0.01629217276766389,42.595075021314585,-15.529133296929269,-33.3990478515625,5356.25390625,True
1599562347.6947293,0.0,10,0.5,0.5,-9.678756413269042,-0.15025,-0.0155,-0.12575,0.05631414645865378,10,1,100,0.060502176033426135,-10,-1,-100,15019.901840390754,-0.005443713486721893,0.005266925823647963,0.9999713123264301,24.1271894927262,0.01629217276766389,42.595075021314585,-15.529133296929269,-33.3990478515625,5356.25390625,True
1599562347.7366521,0.0,10,0.5,0.5,-8.284617002868652,-0.15025,-0.0155,-0.12575,0.09505076160878254,10,1,100,0.03341977827311121,-10,-1,-100,15019.220201677294,-0.00519827207337637,0.005616491752049152,0.9999707160651509,24.56800735693438,0.016896716403867675,44.41529966258588,-15.900518111273197,-38.267669677734375,5356.25390625,True
1599562347.77751,0.0,10,0.5,0.5,-7.4207272125244135,-0.15025,-0.0155,-0.12575,0.0962875408111,10,1,100,0.02664430223868216,-10,-1,-100,15018.603992037242,-0.004914536851525279,0.005942715789725022,0.9999702652862121,24.883482449978032,0.017319237023809747,46.04116620500686,-16.27188080822291,-43.412109375,5356.25390625,True
1599562347.8183982,0.0,10,0.5,0.5,-4.941325776672363,-0.15025,-0.0155,-0.12575,0.13543785917374357,10,1,100,-0.017385882490228738,-10,-1,-100,15017.240713452455,-0.004257560507894295,0.006592413599326531,0.9999692061565981,25.035946570851756,0.01744008977294949,48.44798078488055,-17.014564543160535,-54.52734375,5356.25390625,True
1599562347.8592892,0.0,10,0.5,0.5,-4.617381312561035,-0.15025,-0.0155,-0.12575,0.10238090014084257,10,1,100,0.006838166065511263,-10,-1,-100,15016.559074195568,-0.003882353728832427,0.006879275926913171,0.9999688009594327,24.84187150387369,0.017106002439063926,49.12704651156246,-17.385901658979915,-60.49859619140625,5356.25390625,True
1599562347.9011776,0.0,10,0.5,0.5,-5.294934675598144,-0.15025,-0.0155,-0.12575,0.07402413485657522,10,1,100,0.04413008942275447,-10,-1,-100,15016.559074195568,-0.003882353728832427,0.006879275926913171,0.9999688009594327,24.84187150387369,0.017106002439063926,49.12704651156246,-17.385901658979915,-60.49859619140625,5356.25390625,True
1599562347.9410703,0.0,10,0.5,0.5,-3.502730647277832,-0.15025,-0.0155,-0.12575,0.10036673877380703,10,1,100,0.0007282577988789105,-10,-1,-100,15015.87841078802,-0.003489801626317445,0.007116046685870617,0.9999685910888267,24.488647281967083,0.016554165372723806,49.46858600986209,-17.757245599067748,-66.74600219726562,5356.25390625,True
1599562347.980964,0.0,10,0.5,0.5,-2.413262138366699,-0.15025,-0.0155,-0.12575,0.10093176227194219,10,1,100,-0.0060746795464554915,-10,-1,-100,15015.132317179465,-0.003073404585565903,0.00733365162335595,0.9999683853693179,23.917552889596674,0.015802774136517175,49.33126344312985,-18.1286041625183,-73.26898193359375,5356.25390625,True
1599562348.0208578,0.0,10,0.5,0.5,0.6774442260742186,-0.15025,-0.0155,-0.12575,0.1146356450762579,10,1,100,-0.061534869731522286,-10,-1,-100,15013.645989929093,-0.0021933117437795803,0.007653228017606847,0.9999683082400688,22.082615397987944,0.014026959058127099,47.42485031110846,-18.87138467313329,-87.14251708984375,5356.25390625,True
1599562348.0607505,0.0,10,0.5,0.5,-0.9700389434814453,-0.15025,-0.0155,-0.12575,0.0829869752729741,10,1,100,0.026111019619752554,-10,-1,-100,15013.645989929093,-0.0021933117437795803,0.007653228017606847,0.9999683082400688,22.082615397987944,0.014026959058127099,47.42485031110846,-18.87138467313329,-87.14251708984375,5356.25390625,True
1599562348.0996466,0.0,10,0.5,0.5,1.1420083068847655,-0.15025,-0.0155,-0.12575,0.09426029149004105,10,1,100,-0.023084699726463997,-10,-1,-100,15012.898918841849,-0.0017490328422166501,0.007753543344858402,0.9999684112259328,20.76773732005756,0.013154063643040392,45.4848568144286,-19.242807385969233,-94.4930419921875,5356.25390625,True
1599562348.13954,0.0,10,0.5,0.5,4.414426333618164,-0.15025,-0.0155,-0.12575,0.09370430427475104,10,1,100,-0.07349520582216838,-10,-1,-100,15011.28661287413,-0.0008902244041480421,0.007837424106292443,0.9999688906580485,23.716587752481,0.015610573997775695,53.96274306064183,-19.985558122214517,-109.35554504394531,5356.25390625,True
1599562348.1794322,0.0,10,0.5,0.5,4.7070593368530265,-0.15025,-0.0155,-0.12575,0.08429275226055735,10,1,100,-0.031642884046863565,-10,-1,-100,15010.47997157299,-0.0004938815199241044,0.007826100750781407,0.9999692536413721,24.82543536832385,0.016791246464147556,57.54272205944002,-20.35686351318331,-116.78817749023438,5356.25390625,True
1599562348.219326,0.0,10,0.5,0.5,3.8861387123107907,-0.15025,-0.0155,-0.12575,0.0856134263077666,10,1,100,0.0075493388423700895,-10,-1,-100,15010.47997157299,-0.0004938815199241044,0.007826100750781407,0.9999692536413721,24.82543536832385,0.016791246464147556,57.54272205944002,-20.35686351318331,-116.78817749023438,5356.25390625,True
1599562348.2572255,0.0,10,0.5,0.5,5.968425017547608,-0.15025,-0.0155,-0.12575,0.08247338064421901,10,1,100,-0.032884121248964324,-10,-1,-100,15009.67137681425,-0.00012972613635558254,0.007796433347338742,0.9999695989369827,25.64459288390465,0.017758416407370373,60.533343683384054,-20.728127391840744,-123.98303985595703,5356.25390625,True
1599562348.2991135,0.0,10,0.5,0.5,7.073492830657958,-0.15025,-0.0155,-0.12575,0.07883779925689322,10,1,100,-0.035578465441412174,-10,-1,-100,15008.864734833012,0.00022240677082671146,0.007735578461214789,0.9999700552322047,26.28706886601876,0.01849106163327054,63.169259409549696,-21.099357817565544,-130.90847778320312,5356.25390625,True
1599562348.3439941,0.0,10,0.5,0.5,8.147396905899047,-0.15025,-0.0155,-0.12575,0.07502343089282586,10,1,100,-0.036508597376139866,-10,-1,-100,15007.99461610266,0.0005472517399448131,0.0076448013045794004,0.999970628332926,26.69763859841613,0.01888874876161882,65.29298674252519,-21.47056596073463,-137.55935668945312,5356.25390625,True
1599562348.386878,0.0,10,0.5,0.5,9.18034327430725,-0.15025,-0.0155,-0.12575,0.0737539726423878,10,1,100,-0.0356089604082767,-10,-1,-100,15007.124497717712,0.0008307167818295474,0.007550255401162602,0.9999711513603807,26.85754803494501,0.018916604376044602,66.82838294052922,-21.841762623571963,-143.93447875976562,5356.25390625,True
1599562348.4317586,0.0,10,0.5,0.5,10.984795357131958,-0.15025,-0.0155,-0.12575,0.06472462135439215,10,1,100,-0.04871910480189232,-10,-1,-100,15005.787580885575,0.0012040462040599975,0.007382022655640273,0.999972027615898,26.69469225531333,0.018365128193992927,68.13025139932762,-22.398557217013213,-152.9801025390625,5356.25390625,True
1599562348.4726486,0.0,10,0.5,0.5,12.274602518081664,-0.15025,-0.0155,-0.12575,0.06173668799046862,10,1,100,-0.04474653211883741,-10,-1,-100,15004.38621125475,0.0015042337835618714,0.007202167315822457,0.9999729326670194,26.144423786373853,0.0173411230288976,68.3992713736043,-22.955372840238088,-161.4049072265625,5356.25390625,True
1599562348.5165322,0.0,10,0.5,0.5,12.78520287513733,-0.15025,-0.0155,-0.12575,0.06731175978104789,10,1,100,-0.032925149560346145,-10,-1,-100,15003.454569564085,0.0016663030639160713,0.007089754987449513,0.9999734790524782,25.615090868767822,0.016549944335907504,68.10835320298622,-23.326601727345228,-166.67633056640625,5356.25390625,True
1599562348.5584197,0.0,10,0.5,0.5,12.234205487442017,-0.15025,-0.0155,-0.12575,0.07848661378260144,10,1,100,-0.01705975511553943,-10,-1,-100,15003.454569564085,0.0016663030639160713,0.007089754987449513,0.9999734790524782,25.615090868767822,0.016549944335907504,68.10835320298622,-23.326601727345228,-166.67633056640625,5356.25390625,True
1599562348.5998209,0.0,10,0.5,0.5,14.3625577709198,-0.15025,-0.0155,-0.12575,0.0606404748175908,10,1,100,-0.037850815152812536,-10,-1,-100,15002.05222328403,0.0018529885847384958,0.006928197059693819,0.9999742829287197,24.64983387000108,0.015409907340688919,67.12214859405356,-23.883474737470745,-174.0658416748047,5356.25390625,True
1599562348.6397142,0.0,10,0.5,0.5,14.163839977645873,-0.15025,-0.0155,-0.12575,0.07125812800907198,10,1,100,-0.02463573702259092,-10,-1,-100,15001.585425599129,0.001900432102388992,0.006878666612284915,0.9999745358275186,24.295541599596344,0.015074869945112434,66.67691610632733,-24.069106398899958,-176.39096069335938,5356.25390625,True
1599562348.6845996,0.0,10,0.5,0.5,-84.16982592887878,-0.15025,-0.0155,-0.12575,0.06539341229398274,10,1,100,-0.027794560110197285,-10,-1,-100,15000.589330650168,0.001970102497756489,0.006781184639174642,0.9999750668046867,23.555983328169688,0.014505647283285402,65.65505642221163,-24.440378416812056,179.16580200195312,5356.25390625,True
1599562348.7254906,0.0,10,0.5,0.5,-37.70446136398315,-0.15025,-0.0155,-0.12575,0.05840642805498246,10,1,100,-0.028185830748427773,-10,-1,-100,14998.59518751793,0.002035087291498025,0.006629969578454541,0.9999759506723673,24.397883414633924,0.015290931480168062,70.0905018970881,-25.182896009104216,171.10789489746094,5356.25390625,True
1599562348.765384,0.0,10,0.5,0.5,-39.18586856002808,-0.15025,-0.0155,-0.12575,0.07341737323871657,10,1,100,-0.021868619426341288,-10,-1,-100,14998.59518751793,0.002035087291498025,0.006629969578454541,0.9999759506723673,24.397883414633924,0.015290931480168062,70.0905018970881,-25.182896009104216,171.10789489746094,5356.25390625,True
1599562348.803283,0.0,10,0.5,0.5,-38.588986820983884,-0.15025,-0.0155,-0.12575,0.06700534480257488,10,1,100,-0.021386556643296896,-10,-1,-100,14997.599092771532,0.0020293523247871185,0.00657260098514973,0.9999763410428427,25.155129433764568,0.016106013495007676,73.34330270663371,-25.554111212783457,167.21182250976562,5356.25390625,True
1599562348.8431754,0.0,10,0.5,0.5,-38.42187767410278,-0.15025,-0.0155,-0.12575,0.06795006956343022,10,1,100,-0.01895295326161458,-10,-1,-100,14996.538544971845,0.0020009253829046756,0.006529924902167689,0.9999766779172321,25.929507907524517,0.017052332808814945,76.71191449793331,-25.925293765319577,163.0838623046875,5356.25390625,True
1599562348.888057,0.0,10,0.5,0.5,-38.21753077926636,-0.15025,-0.0155,-0.12575,0.06925094997328238,10,1,100,-0.015586034234529846,-10,-1,-100,14995.540497611975,0.0019437499180572802,0.006503729282958556,0.9999769614054467,26.663251277568442,0.018067242880388985,80.02511936580684,-26.296442247630655,158.68771362304688,5356.25390625,True
1599562348.926955,0.0,10,0.5,0.5,-36.61270219650269,-0.15025,-0.0155,-0.12575,0.07188769928132574,10,1,100,-0.002226823823852763,-10,-1,-100,14993.359832884278,0.001769925295249406,0.006504520475598705,0.9999772790307946,28.013398765819094,0.020141129056487607,86.47836727178446,-27.038634640491274,149.07254028320312,5356.25390625,True
1599562348.9684012,0.0,10,0.5,0.5,-36.870509079742426,-0.15025,-0.0155,-0.12575,0.07498081161630388,10,1,100,-0.00652211271477199,-10,-1,-100,14992.299285759218,0.0016508567896766648,0.00653389097605487,0.999977291212442,28.599072787769533,0.02106749407207156,89.51216520596968,-27.409679750721768,143.85256958007812,5356.25390625,True
1599562349.0092926,0.0,10,0.5,0.5,-36.491638384246826,-0.15025,-0.0155,-0.12575,0.07716949789563705,10,1,100,-0.0028249579563734903,-10,-1,-100,14991.175262574223,0.0015090162379653132,0.006580993909928408,0.9999772064348023,29.059055461159474,0.02178793486328165,92.1975716910827,-27.78069587693623,138.35763549804688,5356.25390625,True
1599562349.052178,0.0,10,0.5,0.5,-36.88013365020752,-0.15025,-0.0155,-0.12575,0.07606253915293716,10,1,100,-0.008483750279675462,-10,-1,-100,14990.583466264652,0.0014318265505729871,0.006614067136834139,0.9999771017321538,29.23370798863547,0.02204648857172553,93.37840586041054,-27.96619501143334,135.50709533691406,5356.25390625,True
1599562349.0951827,0.0,10,0.5,0.5,-36.091666011047366,-0.15025,-0.0155,-0.12575,0.08172839108911095,10,1,100,0.0024255920001780285,-10,-1,-100,14989.461396422586,0.0012629042736284008,0.00669588199660043,0.9999767848490699,29.45587036784469,0.022321298100751525,95.35127653467491,-28.337180430387505,129.5999755859375,5356.25390625,True
1599562349.1341136,0.0,10,0.5,0.5,-35.9140348991394,-0.15025,-0.0155,-0.12575,0.07903561146453661,10,1,100,-0.004314372497889445,-10,-1,-100,14988.929170296411,0.0011712538793195067,0.00674585687493054,0.9999765605149818,29.496846229835175,0.022327214528000572,96.11661949264055,-28.522669103589468,126.54336547851562,5356.25390625,True
1599562349.1739724,0.0,10,0.5,0.5,-34.48522557220459,-0.15025,-0.0155,-0.12575,0.08717830937001525,10,1,100,0.007711681178837783,-10,-1,-100,14987.744601852843,0.000979392881443154,0.0068652077568291045,0.9999759545669282,29.42264819453768,0.022068162441336733,97.13759522892265,-28.893644466869226,120.22415161132812,5356.25390625,True
1599562349.2198515,0.0,10,0.5,0.5,-33.38109664535522,-0.15025,-0.0155,-0.12575,0.09123678008666897,10,1,100,0.011801992227604847,-10,-1,-100,14986.620580551447,0.0007687488687577283,0.007010389893998856,0.9999751314201324,29.120575689210888,0.021470720847368178,97.39099086599248,-29.264626148218277,113.63031005859375,5356.25390625,True
1599562349.259744,0.0,10,0.5,0.5,-32.231557057952884,-0.15025,-0.0155,-0.12575,0.09595412951291624,10,1,100,0.014789053987734653,-10,-1,-100,14985.433083322365,0.0005512452080025515,0.007184860659929198,0.9999740366159604,28.56951865428279,0.020603081105691808,96.77609479855607,-29.63562440735805,106.761962890625,5356.25390625,True
1599562349.2986388,0.0,10,0.5,0.5,-28.989397655487057,-0.15025,-0.0155,-0.12575,0.12747094588838215,10,1,100,0.04496137929358146,-10,-1,-100,14983.00145054434,8.053863196733077e-05,0.007629391563499415,0.9999708925253272,26.657332013419886,0.01851166229467471,92.59371437659662,-30.377702346213756,92.20198059082031,5356.25390625,True
1599562349.6068149,0.0,10,0.5,0.5,-30.717262543487546,-0.15025,-0.0155,-0.12575,0.08313042175941451,10,1,100,-0.001922957181331612,-10,-1,-100,14983.00145054434,8.053863196733077e-05,0.007629391563499415,0.9999708925253272,26.657332013419886,0.01851166229467471,92.59371437659662,-30.377702346213756,92.20198059082031,5356.25390625,True
1599562349.6397276,0.0,10,0.5,0.5,-28.506272416687008,-0.15025,-0.0155,-0.12575,0.11347509099855002,10,1,100,0.024993982803020648,-10,-1,-100,14981.750479614362,-0.00016262501637834243,0.007904229582866192,0.9999687478655547,25.357801695013155,0.017589052141355706,89.17264412979875,-30.748788739867233,84.51052856445312,5356.25390625,True
1599562349.677625,0.0,10,0.5,0.5,-29.381492345428462,-0.15025,-0.0155,-0.12575,0.08612832292255349,10,1,100,0.0008589661490588284,-10,-1,-100,14981.750479614362,-0.00016262501637834243,0.007904229582866192,0.9999687478655547,25.357801695013155,0.017589052141355706,89.17264412979875,-30.748788739867233,84.51052856445312,5356.25390625,True
1599562349.7175205,0.0,10,0.5,0.5,-24.825318270111083,-0.15025,-0.0155,-0.12575,0.16050418928541715,10,1,100,0.05470285364837476,-10,-1,-100,14979.251471501426,-0.0006505952288681749,0.008579170881007736,0.9999629865914251,28.504053018694055,0.02064283082806029,102.69449660550349,-31.490828894338456,68.3050537109375,5356.25390625,True
1599562349.8003383,0.0,10,0.5,0.5,-24.40908536529541,-0.15025,-0.0155,-0.12575,0.13543562037433504,10,1,100,0.031205698542621813,-10,-1,-100,14978.002457727795,-0.0008787009012798674,0.008963071340359145,0.9999594447960746,29.701254589792942,0.022143145927738892,108.2881524561775,-31.861758814013985,59.7908935546875,5356.25390625,True
1599562349.8531563,0.0,10,0.5,0.5,-22.946151551818847,-0.15025,-0.0155,-0.12575,0.1479484846990606,10,1,100,0.032164579895891915,-10,-1,-100,14976.753445230075,-0.0010928398837975813,0.009423763988772696,0.9999549981740541,30.619459873558824,0.023363430251718626,112.95563080801861,-32.232637504677044,51.003265380859375,5356.25390625,True
1599562349.8920517,0.0,10,0.5,0.5,-21.433022885131834,-0.15025,-0.0155,-0.12575,0.15527195952848216,10,1,100,0.031379138229687686,-10,-1,-100,14975.44193487137,-0.0012783130402453581,0.009906718070221717,0.9999501101819271,31.266651194178067,0.02413499800166956,116.69092745813364,-32.60347752403042,41.94136047363281,5356.25390625,True
1599562349.9249997,0.0,10,0.5,0.5,-22.451219100952144,-0.15025,-0.0155,-0.12575,0.10728070241491923,10,1,100,0.013057593177078854,-10,-1,-100,14975.44193487137,-0.0012783130402453581,0.009906718070221717,0.9999501101819271,31.266651194178067,0.02413499800166956,116.69092745813364,-32.60347752403042,41.94136047363281,5356.25390625,True
1599562349.961866,0.0,10,0.5,0.5,-21.061230196380613,-0.15025,-0.0155,-0.12575,0.1363546432631506,10,1,100,0.02206868867261392,-10,-1,-100,14974.78569208819,-0.0013583711248329469,0.01016839359777271,0.9999473779152221,31.4299521624694,0.02427166574151339,117.97801092344488,-32.788889472640335,37.307769775390625,5356.25390625,True
1599562350.0007608,0.0,10,0.5,0.5,-18.921826582336426,-0.15025,-0.0155,-0.12575,0.17134541104187986,10,1,100,0.028583823491513193,-10,-1,-100,14973.472231134889,-0.0014886436852363522,0.010721666027227655,0.9999414131925825,31.409196579188162,0.02402345222349454,119.25524747687703,-33.159711991810816,27.835220336914062,5356.25390625,True
1599562350.0386972,0.0,10,0.5,0.5,-17.32315770950317,-0.15025,-0.0155,-0.12575,0.17932448492224579,10,1,100,0.026738350945920735,-10,-1,-100,14972.09724854678,-0.0015888697330820587,0.011294366839768453,0.9999349542698566,30.89847637371258,0.023166215829800503,118.65075093991557,-33.53055221487948,18.088577270507812,5356.25390625,True
1599562350.0775564,0.0,10,0.5,0.5,-14.25707653579712,-0.15025,-0.0155,-0.12575,0.22293362662344285,10,1,100,0.021115290760399537,-10,-1,-100,14970.067003560252,-0.0016273479491051906,0.012208118889110725,0.9999241539096063,29.176307991932966,0.021246696467080148,113.9311699288106,-34.08688708421307,2.955078125,5356.25390625,True
1599562350.1214402,0.0,10,0.5,0.5,-13.154561869812012,-0.15025,-0.0155,-0.12575,0.2001293345747091,10,1,100,0.012042729707138955,-10,-1,-100,14968.691047706758,-0.0015785187514304627,0.012827578197791352,0.9999164772700422,27.457908064574468,0.01999219151293801,108.41063425098382,-34.457839354791695,-7.476593017578125,5356.25390625,True
1599562350.1613317,0.0,10,0.5,0.5,-12.855804638671875,-0.15025,-0.0155,-0.12575,0.17273944255355184,10,1,100,0.011820175639858436,-10,-1,-100,14968.035784638254,-0.0015308181768099306,0.013137248234022379,0.9999125308268456,28.413190703946572,0.020876099574250597,112.79806266116009,-34.64330395456392,-12.7952880859375,5356.25390625,True
1599562350.2042177,0.0,10,0.5,0.5,-10.406193202209472,-0.15025,-0.0155,-0.12575,0.20868539052584678,10,1,100,-0.0011637000849341987,-10,-1,-100,14966.597329243436,-0.0013686185815222941,0.01374140408729598,0.9999046458022324,30.296307512788115,0.022934885845567948,121.58678777521173,-35.014171420513996,-23.638519287109375,5356.25390625,True
1599562350.2436602,0.0,10,0.5,0.5,-7.009269038391112,-0.15025,-0.0155,-0.12575,0.24364459476606043,10,1,100,-0.02353015876042108,-10,-1,-100,14964.5016580316,-0.0010173875817743416,0.014604103689958526,0.9998928367969846,32.10932012537375,0.025471200686833614,130.94879230305318,-35.57033497692554,-40.41802978515625,5356.25390625,True
1599562350.2825575,0.0,10,0.5,0.5,-7.395980101013183,-0.15025,-0.0155,-0.12575,0.18758084968867184,10,1,100,-0.0047281393990048475,-10,-1,-100,14963.78291829687,-0.0008690827146545535,0.014873996246492594,0.9998889983047591,32.4533692221754,0.026004674017184985,133.05441689615105,-35.75569618181811,-46.14849853515625,5356.25390625,True
