Timestamp,Input Throttle,horizon,dT,dt,Input Roll,Roll P,Roll I,Roll D,Input Pitch,Pitch P,Pitch I,Pitch D,Input Yaw,Yaw P,Yaw I,Yaw D,Altitude,Direction X,Direction Y,Direction Z,Drag X,Drag Y,Drag Z,Vertical Velocity,Roll,Mass,Has Fuel
1599562494.1745949,0.0,10,0.5,0.5,-8.746308578491211,-0.15025,-0.0155,-0.5,-0.00028955625762789184,10,1,100,0.17496942159561607,-10,-1,-100,14994.494908483233,-0.01681023645038039,-7.424148182130904e-05,0.9998586952358243,28.576492301317515,0.027199454084042573,-86.69260777280994,26.82333044403323,-31.79205322265625,5356.25390625,True
1599562494.208543,0.0,10,0.5,0.5,-8.836323513793946,-0.15025,-0.0155,-0.5,-0.00047454916860687954,10,1,100,0.17372658962150775,-10,-1,-100,14995.040808433085,-0.016846083736495533,-7.173884729596048e-05,0.9998580920892128,28.503920362660907,0.027363145814833935,-85.87452719643476,26.637366916974777,-31.79150390625,5356.25390625,True
1599562494.2421238,0.0,10,0.5,0.5,-8.900871633911132,-0.15025,-0.0155,-0.5,0.00375901487667674,10,1,100,0.18197046950166695,-10,-1,-100,14996.60917280824,-0.01693830191938666,-3.091156200006892e-05,0.99985653619535,28.286475894971865,0.027845234941859576,-83.43935332601617,26.079499734576235,-31.83056640625,5356.25390625,True
1599562494.278749,0.0,10,0.5,0.5,-8.841037742614745,-0.15025,-0.0155,-0.5,0.007716360906371667,10,1,100,0.17863376064933417,-10,-1,-100,14997.63554179063,-0.016976404457976126,4.2208126322513715e-05,0.9998558895711689,28.15295893075038,0.02816768605898938,-81.86438183780984,25.707607335245427,-32.091278076171875,5356.25390625,True
1599562494.6095452,0.0,10,0.5,0.5,-9.061152096557617,-0.15025,-0.0155,-0.5,0.0004086128867456547,10,1,100,0.17652114723618514,-10,-1,-100,14997.63554179063,-0.016976404457976126,4.2208126322513715e-05,0.9998558895711689,28.15295893075038,0.02816768605898938,-81.86438183780984,25.707607335245427,-32.091278076171875,5356.25390625,True
1599562494.6435852,0.0,10,0.5,0.5,-7.960287149047851,-0.15025,-0.0155,-0.5,0.04080117999148379,10,1,100,0.17629574018081656,-10,-1,-100,15000.168744507828,-0.016958922207965525,0.0004093749107962036,0.9998561033317379,27.904712531271535,0.0289825910501612,-78.21560399639105,24.77793680135756,-33.92230224609375,5356.25390625,True
1599562494.6811044,0.0,10,0.5,0.5,-8.59080238342285,-0.15025,-0.0155,-0.5,0.016458363277231984,10,1,100,0.17685728463742567,-10,-1,-100,15000.64725907729,-0.016932717001008728,0.000521492403905636,0.999856495273515,27.867953329809712,0.029138480604747784,-77.52791807557264,24.592012109477157,-34.4942626953125,5356.25390625,True
1599562494.7170067,0.0,10,0.5,0.5,-7.578991313171386,-0.15025,-0.0155,-0.5,0.049504967260210336,10,1,100,0.16512675872312677,-10,-1,-100,15002.093542969786,-0.016786859561826187,0.0009233669862104635,0.9998586643818518,27.773682028457262,0.029563117095468584,-75.51753519164184,24.03425539985911,-36.622406005859375,5356.25390625,True
1599562494.7987893,0.0,10,0.5,0.5,-8.17518524017334,-0.15025,-0.0155,-0.5,0.026994633863790467,10,1,100,0.17425173501228333,-10,-1,-100,15002.574009291478,-0.01672195543832364,0.001083228696532662,0.9998595915536891,27.745185880951745,0.02968364839398203,-74.85790820217774,23.84834206169929,-37.46917724609375,5356.25390625,True
1599562494.834696,0.0,10,0.5,0.5,-8.08469182434082,-0.15025,-0.0155,-0.5,0.02985719640929673,10,1,100,0.17404922928642869,-10,-1,-100,15003.054475139244,-0.016645908950869627,0.0012535960666060515,0.9998606613984276,27.71666867089495,0.029789855625944675,-74.19940292763239,23.66243154707577,-38.384674072265625,5356.25390625,True
1599562494.8705964,0.0,10,0.5,0.5,-7.29765486907959,-0.15025,-0.0155,-0.5,0.05248383828725719,10,1,100,0.16203469935544204,-10,-1,-100,15003.95388261159,-0.01645242013658349,0.0016130326055027679,0.9998633486619373,27.65562246750004,0.029949191155153834,-72.87536038278621,23.29061896154681,-40.422027587890625,5356.25390625,True
1599562494.901518,0.0,10,0.5,0.5,-5.980744297790527,-0.15025,-0.0155,-0.5,0.08530339753293414,10,1,100,0.14064588138477524,-10,-1,-100,15005.334729149123,-0.016082402702329846,0.002236618839381097,0.9998681682399374,27.53683509155002,0.030014670505985365,-70.82878912101175,22.732922378327395,-43.9932861328125,5356.25390625,True
1599562494.9373868,0.0,10,0.5,0.5,-7.747460807800293,-0.15025,-0.0155,-0.5,0.023175609913768953,10,1,100,0.17757125670672305,-10,-1,-100,15005.334729149123,-0.016082402702329846,0.002236618839381097,0.9998681682399374,27.53683509155002,0.030014670505985365,-70.82878912101175,22.732922378327395,-43.9932861328125,5356.25390625,True
1599562494.9733303,0.0,10,0.5,0.5,-5.956911502075195,-0.15025,-0.0155,-0.5,0.07314173351195288,10,1,100,0.1433038031838807,-10,-1,-100,15006.236086313496,-0.015771658487774058,0.0026887949353633315,0.9998720043937326,27.424209982782493,0.02990985563550998,-69.38807936549664,22.361141121805023,-46.717926025390625,5356.25390625,True
1599562495.0112278,0.0,10,0.5,0.5,-3.2165628677368163,-0.15025,-0.0155,-0.5,0.13538149735870256,10,1,100,0.08837317846936099,-10,-1,-100,15008.031961153261,-0.014990889655291528,0.003663274160491232,0.9998809197348292,27.064309875887314,0.029250848936338125,-66.20564672305811,21.617626739439597,-52.992431640625,5356.25390625,True
1599562495.0421152,0.0,10,0.5,0.5,-5.1895139801025385,-0.15025,-0.0155,-0.5,0.06542908891257573,10,1,100,0.14092786486824188,-10,-1,-100,15008.451876957668,-0.014760674697390586,0.003909941501066199,0.9998834106234267,26.93647315944973,0.02898095801684354,-65.32768093504689,21.431760159210647,-54.733154296875,5356.25390625,True
1599562495.0780542,0.0,10,0.5,0.5,-3.6294842636108395,-0.15025,-0.0155,-0.5,0.09499901173505779,10,1,100,0.10889185059658182,-10,-1,-100,15009.287800832419,-0.01426215028547516,0.004399819684893033,0.9998886101241351,26.6225074360244,0.028307644613730396,-63.44897820713654,21.060044008998336,-58.421173095703125,5356.25390625,True
1599562495.1179466,0.0,10,0.5,0.5,-2.8594777908325195,-0.15025,-0.0155,-0.5,0.10322095934582107,10,1,100,0.097467238399925,-10,-1,-100,15010.124700740213,-0.01370751395168747,0.004916382714578014,0.9998939609989992,26.21798664856922,0.02745720577719566,-61.38472172395756,20.688354017463396,-62.3841552734375,5356.25390625,True
1599562495.1568055,0.0,10,0.5,0.5,-4.80103816833496,-0.15025,-0.0155,-0.5,0.05196395795015969,10,1,100,0.15262293721768022,-10,-1,-100,15010.124700740213,-0.01370751395168747,0.004916382714578014,0.9998939609989992,26.21798664856922,0.02745720577719566,-61.38472172395756,20.688354017463396,-62.3841552734375,5356.25390625,True
1599562495.1937404,0.0,10,0.5,0.5,0.9293908615112305,-0.15025,-0.0155,-0.5,0.15721558881886827,10,1,100,0.014222906959768522,-10,-1,-100,15011.735022600275,-0.012452072259785214,0.005869731037004415,0.9999052415874167,25.072389355072364,0.025276303011115338,-56.59877763215368,19.945069515334065,-71.13742065429688,5356.25390625,True
1599562495.2306397,0.0,10,0.5,0.5,-0.28197045593261727,-0.15025,-0.0155,-0.5,0.11420658748790552,10,1,100,0.06051310313348704,-10,-1,-100,15012.508445170592,-0.011735394174808863,0.006341223922592028,0.9999110307435984,24.297856879410414,0.024002711710930387,-53.831225934524156,19.573482981754097,-75.9271240234375,5356.25390625,True
1599562495.2625644,0.0,10,0.5,0.5,-1.0489097396850582,-0.15025,-0.0155,-0.5,0.08895871339616222,10,1,100,0.0930550802087406,-10,-1,-100,15012.926406621933,-0.011383993003661554,0.006536029334731202,0.9999138388000378,23.853480434618778,0.02333840456191501,-52.34654845363099,19.38770481731797,-78.34600830078125,5356.25390625,True
1599562495.3054466,0.0,10,0.5,0.5,-0.6600668670654297,-0.15025,-0.0155,-0.5,0.09108370228277382,10,1,100,0.08777250851567378,-10,-1,-100,15013.28089116502,-0.011020785296044,0.006728534689740238,0.9999166310810055,23.385397649585148,0.0226792521939825,-50.82901385368339,19.201936637566174,-80.72207641601562,5356.25390625,True
1599562495.3403444,0.0,10,0.5,0.5,-0.2497049377441405,-0.15025,-0.0155,-0.5,0.09402152152740662,10,1,100,0.08149051964023074,-10,-1,-100,15013.636352348025,-0.010638088951529729,0.006926163445744787,0.9999194264156399,22.901579482023596,0.022038503729209624,-49.297261799346686,19.0161781419376,-83.0926513671875,5356.25390625,True
1599562495.3772528,0.0,10,0.5,0.5,1.7924485839843751,-0.15025,-0.0155,-0.5,0.11492991387604477,10,1,100,0.03165254827327681,-10,-1,-100,15014.412705149036,-0.00984177759821376,0.007292050092090742,0.9999249798955728,21.883451159083418,0.02082790292272932,-46.18809093587678,18.644688825139983,-87.96932983398438,5356.25390625,True
1599562495.414159,0.0,10,0.5,0.5,2.712676234436035,-0.15025,-0.0155,-0.5,0.11330301938252488,10,1,100,0.020889926577359566,-10,-1,-100,15015.122651804471,-0.009024697181651883,0.0076065854788899745,0.999930344923151,21.348802749186103,0.02026060414397568,-44.16447012538545,18.273228288667447,-93.05099487304688,5356.25390625,True
1599562495.4470654,0.0,10,0.5,0.5,3.618958896255493,-0.15025,-0.0155,-0.5,0.11214928870887551,10,1,100,0.009303929029843852,-10,-1,-100,15015.895099179586,-0.008181784077541615,0.007878677693512625,0.999935490342807,22.191222634855887,0.02117854805109288,-44.9765922464515,17.901766957356486,-98.26087188720703,5356.25390625,True
1599562495.4829712,0.0,10,0.5,0.5,6.00415712852478,-0.15025,-0.0155,-0.5,0.12050082772195017,10,1,100,-0.04677661048497639,-10,-1,-100,15016.900940188789,-0.006911203956586581,0.008198794736007877,0.9999425058595856,23.356541139748877,0.022723219204001756,-45.86884039653605,17.344556080603795,-105.840087890625,5356.25390625,True
1599562495.520139,0.0,10,0.5,0.5,2.2819058223724364,-0.15025,-0.0155,-0.5,0.08881736467456795,10,1,100,0.07960177061101688,-10,-1,-100,15016.900940188789,-0.006911203956586581,0.008198794736007877,0.9999425058595856,23.356541139748877,0.022723219204001756,-45.86884039653605,17.344556080603795,-105.840087890625,5356.25390625,True
1599562495.5580354,0.0,10,0.5,0.5,5.426162649154662,-0.15025,-0.0155,-0.5,0.10653099612857853,10,1,100,-0.014541434321115237,-10,-1,-100,15017.60991311085,-0.006061535102653654,0.008356843738297582,0.9999467090575043,23.921706576117167,0.023647407284416628,-45.974993711374744,16.973068523766795,-110.57196044921875,5356.25390625,True
1599562495.5979283,0.0,10,0.5,0.5,7.403012393569946,-0.15025,-0.0155,-0.5,0.1080585043802599,10,1,100,-0.06767613961480247,-10,-1,-100,15018.613805277739,-0.004811875675642137,0.00851215007657506,0.9999521934340442,24.56541692468948,0.024852385139744106,-45.665527006514445,16.415821087096962,-117.15660095214844,5356.25390625,True
1599562495.6363358,0.0,10,0.5,0.5,6.805482978439331,-0.15025,-0.0155,-0.5,0.09815395643502092,10,1,100,-0.033455196799008546,-10,-1,-100,15019.259304564097,-0.003993215238956309,0.008561322742639701,0.9999553779969143,24.88601010429145,0.025500026155536436,-45.21668564029323,16.044316037551035,-121.20256042480469,5356.25390625,True
1599562495.6752312,0.0,10,0.5,0.5,8.459437672805787,-0.15025,-0.0155,-0.5,0.09586433151535116,10,1,100,-0.07985073163222942,-10,-1,-100,15020.20070035127,-0.002833919777816917,0.00858336921851246,0.9999591465012717,25.159309333017983,0.026122153731215764,-44.128519485718385,15.487058038627877,-126.75505065917969,5356.25390625,True
1599562495.712634,0.0,10,0.5,0.5,6.868529391098022,-0.15025,-0.0155,-0.5,0.09271924312036721,10,1,100,-0.006473237828783972,-10,-1,-100,15020.49464279646,-0.00245452554364718,0.00857313354341623,0.999960237552275,25.20294344347159,0.026237640295309426,-43.67582189060882,15.301307221568266,-128.4682159423828,5356.25390625,True
1599562495.7515295,0.0,10,0.5,0.5,8.175816773605346,-0.15025,-0.0155,-0.5,0.09060349175900201,10,1,100,-0.04853504889885469,-10,-1,-100,15021.07862314966,-0.0017346811968630333,0.008543097035409364,0.9999620024651881,25.2309728913694,0.02634055153168311,-42.664678402158785,14.929810857569132,-131.68780517578125,5356.25390625,True
1599562495.7894285,0.0,10,0.5,0.5,8.548290626907349,-0.15025,-0.0155,-0.5,0.08663342823774156,10,1,100,-0.05429403356808302,-10,-1,-100,15021.662603209843,-0.0010352929267947793,0.008478562317079556,0.9999635204094153,25.192455218567087,0.026286684158953733,-41.54136333749784,14.558324053671576,-134.63206481933594,5356.25390625,True
1599562495.8263297,0.0,10,0.5,0.5,8.03058757209778,-0.15025,-0.0155,-0.5,0.08970906542285426,10,1,100,-0.021287812536376655,-10,-1,-100,15021.954593828996,-0.0007068050581617491,0.008447062023155127,0.9999640731395237,25.152759187017125,0.026207609148695948,-40.947624243296346,14.372585221993557,-136.000732421875,5356.25390625,True
1599562495.8642292,0.0,10,0.5,0.5,8.249948552703856,-0.15025,-0.0155,-0.5,0.08889046912029391,10,1,100,-0.024458299121000768,-10,-1,-100,15022.248537910753,-0.0003861525531982113,0.00841046689471906,0.9999645568383004,25.10158322401961,0.0260976498767827,-40.33709101515931,14.186849554488143,-137.300537109375,5356.25390625,True
1599562495.903125,0.0,10,0.5,0.5,9.204772349548339,-0.15025,-0.0155,-0.5,0.08338241855742617,10,1,100,-0.06092735556308771,-10,-1,-100,15022.830567150726,0.00023095473587544208,0.008326932979970463,0.9999653038216161,24.970817048171156,0.02579728076595335,-39.07797174731577,13.815389113308592,-139.6934051513672,5356.25390625,True
1599562496.2192798,0.0,10,0.5,0.5,9.437660972595214,-0.15025,-0.0155,-0.5,0.08006012853421816,10,1,100,-0.06454834674634424,-10,-1,-100,15023.354003102286,0.0008183865924334028,0.008220673931584427,0.9999658747994833,24.811909944498453,0.025410584461418365,-37.78693874660718,13.44394363468882,-141.81082153320312,5356.25390625,True
1599562496.253194,0.0,10,0.5,0.5,10.643219749450683,-0.15025,-0.0155,-0.5,0.06558080514578828,10,1,100,-0.12310133766792784,-10,-1,-100,15024.396970896283,0.0018784609961413207,0.007992568374799317,0.9999662945495014,24.504061562599503,0.02452474017002253,-35.25913769942378,12.701098640033461,-145.218505859375,5356.25390625,True
1599562496.2881014,0.0,10,0.5,0.5,9.821850425720214,-0.15025,-0.0155,-0.5,0.07513789382216682,10,1,100,-0.07006907606492672,-10,-1,-100,15024.854979070253,0.0023539714061468872,0.007872554658145181,0.9999662402810274,24.354753104748173,0.024046369199349032,-34.021012763947326,12.329698181853592,-146.5087432861328,5356.25390625,True
1599562496.319018,0.0,10,0.5,0.5,9.215956295776367,-0.15025,-0.0155,-0.5,0.08707038867913093,10,1,100,-0.023152753728880388,-10,-1,-100,15024.854979070253,0.0023539714061468872,0.007872554658145181,0.9999662402810274,24.354753104748173,0.024046369199349032,-34.021012763947326,12.329698181853592,-146.5087432861328,5356.25390625,True
1599562496.361346,0.0,10,0.5,0.5,10.168539244842528,-0.15025,-0.0155,-0.5,0.07031626224639612,10,1,100,-0.09333006754177778,-10,-1,-100,15025.605956796091,0.002987230721551442,0.007720890612902471,0.9999657315632169,24.137036479823916,0.023309724633870196,-32.19557357147435,11.772622866900196,-147.92660522460938,5356.25390625,True
1599562496.3962932,0.0,10,0.5,0.5,9.88045853729248,-0.15025,-0.0155,-0.5,0.07224503921740147,10,1,100,-0.07261254350780655,-10,-1,-100,15026.064942168887,0.003369632829551118,0.007601323310536887,0.9999654321317926,24.003578957958624,0.022823460408639185,-31.008876565686162,11.401254763320159,-148.52743530273438,5356.25390625,True
1599562496.4321837,0.0,10,0.5,0.5,9.817126919555664,-0.15025,-0.0155,-0.5,0.07509885581919376,10,1,100,-0.07170003627094675,-10,-1,-100,15026.521974842297,0.003704335303737176,0.007519425708152534,0.9999648674513405,23.883724983360516,0.022351784467407085,-29.850324240458605,11.02989748570175,-148.85189819335938,5356.25390625,True
1599562496.4631104,0.0,10,0.5,0.5,9.715255086517333,-0.15025,-0.0155,-0.5,0.07808845062609025,10,1,100,-0.055877909146536786,-10,-1,-100,15026.749514795607,0.003860464008020291,0.007473023419328478,0.9999646247436039,23.829640126696347,0.022123604504309988,-29.28197503854717,10.844222514726315,-148.91082763671875,5356.25390625,True
1599562496.4990003,0.0,10,0.5,0.5,9.647896059417725,-0.15025,-0.0155,-0.5,0.07322593076221795,10,1,100,-0.07188295501231734,-10,-1,-100,15027.146976809017,0.004143747547906417,0.007387520284002158,0.9999641263066954,23.73384291431764,0.02168587725184637,-28.166716764701984,10.472878937003266,-148.82177734375,5356.25390625,True
1599562496.5388918,0.0,10,0.5,0.5,9.473043448638915,-0.15025,-0.0155,-0.5,0.07269151194994619,10,1,100,-0.07128714364556085,-10,-1,-100,15027.542485996266,0.004391743480740468,0.007305861759603684,0.999963667826561,23.654477938047947,0.02127629021027248,-27.078235823530957,10.101542969681356,-148.45693969726562,5356.25390625,True
1599562496.5777876,0.0,10,0.5,0.5,9.252399967956544,-0.15025,-0.0155,-0.5,0.0731627741998871,10,1,100,-0.06984118757655239,-10,-1,-100,15027.938971230411,0.004600266738376015,0.007236839186259413,0.9999632321763275,23.590379517511167,0.020897882854260384,-26.0131724475782,9.730213344904271,-147.81619262695312,5356.25390625,True
1599562496.6146894,0.0,10,0.5,0.5,9.582081828308105,-0.15025,-0.0155,-0.5,0.07996664805978167,10,1,100,-0.049367049827591956,-10,-1,-100,15027.938971230411,0.004600266738376015,0.007236839186259413,0.9999632321763275,23.590379517511167,0.020897882854260384,-26.0131724475782,9.730213344904271,-147.81619262695312,5356.25390625,True
1599562496.6525881,0.0,10,0.5,0.5,8.21482449798584,-0.15025,-0.0155,-0.5,0.0663681968941538,10,1,100,-0.08373342596910753,-10,-1,-100,15028.663582282607,0.0049102139708059435,0.00711390392947056,0.9999626403869513,23.496861884912214,0.020242399355153286,-23.934267780048593,8.987569282204072,-145.70733642578125,5356.25390625,True
1599562496.6843653,0.0,10,0.5,0.5,8.81316482925415,-0.15025,-0.0155,-0.5,0.0751240544809153,10,1,100,-0.05915703768727808,-10,-1,-100,15028.894051219104,0.0049662386135759205,0.007082432992931866,0.9999625871086046,23.477511076019525,0.02010036885570455,-23.42096181134018,8.801910811643003,-145.00784301757812,5356.25390625,True
1599562496.7202687,0.0,10,0.5,0.5,8.11631157836914,-0.15025,-0.0155,-0.5,0.07256011574253254,10,1,100,-0.0628823975709284,-10,-1,-100,15029.227058977704,0.005048662226665967,0.007031232809061585,0.9999625356856654,23.438566114418848,0.019842663092381644,-22.396493304565443,8.430596678547513,-143.40188598632812,5356.25390625,True
1599562496.7601626,0.0,10,0.5,0.5,7.688771713256836,-0.15025,-0.0155,-0.5,0.07167926895390384,10,1,100,-0.060182411795307186,-10,-1,-100,15029.559090164723,0.005097173430146621,0.006977306450922743,0.9999626673119916,23.392972970551796,0.019618976608753183,-21.369142084175106,8.059285662729364,-141.52029418945312,5356.25390625,True
1599562496.80205,0.0,10,0.5,0.5,8.61870654296875,-0.15025,-0.0155,-0.5,0.07700950308182668,10,1,100,-0.0555040455073013,-10,-1,-100,15029.559090164723,0.005097173430146621,0.006977306450922743,0.9999626673119916,23.392972970551796,0.019618976608753183,-21.369142084175106,8.059285662729364,-141.52029418945312,5356.25390625,True
1599562496.8379545,0.0,10,0.5,0.5,5.6225188415527345,-0.15025,-0.0155,-0.5,0.06576027130721074,10,1,100,-0.054696538290225374,-10,-1,-100,15030.160650683683,0.005088566238967377,0.006875533543205534,0.9999634160968731,23.24468038404977,0.019259691089369597,-19.27834151320981,7.316672598050813,-136.93002319335938,5356.25390625,True
1599562496.8764472,0.0,10,0.5,0.5,7.899084092712402,-0.15025,-0.0155,-0.5,0.0758778130913193,10,1,100,-0.05568006763124451,-10,-1,-100,15030.160650683683,0.005088566238967377,0.006875533543205534,0.9999634160968731,23.24468038404977,0.019259691089369597,-19.27834151320981,7.316672598050813,-136.93002319335938,5356.25390625,True
1599562496.9103556,0.0,10,0.5,0.5,5.171610915374756,-0.15025,-0.0155,-0.5,0.06655441729730721,10,1,100,-0.04533246435909924,-10,-1,-100,15030.53369456646,0.0049936381922287285,0.006791240842115239,0.9999644706815484,23.038914656506638,0.019038744580156218,-17.65396681277518,6.7597195733128315,-132.7638702392578,5356.25390625,True
1599562496.9532409,0.0,10,0.5,0.5,5.200355978393555,-0.15025,-0.0155,-0.5,0.06807428486002708,10,1,100,-0.043424323533529735,-10,-1,-100,15030.802247007145,0.0048894460561325175,0.006728895928891959,0.9999654070400849,22.831258351321953,0.01889108032929713,-16.5343432747928,6.388419560512467,-129.64198303222656,5356.25390625,True
1599562496.9961264,0.0,10,0.5,0.5,6.733129557037353,-0.15025,-0.0155,-0.5,0.0742579818566183,10,1,100,-0.05387245507492648,-10,-1,-100,15030.802247007145,0.0048894460561325175,0.006728895928891959,0.9999654070400849,22.831258351321953,0.01889108032929713,-16.5343432747928,6.388419560512467,-129.64198303222656,5356.25390625,True
1599562497.0340247,0.0,10,0.5,0.5,2.107538439178467,-0.15025,-0.0155,-0.5,0.0573664800341036,10,1,100,-0.021916180791254698,-10,-1,-100,15031.27685003844,0.004598671581446632,0.00657579858801216,0.9999678050280498,22.17829079190127,0.018515490212047434,-14.195177980327882,5.645818057380682,-122.57174682617188,5356.25390625,True
1599562497.0744267,0.0,10,0.5,0.5,3.0394518959045405,-0.15025,-0.0155,-0.5,0.06223475774023417,10,1,100,-0.029814615543946987,-10,-1,-100,15031.484854046605,0.004406418322565174,0.006481365443942127,0.9999692872181367,21.697834850677122,0.01823876105782381,-12.974619310957179,5.274512348335072,-118.62350463867188,5356.25390625,True
1599562497.1153178,0.0,10,0.5,0.5,2.2262501068115235,-0.15025,-0.0155,-0.5,0.0595313635490993,10,1,100,-0.026700739476287153,-10,-1,-100,15031.688951615011,0.004203843595958769,0.006371487245367226,0.999970865500242,21.117278736755896,0.017887456893773003,-11.738771487264792,4.903199683797385,-114.39985656738281,5356.25390625,True
1599562497.1562076,0.0,10,0.5,0.5,1.367670694732666,-0.15025,-0.0155,-0.5,0.05646973804657128,10,1,100,-0.02158139508130297,-10,-1,-100,15031.89695464063,0.00397391327602646,0.006244364783515874,0.9999726075856904,20.449151193496625,0.017455916719232478,-10.506710954159676,4.531876357703198,-109.90089416503906,5356.25390625,True
1599562497.198096,0.0,10,0.5,0.5,3.5681418258666993,-0.15025,-0.0155,-0.5,0.06910869006496577,10,1,100,-0.04446210105912182,-10,-1,-100,15031.89695464063,0.00397391327602646,0.006244364783515874,0.9999726075856904,20.449151193496625,0.017455916719232478,-10.506710954159676,4.531876357703198,-109.90089416503906,5356.25390625,True
1599562497.2429779,0.0,10,0.5,0.5,-2.8688233966827394,-0.15025,-0.0155,-0.5,0.03488307675612731,10,1,100,0.01066467508233078,-10,-1,-100,15032.244601386134,0.003473781911244273,0.005933889154951349,0.9999763606199547,18.87048146029758,0.016315087200829973,-8.106913119149885,3.789179842900518,-100.0770492553711,5356.25390625,True
1599562497.2838674,0.0,10,0.5,0.5,-1.4764534866333008,-0.15025,-0.0155,-0.5,0.044876777653340194,10,1,100,-0.008612631370800872,-10,-1,-100,15032.325650355779,0.003195833260405048,0.0057433464502203106,0.999978400077384,17.80287577503457,0.015451948317152636,-6.8987341321191336,3.417798422221637,-94.75228118896484,5356.25390625,True
1599562497.3287466,0.0,10,0.5,0.5,1.1205550464630127,-0.15025,-0.0155,-0.5,0.0638178294171455,10,1,100,-0.03621822315686714,-10,-1,-100,15032.325650355779,0.003195833260405048,0.0057433464502203106,0.999978400077384,17.80287577503457,0.015451948317152636,-6.8987341321191336,3.417798422221637,-94.75228118896484,5356.25390625,True
1599562497.367643,0.0,10,0.5,0.5,-2.3969981761932373,-0.15025,-0.0155,-0.5,0.04175208106976478,10,1,100,-0.007062810390848502,-10,-1,-100,15032.469199948828,0.002932418421561082,0.005543701369236754,0.9999803339552882,16.698393488403585,0.014510382430342582,-5.767633335947054,3.046390684021878,-89.433349609375,5356.25390625,True
1599562497.4070463,0.0,10,0.5,0.5,-3.10710569190979,-0.15025,-0.0155,-0.5,0.03681454590463411,10,1,100,-0.0023227929767550767,-10,-1,-100,15032.611772773205,0.002651638434878965,0.005318396607350201,0.9999823415796589,16.80049372343092,0.01457514462817899,-5.095433995725287,2.674962081771721,-84.34722900390625,5356.25390625,True
1599562497.451929,0.0,10,0.5,0.5,-3.949380271530151,-0.15025,-0.0155,-0.5,0.03125378014534817,10,1,100,0.0015334153081416578,-10,-1,-100,15032.690869164653,0.002363361833142755,0.005064303952661228,0.9999843835512237,17.726807794352577,0.015341175361998935,-4.629869552517652,2.3035210809985025,-79.24899291992188,5356.25390625,True
1599562497.4948125,0.0,10,0.5,0.5,-6.336845977401733,-0.15025,-0.0155,-0.5,0.01244919477014396,10,1,100,0.018803694921541977,-10,-1,-100,15032.810002254322,0.0019463217530319283,0.004663733940110624,0.9999872306271564,18.901535551629813,0.016322447962078237,-3.7426943600000024,1.746358855912693,-71.76043701171875,5356.25390625,True
1599562497.535703,0.0,10,0.5,0.5,-4.207823095321656,-0.15025,-0.0155,-0.5,0.036499319512748526,10,1,100,-0.007363877305535789,-10,-1,-100,15032.851015363936,0.0018073178791496412,0.00451986927318269,0.9999881521217325,19.217498715379705,0.016589042597004045,-3.4006052930359227,1.5606400161949736,-69.38809204101562,5356.25390625,True
1599562497.8737986,0.0,10,0.5,0.5,-6.043956282424927,-0.15025,-0.0155,-0.5,0.018074237850578538,10,1,100,0.009095741213744221,-10,-1,-100,15032.868588733254,0.0015334964851875703,0.004223265759021373,0.9999899061564865,19.732378992057765,0.017022048648558243,-2.660714702286865,1.1892035982279512,-64.84747314453125,5356.25390625,True
1599562497.9106998,0.0,10,0.5,0.5,-7.936951026535034,-0.15025,-0.0155,-0.5,-0.0031488923030047813,10,1,100,0.02552131429594945,-10,-1,-100,15032.926199556096,0.0011374631142845846,0.003762526016591686,0.9999922747579792,20.198166619761057,0.017416759296739318,-1.4475334187108153,0.6320395790291378,-58.55224609375,5356.25390625,True
1599562497.9478724,0.0,10,0.5,0.5,-7.373723926162719,-0.15025,-0.0155,-0.5,0.007473199777290301,10,1,100,0.01428139870422179,-10,-1,-100,15032.9437741976,0.0008821924189900689,0.0034424923958100385,0.9999936854713837,20.338706547926158,0.017543568882750937,-0.6009639555393719,0.26058283345323785,-54.7001953125,5356.25390625,True
1599562498.0057178,0.0,10,0.5,0.5,-6.70319901046753,-0.15025,-0.0155,-0.5,0.021521286585381848,10,1,100,0.002689364806568952,-10,-1,-100,15032.92228791397,0.0007578662673303116,0.003281527526772229,0.9999943285918235,20.366132503462637,0.017571632212661933,-0.17285307150791454,0.07484893832192574,-52.8775634765625,5356.25390625,True
1599562498.0456114,0.0,10,0.5,0.5,-9.143361323165895,-0.15025,-0.0155,-0.5,-0.015376868784283404,10,1,100,0.03043355257618522,-10,-1,-100,15032.913494667737,0.0003948389379095431,0.002801996068762216,0.9999959964521078,20.426582833225204,0.01764177761109447,1.1173133217591524,-0.48237511791978416,-47.8232421875,5356.25390625,True
1599562498.0825124,0.0,10,0.5,0.5,-9.572004089355469,-0.15025,-0.0155,-0.5,-0.02188912548952038,10,1,100,0.032395912442661975,-10,-1,-100,15032.906654732418,4.9520816306779015e-05,0.0023095300008704666,0.9999973318058724,20.434580147393973,0.017673310894833667,2.4090727007662474,-1.0396260612669475,-43.38946533203125,5356.25390625,True
1599562498.1184156,0.0,10,0.5,0.5,-9.124579171752929,-0.15025,-0.0155,-0.5,-0.007127691192607102,10,1,100,0.022912925091661415,-10,-1,-100,15032.799230909208,-0.00017557495686367937,0.0019989685885484208,0.9999979866469815,20.38663884236416,0.017651693012642775,3.262360913545382,-1.4111401288436216,-40.77801513671875,5356.25390625,True
1599562498.1503305,0.0,10,0.5,0.5,-7.88638635559082,-0.15025,-0.0155,-0.5,0.023596507237717303,10,1,100,0.0006860691137898435,-10,-1,-100,15032.799230909208,-0.00017557495686367937,0.0019989685885484208,0.9999979866469815,20.38663884236416,0.017651693012642775,3.262360913545382,-1.4111401288436216,-40.77801513671875,5356.25390625,True
1599562498.1882305,0.0,10,0.5,0.5,-10.157040998840332,-0.15025,-0.0155,-0.5,-0.027521199822456075,10,1,100,0.03715672554316631,-10,-1,-100,15032.728916998953,-0.0005048182545943687,0.0015370488292414926,0.9999986913188569,20.28444727460617,0.017602260498415418,4.5280789642461015,-1.9684279369248336,-37.37774658203125,5356.25390625,True
1599562498.224134,0.0,10,0.5,0.5,-9.760057862854005,-0.15025,-0.0155,-0.5,-0.016252008980293428,10,1,100,0.02747222294034575,-10,-1,-100,15032.621494044317,-0.0007138611015896936,0.0012224114058101902,0.9999989980558392,20.212088478826796,0.017574053009567655,5.363673132018061,-2.339962397583582,-35.45562744140625,5356.25390625,True
1599562498.2620316,0.0,10,0.5,0.5,-9.922478050231932,-0.15025,-0.0155,-0.5,-0.01622041848131442,10,1,100,0.030439325314744137,-10,-1,-100,15032.511142056086,-0.0009285817304611203,0.0009396622598336995,0.9999991273850228,20.139424622470045,0.01755485053825461,6.193142612355243,-2.711502951355614,-33.808746337890625,5356.25390625,True
1599562498.2939475,0.0,10,0.5,0.5,-9.615328318786622,-0.15025,-0.0155,-0.5,-0.004161937911733759,10,1,100,0.020726549283371937,-10,-1,-100,15032.490634506219,-0.001033246085317535,0.0007952252263959755,0.9999991500093219,20.105704915775974,0.0175517197720205,6.606465097619644,-2.897275200011979,-33.0887451171875,5356.25390625,True
1599562498.334837,0.0,10,0.5,0.5,-10.096813468933105,-0.15025,-0.0155,-0.5,-0.020768269426724023,10,1,100,0.033366887460971384,-10,-1,-100,15032.318759325892,-0.0012413342920746322,0.000515649728398311,0.9999990965968585,20.048096216140696,0.017563447910392438,7.432545954964102,-3.2688233362314416,-31.8553466796875,5356.25390625,True
1599562498.3737342,0.0,10,0.5,0.5,-10.138309593200683,-0.15025,-0.0155,-0.5,-0.023151921393236123,10,1,100,0.035355855910435545,-10,-1,-100,15032.209384914953,-0.0014466564416570633,0.00024248138749342579,0.9999989241933795,20.009496740006057,0.017605195498254022,8.261696528720849,-3.64037617632146,-30.8975830078125,5356.25390625,True
1599562498.4121408,0.0,10,0.5,0.5,-9.937757202148436,-0.15025,-0.0155,-0.5,-0.010184694962633436,10,1,100,0.02649213638046309,-10,-1,-100,15032.122471135342,-0.0015507295612695352,0.0001147931779847171,0.9999987910294462,20.004645461055233,0.017643934062980073,8.681352099022266,-3.8261541705768454,-30.521942138671875,5356.25390625,True
1599562498.4490776,0.0,10,0.5,0.5,-10.2407673248291,-0.15025,-0.0155,-0.5,-0.03830714719403021,10,1,100,0.05052101815199506,-10,-1,-100,15031.865636662696,-0.0018620171692955466,-0.00025450275740791827,0.9999982340586444,20.03151771342018,0.017817277985648493,9.95981976336506,-4.3834941253261945,-29.808349609375,5356.25390625,True
1599562498.4889362,0.0,10,0.5,0.5,-9.90502178955078,-0.15025,-0.0155,-0.5,-0.0016339569305945092,10,1,100,0.01958341114795415,-10,-1,-100,15031.865636662696,-0.0018620171692955466,-0.00025450275740791827,0.9999982340586444,20.03151771342018,0.017817277985648493,9.95981976336506,-4.3834941253261945,-29.808349609375,5356.25390625,True
1599562498.527831,0.0,10,0.5,0.5,-9.913729956054688,-0.15025,-0.0155,-0.5,-0.05048745673239349,10,1,100,0.06559442492986822,-10,-1,-100,15031.458412976004,-0.002278765983483464,-0.0006965768725643123,0.9999971609990966,20.176128905405346,0.0181908156073709,11.733325321267932,-5.126626141107238,-29.82110595703125,5356.25390625,True
1599562498.5657291,0.0,10,0.5,0.5,-9.937091339111328,-0.15025,-0.0155,-0.5,-0.006549599762865357,10,1,100,0.02412986261373849,-10,-1,-100,15031.458412976004,-0.002278765983483464,-0.0006965768725643123,0.9999971609990966,20.176128905405346,0.0181908156073709,11.733325321267932,-5.126626141107238,-29.82110595703125,5356.25390625,True
1599562498.6036277,0.0,10,0.5,0.5,-9.67582930908203,-0.15025,-0.0155,-0.5,-0.030035597401715075,10,1,100,0.04687296290459735,-10,-1,-100,15031.285562913865,-0.0024839087609195543,-0.0009080553731885772,0.9999965028102381,20.297631018307374,0.018439337149783113,12.660066989917576,-5.498195818542351,-30.24090576171875,5356.25390625,True
1599562498.6425245,0.0,10,0.5,0.5,-9.44204226989746,-0.15025,-0.0155,-0.5,-0.0273968103085871,10,1,100,0.05016275571910086,-10,-1,-100,15031.05021357711,-0.0026987002681211868,-0.001074382794019474,0.9999957813503387,20.45069778315017,0.018726504246519938,13.618189635221253,-5.869766923882776,-30.9356689453125,5356.25390625,True
1599562498.6754367,0.0,10,0.5,0.5,-9.162736956787109,-0.15025,-0.0155,-0.5,-0.03041710282548818,10,1,100,0.051745128127889534,-10,-1,-100,15030.814864012646,-0.002906741279713786,-0.0012512157948795233,0.9999949926445469,20.632350289746988,0.019048182199238053,14.609585642367401,-6.241338375578218,-31.906280517578125,5356.25390625,True
1599562498.712338,0.0,10,0.5,0.5,-9.267222647094727,-0.15025,-0.0155,-0.5,-0.02088338475353358,10,1,100,0.04285362586081633,-10,-1,-100,15030.666427679593,-0.0030133344558296686,-0.0013234425031697305,0.9999945841430333,20.73268063005467,0.019220225813680762,15.118008157514234,-6.4271240451666865,-32.4947509765625,5356.25390625,True
1599562498.7542267,0.0,10,0.5,0.5,-7.582173251342773,-0.15025,-0.0155,-0.5,-0.0412297483017382,10,1,100,0.0789472924173496,-10,-1,-100,15030.1351818908,-0.0034367506753909963,-0.0015723981863885353,0.9999928581288661,21.181733299655487,0.019957580036522246,17.233187846187466,-7.170261382131224,-35.537109375,5356.25390625,True
1599562498.797119,0.0,10,0.5,0.5,-9.096161184692383,-0.15025,-0.0155,-0.5,-0.01651566793724591,10,1,100,0.036804679884590234,-10,-1,-100,15030.1351818908,-0.0034367506753909963,-0.0015723981863885353,0.9999928581288661,21.181733299655487,0.019957580036522246,17.233187846187466,-7.170261382131224,-35.537109375,5356.25390625,True
1599562498.8360503,0.0,10,0.5,0.5,-6.393922175598144,-0.15025,-0.0155,-0.5,-0.03428555602607204,10,1,100,0.08258184875567487,-10,-1,-100,15029.474054202787,-0.003851192191388019,-0.0017324088132284335,0.9999910834994523,21.657571439597273,0.02069182423650765,19.448765560808255,-7.91338132737264,-39.68084716796875,5356.25390625,True
1599562498.8739114,0.0,10,0.5,0.5,-6.834587287902831,-0.15025,-0.0155,-0.5,-0.02495698785137153,10,1,100,0.06387309511206637,-10,-1,-100,15029.177181484993,-0.004056069286423333,-0.0017917243032621359,0.9999901689646576,21.88004825979358,0.021013735051592465,20.57237641836062,-8.284931671888138,-42.1658935546875,5356.25390625,True
1599562498.9123194,0.0,10,0.5,0.5,-7.182992207336426,-0.15025,-0.0155,-0.5,-0.020162681630847647,10,1,100,0.05419565076791717,-10,-1,-100,15029.026791977114,-0.0041523498314021455,-0.0018006653998826898,0.9999897577450458,21.982180244408713,0.021153878152716403,21.132526743410498,-8.470704066035276,-43.511474609375,5356.25390625,True
1599562498.9512155,0.0,10,0.5,0.5,-4.941041445922851,-0.15025,-0.0155,-0.5,-0.02013802325563772,10,1,100,0.07577775170021443,-10,-1,-100,15028.454529390787,-0.004434375259087479,-0.0018075657856473591,0.9999885344452668,22.231337467948542,0.021453658112299056,22.780426651993412,-9.028009574950723,-47.961334228515625,5356.25390625,True
1599562498.9905481,0.0,10,0.5,0.5,-7.137853901672363,-0.15025,-0.0155,-0.5,-0.019559083570479092,10,1,100,0.0477907698592415,-10,-1,-100,15028.454529390787,-0.004434375259087479,-0.0018075657856473591,0.9999885344452668,22.231337467948542,0.021453658112299056,22.780426651993412,-9.028009574950723,-47.961334228515625,5356.25390625,True
1599562499.0304418,0.0,10,0.5,0.5,-3.8141110763549806,-0.15025,-0.0155,-0.5,-0.015050573188727542,10,1,100,0.0764307429408027,-10,-1,-100,15027.883243186516,-0.004692965499376064,-0.001765761590892837,0.9999874290013979,22.35265782504931,0.02150423976106421,24.3211576767153,-9.58529864912121,-53.03057861328125,5356.25390625,True
1599562499.067343,0.0,10,0.5,0.5,-5.126224134826661,-0.15025,-0.0155,-0.5,-0.016439465534709614,10,1,100,0.05935744295080521,-10,-1,-100,15027.732853521942,-0.004771022749519115,-0.0017397555453550419,0.9999871052131452,22.3550670568558,0.021452092790827007,24.796053027690256,-9.771058761924923,-54.85797119140625,5356.25390625,True
1599562499.105749,0.0,10,0.5,0.5,-3.493536534118652,-0.15025,-0.0155,-0.5,-0.012504583168055722,10,1,100,0.06882861183351119,-10,-1,-100,15027.308050697553,-0.004926390619973938,-0.0016798979008506695,0.999986454217507,22.290103661056733,0.02123110241105992,25.665938796569055,-10.14257657473584,-58.719268798828125,5356.25390625,True
1599562499.138661,0.0,10,0.5,0.5,-2.6937550323486326,-0.15025,-0.0155,-0.5,-0.00927771372974195,10,1,100,0.06755819334113009,-10,-1,-100,15026.884224275942,-0.005054345737580181,-0.0015958226333186777,0.9999859533709902,22.11738709297301,0.020846926961738354,26.401910290989942,-10.51409370134593,-62.855804443359375,5356.25390625,True
1599562499.1755621,0.0,10,0.5,0.5,-3.3076552871704097,-0.15025,-0.0155,-0.5,-0.0126480490588916,10,1,100,0.06174199766982515,-10,-1,-100,15026.673287164187,-0.005116323524699276,-0.0015500086890573818,0.9999857102512288,21.9853686931314,0.020593276943118837,26.709033753227146,-10.699853249036646,-65.02731323242188,5356.25390625,True
1599562499.496725,0.0,10,0.5,0.5,0.1569205032348635,-0.15025,-0.0155,-0.5,0.0005624522940427049,10,1,100,0.07240290629053452,-10,-1,-100,15026.034616607125,-0.005268057434223713,-0.0013882845360634656,0.9999851600083456,21.382414650391283,0.019595653967198222,27.332806250716583,-11.257141449991384,-71.954833984375,5356.25390625,True
1599562499.5326293,0.0,10,0.5,0.5,1.6506196517944338,-0.15025,-0.0155,-0.5,0.0051161064362311715,10,1,100,0.06906795089612507,-10,-1,-100,15025.337351785623,-0.005374391516348719,-0.0012001785632101602,0.999984837628674,20.469484609549546,0.018333145153061416,27.464770536206842,-11.814453763730814,-79.5018310546875,5356.25390625,True
1599562499.5735197,0.0,10,0.5,0.5,-2.0650081802368163,-0.15025,-0.0155,-0.5,-0.013635336275094168,10,1,100,0.058566374906617,-10,-1,-100,15025.337351785623,-0.005374391516348719,-0.0012001785632101602,0.999984837628674,20.469484609549546,0.018333145153061416,27.464770536206842,-11.814453763730814,-79.5018310546875,5356.25390625,True
1599562499.6283743,0.0,10,0.5,0.5,4.681081010437012,-0.15025,-0.0155,-0.5,0.015587463989908611,10,1,100,0.06492568511420567,-10,-1,-100,15024.362742544152,-0.005431092480340483,-0.0009350626397434736,0.9999848143308626,18.848620504154916,0.016561266897715452,26.885675195596875,-12.557582832143975,-89.7906494140625,5356.25390625,True
1599562499.691712,0.0,10,0.5,0.5,2.9200583824157715,-0.15025,-0.0155,-0.5,0.004918178487131863,10,1,100,0.058974517012933055,-10,-1,-100,15023.813914107159,-0.005427631176483923,-0.0007918348531134598,0.9999849567955397,18.902035818068857,0.01662216989542798,27.762323291474537,-12.929156008587817,-94.89414978027344,5356.25390625,True
1599562499.7281067,0.0,10,0.5,0.5,3.730141715621948,-0.15025,-0.0155,-0.5,0.004729447983755899,10,1,100,0.05637021072727564,-10,-1,-100,15023.264108739444,-0.005399906065001623,-0.0006642668979646232,0.9999851997724654,19.988436114817485,0.017722288405386984,30.20463412018902,-13.30070904160057,-99.95233917236328,5356.25390625,True
1599562499.7630124,0.0,10,0.5,0.5,4.4075340587615965,-0.15025,-0.0155,-0.5,0.006455038228375492,10,1,100,0.054038695368395465,-10,-1,-100,15022.77680327848,-0.005352863150786417,-0.0005336102044172556,0.9999855309534427,20.99737664795462,0.018865464175588764,32.61882081306297,-13.672236281336028,-104.77165222167969,5356.25390625,True
1599562499.7939305,0.0,10,0.5,0.5,3.5766747203826905,-0.15025,-0.0155,-0.5,0.0003321181734644036,10,1,100,0.05537618505983869,-10,-1,-100,15022.501411942882,-0.005321726916511833,-0.00047159079745605657,0.9999857283105323,21.439855683900195,0.01941345987978003,33.760414906695225,-13.857989431057423,-107.08065795898438,5356.25390625,True
1599562499.8298337,0.0,10,0.5,0.5,5.3662946445465085,-0.15025,-0.0155,-0.5,0.007212954143999103,10,1,100,0.05018384894197097,-10,-1,-100,15021.888129392872,-0.005245858796739289,-0.0003537549251259189,0.9999861778159423,22.208536386950474,0.02044512001614938,35.91193364989667,-14.229475120492333,-111.49305725097656,5356.25390625,True
1599562499.8657382,0.0,10,0.5,0.5,5.925642080307007,-0.15025,-0.0155,-0.5,0.007699272541041687,10,1,100,0.04732097422459437,-10,-1,-100,15021.33832357172,-0.0051506875421888625,-0.00024333948095103645,0.9999867055134981,22.868935956007462,0.021403262327079595,37.949060639369115,-14.60093366603525,-115.63017272949219,5356.25390625,True
1599562499.900754,0.0,10,0.5,0.5,3.9355187732696533,-0.15025,-0.0155,-0.5,-0.0032116049556359253,10,1,100,0.056841536081385986,-10,-1,-100,15021.33832357172,-0.0051506875421888625,-0.00024333948095103645,0.9999867055134981,22.868935956007462,0.021403262327079595,37.949060639369115,-14.60093366603525,-115.63017272949219,5356.25390625,True
1599562499.9316711,0.0,10,0.5,0.5,7.70247486000061,-0.15025,-0.0155,-0.5,0.01278960624687644,10,1,100,0.03833877599849738,-10,-1,-100,15020.450625649071,-0.0049825873322462706,-9.891478370557172e-05,0.999987581942567,23.73253176724487,0.022704047554269725,40.891171470445784,-15.158072961645889,-121.31915283203125,5356.25390625,True
1599562499.9685729,0.0,10,0.5,0.5,4.922801657485961,-0.15025,-0.0155,-0.5,-0.0015427370997195765,10,1,100,0.05510961657434633,-10,-1,-100,15020.450625649071,-0.0049825873322462706,-9.891478370557172e-05,0.999987581942567,23.73253176724487,0.022704047554269725,40.891171470445784,-15.158072961645889,-121.31915283203125,5356.25390625,True
1599562500.00747,0.0,10,0.5,0.5,7.229738768386841,-0.15025,-0.0155,-0.5,0.0077704746093374116,10,1,100,0.040473629216377455,-10,-1,-100,15019.838319461443,-0.004849889087341192,-1.5250371604603267e-05,0.999988239102474,24.17435166163298,0.023396120330637593,42.67739971378447,-15.52947037822113,-124.76724243164062,5356.25390625,True
1599562500.052349,0.0,10,0.5,0.5,8.587098460769653,-0.15025,-0.0155,-0.5,0.010735782536601082,10,1,100,0.029891200441298737,-10,-1,-100,15018.88519170694,-0.0046335787880113135,8.692933667309334e-05,0.9999892611377912,24.67377312239386,0.0241657109968205,45.12867247999138,-16.086530587414828,-129.42266845703125,5356.25390625,True
1599562500.0902483,0.0,10,0.5,0.5,7.232369026565551,-0.15025,-0.0155,-0.5,0.003662772223773535,10,1,100,0.04258788650247167,-10,-1,-100,15018.548276847461,-0.004553079345893426,0.00011472101027276116,0.9999896280999918,24.804005392541633,0.024353652624685394,45.89293990629059,-16.27220912869961,-130.83668518066406,5356.25390625,True
1599562500.1251547,0.0,10,0.5,0.5,9.062797109222412,-0.15025,-0.0155,-0.5,0.008262496512022287,10,1,100,0.023709369279689804,-10,-1,-100,15017.535578430514,-0.004309044993505609,0.00018109367261268656,0.9999906996249144,25.110386269563076,0.024732733929926275,48.057898195043286,-16.82922446774717,-134.66531372070312,5356.25390625,True
1599562500.1700368,0.0,10,0.5,0.5,7.9350608047485345,-0.15025,-0.0155,-0.5,0.003498216845412367,10,1,100,0.038628126860503556,-10,-1,-100,15017.196710605407,-0.004223769576757974,0.0001974710924279559,0.9999910603479063,25.18973492304096,0.02480385039770816,48.744275111465555,-17.014890286814534,-135.8037109375,5356.25390625,True
1599562500.208931,0.0,10,0.5,0.5,8.105847608184813,-0.15025,-0.0155,-0.5,0.003269902964386534,10,1,100,0.03715646949339874,-10,-1,-100,15016.858818900655,-0.004133865910322584,0.00020967583707807134,0.9999914335576474,25.26019034121818,0.024850964436662966,49.41669419024436,-17.20055348656802,-136.8732452392578,5356.25390625,True
1599562500.2468297,0.0,10,0.5,0.5,9.944209623718262,-0.15025,-0.0155,-0.5,0.004954973496040661,10,1,100,0.006105574280538782,-10,-1,-100,15015.441822925932,-0.0037708653415247906,0.0002355776727184829,0.9999928625133963,25.48048769985401,0.024844650531925465,52.011463953520455,-17.94318264587462,-140.46231079101562,5356.25390625,True
1599562500.2857256,0.0,10,0.5,0.5,8.659621724700928,-0.15025,-0.0155,-0.5,0.0023373758559364338,10,1,100,0.03188378932108527,-10,-1,-100,15015.043384435354,-0.0036764666177141864,0.00023489307461457362,0.9999932141862025,25.52650418165926,0.024805181330560262,52.647523007569525,-18.128834546386305,-141.18734741210938,5356.25390625,True
1599562500.32562,0.0,10,0.5,0.5,8.763364221191406,-0.15025,-0.0155,-0.5,0.0020570930220755006,10,1,100,0.030644375984848767,-10,-1,-100,15014.703539553797,-0.0035807224029428277,0.00023128793007086068,0.9999935624457622,25.58619201023099,0.024769156637600164,53.31410712076608,-18.314484255676774,-141.84347534179688,5356.25390625,True
1599562500.3635175,0.0,10,0.5,0.5,9.725652701568604,-0.15025,-0.0155,-0.5,-0.0007813715778142915,10,1,100,-0.002294512358640456,-10,-1,-100,15013.22404435603,-0.0031955121908728754,0.0002019061180195995,0.9999948739547406,25.819006376211135,0.02453798675535851,55.993780785605445,-19.05706073653406,-143.77894592285156,5356.25390625,True
1599562500.4044087,0.0,10,0.5,0.5,8.792730090332032,-0.15025,-0.0155,-0.5,0.0021868917174843435,10,1,100,0.036047801334217436,-10,-1,-100,15013.22404435603,-0.0031955121908728754,0.0002019061180195995,0.9999948739547406,25.819006376211135,0.02453798675535851,55.993780785605445,-19.05706073653406,-143.77894592285156,5356.25390625,True
1599562500.4418175,0.0,10,0.5,0.5,9.182695259094238,-0.15025,-0.0155,-0.5,-0.001033423461495599,10,1,100,0.014018338601203127,-10,-1,-100,15012.42423792486,-0.002996748326842262,0.00017243311049285076,0.999995494872996,25.94057489097485,0.024390403484071396,57.36039323825292,-19.428334926322197,-144.33334350585938,5356.25390625,True
1599562500.4817111,0.0,10,0.5,0.5,9.111927395629882,-0.15025,-0.0155,-0.5,-0.0061843791343080875,10,1,100,-0.010473599889101109,-10,-1,-100,15010.82071931276,-0.0025948879464127287,9.873486683040222e-05,0.999996628398302,26.209889040724867,0.024078194598470732,60.1857993742503,-20.1708530628851,-144.61526489257812,5356.25390625,True
1599562500.520156,0.0,10,0.5,0.5,8.815165698242188,-0.15025,-0.0155,-0.5,-0.0035498096583304944,10,1,100,0.007228036397725467,-10,-1,-100,15010.01798376604,-0.0023922644680838315,5.5701627958374726e-05,0.9999971369799232,26.360104640026567,0.023928236543374087,61.65260384072738,-20.5420955829273,-144.3428192138672,5356.25390625,True
1599562500.561047,0.0,10,0.5,0.5,8.810573149871827,-0.15025,-0.0155,-0.5,-0.0014258671254303921,10,1,100,0.0162463317233463,-10,-1,-100,15009.61759270064,-0.002291788336677225,3.6003062959854575e-05,0.9999973732015497,26.439007559089784,0.02385746710703469,62.39988951038883,-20.72771249792543,-144.1031951904297,5356.25390625,True
1599562500.6029348,0.0,10,0.5,0.5,8.207104369354248,-0.15025,-0.0155,-0.5,-0.007293887995255792,10,1,100,-0.007706274049237256,-10,-1,-100,15008.350989338942,-0.0019844517840478058,-3.510357855587819e-05,0.9999980303574881,26.68861174934214,0.02367025552181559,64.69368393142861,-21.28454461655907,-142.97109985351562,5356.25390625,True
1599562500.6488159,0.0,10,0.5,0.5,8.447626139068603,-0.15025,-0.0155,-0.5,-0.003051520603422638,10,1,100,0.011434737049779504,-10,-1,-100,15007.887121713138,-0.0018810181226723722,-6.095647690293936e-05,0.9999982290259969,26.77487218236619,0.023618248137300978,65.47302314760117,-21.4701489083491,-142.45594787597656,5356.25390625,True
1599562500.68871,0.0,10,0.5,0.5,8.32852665939331,-0.15025,-0.0155,-0.5,-0.003346309381277248,10,1,100,0.010224338705358181,-10,-1,-100,15007.486730198609,-0.0017777019430352864,-8.686943324474467e-05,0.9999984161134973,26.86187839856773,0.02357251401024023,66.25796406851042,-21.655749989703466,-141.87191772460938,5356.25390625,True
1599562500.7266123,0.0,10,0.5,0.5,7.727588445281983,-0.15025,-0.0155,-0.5,-0.005601146944867321,10,1,100,-0.0020468978120050767,-10,-1,-100,15006.621495263302,-0.0015739475974570686,-0.0001306326782173326,0.9999987528112542,27.035678004641788,0.02350245326967112,67.83869629871795,-22.026942317830823,-140.49703979492188,5356.25390625,True
1599562500.763514,0.0,10,0.5,0.5,7.339823541259765,-0.15025,-0.0155,-0.5,-0.007038890464094826,10,1,100,-0.0047724644063634435,-10,-1,-100,15005.69376023626,-0.0013657628368058726,-0.00018315882326876422,0.9999990505719089,27.204366388209976,0.0234654112778403,69.42155326582292,-22.39812138866708,-138.8467254638672,5356.25390625,True
1599562500.8063989,0.0,10,0.5,0.5,7.553580386352538,-0.15025,-0.0155,-0.5,-0.004586660065320727,10,1,100,0.004447897489936858,-10,-1,-100,15005.229892345029,-0.001261988843774849,-0.0002082668015618572,0.9999991820042142,27.284668835396907,0.02346090169682154,70.20810981436709,-22.58370601097946,-137.91822814941406,5356.25390625,True
1599562500.8442967,0.0,10,0.5,0.5,5.928720833587646,-0.15025,-0.0155,-0.5,-0.00999109478201202,10,1,100,-0.019491487406197505,-10,-1,-100,15003.901766713127,-0.0009517758268246042,-0.0002798505765986067,0.999999507903094,27.497331422153827,0.023510351555063445,72.51439776599886,-23.140441020520882,-134.71942138671875,5356.25390625,True
1599562501.1799223,0.0,10,0.5,0.5,5.902629507446289,-0.15025,-0.0155,-0.5,-0.008108320948938088,10,1,100,-0.011500123077682882,-10,-1,-100,15002.973055217299,-0.0007442718257654398,-0.0003273994429794419,0.9999996694344724,27.604180210400088,0.023600169660351927,73.97393613254081,-23.511583342188132,-132.24253845214844,5356.25390625,True
1599562501.2168279,0.0,10,0.5,0.5,6.249419596862793,-0.15025,-0.0155,-0.5,-0.005923564092191006,10,1,100,-0.002415049138928394,-10,-1,-100,15002.446687862743,-0.000639905784355465,-0.00035037686434630965,0.9999997338782847,27.643292788151225,0.023662659756435125,74.66862306107558,-23.697150658062796,-130.90078735351562,5356.25390625,True
1599562501.2557242,0.0,10,0.5,0.5,2.9616354537963865,-0.15025,-0.0155,-0.5,-0.011601305796087305,10,1,100,-0.03649525988312758,-10,-1,-100,15000.527742411243,-0.00023680052056615744,-0.00042251210063133334,0.9999998827045122,27.670748900749718,0.024018639722745372,77.10578063100945,-24.439401142471073,-124.84492492675781,5356.25390625,True
1599562501.307323,0.0,10,0.5,0.5,3.7221502967834468,-0.15025,-0.0155,-0.5,-0.007903603324712929,10,1,100,-0.018423590666344344,-10,-1,-100,14999.536531360238,-3.6497262561280965e-05,-0.00045405727918377767,0.9999998962499631,27.58510965254191,0.02424100725291103,78.04576281776913,-24.810519775712457,-121.40383911132812,5356.25390625,True
1599562501.3711512,0.0,10,0.5,0.5,2.9925110416412357,-0.15025,-0.0155,-0.5,-0.006642326125654269,10,1,100,-0.018947780177620655,-10,-1,-100,14998.544343699934,0.00014859109979885817,-0.0004708876908758048,0.9999998780927264,27.41537424367641,0.02446483328894812,78.73749866350501,-25.18163862226082,-117.68718719482422,5356.25390625,True
1599562501.410553,0.0,10,0.5,0.5,2.2166396022796633,-0.15025,-0.0155,-0.5,-0.006789332308508952,10,1,100,-0.02110895861330972,-10,-1,-100,14997.554109787452,0.0003346552247939114,-0.0004871518202454421,0.9999998253444771,27.147613241299975,0.024655242606043803,79.12965436092409,-25.55276134711868,-113.69517517089844,5356.25390625,True
1599562501.4484522,0.0,10,0.5,0.5,1.394063324737549,-0.15025,-0.0155,-0.5,-0.005994193904583318,10,1,100,-0.022074025224505068,-10,-1,-100,14996.498445875011,0.000510657437465891,-0.0004943449683757878,0.999999747425985,26.78074003424175,0.02477675565886556,79.20647892085016,-25.923891815235137,-109.42772674560547,5356.25390625,True
1599562501.4853547,0.0,10,0.5,0.5,0.525653970718384,-0.15025,-0.0155,-0.5,-0.0054440080546533124,10,1,100,-0.023016263169314956,-10,-1,-100,14995.44864143664,0.0006773301529978505,-0.0004955518568675035,0.9999996478260484,26.38089566452627,0.02484843304752332,79.1537151658714,-26.29503224546381,-104.88489532470703,5356.25390625,True
1599562501.5220761,0.0,10,0.5,0.5,-0.38858531379699723,-0.15025,-0.0155,-0.5,-0.004828762281886976,10,1,100,-0.023888537832807026,-10,-1,-100,14994.392000973457,0.0008349232158861019,-0.0004907718911679158,0.9999995310229771,25.844912442715124,0.024724787771091827,78.65314451671756,-26.666185191043326,-100.06672668457031,5356.25390625,True
1599562501.5589771,0.0,10,0.5,0.5,1.9618291790008544,-0.15025,-0.0155,-0.5,-0.00533500936080635,10,1,100,-0.008338922749947984,-10,-1,-100,14994.392000973457,0.0008349232158861019,-0.0004907718911679158,0.9999995310229771,25.844912442715124,0.024724787771091827,78.65314451671756,-26.666185191043326,-100.06672668457031,5356.25390625,True
1599562501.5948813,0.0,10,0.5,0.5,-1.3605357341766358,-0.15025,-0.0155,-0.5,-0.004332725213592923,10,1,100,-0.024741918903708558,-10,-1,-100,14993.27579050546,0.000982417090881461,-0.00048146847045273073,0.9999994015222067,25.16105639776756,0.024338135019835914,77.65098410015524,-27.03735296901627,-95.03996276855469,5356.25390625,True
1599562501.6337774,0.0,10,0.5,0.5,-0.5528268627166748,-0.15025,-0.0155,-0.5,-0.0045952236921441595,10,1,100,-0.017827321098238973,-10,-1,-100,14992.747470460483,0.0010520727345396576,-0.00047525710230987073,0.9999993336366021,24.78719506325319,0.024052444107343703,77.02891206732524,-27.22294235302549,-92.50553894042969,5356.25390625,True
1599562501.6736708,0.0,10,0.5,0.5,-2.643159943771362,-0.15025,-0.0155,-0.5,-0.0036571927325949136,10,1,100,-0.02580120633134282,-10,-1,-100,14991.63223643077,0.001186347750421785,-0.0004609693223314016,0.9999991900428216,24.024135808295746,0.023322660802399576,75.68872127390274,-27.594130187609828,-87.43359375,5356.25390625,True
1599562501.712097,0.0,10,0.5,0.5,-6.549463875198365,-0.15025,-0.0155,-0.5,-0.0012702574249771025,10,1,100,-0.03801789210469867,-10,-1,-100,14989.397862108424,0.0014181829552806012,-0.0004262460584438132,0.9999989035351005,26.272084256017678,0.024954264626333326,85.02728644455522,-28.336413777880132,-77.61538696289062,5356.25390625,True
1599562501.7530017,0.0,10,0.5,0.5,-1.7082325824737548,-0.15025,-0.0155,-0.5,-0.00473980269166195,10,1,100,-0.014979839640601235,-10,-1,-100,14989.397862108424,0.0014181829552806012,-0.0004262460584438132,0.9999989035351005,26.272084256017678,0.024954264626333326,85.02728644455522,-28.336413777880132,-77.61538696289062,5356.25390625,True
1599562501.7899063,0.0,10,0.5,0.5,-4.7605651710510255,-0.15025,-0.0155,-0.5,-0.0028532348901892327,10,1,100,-0.0259767255185844,-10,-1,-100,14988.281651628087,0.0015170004706663738,-0.0004091360253689994,0.9999987656578806,27.20773010533173,0.025373882012942574,89.22413775135065,-28.70749452996887,-73.01681518554688,5356.25390625,True
1599562501.828765,0.0,10,0.5,0.5,-7.978628057861329,-0.15025,-0.0155,-0.5,-0.0011627292486410257,10,1,100,-0.03406719456200799,-10,-1,-100,14985.920324148145,0.0016793094348246794,-0.00037828414019134535,0.9999985184093682,28.670070585237347,0.025658487706348508,96.48327860722982,-29.449543667107342,-64.62881469726562,5356.25390625,True
1599562501.8666997,0.0,10,0.5,0.5,-6.312427058792114,-0.15025,-0.0155,-0.5,-0.003054081495700288,10,1,100,-0.024805677519405014,-10,-1,-100,14984.740636733826,0.0017416050182200585,-0.0003675365930287299,0.9999984158631521,29.221013381142647,0.025647373274686476,99.59312381097254,-29.820518807596244,-60.848175048828125,5356.25390625,True
1599562501.9055598,0.0,10,0.5,0.5,-6.769156227111816,-0.15025,-0.0155,-0.5,-0.0034451673198070253,10,1,100,-0.024128804017453525,-10,-1,-100,14983.559973307769,0.0017911164486842785,-0.00036143779879444876,0.999998330630899,29.67141122756412,0.025603656415214813,102.40357600102298,-30.191465979696982,-57.34368896484375,5356.25390625,True
1599562501.9444556,0.0,10,0.5,0.5,-7.182396802520752,-0.15025,-0.0155,-0.5,-0.0035364073207973675,10,1,100,-0.02378679673175195,-10,-1,-100,14982.316809415119,0.0018321484162973749,-0.0003568404714017176,0.999998257947012,30.03608574384995,0.025565281982738917,104.95353517283465,-30.562389027430555,-54.11529541015625,5356.25390625,True
1599562501.9873405,0.0,10,0.5,0.5,-5.639424743652344,-0.15025,-0.0155,-0.5,-0.003982746918093863,10,1,100,-0.019783322490483434,-10,-1,-100,14982.316809415119,0.0018321484162973749,-0.0003568404714017176,0.999998257947012,30.03608574384995,0.025565281982738917,104.95353517283465,-30.562389027430555,-54.11529541015625,5356.25390625,True
1599562502.0252388,0.0,10,0.5,0.5,-9.362597853851318,-0.15025,-0.0155,-0.5,-0.004523003891815785,10,1,100,-0.025003905650666756,-10,-1,-100,14979.833411202999,0.001878835780185027,-0.0003618651966165087,0.9999981695131699,30.564577338764607,0.025601717653372484,109.42966700283621,-31.304175394161405,-48.487091064453125,5356.25390625,True
1599562502.0651333,0.0,10,0.5,0.5,-6.616724275207519,-0.15025,-0.0155,-0.5,-0.004009192179767336,10,1,100,-0.020417845566466086,-10,-1,-100,14979.833411202999,0.001878835780185027,-0.0003618651966165087,0.9999981695131699,30.564577338764607,0.025601717653372484,109.42966700283621,-31.304175394161405,-48.487091064453125,5356.25390625,True
1599562502.1020339,0.0,10,0.5,0.5,-8.237647697448729,-0.15025,-0.0155,-0.5,-0.004888428696145034,10,1,100,-0.02145712784278846,-10,-1,-100,14978.5882938375,0.0018876542663063547,-0.0003699483505160468,0.9999981499480831,30.75448790007034,0.025702620491526204,111.43324779034494,-31.675043933456656,-46.087158203125,5356.25390625,True
1599562502.1359432,0.0,10,0.5,0.5,-8.467557353210449,-0.15025,-0.0155,-0.5,-0.005548032769977032,10,1,100,-0.020273346034164565,-10,-1,-100,14977.283606489073,0.0018844826269645938,-0.00038334425264857934,0.9999981508844967,30.910498034482078,0.025864930571580333,113.32945707964873,-32.045898635765674,-43.963348388671875,5356.25390625,True
1599562502.172845,0.0,10,0.5,0.5,-8.08099581451416,-0.15025,-0.0155,-0.5,-0.005026978822861174,10,1,100,-0.020166667159831474,-10,-1,-100,14976.62930970348,0.0018802056017311612,-0.0003908244930732786,0.9999981560398553,30.979108879142007,0.02596909057835751,114.24818172320172,-32.23132114186066,-43.004974365234375,5356.25390625,True
1599562502.213267,0.0,10,0.5,0.5,-8.760070503234864,-0.15025,-0.0155,-0.5,-0.0062899001505013746,10,1,100,-0.018771451925368346,-10,-1,-100,14975.386145794764,0.0018633034356319534,-0.0004091224614672759,0.9999981803579034,31.103363581910312,0.026221507956025864,116.04659097351728,-32.6021570855235,-41.295257568359375,5356.25390625,True
1599562502.2551546,0.0,10,0.5,0.5,-9.626377531433105,-0.15025,-0.0155,-0.5,-0.009914821321030574,10,1,100,-0.013656731202182353,-10,-1,-100,14972.711340524489,0.0018012731016938852,-0.00045868277217456075,0.9999982725111718,31.328060014578558,0.02688690118117786,119.58661144504933,-33.343794538651366,-38.703948974609375,5356.25390625,True
1599562502.2920582,0.0,10,0.5,0.5,-8.365046784973144,-0.15025,-0.0155,-0.5,-0.004967904868216672,10,1,100,-0.019865731404336555,-10,-1,-100,14972.711340524489,0.0018012731016938852,-0.00045868277217456075,0.9999982725111718,31.328060014578558,0.02688690118117786,119.58661144504933,-33.343794538651366,-38.703948974609375,5356.25390625,True
1599562502.330953,0.0,10,0.5,0.5,-9.186629010009765,-0.15025,-0.0155,-0.5,-0.009840807057148047,10,1,100,-0.011922273617213621,-10,-1,-100,14970.689856153214,0.001729050615762759,-0.0005028934784617732,0.9999983787397445,31.50090930592348,0.027504457783211853,122.2856242113407,-33.89999194820996,-37.484893798828125,5356.25390625,True
1599562502.36985,0.0,10,0.5,0.5,-8.991861714172362,-0.15025,-0.0155,-0.5,-0.011210548850384729,10,1,100,-0.008871268017943199,-10,-1,-100,14968.606847534422,0.0016357511211052172,-0.000555404452291336,0.9999985079209689,31.694270584006027,0.028200317703187733,125.08948738344797,-34.45616183584185,-36.886688232421875,5356.25390625,True
1599562502.4093256,0.0,10,0.5,0.5,-8.754567405700683,-0.15025,-0.0155,-0.5,-0.00980001358577921,10,1,100,-0.010046402929883094,-10,-1,-100,14967.236730367062,0.0015617949863388984,-0.0005901381406573524,0.9999986062657265,31.8388889539455,0.02869619340343357,127.03616245123568,-34.82692520334788,-36.83270263671875,5356.25390625,True
1599562502.447223,0.0,10,0.5,0.5,-8.74563890991211,-0.15025,-0.0155,-0.5,-0.006349472043581652,10,1,100,-0.017410312327130358,-10,-1,-100,14967.236730367062,0.0015617949863388984,-0.0005901381406573524,0.9999986062657265,31.8388889539455,0.02869619340343357,127.03616245123568,-34.82692520334788,-36.83270263671875,5356.25390625,True
1599562502.4851215,0.0,10,0.5,0.5,-8.295919299316406,-0.15025,-0.0155,-0.5,-0.014400628829528177,10,1,100,0.001928185182279758,-10,-1,-100,14964.433995757601,0.0013862786824295756,-0.0006631229542168292,0.999998819248984,32.16885258309223,0.029727109367206423,131.1349775020122,-35.56840864633076,-37.552093505859375,5356.25390625,True
