Timestamp,Input Throttle,horizon,dT,dt,Input Roll,Roll P,Roll I,Roll D,Input Pitch,Pitch P,Pitch I,Pitch D,Input Yaw,Yaw P,Yaw I,Yaw D,Altitude,Direction X,Direction Y,Direction Z,Drag X,Drag Y,Drag Z,Vertical Velocity,Roll,Mass,Has Fuel
1599560682.4588943,0.0,10,0.5,0.5,-5.850227508544922,-0.1005,-0.001,-0.2505,-0.00025580367508079517,10,1,100,0.1749571611974015,-10,-1,-100,14995.07010376989,-0.016808719681931233,-7.444256469135286e-05,0.999858720720562,28.508473896238588,0.02712394281576027,-85.88448893580303,26.637680684154667,-31.791595458984375,5356.25390625,True
1599560682.4878185,0.0,10,0.5,0.5,-5.856193963623047,-0.1005,-0.001,-0.2505,-0.00023244217637773,10,1,100,0.17767968067381568,-10,-1,-100,14996.077919283765,-0.016880643426352235,-6.972049444585346e-05,0.9998575093564906,28.363539639266275,0.02744840844337749,-84.25798076601859,26.26576546364884,-31.790374755859375,5356.25390625,True
1599560682.5227323,0.0,10,0.5,0.5,-5.847794680786134,-0.1005,-0.001,-0.2505,0.0034795217249907425,10,1,100,0.1782541651242427,-10,-1,-100,14997.145304874866,-0.016935905194987617,-3.161919466982621e-05,0.9998565767726155,28.218767768619323,0.027766844036920268,-82.64410605516088,25.893865722871066,-31.83001708984375,5356.25390625,True
1599560682.5586362,0.0,10,0.5,0.5,-5.829104064941406,-0.1005,-0.001,-0.2505,0.0036009395917262293,10,1,100,0.1765191533116096,-10,-1,-100,14997.675579598173,-0.01695497405436404,4.150894092039196e-06,0.9998562540873492,28.149846456944484,0.027926528338094742,-81.85179504461247,25.707921614247077,-31.928131103515625,5356.25390625,True
1599560682.5885565,0.0,10,0.5,0.5,-5.72186527709961,-0.1005,-0.001,-0.2505,0.009618955610078897,10,1,100,0.17960225559507165,-10,-1,-100,14998.67753444775,-0.01698492397087011,9.137461959322106e-05,0.9998557415989484,28.02609120011337,0.02825065615929372,-80.31620232435704,25.3360443363032,-32.320220947265625,5356.25390625,True
1599560682.6244605,0.0,10,0.5,0.5,-5.721402267456056,-0.1005,-0.001,-0.2505,0.007541772350570287,10,1,100,0.17883171245991467,-10,-1,-100,14999.151167399832,-0.016989705390127955,0.00015170236349004154,0.9998556530305511,27.971842389870094,0.028414221383296762,-79.57399010799304,25.15011089611849,-32.6177978515625,5356.25390625,True
1599560682.6603637,0.0,10,0.5,0.5,-5.344038116455079,-0.1005,-0.001,-0.2505,0.029914913140796657,10,1,100,0.17625703864583475,-10,-1,-100,15000.682416291558,-0.016955200822606972,0.0004098000447951271,0.9998561662704232,27.83757302913821,0.028899148223530846,-77.44015745051688,24.59232996897881,-33.921630859375,5356.25390625,True
1599560682.6932776,0.0,10,0.5,0.5,-5.47549800415039,-0.1005,-0.001,-0.2505,0.016460999286436406,10,1,100,0.17834783839494095,-10,-1,-100,15001.150188783999,-0.01692742648546831,0.0005217534472648435,0.9998565847189883,27.80087703304049,0.029054340476890705,-76.75486017187872,24.40640909552048,-34.49359130859375,5356.25390625,True
1599560682.7331693,0.0,10,0.5,0.5,-5.150472595214844,-0.1005,-0.001,-0.2505,0.03371525484604439,10,1,100,0.173366077106699,-10,-1,-100,15002.095497853588,-0.016841499779553265,0.0007799118150998719,0.9998578677105742,27.73620874440581,0.029345265958372307,-75.41255371617206,24.034576124833393,-35.843597412109375,5356.25390625,True
1599560682.7750583,0.0,10,0.5,0.5,-4.923754034423828,-0.1005,-0.001,-0.2505,0.04183158220023839,10,1,100,0.1701967848392871,-10,-1,-100,15003.090610442217,-0.01671926239012716,0.0010876770237924797,0.9998596317602897,27.678394513871346,0.0295971200908984,-74.09395067219856,23.66275430643422,-37.468414306640625,5356.25390625,True
1599560682.8129568,0.0,10,0.5,0.5,-5.336023825073243,-0.1005,-0.001,-0.2505,0.011163829033356856,10,1,100,0.1840924500209105,-10,-1,-100,15003.090610442217,-0.01671926239012716,0.0010876770237924797,0.9998596317602897,27.678394513871346,0.0295971200908984,-74.09395067219856,23.66275430643422,-37.468414306640625,5356.25390625,True
1599560682.853849,0.0,10,0.5,0.5,-4.668643978881836,-0.1005,-0.001,-0.2505,0.04945096100976425,10,1,100,0.1655893385717611,-10,-1,-100,15004.024197925231,-0.016551133610854713,0.0014346853875884706,0.999861991303817,27.620455171170104,0.029791724446196637,-72.7797985029991,23.290943485419792,-39.3681640625,5356.25390625,True
1599560682.888753,0.0,10,0.5,0.5,-3.5207305755615232,-0.1005,-0.001,-0.2505,0.10541993345145842,10,1,100,0.13076899275816303,-10,-1,-100,15005.833752172766,-0.01608204022213387,0.0022575887351620146,0.9998681269424466,27.470235096173383,0.029925981379736778,-70.07829263740507,22.547356890428585,-43.992218017578125,5356.25390625,True
1599560682.9246604,0.0,10,0.5,0.5,-4.677839871215821,-0.1005,-0.001,-0.2505,0.023358519487087205,10,1,100,0.17759294513296206,-10,-1,-100,15005.833752172766,-0.01608204022213387,0.0022575887351620146,0.9998681269424466,27.470235096173383,0.029925981379736778,-70.07829263740507,22.547356890428585,-43.992218017578125,5356.25390625,True
1599560682.9565728,0.0,10,0.5,0.5,-3.7202955718994137,-0.1005,-0.001,-0.2505,0.07352443046541876,10,1,100,0.14317342208654887,-10,-1,-100,15006.706789233023,-0.015769929043377595,0.002711593891473147,0.9998719701024399,27.357609371191412,0.029821009873372953,-68.6428047252358,22.175582797647404,-46.716827392578125,5356.25390625,True
1599560682.9964652,0.0,10,0.5,0.5,-3.886942611694337,-0.1005,-0.001,-0.2505,0.053295805793432405,10,1,100,0.15476953779948213,-10,-1,-100,15007.17260403512,-0.015592715382741732,0.002938047246308955,0.9998741096284929,27.28685414381488,0.029715923582554055,-67.89266700645908,21.989701438860198,-48.18243408203125,5356.25390625,True
1599560683.0353625,0.0,10,0.5,0.5,-1.9535606018066405,-0.1005,-0.001,-0.2505,0.13929838127220856,10,1,100,0.0802875766503575,-10,-1,-100,15008.850314263254,-0.014755773308087439,0.003923222486982365,0.9998834309455268,26.8700020129296,0.028894488609338857,-64.6001139446948,21.24622018828793,-54.732177734375,5356.25390625,True
1599560683.0712674,0.0,10,0.5,0.5,-3.59219033203125,-0.1005,-0.001,-0.2505,0.04113219944908631,10,1,100,0.1637618413643349,-10,-1,-100,15008.850314263254,-0.014755773308087439,0.003923222486982365,0.9998834309455268,26.8700020129296,0.028894488609338857,-64.6001139446948,21.24622018828793,-54.732177734375,5356.25390625,True
1599560683.106173,0.0,10,0.5,0.5,-2.295789703369141,-0.1005,-0.001,-0.2505,0.0978332104018251,10,1,100,0.10820563171788945,-10,-1,-100,15009.7165114393,-0.014252691086917372,0.004435593978334792,0.9998885869449858,26.55623280344218,0.028223582733544465,-62.73132851526947,20.874511232251166,-58.41986083984375,5356.25390625,True
1599560683.150058,0.0,10,0.5,0.5,-0.33836401672363303,-0.1005,-0.001,-0.2505,0.15522801717233378,10,1,100,0.02989252526040824,-10,-1,-100,15011.331716665765,-0.013085759744142606,0.005419833866420501,0.9998996891152527,25.641056971936553,0.026361054972189598,-58.4178001183611,20.13117596047144,-66.6219482421875,5356.25390625,True
1599560683.1889508,0.0,10,0.5,0.5,-1.6098549438476562,-0.1005,-0.001,-0.2505,0.08262132457732672,10,1,100,0.11077662328080846,-10,-1,-100,15011.731123241247,-0.012763526235120079,0.005650598234868692,0.9999025768231791,25.34048767792579,0.025797428285360507,-57.20149655777618,19.94536250810137,-68.84478759765625,5356.25390625,True
1599560683.226851,0.0,10,0.5,0.5,-1.3591457122802735,-0.1005,-0.001,-0.2505,0.08525058017892528,10,1,100,0.10569928530356698,-10,-1,-100,15012.135412215372,-0.012428025187265592,0.005880138237826056,0.9999054796150728,25.00706634283615,0.02520139485677012,-55.92437810512063,19.759558206680016,-71.13650512695312,5356.25390625,True
1599560683.260759,0.0,10,0.5,0.5,0.5673067413330077,-0.1005,-0.001,-0.2505,0.1323546518298463,10,1,100,0.022721442702726607,-10,-1,-100,15013.275038211024,-0.011372428491411683,0.006512988480204544,0.9999141207380083,23.8063514285806,0.023284676924935684,-51.74152351105524,19.202203416800938,-78.25146484375,5356.25390625,True
1599560683.3046412,0.0,10,0.5,0.5,-1.2115647430419922,-0.1005,-0.001,-0.2505,0.06949516756650177,10,1,100,0.12781015111504535,-10,-1,-100,15013.275038211024,-0.011372428491411683,0.006512988480204544,0.9999141207380083,23.8063514285806,0.023284676924935684,-51.74152351105524,19.202203416800938,-78.25146484375,5356.25390625,True
1599560683.3435397,0.0,10,0.5,0.5,2.338944982910156,-0.1005,-0.001,-0.2505,0.14908545138525425,10,1,100,-0.04101432334937974,-10,-1,-100,15014.814070749097,-0.009841942006944838,0.007232667969697709,0.9999254095639195,21.755896057885046,0.020708194429255287,-45.460515417866766,18.459201864438064,-88.35711669921875,5356.25390625,True
1599560683.3829474,0.0,10,0.5,0.5,-0.18835677795410155,-0.1005,-0.001,-0.2505,0.07756960984376014,10,1,100,0.11144152639366144,-10,-1,-100,15014.814070749097,-0.009841942006944838,0.007232667969697709,0.9999254095639195,21.755896057885046,0.020708194429255287,-45.460515417866766,18.459201864438064,-88.35711669921875,5356.25390625,True
1599560683.4198482,0.0,10,0.5,0.5,1.6322527923583985,-0.1005,-0.001,-0.2505,0.11266358765944931,10,1,100,0.018424613819897906,-10,-1,-100,15015.555267270422,-0.009001561686615894,0.007547799931000894,0.9999309989211274,21.366948877679842,0.020294432591456885,-43.751868769052535,18.087747939588432,-93.5325927734375,5356.25390625,True
1599560683.4557517,0.0,10,0.5,0.5,2.1445549682617187,-0.1005,-0.001,-0.2505,0.10775388532150532,10,1,100,0.015776264302496387,-10,-1,-100,15016.230058632907,-0.00821873477399636,0.007786354804164281,0.9999359104850563,22.220800671234112,0.02123880103551276,-44.56842101900733,17.71629117490601,-98.67469787597656,5356.25390625,True
1599560683.4906585,0.0,10,0.5,0.5,3.5179887329101565,-0.1005,-0.001,-0.2505,0.11718726670844602,10,1,100,-0.0475975571766636,-10,-1,-100,15017.307187918108,-0.006936891056835412,0.008085468944814838,0.9999432507569658,23.349553625630726,0.022760628916464423,-45.36322977499194,17.159087352439535,-106.24488830566406,5356.25390625,True
1599560683.5205793,0.0,10,0.5,0.5,2.483056132507324,-0.1005,-0.001,-0.2505,0.09572296911459247,10,1,100,0.034270607438847675,-10,-1,-100,15017.64409625053,-0.006522485355948363,0.008158942844583511,0.9999454429299831,23.652949514626183,0.0232396392299868,-45.45646202771918,16.973347062421777,-108.68539428710938,5356.25390625,True
1599560683.555486,0.0,10,0.5,0.5,2.7099986526489257,-0.1005,-0.001,-0.2505,0.09563749467158168,10,1,100,0.029051383632886632,-10,-1,-100,15017.979051378672,-0.006104272024531577,0.008222470159456605,0.9999475630489469,23.915135400340713,0.023687901497661427,-45.458567018962796,16.787604178290138,-111.06169891357422,5356.25390625,True
1599560683.5903919,0.0,10,0.5,0.5,3.7162106277465825,-0.1005,-0.001,-0.2505,0.10021018984245036,10,1,100,-0.01994770477877017,-10,-1,-100,15018.650916233775,-0.005284685696056336,0.008319454154599507,0.9999514282102223,24.35641477349254,0.024505950088298933,-45.275125416878886,16.41611194969747,-115.6122817993164,5356.25390625,True
1599560683.618318,0.0,10,0.5,0.5,4.08191078414917,-0.1005,-0.001,-0.2505,0.09628028923680776,10,1,100,-0.029981778930824154,-10,-1,-100,15019.26028165035,-0.004454882304688543,0.008369677493844692,0.9999550502509105,24.736199181522032,0.02523168373655,-44.9426845631786,16.044612898247543,-119.88912963867188,5356.25390625,True
1599560683.6522276,0.0,10,0.5,0.5,3.7291175689697265,-0.1005,-0.001,-0.2505,0.0925569986078063,10,1,100,0.007809470017957711,-10,-1,-100,15019.596214936348,-0.004050361072240133,0.008379799079246082,0.9999566858332295,24.878168243981854,0.025523478419490795,-44.678367536127844,15.858862154128621,-121.9244384765625,5356.25390625,True
1599560683.6851397,0.0,10,0.5,0.5,4.579946292114258,-0.1005,-0.001,-0.2505,0.09131080749871684,10,1,100,-0.03931122446123632,-10,-1,-100,15020.201675631572,-0.0032609009724026976,0.008375974409892859,0.999959603972847,25.076940907710416,0.025960343016629146,-43.98235410311846,15.487360476033887,-125.78855895996094,5356.25390625,True
1599560683.7150598,0.0,10,0.5,0.5,4.875355368041992,-0.1005,-0.001,-0.2505,0.08837091227205675,10,1,100,-0.0450235911329188,-10,-1,-100,15020.814950297703,-0.002497262131021136,0.008344731748020114,0.9999620638473754,25.175808066532984,0.026205195033103746,-43.09848141881129,15.115862217316353,-129.3772430419922,5356.25390625,True
1599560683.7499657,0.0,10,0.5,0.5,4.574084562683106,-0.1005,-0.001,-0.2505,0.08805459219159312,10,1,100,-0.011149686284508274,-10,-1,-100,15021.14404911513,-0.0021176665737288334,0.008312442723969474,0.9999632087153224,25.19282127152013,0.026259285604306674,-42.598570029740884,14.930115481634711,-131.06838989257812,5356.25390625,True
1599560683.7788901,0.0,10,0.5,0.5,5.789867141723633,-0.1005,-0.001,-0.2505,0.07826558594536087,10,1,100,-0.09244424397311177,-10,-1,-100,15021.964354879223,-0.0010397963563966058,0.008193402970054992,0.9999658929040067,25.138112172534854,0.026174453230887556,-40.92227859278703,14.372890176276872,-135.7283935546875,5356.25390625,True
1599560683.812798,0.0,10,0.5,0.5,5.123102403259278,-0.1005,-0.001,-0.2505,0.08478165529030046,10,1,100,-0.02312506976510397,-10,-1,-100,15022.292477716343,-0.0006966149592742876,0.008144051962208649,0.9999665940146378,25.090563300822538,0.02607289538338912,-40.317913889599495,14.187154597058619,-137.14395141601562,5356.25390625,True
1599560683.842718,0.0,10,0.5,0.5,5.244306414794922,-0.1005,-0.001,-0.2505,0.0832252411933208,10,1,100,-0.026831554425815227,-10,-1,-100,15022.56298393081,-0.0003566095341544062,0.008084984933269073,0.9999672523879314,25.031156010553733,0.025939835931774423,-39.69672786596257,14.001422508690693,-138.49070739746094,5356.25390625,True
1599560683.875631,0.0,10,0.5,0.5,5.358368634033203,-0.1005,-0.001,-0.2505,0.0838959084077866,10,1,100,-0.02869097015291971,-10,-1,-100,15022.83642017818,-3.621525545519505e-05,0.008037451843374888,0.9999676985064672,24.96156896047246,0.025778680547574824,-39.0620962079906,13.815694063864397,-139.76832580566406,5356.25390625,True
1599560683.9095397,0.0,10,0.5,0.5,5.865592781829835,-0.1005,-0.001,-0.2505,0.07567192790311664,10,1,100,-0.06600551367117999,-10,-1,-100,15023.376456909464,0.0005887589782836574,0.007919644682806886,0.9999684657982789,24.79770194912719,0.025385043737366334,-37.763968360606505,13.444248874258811,-142.11703491210938,5356.25390625,True
1599560683.938462,0.0,10,0.5,0.5,6.007556787109376,-0.1005,-0.001,-0.2505,0.0729588898478515,10,1,100,-0.06926299460792712,-10,-1,-100,15023.91454182181,0.0011811913404945517,0.007788246744944285,0.9999689735185072,24.628641135258718,0.024936387250426875,-36.47187753369705,13.072819455762708,-144.19015502929688,5356.25390625,True
1599560683.9733686,0.0,10,0.5,0.5,5.8182117431640625,-0.1005,-0.001,-0.2505,0.07860225704929838,10,1,100,-0.041609615202788476,-10,-1,-100,15024.127432052395,0.0014632481536893923,0.007720625985763165,0.9999691249429797,24.551526292075906,0.024704808097886596,-35.84196963970295,12.887110648951971,-145.12332153320312,5356.25390625,True
1599560684.0073617,0.0,10,0.5,0.5,6.424179641723634,-0.1005,-0.001,-0.2505,0.06325877698651027,10,1,100,-0.10103173363349045,-10,-1,-100,15024.933096154593,0.0022548521430311476,0.007520265634203603,0.9999691801483703,24.306433398746528,0.023953846926795076,-33.95241381424485,12.330007567293066,-147.50909423828125,5356.25390625,True
1599560684.0352852,0.0,10,0.5,0.5,6.059445002746582,-0.1005,-0.001,-0.2505,0.07577092578092864,10,1,100,-0.04954615376885067,-10,-1,-100,15025.136221167166,0.0025014270862856237,0.00745264458434934,0.9999690999982107,24.22354794953162,0.0236923890595051,-33.327767556486805,12.144313977020271,-148.16644287109375,5356.25390625,True
1599560684.0672257,0.0,10,0.5,0.5,6.10323264465332,-0.1005,-0.001,-0.2505,0.07441216193511929,10,1,100,-0.05171459598318231,-10,-1,-100,15025.41258861951,0.002740754973722429,0.00737962949239599,0.9999690141853043,24.141581047429828,0.023428677981981828,-32.70783408436923,11.958623866525045,-148.75497436523438,5356.25390625,True
1599560684.0961244,0.0,10,0.5,0.5,6.431977957153321,-0.1005,-0.001,-0.2505,0.059816558372879455,10,1,100,-0.100915669265977,-10,-1,-100,15026.090324374964,0.003401191518010884,0.007181412842992194,0.9999684291045573,23.90843225369874,0.022639981138822887,-30.885077089702484,11.401573295069147,-150.10655212402344,5356.25390625,True
1599560684.1290333,0.0,10,0.5,0.5,6.204597314453125,-0.1005,-0.001,-0.2505,0.07208226562347927,10,1,100,-0.05773907842080267,-10,-1,-100,15026.296379800886,0.00360503665252207,0.0071136423095642535,0.9999681993962736,23.837076688889482,0.022382401049850086,-30.292071252065867,11.215895821957618,-150.4192352294922,5356.25390625,True
1599560684.156993,0.0,10,0.5,0.5,6.213135765075685,-0.1005,-0.001,-0.2505,0.07160642321853464,10,1,100,-0.05913478046206268,-10,-1,-100,15026.50341162039,0.0037991280191693334,0.007048643629723578,0.9999679411107515,23.769660771995206,0.02212925231386243,-29.706968986234887,11.030221096686196,-150.66293334960938,5356.25390625,True
1599560684.189872,0.0,10,0.5,0.5,6.214577360534668,-0.1005,-0.001,-0.2505,0.0722033344557492,10,1,100,-0.060290690451562955,-10,-1,-100,15026.766107877018,0.003982305045522917,0.006995922515028138,0.9999675986324198,23.706552922308116,0.021881418604855856,-29.129973348795343,10.844548674498121,-150.83749389648438,5356.25390625,True
1599560684.2198231,0.0,10,0.5,0.5,6.221953579711914,-0.1005,-0.001,-0.2505,0.06506792216644754,10,1,100,-0.08016409503343733,-10,-1,-100,15027.178219281835,0.004325843729042326,0.006884073689337129,0.9999669477565105,23.59432633255994,0.02140445740005999,-28.00047889850957,10.473210911980988,-150.9799346923828,5356.25390625,True
1599560684.2562044,0.0,10,0.5,0.5,6.080620181274414,-0.1005,-0.001,-0.2505,0.058948113412528896,10,1,100,-0.09570796252140468,-10,-1,-100,15027.791502534179,0.004776062159631711,0.006727699741849197,0.9999659630639589,23.462576932486677,0.02074328589547412,-26.36487825949786,9.916218452391643,-150.67640686035156,5356.25390625,True
1599560684.2931335,0.0,10,0.5,0.5,6.157302528381347,-0.1005,-0.001,-0.2505,0.07447945346101263,10,1,100,-0.051045606544379896,-10,-1,-100,15027.791502534179,0.004776062159631711,0.006727699741849197,0.9999659630639589,23.462576932486677,0.02074328589547412,-26.36487825949786,9.916218452391643,-150.67640686035156,5356.25390625,True
1599560684.3260174,0.0,10,0.5,0.5,5.965754748535156,-0.1005,-0.001,-0.2505,0.06517149781830607,10,1,100,-0.07946909321193697,-10,-1,-100,15028.141114479396,0.005031445843876828,0.006643984623500877,0.999965270407449,23.398574275165043,0.020342700179202713,-25.30937010193146,9.544897545971727,-150.1291046142578,5356.25390625,True
1599560684.3539429,0.0,10,0.5,0.5,5.633414591979981,-0.1005,-0.001,-0.2505,0.061433885922946525,10,1,100,-0.08916281898333824,-10,-1,-100,15028.687991900137,0.00534921343320254,0.006534698299599775,0.9999643411811139,23.333280102812758,0.019806135426439067,-23.767304566650832,8.987924606644105,-148.79092407226562,5356.25390625,True
1599560684.5933366,0.0,10,0.5,0.5,5.968691265869141,-0.1005,-0.001,-0.2505,0.07227072368458179,10,1,100,-0.05767083868545868,-10,-1,-100,15028.687991900137,0.00534921343320254,0.006534698299599775,0.9999643411811139,23.333280102812758,0.019806135426439067,-23.767304566650832,8.987924606644105,-148.79092407226562,5356.25390625,True
1599560684.622226,0.0,10,0.5,0.5,5.534534811401368,-0.1005,-0.001,-0.2505,0.06541984055023167,10,1,100,-0.076436485600741,-10,-1,-100,15029.027836793568,0.005517438897469216,0.006473185663099134,0.9999638272134566,23.304856945532922,0.019492513858084568,-22.75847301079778,8.616613527293383,-147.5540008544922,5356.25390625,True
1599560684.656167,0.0,10,0.5,0.5,5.313108497619629,-0.1005,-0.001,-0.2505,0.066681210210136,10,1,100,-0.07426036073511176,-10,-1,-100,15029.371588134323,0.005648664323133693,0.006429375924261221,0.9999633771876794,23.282376937158862,0.019214409788426395,-21.75749504573808,8.24530494388874,-146.04112243652344,5356.25390625,True
1599560684.7180016,0.0,10,0.5,0.5,5.063889314270019,-0.1005,-0.001,-0.2505,0.06556494452022127,10,1,100,-0.07229880725536197,-10,-1,-100,15029.713385516894,0.0057482700169485725,0.006380023079395987,0.9999631256688012,23.259087108379482,0.018971309390751652,-20.757597355195706,7.873998393174752,-144.2526397705078,5356.25390625,True
1599560684.774883,0.0,10,0.5,0.5,4.388064263916016,-0.1005,-0.001,-0.2505,0.06520463631926988,10,1,100,-0.07123243107204555,-10,-1,-100,15030.190924933879,0.0058273543714794235,0.0063324891645556046,0.9999629700753974,23.203814966950347,0.018667711870407118,-19.244400308146034,7.317041877400049,-141.05264282226562,5356.25390625,True
1599560684.8057668,0.0,10,0.5,0.5,4.3189081283569335,-0.1005,-0.001,-0.2505,0.06683964422128963,10,1,100,-0.06457498590018768,-10,-1,-100,15030.463385557174,0.00583704969283062,0.0063047433441285935,0.9999630888499075,23.138410326400358,0.01849967427949555,-18.216895812654663,6.945739699933819,-138.57464599609375,5356.25390625,True
1599560684.8327327,0.0,10,0.5,0.5,4.938405804443359,-0.1005,-0.001,-0.2505,0.06955629322946988,10,1,100,-0.06375657436144688,-10,-1,-100,15030.463385557174,0.00583704969283062,0.0063047433441285935,0.9999630888499075,23.138410326400358,0.01849967427949555,-18.216895812654663,6.945739699933819,-138.57464599609375,5356.25390625,True
1599560684.8636124,0.0,10,0.5,0.5,4.466021403503418,-0.1005,-0.001,-0.2505,0.06814046108549407,10,1,100,-0.06296015111206732,-10,-1,-100,15030.607916493318,0.005828844947351534,0.006292256648635832,0.9999632153598688,23.092729041266665,0.01842329072491639,-17.69523298810852,6.760089060994201,-137.23226928710938,5356.25390625,True
1599560684.8905418,0.0,10,0.5,0.5,3.7860169860839847,-0.1005,-0.001,-0.2505,0.06672311786694243,10,1,100,-0.05922890982873806,-10,-1,-100,15030.817876630696,0.005786508637260535,0.006268416026285774,0.9999636109770758,22.96695380426776,0.01827876225855985,-16.632694892800608,6.388788430813493,-134.3407440185547,5356.25390625,True
1599560684.9204605,0.0,10,0.5,0.5,3.9650301528930667,-0.1005,-0.001,-0.2505,0.06762727056833001,10,1,100,-0.05976904827142556,-10,-1,-100,15030.95752436039,0.005752245011390074,0.006255303729250349,0.9999638907743539,22.883093891235795,0.01820702807423687,-16.0906195604114,6.203138269118714,-132.79164123535156,5356.25390625,True
1599560684.9543695,0.0,10,0.5,0.5,3.7835530883789064,-0.1005,-0.001,-0.2505,0.06748465423018597,10,1,100,-0.05852755580400258,-10,-1,-100,15031.094242304913,0.005709443573096548,0.006242340942117152,0.9999642170766152,22.782662267118216,0.01813287660594114,-15.54074975293535,6.017488050215255,-131.17361450195312,5356.25390625,True
1599560684.9872792,0.0,10,0.5,0.5,2.9787182144165043,-0.1005,-0.001,-0.2505,0.06558668861777392,10,1,100,-0.05083744187705086,-10,-1,-100,15031.307130894042,0.005600295566093878,0.006213568136753667,0.9999650135182643,22.524770665264565,0.017969295834363568,-14.41712865757518,5.6461862977394,-127.73091125488281,5356.25390625,True
1599560685.0201938,0.0,10,0.5,0.5,2.534039273071289,-0.1005,-0.001,-0.2505,0.06447809949894165,10,1,100,-0.046117578288568176,-10,-1,-100,15031.519042192842,0.005458086930133768,0.006177568974003246,0.999966022887095,22.176491894346075,0.017768054347497123,-13.261083512574512,5.274881463380468,-124.0126953125,5356.25390625,True
1599560685.056098,0.0,10,0.5,0.5,2.7744436233520506,-0.1005,-0.001,-0.2505,0.06573361227284148,10,1,100,-0.051254939706258426,-10,-1,-100,15031.653806068469,0.005375682889779033,0.006156485130311278,0.9999665993043513,21.961847082653108,0.01764470581507749,-12.670653169953733,5.089226943666626,-122.05028533935547,5356.25390625,True
1599560685.0870152,0.0,10,0.5,0.5,1.8136799575805667,-0.1005,-0.001,-0.2505,0.062253476686709865,10,1,100,-0.038906427744175194,-10,-1,-100,15031.802240405348,0.0051888496417350355,0.006105883619762006,0.9999678964969914,21.443100569580718,0.017338563473207048,-11.468982726068935,4.717912154668036,-117.91886901855469,5356.25390625,True
1599560685.1210098,0.0,10,0.5,0.5,0.4898635932922364,-0.1005,-0.001,-0.2505,0.05601012824103355,10,1,100,-0.021270648229182204,-10,-1,-100,15032.082507853978,0.004859256424949414,0.006003330538433604,0.9999701733799078,20.45885885352245,0.016716907414371814,-9.650954019202283,4.160918690495233,-111.20541381835938,5356.25390625,True
1599560685.1529222,0.0,10,0.5,0.5,0.4770942527770996,-0.1005,-0.001,-0.2505,0.05642298946514167,10,1,100,-0.026724749196811528,-10,-1,-100,15032.228011603234,0.004610097866911736,0.005914127759995763,0.9999718846500114,19.75168120449427,0.016241549026124184,-8.4859500047103,3.7895687506919984,-106.38560485839844,5356.25390625,True
1599560685.1888747,0.0,10,0.5,0.5,1.681237493133545,-0.1005,-0.001,-0.2505,0.0653042057505125,10,1,100,-0.05151790981798751,-10,-1,-100,15032.228011603234,0.004610097866911736,0.005914127759995763,0.9999718846500114,19.75168120449427,0.016241549026124184,-8.4859500047103,3.7895687506919984,-106.38560485839844,5356.25390625,True
1599560685.2207897,0.0,10,0.5,0.5,-0.9859707008361815,-0.1005,-0.001,-0.2505,0.04671619096914836,10,1,100,-0.007469387762624791,-10,-1,-100,15032.44382425805,0.004210764709208838,0.005745489560973035,0.9999746290832926,18.40614165186808,0.015244276663799737,-6.745543933464596,3.2325017743861677,-98.7955093383789,5356.25390625,True
1599560685.253749,0.0,10,0.5,0.5,0.9117937034606933,-0.1005,-0.001,-0.2505,0.06352771822488994,10,1,100,-0.047245129140109386,-10,-1,-100,15032.44382425805,0.004210764709208838,0.005745489560973035,0.9999746290832926,18.40614165186808,0.015244276663799737,-6.745543933464596,3.2325017743861677,-98.7955093383789,5356.25390625,True
1599560685.28671,0.0,10,0.5,0.5,-0.9364339736938476,-0.1005,-0.001,-0.2505,0.04802422131176819,10,1,100,-0.015050525436271972,-10,-1,-100,15032.589327141177,0.003919487839448663,0.005605012147370362,0.9999766104534167,17.31057169352018,0.014370926420918669,-5.615168463580622,2.8610877940917723,-93.53958892822266,5356.25390625,True
1599560685.322775,0.0,10,0.5,0.5,-2.372227916717529,-0.1005,-0.001,-0.2505,0.034808536731055814,10,1,100,0.004720143018363751,-10,-1,-100,15032.680139106931,0.0034765845680187674,0.0053577422104475894,0.9999796037710708,16.317692094439852,0.013539835373604115,-4.262388534494577,2.303923461442892,-85.70870971679688,5356.25390625,True
1599560685.354657,0.0,10,0.5,0.5,-1.345403353881836,-0.1005,-0.001,-0.2505,0.048815221263679834,10,1,100,-0.02212631892207909,-10,-1,-100,15032.748495892389,0.0033199346216302296,0.005261062878020111,0.9999806494385287,16.832880587402723,0.013954818110444434,-4.042525619683971,2.1181951819098956,-83.05740356445312,5356.25390625,True
1599560685.3866756,0.0,10,0.5,0.5,-3.3988804748535157,-0.1005,-0.001,-0.2505,0.024963976703377008,10,1,100,0.01214852987707285,-10,-1,-100,15032.834425302804,0.002867879819746999,0.004957176267170544,0.9999836006999292,18.19598805194845,0.015062788189152175,-3.220449265113812,1.561008334791493,-75.3265380859375,5356.25390625,True
1599560685.4205866,0.0,10,0.5,0.5,-1.4669710472106934,-0.1005,-0.001,-0.2505,0.05523270690201962,10,1,100,-0.032806170004247015,-10,-1,-100,15032.834425302804,0.002867879819746999,0.004957176267170544,0.9999836006999292,18.19598805194845,0.015062788189152175,-3.220449265113812,1.561008334791493,-75.3265380859375,5356.25390625,True
1599560685.456491,0.0,10,0.5,0.5,-3.169833338165283,-0.1005,-0.001,-0.2505,0.029141920229336028,10,1,100,0.001792517088407497,-10,-1,-100,15032.913521814742,0.0025554562732883106,0.004721031576830322,0.9999855906482282,18.907263795560233,0.015656172605652788,-2.550084557521504,1.1895555594929466,-70.48721313476562,5356.25390625,True
1599560685.4874086,0.0,10,0.5,0.5,-2.775077048492432,-0.1005,-0.001,-0.2505,0.03978568587815763,10,1,100,-0.012875337299884581,-10,-1,-100,15032.917425400694,0.0024068733619936685,0.0046042818178390465,0.9999865036837052,19.20257173071248,0.015904007211900478,-2.1855657395246277,1.0038303553158956,-68.16976928710938,5356.25390625,True
1599560685.520481,0.0,10,0.5,0.5,-3.752599407196045,-0.1005,-0.001,-0.2505,0.021940835277817407,10,1,100,0.006509067970061507,-10,-1,-100,15032.931092506973,0.0020975790533671367,0.0043371105277913,0.9999883947498514,19.66206227599479,0.016286528004897303,-1.4097977261591625,0.6323787393940448,-63.741790771484375,5356.25390625,True
1599560685.554394,0.0,10,0.5,0.5,-3.3885063972473146,-0.1005,-0.001,-0.2505,0.03405287293204198,10,1,100,-0.007884069280940126,-10,-1,-100,15032.94280898082,0.001949533219455345,0.004205770622088304,0.9999892553491264,19.830218091676425,0.01642540196264723,-1.0042666204825372,0.4466504046311299,-61.631103515625,5356.25390625,True
1599560685.5893388,0.0,10,0.5,0.5,-5.584752577209473,-0.1005,-0.001,-0.2505,-0.015720040453391655,10,1,100,0.04211958556762303,-10,-1,-100,15032.965261475183,0.0013624230822665542,0.0036352894215260782,0.9999924642086893,20.212554347553677,0.016752784599040872,0.6790670177173261,-0.29629424265811277,-53.87823486328125,5356.25390625,True
1599560685.6202915,0.0,10,0.5,0.5,-4.2669172172546395,-0.1005,-0.001,-0.2505,0.024250804515107242,10,1,100,-0.0005100010690397543,-10,-1,-100,15032.968189124367,0.001218817692089081,0.0034819598299462694,0.9999931951964354,20.297439281163353,0.016827447203822506,1.1094177656659818,-0.4820384923804004,-52.112518310546875,5356.25390625,True
1599560685.6541967,0.0,10,0.5,0.5,-3.828747927856446,-0.1005,-0.001,-0.2505,0.03937145844134571,10,1,100,-0.014600473072051118,-10,-1,-100,15032.968189124367,0.001218817692089081,0.0034819598299462694,0.9999931951964354,20.297439281163353,0.016827447203822506,1.1094177656659818,-0.4820384923804004,-52.112518310546875,5356.25390625,True
1599560685.687232,0.0,10,0.5,0.5,-4.999111849975586,-0.1005,-0.001,-0.2505,0.006536987343911241,10,1,100,0.016374746327252172,-10,-1,-100,15032.917404314736,0.0009392773038008053,0.0031851698948609573,0.9999944862102428,20.40513593719822,0.01692701946351139,1.974884675055037,-0.853535958786058,-48.7877197265625,5356.25390625,True
1599560685.7240996,0.0,10,0.5,0.5,-5.738540084838868,-0.1005,-0.001,-0.2505,-0.01666671700128619,10,1,100,0.033464167235538564,-10,-1,-100,15032.867595434305,0.000531955540115978,0.0027063052716299325,0.9999961964603066,20.446944501771902,0.01698350976989007,3.271062551765384,-1.4108031482401768,-44.318023681640625,5356.25390625,True
1599560685.7540169,0.0,10,0.5,0.5,-4.6219820770263675,-0.1005,-0.001,-0.2505,0.03099465822226223,10,1,100,-0.007034416704981075,-10,-1,-100,15032.867595434305,0.000531955540115978,0.0027063052716299325,0.9999961964603066,20.446944501771902,0.01698350976989007,3.271062551765384,-1.4108031482401768,-44.318023681640625,5356.25390625,True
1599560685.787929,0.0,10,0.5,0.5,-6.378229809570313,-0.1005,-0.001,-0.2505,-0.03818533774545147,10,1,100,0.050489718446674645,-10,-1,-100,15032.694739166065,1.1132424446045029e-05,0.002079442463737572,0.9999978378952172,20.37950854922413,0.016972082958064166,4.977664670087079,-2.153859536284601,-39.32330322265625,5356.25390625,True
1599560685.821008,0.0,10,0.5,0.5,-5.130168725585937,-0.1005,-0.001,-0.2505,0.02423678413247529,10,1,100,-0.0013381607354344175,-10,-1,-100,15032.694739166065,1.1132424446045029e-05,0.002079442463737572,0.9999978378952172,20.37950854922413,0.016972082958064166,4.977664670087079,-2.153859536284601,-39.32330322265625,5356.25390625,True
1599560685.8568783,0.0,10,0.5,0.5,-6.193830044555664,-0.1005,-0.001,-0.2505,-0.02873644455835068,10,1,100,0.040092593222428044,-10,-1,-100,15032.52188528399,-0.00036333284704584314,0.0016001629659610646,0.999998653732956,20.297253216887544,0.01695730400313722,6.24059713328641,-2.7111710700473246,-36.3011474609375,5356.25390625,True
1599560685.8878253,0.0,10,0.5,0.5,-5.439524090576173,-0.1005,-0.001,-0.2505,0.01891781046311704,10,1,100,0.002892157263280525,-10,-1,-100,15032.52188528399,-0.00036333284704584314,0.0016001629659610646,0.999998653732956,20.297253216887544,0.01695730400313722,6.24059713328641,-2.7111710700473246,-36.3011474609375,5356.25390625,True
1599560685.920741,0.0,10,0.5,0.5,-6.285119067382813,-0.1005,-0.001,-0.2505,-0.03355379505793675,10,1,100,0.043026937579846394,-10,-1,-100,15032.341220294591,-0.00072609188077235,0.001125517104547964,0.9999991030005119,20.209896223985726,0.01696302049426375,7.4914018298529665,-3.2684949394860134,-33.899261474609375,5356.25390625,True
1599560685.954623,0.0,10,0.5,0.5,-5.685444525146484,-0.1005,-0.001,-0.2505,0.013659813851675499,10,1,100,0.006959885703499602,-10,-1,-100,15032.341220294591,-0.00072609188077235,0.001125517104547964,0.9999991030005119,20.209896223985726,0.01696302049426375,7.4914018298529665,-3.2684949394860134,-33.899261474609375,5356.25390625,True
1599560685.994576,0.0,10,0.5,0.5,-6.128383129882813,-0.1005,-0.001,-0.2505,-0.02041559272074164,10,1,100,0.03332229326293477,-10,-1,-100,15032.220126353088,-0.0009639820317009775,0.0008178829018218066,0.9999992009027814,20.164538265951695,0.016994226288887918,8.324548450973195,-3.6400496763263432,-32.64251708984375,5356.25390625,True
1599560686.0295165,0.0,10,0.5,0.5,-6.159992254638672,-0.1005,-0.001,-0.2505,-0.021121832897853597,10,1,100,0.03631854733244644,-10,-1,-100,15032.040438694414,-0.0012055001152463903,0.0005342169676680317,0.999999130690474,20.146287528632193,0.017062481331475057,9.166286601741914,-4.011608161578201,-31.661102294921875,5356.25390625,True
1599560686.056442,0.0,10,0.5,0.5,-6.251082220458985,-0.1005,-0.001,-0.2505,-0.040622299944550876,10,1,100,0.05082793348680255,-10,-1,-100,15031.794346123119,-0.001555015722219051,0.00010147182976479992,0.9999987858140487,20.162524192112365,0.017228592691542734,10.448775874298741,-4.568952182902328,-30.7060546875,5356.25390625,True
1599560686.0883574,0.0,10,0.5,0.5,-6.013203991699219,-0.1005,-0.001,-0.2505,0.0023917305015857763,10,1,100,0.016085069915769985,-10,-1,-100,15031.794346123119,-0.001555015722219051,0.00010147182976479992,0.9999987858140487,20.162524192112365,0.017228592691542734,10.448775874298741,-4.568952182902328,-30.7060546875,5356.25390625,True
1599560686.1260502,0.0,10,0.5,0.5,-6.117204409790039,-0.1005,-0.001,-0.2505,-0.027136280047648884,10,1,100,0.04220131074841424,-10,-1,-100,15031.605870453175,-0.001790538846822785,-0.00016459659937200145,0.9999983834379922,20.208341209148347,0.017386331613463892,11.32463873785861,-4.940518542538247,-30.41363525390625,5356.25390625,True
1599560686.1589935,0.0,10,0.5,0.5,-6.059926339721679,-0.1005,-0.001,-0.2505,-0.014431584650444047,10,1,100,0.03193532611625227,-10,-1,-100,15031.485753918183,-0.0019096857622871901,-0.00028893972310076817,0.9999981348053234,20.24278790253702,0.01747995629295631,11.770766532152692,-5.126302681218593,-30.37066650390625,5356.25390625,True
1599560686.1958637,0.0,10,0.5,0.5,-5.868570108032227,-0.1005,-0.001,-0.2505,-0.05435445032453323,10,1,100,0.07225062201315618,-10,-1,-100,15031.049233736238,-0.002382757631602382,-0.0007627609942669684,0.9999968703259698,20.459345194226735,0.0179518164342087,13.622525363202563,-5.869443473401796,-30.887725830078125,5356.25390625,True
1599560686.2327871,0.0,10,0.5,0.5,-5.998634811401368,-0.1005,-0.001,-0.2505,-0.007208615603936015,10,1,100,0.02514537756009266,-10,-1,-100,15031.049233736238,-0.002382757631602382,-0.0007627609942669684,0.9999968703259698,20.459345194226735,0.0179518164342087,13.622525363202563,-5.869443473401796,-30.887725830078125,5356.25390625,True
1599560686.2706623,0.0,10,0.5,0.5,-5.763390875244141,-0.1005,-0.001,-0.2505,-0.03125498926812013,10,1,100,0.051366752448984074,-10,-1,-100,15030.79630604526,-0.002619297926242707,-0.0009792162785229803,0.9999960901992834,20.613406163307,0.018242941360926194,14.594695402623065,-6.2410151255526,-31.559478759765625,5356.25390625,True
1599560686.3025658,0.0,10,0.5,0.5,-5.599569403076171,-0.1005,-0.001,-0.2505,-0.02917816627166742,10,1,100,0.054576656605692775,-10,-1,-100,15030.542402468855,-0.0028617944082081088,-0.0011552002066215383,0.9999952378112847,20.795465146933733,0.0185665534766264,15.600992451478236,-6.612586186382462,-32.50628662109375,5356.25390625,True
1599560686.3404608,0.0,10,0.5,0.5,-5.634379949951172,-0.1005,-0.001,-0.2505,-0.02238851594374482,10,1,100,0.04349948114909834,-10,-1,-100,15030.420333212824,-0.002979602612637219,-0.0012513881225380498,0.9999947779843841,20.895073346632255,0.018738004316576382,16.116566972635095,-6.7983711192840275,-33.083221435546875,5356.25390625,True
1599560686.3753393,0.0,10,0.5,0.5,-5.301428210449219,-0.1005,-0.001,-0.2505,-0.03094978524028083,10,1,100,0.05830350519264677,-10,-1,-100,15030.105882725213,-0.0032194506347132724,-0.0014147802478630604,0.999993816748114,21.109999578295916,0.019096492030936385,17.173204628368097,-7.1699389526535136,-34.44342041015625,5356.25390625,True
1599560686.4106016,0.0,10,0.5,0.5,-4.397098083496094,-0.1005,-0.001,-0.2505,-0.043629031029963045,10,1,100,0.08684504064410141,-10,-1,-100,15029.531668888754,-0.003695131931141575,-0.00167681259877788,0.9999917671158697,21.57439356524648,0.019831511902842706,19.37232902383228,-7.913061302495135,-37.98980712890625,5356.25390625,True
1599560686.4414926,0.0,10,0.5,0.5,-4.913162463378907,-0.1005,-0.001,-0.2505,-0.023110359980553382,10,1,100,0.05240422473269338,-10,-1,-100,15029.343194002984,-0.003812525586691847,-0.0017268738314980441,0.9999912412393526,21.69108311541211,0.020008009636649532,19.93499294716232,-8.098838191346795,-39.048431396484375,5356.25390625,True
1599560686.4764342,0.0,10,0.5,0.5,-5.177513604736329,-0.1005,-0.001,-0.2505,-0.018287071274663266,10,1,100,0.04089061016411342,-10,-1,-100,15029.343194002984,-0.003812525586691847,-0.0017268738314980441,0.9999912412393526,21.69108311541211,0.020008009636649532,19.93499294716232,-8.098838191346795,-39.048431396484375,5356.25390625,True
1599560686.5173247,0.0,10,0.5,0.5,-4.361010018920898,-0.1005,-0.001,-0.2505,-0.027167746104110754,10,1,100,0.06643116183627043,-10,-1,-100,15029.028743543779,-0.004042874250311575,-0.0018061869870092703,0.9999901963801267,21.91662876046853,0.020337001238568596,21.067678683766704,-8.470386535327863,-41.3721923828125,5356.25390625,True
1599560686.5572174,0.0,10,0.5,0.5,-3.0207454528808593,-0.1005,-0.001,-0.2505,-0.03181794434104682,10,1,100,0.09314493681583275,-10,-1,-100,15028.327577147516,-0.004493195363881873,-0.0019191850693880688,0.9999880638908104,22.29259504041563,0.02082000338384808,23.31208154471899,-9.21345920869164,-46.84588623046875,5356.25390625,True
1599560686.5931256,0.0,10,0.5,0.5,-4.390309945678711,-0.1005,-0.001,-0.2505,-0.02063377851067908,10,1,100,0.04832386923203097,-10,-1,-100,15028.327577147516,-0.004493195363881873,-0.0019191850693880688,0.9999880638908104,22.29259504041563,0.02082000338384808,23.31208154471899,-9.21345920869164,-46.84588623046875,5356.25390625,True
1599560686.6289923,0.0,10,0.5,0.5,-3.2831733886718752,-0.1005,-0.001,-0.2505,-0.02242144715544024,10,1,100,0.07170147099484964,-10,-1,-100,15027.945744115277,-0.004703800436514516,-0.0019343853079085147,0.9999870661238245,22.414445106423955,0.020924954749455712,24.386385677509573,-9.584983418205193,-49.995574951171875,5356.25390625,True
1599560686.6599114,0.0,10,0.5,0.5,-2.868198934936524,-0.1005,-0.001,-0.2505,-0.019691890795883918,10,1,100,0.0722142754147103,-10,-1,-100,15027.56000444619,-0.004898026449533586,-0.0019225212223589667,0.9999861565287038,22.471441912755733,0.02090693780333291,25.39785527372841,-9.95650074909527,-53.420440673828125,5356.25390625,True
1599560686.69781,0.0,10,0.5,0.5,-2.4252142700195316,-0.1005,-0.001,-0.2505,-0.01868227473891277,10,1,100,0.07420880309005455,-10,-1,-100,15027.112741247867,-0.005090876502016484,-0.0019018597976907877,0.9999852328438411,22.446972699767088,0.020746291870651398,26.318806499896404,-10.32801309123927,-57.12078857421875,5356.25390625,True
1599560686.73471,0.0,10,0.5,0.5,-1.9543705566406255,-0.1005,-0.001,-0.2505,-0.01525818001433235,10,1,100,0.07359920197483666,-10,-1,-100,15026.72602463211,-0.005258733563326793,-0.001851357212609755,0.999984458978129,22.323781408179926,0.020430030148300485,27.11796865657279,-10.699523442113858,-61.096221923828125,5356.25390625,True
1599560686.7716124,0.0,10,0.5,0.5,-0.6732924194335939,-0.1005,-0.001,-0.2505,-0.008423287597800363,10,1,100,0.08135824309529885,-10,-1,-100,15026.030714435037,-0.0054800137356779905,-0.001742913497872392,0.9999834657143067,21.917277150799546,0.01965871866313535,28.014219304177644,-11.256793280671921,-67.57559204101562,5356.25390625,True
1599560686.8115382,0.0,10,0.5,0.5,-2.2934160552978518,-0.1005,-0.001,-0.2505,-0.01927426916144611,10,1,100,0.05940871404063274,-10,-1,-100,15026.030714435037,-0.0054800137356779905,-0.001742913497872392,0.9999834657143067,21.917277150799546,0.01965871866313535,28.014219304177644,-11.256793280671921,-67.57559204101562,5356.25390625,True
1599560686.844416,0.0,10,0.5,0.5,-0.6536166534423831,-0.1005,-0.001,-0.2505,-0.009085099270953047,10,1,100,0.07293738436794181,-10,-1,-100,15025.5775909496,-0.005601485749427176,-0.0016502700991712057,0.9999829498376455,21.47473804913842,0.01895680809291546,28.356881443083093,-11.62831497876546,-72.2392578125,5356.25390625,True
1599560686.8783514,0.0,10,0.5,0.5,-0.9685748382568361,-0.1005,-0.001,-0.2505,-0.0127618339623265,10,1,100,0.06646514663591913,-10,-1,-100,15025.320755709778,-0.005651450000578289,-0.0015995433282120011,0.9999827511382545,21.19559994615615,0.018556223314447798,28.436639568829634,-11.814079933753446,-74.66082763671875,5356.25390625,True
1599560686.9182234,0.0,10,0.5,0.5,0.18461828308105477,-0.1005,-0.001,-0.2505,-0.005566973001686879,10,1,100,0.07127296929222442,-10,-1,-100,15024.868607774959,-0.005739117184181833,-0.0014882081128421798,0.999982423730817,20.58359482473393,0.017736445327823137,28.4865833453515,-12.185619254923907,-79.66500854492188,5356.25390625,True
1599560686.955124,0.0,10,0.5,0.5,2.67648279876709,-0.1005,-0.001,-0.2505,0.01051423458318995,10,1,100,0.07346160890914555,-10,-1,-100,15023.845171396737,-0.005837578691411338,-0.0012411932816948673,0.9999821908985473,18.933486827123524,0.015996743221091406,27.806119145651955,-12.928736834817773,-90.32634735107422,5356.25390625,True
1599560686.9939814,0.0,10,0.5,0.5,0.010165473937988279,-0.1005,-0.001,-0.2505,-0.01411944935277198,10,1,100,0.06374989651894798,-10,-1,-100,15023.845171396737,-0.005837578691411338,-0.0012411932816948673,0.9999821908985473,18.933486827123524,0.015996743221091406,27.806119145651955,-12.928736834817773,-90.32634735107422,5356.25390625,True
1599560687.3076227,0.0,10,0.5,0.5,1.9601126441955568,-0.1005,-0.001,-0.2505,1.0423269790905618e-05,10,1,100,0.06515324677307409,-10,-1,-100,15023.32661621552,-0.005849305713489851,-0.001113370068786308,0.9999822728577542,19.2015816316779,0.016256803761762643,29.01316203501943,-13.300302449412445,-95.8702621459961,5356.25390625,True
1599560687.3604832,0.0,10,0.5,0.5,3.4014231552124023,-0.1005,-0.001,-0.2505,0.008019563096162448,10,1,100,0.06114095824479502,-10,-1,-100,15022.493607542594,-0.005822626493064184,-0.0009250923778602153,0.9999826204613832,20.913855991484052,0.018010788032626904,32.92949263653385,-13.857604960288825,-103.9210205078125,5356.25390625,True
1599560687.4053614,0.0,10,0.5,0.5,4.115157396697998,-0.1005,-0.001,-0.2505,0.009067375291662582,10,1,100,0.055169013582329535,-10,-1,-100,15021.649856108474,-0.005743417023026575,-0.000745293245622703,0.9999832287088009,22.302936799734272,0.019697751123137337,36.53438582625755,-14.414840309437473,-111.6867446899414,5356.25390625,True
1599560687.4502766,0.0,10,0.5,0.5,2.1749025413513183,-0.1005,-0.001,-0.2505,-0.008801931535389943,10,1,100,0.06313842893206041,-10,-1,-100,15021.649856108474,-0.005743417023026575,-0.000745293245622703,0.9999832287088009,22.302936799734272,0.019697751123137337,36.53438582625755,-14.414840309437473,-111.6867446899414,5356.25390625,True
1599560687.5007644,0.0,10,0.5,0.5,4.7075676849365236,-0.1005,-0.001,-0.2505,0.00881133952905128,10,1,100,0.04958663326658236,-10,-1,-100,15020.750439837459,-0.005619979423079185,-0.0005860795270843734,0.9999840360436122,23.38019614599403,0.02117416069181638,39.78555816235744,-14.972007803536442,-118.8897476196289,5356.25390625,True
1599560687.542653,0.0,10,0.5,0.5,3.703123317718506,-0.1005,-0.001,-0.2505,-0.0017490183569513103,10,1,100,0.056469412574924494,-10,-1,-100,15020.428173392662,-0.00557020690257794,-0.0005383947037139046,0.9999843413405058,23.693191636352335,0.021614492295172365,40.82038121950278,-15.157715981802342,-121.15406799316406,5356.25390625,True
1599560687.5785549,0.0,10,0.5,0.5,6.07822629699707,-0.1005,-0.001,-0.2505,0.011586765736778247,10,1,100,0.03451491755990152,-10,-1,-100,15019.20258354547,-0.0053254012736646435,-0.00037482125924817095,0.9999857497036135,24.603993430822406,0.022904116662794915,44.47603919076348,-15.90048983718015,-129.52279663085938,5356.25390625,True
1599560687.6105058,0.0,10,0.5,0.5,4.661243904113769,-0.1005,-0.001,-0.2505,-0.001004224124571477,10,1,100,0.051049693980010497,-10,-1,-100,15018.879340402083,-0.005253463259132559,-0.0003416950558088322,0.999986142088116,24.757417662912697,0.0231056534854181,45.278371746804844,-16.08617115329166,-131.44273376464844,5356.25390625,True
1599560687.6468692,0.0,10,0.5,0.5,5.460728507995606,-0.1005,-0.001,-0.2505,0.0018841370827688535,10,1,100,0.04203677467629713,-10,-1,-100,15018.229924393469,-0.00510657093763786,-0.000286364780849097,0.9999869203786973,24.99086222370205,0.023369488414236958,46.76537757567606,-16.457522863503584,-135.075927734375,5356.25390625,True
1599560687.6827447,0.0,10,0.5,0.5,5.733607724761963,-0.1005,-0.001,-0.2505,0.0009806309668411385,10,1,100,0.03870343127540503,-10,-1,-100,15017.581484274124,-0.004943393894228909,-0.0002451462487585404,0.9999877513050464,25.141092961630292,0.023461764539254235,48.11321305045893,-16.828862927956422,-138.43353271484375,5356.25390625,True
1599560687.7206452,0.0,10,0.5,0.5,4.897338395690918,-0.1005,-0.001,-0.2505,-0.0030416175389208887,10,1,100,0.05493171713658192,-10,-1,-100,15017.581484274124,-0.004943393894228909,-0.0002451462487585404,0.9999877513050464,25.141092961630292,0.023461764539254235,48.11321305045893,-16.828862927956422,-138.43353271484375,5356.25390625,True
1599560687.752581,0.0,10,0.5,0.5,5.983376979827881,-0.1005,-0.001,-0.2505,0.00016961155427398138,10,1,100,0.03631316091988342,-10,-1,-100,15016.87445131084,-0.0047749578484582505,-0.00021674255138406684,0.9999885763348558,25.224882327054118,0.023405231339631523,49.34413730204166,-17.2001948492619,-141.51553344726562,5356.25390625,True
1599560687.7884617,0.0,10,0.5,0.5,6.656393282318116,-0.1005,-0.001,-0.2505,-0.0007638113546199904,10,1,100,0.023174303177615138,-10,-1,-100,15015.835385341546,-0.004503342435232128,-0.0002000506255121962,0.9999898398917153,25.28020055095989,0.023114508099940253,51.0623735464828,-17.757181841961028,-145.62179565429688,5356.25390625,True
1599560687.8223813,0.0,10,0.5,0.5,6.471107633972169,-0.1005,-0.001,-0.2505,-0.0027487020107281107,10,1,100,0.029609476651236196,-10,-1,-100,15015.123469342594,-0.004316048249866566,-0.00020341628306612443,0.9999906651310905,25.31056912237067,0.022837066818199334,52.19881101797326,-18.12850053420118,-148.01478576660156,5356.25390625,True
1599560687.8593075,0.0,10,0.5,0.5,6.618477429962159,-0.1005,-0.001,-0.2505,-0.003728052077930849,10,1,100,0.02706198367703783,-10,-1,-100,15014.351006142213,-0.0041239193895625794,-0.00021587176960113553,0.9999914733077715,25.323397865403095,0.02249488106377512,53.301294039068125,-18.49981498584862,-150.13211059570312,5356.25390625,True
1599560687.8902266,0.0,10,0.5,0.5,6.091211796569825,-0.1005,-0.001,-0.2505,-0.0024454826486814164,10,1,100,0.04612526370408483,-10,-1,-100,15014.351006142213,-0.0041239193895625794,-0.00021587176960113553,0.9999914733077715,25.323397865403095,0.02249488106377512,53.301294039068125,-18.49981498584862,-150.13211059570312,5356.25390625,True
1599560687.9241333,0.0,10,0.5,0.5,6.4294277160644535,-0.1005,-0.001,-0.2505,-0.003714579333605197,10,1,100,0.03507350724226163,-10,-1,-100,15013.964286275906,-0.004024763683103292,-0.00022770221485872696,0.9999918746814879,25.326651950801818,0.022306078262201833,53.84637249691876,-18.68547065988392,-151.08743286132812,5356.25390625,True
1599560687.958043,0.0,10,0.5,0.5,6.7903513305664065,-0.1005,-0.001,-0.2505,-0.005765386542700403,10,1,100,0.022835365887907813,-10,-1,-100,15013.251393690123,-0.003824548699092142,-0.0002572346115795751,0.9999926533018145,25.332711987700186,0.02190440062705928,54.9362718175285,-19.056778850707683,-152.79135131835938,5356.25390625,True
1599560687.9869325,0.0,10,0.5,0.5,6.867025041198731,-0.1005,-0.001,-0.2505,-0.007914307996094327,10,1,100,0.0199470104006209,-10,-1,-100,15012.470141772297,-0.0036175763133430706,-0.0003036946767604993,0.9999934104338691,25.345122435840235,0.021483519211439144,56.041129710828756,-19.428082388654463,-154.21975708007812,5356.25390625,True
1599560688.020652,0.0,10,0.5,0.5,6.725517854309083,-0.1005,-0.001,-0.2505,-0.005997463333622327,10,1,100,0.029055369334354486,-10,-1,-100,15012.079515842255,-0.0035135764935363065,-0.00032848948463349274,0.9999937734180561,25.355916687706017,0.02126984195316898,56.604350407738906,-19.613732279729454,-154.83056640625,5356.25390625,True
1599560688.0495772,0.0,10,0.5,0.5,6.930398539733886,-0.1005,-0.001,-0.2505,-0.009856450002340597,10,1,100,0.016037420701922454,-10,-1,-100,15011.245529460255,-0.00330198604923595,-0.00038603614947376656,0.9999944739168422,25.390463870573534,0.020842181558251047,57.761949846796426,-19.985027347877175,-155.84552001953125,5356.25390625,True
1599560688.08249,0.0,10,0.5,0.5,6.9374054855346685,-0.1005,-0.001,-0.2505,-0.011321313796772597,10,1,100,0.013287750894011748,-10,-1,-100,15010.464277689345,-0.00308612629056825,-0.00045154016118638347,0.9999951359561713,25.446378333011175,0.020420216775365384,58.97240742799433,-20.356315492758725,-156.58486938476562,5356.25390625,True
1599560688.1151996,0.0,10,0.5,0.5,6.847191502380371,-0.1005,-0.001,-0.2505,-0.00900035418054227,10,1,100,0.022645947028753364,-10,-1,-100,15010.069745618384,-0.0029764999580569823,-0.0004897761774959392,0.9999954502732978,25.48360305021692,0.020213015154579905,59.60124574600078,-20.54195674399507,-156.85121154785156,5356.25390625,True
1599560688.147149,0.0,10,0.5,0.5,6.895996366882324,-0.1005,-0.001,-0.2505,-0.013578207909612384,10,1,100,0.009118326014176278,-10,-1,-100,15009.230876922607,-0.002755249321529834,-0.0005658896575398239,0.9999960441772117,25.578370887589223,0.019808193832064464,60.912356316561,-20.9132323978013,-157.17713928222656,5356.25390625,True
1599560688.1800535,0.0,10,0.5,0.5,6.836192951965333,-0.1005,-0.001,-0.2505,-0.010379519982083984,10,1,100,0.018757832568701553,-10,-1,-100,15008.774821492145,-0.002643163165117508,-0.0006056752278981211,0.9999963234162417,25.636411047330423,0.019610999736182844,61.59668915603742,-21.09886662248919,-157.23675537109375,5356.25390625,True
1599560688.213458,0.0,10,0.5,0.5,6.739623623657227,-0.1005,-0.001,-0.2505,-0.02054279424366231,10,1,100,-0.007775490221846221,-10,-1,-100,15007.477944615064,-0.002301400775941727,-0.0007338829638215607,0.999997082480876,25.854557911801294,0.019041063182223,63.77369309757744,-21.65575272495763,-157.0021514892578,5356.25390625,True
1599560688.2543492,0.0,10,0.5,0.5,6.799078900146485,-0.1005,-0.001,-0.2505,-0.007773821770740396,10,1,100,0.026218496834369776,-10,-1,-100,15007.477944615064,-0.002301400775941727,-0.0007338829638215607,0.999997082480876,25.854557911801294,0.019041063182223,63.77369309757744,-21.65575272495763,-157.0021514892578,5356.25390625,True
1599560688.2892525,0.0,10,0.5,0.5,6.623854377746582,-0.1005,-0.001,-0.2505,-0.01774433425588894,10,1,100,0.0005060021517039465,-10,-1,-100,15006.63224040973,-0.0020692175178330936,-0.0008240638220965812,0.9999975196257646,26.03630810830155,0.01867857465913543,65.33212706285421,-22.02699467643835,-156.50125122070312,5356.25390625,True
1599560688.3236787,0.0,10,0.5,0.5,6.1078469116210945,-0.1005,-0.001,-0.2505,-0.02879320143044833,10,1,100,-0.02877659654281016,-10,-1,-100,15004.81876202568,-0.0015935321415853523,-0.001005975368287579,0.9999982243328597,26.47921744812531,0.01799236768481386,68.70261391850805,-22.76943566283947,-154.672607421875,5356.25390625,True
1599560688.3775325,0.0,10,0.5,0.5,6.565967468261719,-0.1005,-0.001,-0.2505,-0.01067227488050127,10,1,100,0.018589536664788197,-10,-1,-100,15004.81876202568,-0.0015935321415853523,-0.001005975368287579,0.9999982243328597,26.47921744812531,0.01799236768481386,68.70261391850805,-22.76943566283947,-154.672607421875,5356.25390625,True
1599560688.415431,0.0,10,0.5,0.5,5.830563397216798,-0.1005,-0.001,-0.2505,-0.02443645758664373,10,1,100,-0.02181608688368231,-10,-1,-100,15003.447667191038,-0.0012279537860101213,-0.0011304884057219157,0.9999986070617619,26.866594029006457,0.017511669040845855,71.42773552548623,-23.326224327322187,-152.57748413085938,5356.25390625,True
1599560688.4583192,0.0,10,0.5,0.5,5.402101263427735,-0.1005,-0.001,-0.2505,-0.02639860334639418,10,1,100,-0.026633052959692205,-10,-1,-100,15002.017979070777,-0.0008537047095809357,-0.001260842990063364,0.9999988407309396,27.281212588171627,0.017067721286184365,74.27738310092934,-23.882973319922833,-149.86248779296875,5356.25390625,True
1599560688.4972124,0.0,10,0.5,0.5,6.081535607910157,-0.1005,-0.001,-0.2505,-0.013444075195137043,10,1,100,0.01056861252512762,-10,-1,-100,15002.017979070777,-0.0008537047095809357,-0.001260842990063364,0.9999988407309396,27.281212588171627,0.017067721286184365,74.27738310092934,-23.882973319922833,-149.86248779296875,5356.25390625,True
1599560688.5351455,0.0,10,0.5,0.5,4.9101154830932625,-0.1005,-0.001,-0.2505,-0.024286932112021382,10,1,100,-0.031075439278791354,-10,-1,-100,15000.58829150931,-0.00047705223431665055,-0.0013587134467508877,0.9999989631589302,27.69747539827782,0.0166788175218482,77.18546070848667,-24.439680796557678,-146.527099609375,5356.25390625,True
1599560688.576004,0.0,10,0.5,0.5,4.843221041870117,-0.1005,-0.001,-0.2505,-0.021712584425972375,10,1,100,-0.021747090013716663,-10,-1,-100,14999.54825227533,-0.00022151515656544592,-0.0014235626795125445,0.9999989621996278,27.960581332966065,0.016465056174907254,79.11346771030914,-24.810795885709897,-143.95916748046875,5356.25390625,True
1599560688.621882,0.0,10,0.5,0.5,4.998180987548828,-0.1005,-0.001,-0.2505,-0.01779109186732569,10,1,100,-0.01028277698888919,-10,-1,-100,14999.09708033898,-9.563124793419336e-05,-0.0014461230610794313,0.9999989497908269,28.083701669393363,0.016376012745974045,80.061986309802,-24.996346615002107,-142.57176208496094,5356.25390625,True
1599560688.6677587,0.0,10,0.5,0.5,4.833127467346191,-0.1005,-0.001,-0.2505,-0.0178224035238169,10,1,100,-0.01174044436243052,-10,-1,-100,14998.574619638617,3.0054945555496037e-05,-0.0014662696592926505,0.999998924574415,28.19925698083685,0.01630086340986297,80.99412368091848,-25.181892991144252,-141.115478515625,5356.25390625,True
1599560688.7086754,0.0,10,0.5,0.5,3.517835224914551,-0.1005,-0.001,-0.2505,-0.021834257824164087,10,1,100,-0.04120267345084665,-10,-1,-100,14997.016026275698,0.000410034062512181,-0.0015203903452210323,0.9999987601418642,28.484279988198367,0.016173740099828554,83.63971157662766,-25.73850795068728,-136.3334197998047,5356.25390625,True
1599560688.7445824,0.0,10,0.5,0.5,4.105874372863769,-0.1005,-0.001,-0.2505,-0.01793425041332915,10,1,100,-0.017362106715152138,-10,-1,-100,14996.491612492595,0.0005364833334389034,-0.001533503331854585,0.9999986802757111,28.552923987265785,0.016168321094597794,84.45191943277057,-25.92403909798721,-134.60165405273438,5356.25390625,True
1599560688.7824516,0.0,10,0.5,0.5,1.8644863189697267,-0.1005,-0.001,-0.2505,-0.018436138805177495,10,1,100,-0.05902424690180756,-10,-1,-100,14994.41055891395,0.0010282475673645873,-0.001549507279662284,0.9999982708655704,28.645639099360068,0.016345508962785055,87.17783272927345,-26.666138480929312,-126.98573303222656,5356.25390625,True
1599560688.8254125,0.0,10,0.5,0.5,2.287915866088867,-0.1005,-0.001,-0.2505,-0.016385276112237952,10,1,100,-0.03690255058302129,-10,-1,-100,14993.308996988344,0.001271816195572652,-0.0015449179969049469,0.9999979978539696,28.555078625855355,0.016541013698382474,88.12503622407405,-27.037180051762586,-122.76467895507812,5356.25390625,True
1599560688.8582897,0.0,10,0.5,0.5,1.7639788818359374,-0.1005,-0.001,-0.2505,-0.01378930607688433,10,1,100,-0.036982936871121294,-10,-1,-100,14992.260170109686,0.0014917004874885449,-0.0015167694399030773,0.9999977371175006,28.35123913725306,0.01677791717529342,88.71071673346604,-27.408222764584206,-118.26801300048828,5356.25390625,True
1599560688.8952243,0.0,10,0.5,0.5,1.2122611419677733,-0.1005,-0.001,-0.2505,-0.012463095302838243,10,1,100,-0.03879019778935017,-10,-1,-100,14991.154701848514,0.0017058927564895558,-0.0014788907206374682,0.9999974514028221,28.017850262581224,0.01701292094892983,88.86878895138209,-27.77927196369353,-113.49600982666016,5356.25390625,True
1599560688.937105,0.0,10,0.5,0.5,2.404011289215088,-0.1005,-0.001,-0.2505,-0.01627277200245657,10,1,100,-0.017626930635856124,-10,-1,-100,14991.154701848514,0.0017058927564895558,-0.0014788907206374682,0.9999974514028221,28.017850262581224,0.01701292094892983,88.86878895138209,-27.77927196369353,-113.49600982666016,5356.25390625,True
1599560688.9730155,0.0,10,0.5,0.5,0.6290756347656252,-0.1005,-0.001,-0.2505,-0.01075768679507854,10,1,100,-0.03983895167116911,-10,-1,-100,14989.982827571104,0.0019058357250007591,-0.0014286443303214073,0.9999971633787601,27.591313930679462,0.017218047134812065,88.69967097340813,-28.150332338309852,-108.44862365722656,5356.25390625,True
1599560689.0118806,0.0,10,0.5,0.5,-0.9487432380676268,-0.1005,-0.001,-0.2505,-0.005126058154258924,10,1,100,-0.050135342651595804,-10,-1,-100,14988.287516259123,0.002179271659031581,-0.0013317645499804384,0.9999967385837913,26.749681549164574,0.01731809561703719,87.71717596640102,-28.70694973064916,-100.36133575439453,5356.25390625,True
1599560689.043795,0.0,10,0.5,0.5,-0.9348967491149902,-0.1005,-0.001,-0.2505,-0.0064417892753666555,10,1,100,-0.04104026610150753,-10,-1,-100,14987.114665540517,0.002343099173234284,-0.001255757176690627,0.999996466473846,25.96733370675397,0.01708754256659898,86.2679184200602,-29.078051059458485,-94.64111328125,5356.25390625,True
1599560689.080696,0.0,10,0.5,0.5,0.4933715438842774,-0.1005,-0.001,-0.2505,-0.014021475356087602,10,1,100,-0.024888819104005103,-10,-1,-100,14987.114665540517,0.002343099173234284,-0.001255757176690627,0.999996466473846,25.96733370675397,0.01708754256659898,86.2679184200602,-29.078051059458485,-94.64111328125,5356.25390625,True
1599560689.1215882,0.0,10,0.5,0.5,-1.5633893005371093,-0.1005,-0.001,-0.2505,-0.00514759755172098,10,1,100,-0.04095930480797697,-10,-1,-100,14985.942791443318,0.0024874371658970083,-0.0011753261358950489,0.9999962156252493,25.060236725870407,0.016573687520506898,84.33228194867691,-29.449171795638584,-88.79327392578125,5356.25390625,True
1599560689.1585145,0.0,10,0.5,0.5,-2.095446273803711,-0.1005,-0.001,-0.2505,-0.0038342292388469524,10,1,100,-0.04104078999586996,-10,-1,-100,14984.770916812122,0.002617620702905368,-0.001090592911596541,0.9999959793263956,25.659764369519586,0.016819949417677452,87.45398113673878,-29.82028314501663,-83.11703491210938,5356.25390625,True
1599560689.1954143,0.0,10,0.5,0.5,-2.655031034851074,-0.1005,-0.001,-0.2505,-0.0022945310024972635,10,1,100,-0.0410054270085772,-10,-1,-100,14983.593182985205,0.0027342030065416333,-0.000999982645874778,0.9999957620753335,26.88109444237616,0.017266685792775294,92.77357795370798,-30.191348087894998,-77.48428344726562,5356.25390625,True
1599560689.2353146,0.0,10,0.5,0.5,-3.189348747253418,-0.1005,-0.001,-0.2505,-0.001780382270490358,10,1,100,-0.039803671996153187,-10,-1,-100,14982.356855336693,0.0028279324308153205,-0.0009134309934285947,0.9999955842112439,27.95981887851401,0.017465603740571815,97.70016546814983,-30.562366050792296,-71.9549560546875,5356.25390625,True
