Timestamp,Input Throttle,horizon,dT,dt,Input Roll,Roll P,Roll I,Roll D,Input Pitch,Pitch P,Pitch I,Pitch D,Input Yaw,Yaw P,Yaw I,Yaw D,Altitude,Direction X,Direction Y,Direction Z,Drag X,Drag Y,Drag Z,Vertical Velocity,Roll,Mass,Has Fuel
1599558445.0495958,0.0,10,0.5,0.5,-0.05863227081298828,-0.001,-0.001,-0.37525,-0.00030586835578547096,10,1,100,0.17497660779764002,-10,-1,-100,14994.04862011422,-0.01681162492580876,-7.460698175745933e-05,0.9998586718637551,28.644456732117114,0.027275127722774798,-87.50349679305991,27.008978969155336,-31.79144287109375,5356.25390625,True
1599558445.0765848,0.0,10,0.5,0.5,-0.06450018463134766,-0.001,-0.001,-0.37525,-0.00020376780417514617,10,1,100,0.1778012934902593,-10,-1,-100,14995.076943459106,-0.016884387487077768,-6.960913892495757e-05,0.9998574461460763,28.49919969852474,0.0276024619338695,-85.86405374174043,26.63704813867563,-31.790191650390625,5356.25390625,True
1599558445.1099346,0.0,10,0.5,0.5,-0.0700927719116211,-0.001,-0.001,-0.37525,-0.0004336034105553336,10,1,100,0.17635438092581895,-10,-1,-100,14995.62772643962,-0.0169220320762937,-6.7091779008935e-05,0.9998568099128506,28.426625715215476,0.02776387778784465,-85.04906714205933,26.451088394469483,-31.78955078125,5356.25390625,True
1599558445.144566,0.0,10,0.5,0.5,-0.07519107666015626,-0.001,-0.001,-0.37525,0.0032475797402474024,10,1,100,0.1762846684448118,-10,-1,-100,14996.16093107732,-0.016940237014775126,-3.127697609706329e-05,0.99985650340018,28.35410946176433,0.027923804519381187,-84.23729675032253,26.265132710382584,-31.79083251953125,5356.25390625,True
1599558445.179473,0.0,10,0.5,0.5,-0.0764981918334961,-0.001,-0.001,-0.37525,0.007806925658885109,10,1,100,0.1803301089083843,-10,-1,-100,14997.189253282268,-0.016978163474868194,4.275896851597838e-05,0.9998558596801297,28.21122161438981,0.02824072499266675,-82.62916301491549,25.893232885834912,-31.804107666015625,5356.25390625,True
1599558445.210824,0.0,10,0.5,0.5,-0.0674694534301758,-0.001,-0.001,-0.37525,0.02051322791132438,10,1,100,0.18030267162232663,-10,-1,-100,14998.699996454641,-0.01699695795101149,0.00022553733957863146,0.9998555158388235,28.00337059495366,0.02870853533856576,-80.25800598935967,25.335412109919133,-31.8568115234375,5356.25390625,True
1599558445.243715,0.0,10,0.5,0.5,-0.08281873779296875,-0.001,-0.001,-0.37525,0.011816588324599427,10,1,100,0.17905620918489257,-10,-1,-100,14999.232222759747,-0.016987260581755072,0.00031243410126574503,0.9998556572640174,27.935977692228285,0.028862216540075838,-79.47880895581235,25.14947943460233,-31.884033203125,5356.25390625,True
1599558445.2607963,0.0,10,0.5,0.5,-0.09884526977539063,-0.001,-0.001,-0.37525,0.003158155566014644,10,1,100,0.18172467216870972,-10,-1,-100,14999.232222759747,-0.016987260581755072,0.00031243410126574503,0.9998556572640174,27.935977692228285,0.028862216540075838,-79.47880895581235,25.14947943460233,-31.884033203125,5356.25390625,True
1599558445.2766273,0.0,10,0.5,0.5,-0.07864959564208984,-0.001,-0.001,-0.37525,0.02651275067042879,10,1,100,0.1785810398738116,-10,-1,-100,15000.193158538197,-0.016943239142181675,0.0005244645712138139,0.99985631546952,27.804166266424865,0.029165750001410078,-77.93722622009531,24.77762548159044,-31.953155517578125,5356.25390625,True
1599558445.3121166,0.0,10,0.5,0.5,-0.0945584213256836,-0.001,-0.001,-0.37525,0.01918343355036307,10,1,100,0.1810438357409423,-10,-1,-100,15000.727337027784,-0.016910205760323246,0.0006501126022830846,0.9998568008943821,27.739715587540793,0.02931538515641478,-77.17462509470312,24.591704051221964,-31.9952392578125,5356.25390625,True
1599558445.343446,0.0,10,0.5,0.5,-0.098307421875,-0.001,-0.001,-0.37525,0.02196498956219508,10,1,100,0.18150321761270347,-10,-1,-100,15001.206827559741,-0.016868978697685846,0.0007890339464515462,0.9998573973238025,27.67619897082056,0.029463434441331305,-76.41730384717393,24.40578632763783,-32.04266357421875,5356.25390625,True
1599558445.3770697,0.0,10,0.5,0.5,-0.07368584899902345,-0.001,-0.001,-0.37525,0.04294518330570862,10,1,100,0.17350562108405765,-10,-1,-100,15002.165807909798,-0.01675874198705336,0.0011052699834291717,0.9998589515253014,27.55211178881748,0.02975460668574111,-74.91865397915741,24.033961997005914,-32.15533447265625,5356.25390625,True
1599558445.4100842,0.0,10,0.5,0.5,-0.09141450958251952,-0.001,-0.001,-0.37525,0.030948611953035988,10,1,100,0.17698804047036315,-10,-1,-100,15002.630649490748,-0.016690299376808444,0.0012826294782733035,0.9998598845679998,27.491529624163825,0.02989750833387834,-74.17716929889772,23.848055273742922,-32.220489501953125,5356.25390625,True
1599558445.444117,0.0,10,0.5,0.5,-0.028383592224121096,-0.001,-0.001,-0.37525,0.07974747912909178,10,1,100,0.15493198165309258,-10,-1,-100,15004.054468473303,-0.01642777986251923,0.0018862644285891285,0.9998632756808773,27.315551482255252,0.030314310277144776,-71.98313379186014,23.290356787889976,-32.452880859375,5356.25390625,True
1599558445.4772258,0.0,10,0.5,0.5,-0.04684697418212891,-0.001,-0.001,-0.37525,0.07039506720024045,10,1,100,0.1565412565583953,-10,-1,-100,15004.946063132491,-0.016204221400624746,0.0023482583282460607,0.9998659454605019,27.202805701851812,0.030581010308491273,-70.54457572784143,22.91857558796618,-32.635406494140625,5356.25390625,True
1599558445.510092,0.0,10,0.5,0.5,-0.03858968048095704,-0.001,-0.001,-0.37525,0.07943032959777108,10,1,100,0.1492012415947141,-10,-1,-100,15005.889414888923,-0.015934962610209245,0.0028482956230392502,0.9998689735053564,27.093506301925466,0.030837783400680666,-69.1242430247586,22.546808554778345,-32.83917236328125,5356.25390625,True
1599558445.5441284,0.0,10,0.5,0.5,-0.11495458679199219,-0.001,-0.001,-0.37525,0.029688875946798185,10,1,100,0.17602092110218404,-10,-1,-100,15005.889414888923,-0.015934962610209245,0.0028482956230392502,0.9998689735053564,27.093506301925466,0.030837783400680666,-69.1242430247586,22.546808554778345,-32.83917236328125,5356.25390625,True
1599558445.560086,0.0,10,0.5,0.5,-0.0746712371826172,-0.001,-0.001,-0.37525,0.05894637503604348,10,1,100,0.15925996244747553,-10,-1,-100,15006.298590149148,-0.01578354689332239,0.003111967558830777,0.9998705892791222,27.039959918284957,0.030962101234874608,-68.42029677969752,22.3609302976848,-32.94598388671875,5356.25390625,True
1599558445.5780385,0.0,10,0.5,0.5,-0.030848687744140638,-0.001,-0.001,-0.37525,0.09390801657059339,10,1,100,0.13723643942553873,-10,-1,-100,15007.190182741033,-0.0154467766811244,0.0036669573930848322,0.9998739673147015,26.934866509243488,0.031202063417730474,-67.02409659257006,21.98918429092413,-33.168701171875,5356.25390625,True
1599558445.610113,0.0,10,0.5,0.5,-0.022593153381347666,-0.001,-0.001,-0.37525,0.10559883499849526,10,1,100,0.1296832778982571,-10,-1,-100,15008.062244087807,-0.015073317258388265,0.0042749169619131985,0.9998772525624317,26.832301000959465,0.031430088735639,-65.64286676200065,21.61745218674232,-33.412445068359375,5356.25390625,True
1599558445.644488,0.0,10,0.5,0.5,-0.11391632995605469,-0.001,-0.001,-0.37525,0.04516535855162164,10,1,100,0.16684553132167715,-10,-1,-100,15008.062244087807,-0.015073317258388265,0.0042749169619131985,0.9998772525624317,26.832301000959465,0.031430088735639,-65.64286676200065,21.61745218674232,-33.412445068359375,5356.25390625,True
1599558445.6778116,0.0,10,0.5,0.5,0.037912504577636716,-0.001,-0.001,-0.37525,0.14902814534985223,10,1,100,0.09357595771502607,-10,-1,-100,15009.347386856913,-0.014408862645090798,0.005215955130064875,0.999882582351226,26.683661299104042,0.031748756207734166,-63.59950925284405,21.059879527581746,-33.81561279296875,5356.25390625,True
1599558445.7107682,0.0,10,0.5,0.5,-0.003474400329589858,-0.001,-0.001,-0.37525,0.13136874295096937,10,1,100,0.10583629433925124,-10,-1,-100,15010.205776568502,-0.013918406856260569,0.005907167365534159,0.9998856851282046,26.58719872861608,0.03194401911418092,-62.25377801080282,20.68818146820827,-34.107269287109375,5356.25390625,True
1599558445.7440515,0.0,10,0.5,0.5,-0.055996080017089854,-0.001,-0.001,-0.37525,0.09880439193762139,10,1,100,0.12443507866024943,-10,-1,-100,15010.615928797517,-0.013644137717079024,0.006235298445032835,0.9998874729484608,26.53986718717746,0.032036421243550266,-61.58602083547384,20.502337514372588,-34.258056640625,5356.25390625,True
1599558445.777636,0.0,10,0.5,0.5,-0.11239851684570314,-0.001,-0.001,-0.37525,0.06642618738939819,10,1,100,0.15158362836385994,-10,-1,-100,15010.615928797517,-0.013644137717079024,0.006235298445032835,0.9998874729484608,26.53986718717746,0.032036421243550266,-61.58602083547384,20.502337514372588,-34.258056640625,5356.25390625,True
1599558445.8107612,0.0,10,0.5,0.5,0.11499725341796874,-0.001,-0.001,-0.37525,0.22109190712301915,10,1,100,0.01850169081508024,-10,-1,-100,15012.170599884237,-0.01243662926998425,0.0076378167697777645,0.9998934913316478,26.353021046184015,0.0323675415580707,-58.940300872649125,19.758995185240526,-34.86199951171875,5356.25390625,True
1599558445.8441422,0.0,10,0.5,0.5,-0.051228648376464854,-0.001,-0.001,-0.37525,0.12187583583568241,10,1,100,0.10237890158408941,-10,-1,-100,15012.565127851674,-0.012104594719016561,0.008006515034073059,0.9998946817058773,26.307015020824736,0.03244090388981444,-58.285308658688514,19.573168056585924,-35.022003173828125,5356.25390625,True
1599558445.87803,0.0,10,0.5,0.5,0.014047251892089843,-0.001,-0.001,-0.37525,0.1629967346513871,10,1,100,0.056631594550658554,-10,-1,-100,15013.36980953475,-0.011390342670461285,0.008710832336837884,0.9998971854615097,26.230537731698764,0.032594294460488005,-57.01485045732713,19.201523419563618,-35.3544921875,5356.25390625,True
1599558445.9105444,0.0,10,0.5,0.5,-0.11047839965820314,-0.001,-0.001,-0.37525,0.09312489085270531,10,1,100,0.12761747898390008,-10,-1,-100,15013.36980953475,-0.011390342670461285,0.008710832336837884,0.9998971854615097,26.230537731698764,0.032594294460488005,-57.01485045732713,19.201523419563618,-35.3544921875,5356.25390625,True
1599558445.94433,0.0,10,0.5,0.5,0.009844396972656239,-0.001,-0.001,-0.37525,0.17172150886493787,10,1,100,0.04282253029874103,-10,-1,-100,15014.103202437866,-0.010623167167878624,0.009420761705182041,0.9998991937031539,26.156989142158125,0.03273525559398565,-55.75701029362702,18.82989197328372,-35.6737060546875,5356.25390625,True
1599558445.9783018,0.0,10,0.5,0.5,0.07062556152343748,-0.001,-0.001,-0.37525,0.21769284288307073,10,1,100,-0.018559619450205192,-10,-1,-100,15015.249681573012,-0.00937176094062261,0.010479395217711329,0.9999011713028157,26.04692691263193,0.03291856349984584,-53.88228132343065,18.272469421045624,-36.15301513671875,5356.25390625,True
1599558446.0113502,0.0,10,0.5,0.5,-0.047312974548339846,-0.001,-0.001,-0.37525,0.14918206894175393,10,1,100,0.056892346381999324,-10,-1,-100,15015.57292236609,-0.008925229110971518,0.010813323667584349,0.9999017013269739,26.01044132295671,0.03297249409106726,-53.26084164166304,18.08666844243863,-36.316864013671875,5356.25390625,True
1599558446.0453515,0.0,10,0.5,0.5,-0.04686455383300782,-0.001,-0.001,-0.37525,0.1528476231536241,10,1,100,0.05039324416742521,-10,-1,-100,15015.914718471467,-0.008465193458005414,0.01114512968890635,0.9999020584956988,25.97403090695642,0.033022937564046576,-52.64107401836157,17.90087073883556,-36.480804443359375,5356.25390625,True
1599558446.0779657,0.0,10,0.5,0.5,0.013898869323730453,-0.001,-0.001,-0.37525,0.1907752084736275,10,1,100,-0.009712364938128201,-10,-1,-100,15016.648116383934,-0.007505522066529611,0.011786805972723318,0.9999023644053804,25.901348997474006,0.033113457567652875,-51.40636451866995,17.529285211011896,-36.80517578125,5356.25390625,True
1599558446.1138606,0.0,10,0.5,0.5,0.014661668395996086,-0.001,-0.001,-0.37525,0.19827793873292818,10,1,100,-0.02552555847557285,-10,-1,-100,15017.314133666921,-0.0064949177836207935,0.012433307862616302,0.9999016096089541,25.828456339318535,0.033190438407238725,-50.177298941317,17.15771285024441,-37.130035400390625,5356.25390625,True
1599558446.1440752,0.0,10,0.5,0.5,0.018718397521972657,-0.001,-0.001,-0.37525,0.1997109495444119,10,1,100,-0.042107846894625975,-10,-1,-100,15018.031910484307,-0.005431937831651802,0.01302842967042561,0.999900372072996,25.755516397619115,0.03325454686240878,-48.95421358779003,16.786153585638274,-37.46405029296875,5356.25390625,True
1599558446.1779437,0.0,10,0.5,0.5,-0.04348374633789062,-0.001,-0.001,-0.37525,0.1718004604197246,10,1,100,0.0029748294672167566,-10,-1,-100,15018.373709662468,-0.004881802834458863,0.013310817219209053,0.9998994900218933,25.7190070768511,0.033281905931355896,-48.344874227194346,16.60037891828753,-37.63116455078125,5356.25390625,True
1599558446.2121239,0.0,10,0.5,0.5,0.0810787673950195,-0.001,-0.001,-0.37525,0.23023669543790432,10,1,100,-0.1319765221605912,-10,-1,-100,15019.308290240238,-0.003161415814834809,0.014093949579918238,0.9998956775760581,25.60861664366323,0.033345705397040036,-46.52440663777315,16.043074272966912,-38.128204345703125,5356.25390625,True
1599558446.2471535,0.0,10,0.5,0.5,-0.10515804443359375,-0.001,-0.001,-0.37525,0.15246177109129383,10,1,100,0.03923928711625162,-10,-1,-100,15019.308290240238,-0.003161415814834809,0.014093949579918238,0.9998956775760581,25.60861664366323,0.033345705397040036,-46.52440663777315,16.043074272966912,-38.128204345703125,5356.25390625,True
1599558446.2780733,0.0,10,0.5,0.5,0.08386436767578123,-0.001,-0.001,-0.37525,0.2270764987019135,10,1,100,-0.16160968763102035,-10,-1,-100,15020.22822715866,-0.0013429968870010878,0.014767371542521071,0.9998900545045373,25.49657074398447,0.03338372528482515,-44.71481573600635,15.485798664335062,-38.629852294921875,5356.25390625,True
1599558446.3124213,0.0,10,0.5,0.5,0.02587256774902344,-0.001,-0.001,-0.37525,0.20743729442571174,10,1,100,-0.12121015471616259,-10,-1,-100,15020.879607546027,-6.559377026993697e-05,0.01519617455161514,0.9998845293214883,25.420814399723437,0.033395493997690665,-43.51437818121003,15.11429775897244,-38.975250244140625,5356.25390625,True
1599558446.3456671,0.0,10,0.5,0.5,-0.03479200134277344,-0.001,-0.001,-0.37525,0.18622330260804623,10,1,100,-0.06632274729727057,-10,-1,-100,15021.148170278291,0.0005882452073408612,0.01538885301669106,0.9998814115535937,25.38277997395485,0.03339747587602703,-42.916258880932546,14.928552118113622,-39.157745361328125,5356.25390625,True
1599558446.3803473,0.0,10,0.5,0.5,-0.10298920593261719,-0.001,-0.001,-0.37525,0.16741300903536502,10,1,100,-0.0018901969680219857,-10,-1,-100,15021.148170278291,0.0005882452073408612,0.01538885301669106,0.9998814115535937,25.38277997395485,0.03339747587602703,-42.916258880932546,14.928552118113622,-39.157745361328125,5356.25390625,True
1599558446.4120827,0.0,10,0.5,0.5,0.17171547698974607,-0.001,-0.001,-0.37525,0.22812856198659523,10,1,100,-0.2972786271602107,-10,-1,-100,15022.324965074426,0.003265364173937717,0.015936954658676984,0.9998676666804558,25.22810417567785,0.03337750889645331,-40.53552168145788,14.185600895027736,-39.88714599609375,5356.25390625,True
1599558446.445196,0.0,10,0.5,0.5,-0.10168391418457032,-0.001,-0.001,-0.37525,0.1737334126565981,10,1,100,-0.0306438191245719,-10,-1,-100,15022.324965074426,0.003265364173937717,0.015936954658676984,0.9998676666804558,25.22810417567785,0.03337750889645331,-40.53552168145788,14.185600895027736,-39.88714599609375,5356.25390625,True
1599558446.4781938,0.0,10,0.5,0.5,-0.030310180664062505,-0.001,-0.001,-0.37525,0.18723788001887914,10,1,100,-0.10847527096054554,-10,-1,-100,15022.593530820566,0.003964049843394242,0.016056537410337666,0.9998632276042707,25.18855189666004,0.033365512098409336,-39.94295721742413,13.999870872638496,-40.07611083984375,5356.25390625,True
1599558446.5117583,0.0,10,0.5,0.5,0.0448434356689453,-0.001,-0.001,-0.37525,0.1901378481110349,10,1,100,-0.19241617783517279,-10,-1,-100,15023.17363314249,0.005353775980237653,0.01618885952383069,0.9998546183871289,25.108695716922234,0.03333345089827782,-38.76160264273411,13.628420005463457,-40.463623046875,5356.25390625,True
1599558446.5458124,0.0,10,0.5,0.5,0.04751210327148436,-0.001,-0.001,-0.37525,0.19125951724797163,10,1,100,-0.21419059466330348,-10,-1,-100,15023.699050783063,0.006805807549610399,0.016316732944337754,0.9998437103915895,25.027028012481317,0.03328999148573319,-37.58416917952259,13.256981205676054,-40.8564453125,5356.25390625,True
1599558446.5787234,0.0,10,0.5,0.5,0.1315273208618164,-0.001,-0.001,-0.37525,0.1778952184457053,10,1,100,-0.30999593853369384,-10,-1,-100,15024.480346770142,0.008987732808439676,0.016309467170810464,0.9998265959352993,24.90160408525844,0.03320417719478804,-35.826550818855175,12.69984521941388,-41.470794677734375,5356.25390625,True
1599558446.612849,0.0,10,0.5,0.5,-0.02209796905517579,-0.001,-0.001,-0.37525,0.17360850638869754,10,1,100,-0.17334645542869018,-10,-1,-100,15024.7352460752,0.009717988516763282,0.01626187770563932,0.999820539913376,24.85877337652392,0.03316990049074555,-35.242705598237016,12.514139088813653,-41.67431640625,5356.25390625,True
1599558446.6451519,0.0,10,0.5,0.5,0.05199966735839842,-0.001,-0.001,-0.37525,0.1612692136577008,10,1,100,-0.2632321308682956,-10,-1,-100,15025.18840496405,0.011188944405232278,0.016105080525053654,0.9998076984622484,24.771156664792002,0.03309286756356527,-34.07766954878817,12.142735160497175,-42.07342529296875,5356.25390625,True
1599558446.6781113,0.0,10,0.5,0.5,-0.02517543182373047,-0.001,-0.001,-0.37525,0.16296054226891787,10,1,100,-0.19641996845632453,-10,-1,-100,15025.445258156746,0.011908562338117535,0.015977087070101897,0.9998014397028008,24.72637732797966,0.03305035139309004,-33.496569580878315,11.957037361220092,-42.265533447265625,5356.25390625,True
1599558446.7122386,0.0,10,0.5,0.5,-0.02531555023193359,-0.001,-0.001,-0.37525,0.1614911564869632,10,1,100,-0.20686324256625524,-10,-1,-100,15025.646447660285,0.012647408117075523,0.01584683657298852,0.9997944392916721,24.68081438389563,0.033005222580848086,-32.91628775725238,11.771342310356157,-42.4559326171875,5356.25390625,True
1599558446.7454946,0.0,10,0.5,0.5,0.11833077392578123,-0.001,-0.001,-0.37525,0.11234643731840277,10,1,100,-0.37385106397791845,-10,-1,-100,15026.357440161053,0.014826194326316329,0.015281240507210995,0.9997733081305776,24.54020276994078,0.03285584882492579,-31.181831461775612,11.214272550257547,-43.0267333984375,5356.25390625,True
1599558446.7634487,0.0,10,0.5,0.5,-0.09554826049804688,-0.001,-0.001,-0.37525,0.16884047248100872,10,1,100,-0.15712852606907574,-10,-1,-100,15026.357440161053,0.014826194326316329,0.015281240507210995,0.9997733081305776,24.54020276994078,0.03285584882492579,-31.181831461775612,11.214272550257547,-43.0267333984375,5356.25390625,True
1599558446.779403,0.0,10,0.5,0.5,0.12113700561523436,-0.001,-0.001,-0.37525,0.08106771064994622,10,1,100,-0.39198421380832527,-10,-1,-100,15026.999100260437,0.016950736187443707,0.01448390241252085,0.9997514136592197,24.408222836197922,0.032706536466443385,-29.475353689828893,10.657225267930505,-43.601806640625,5356.25390625,True
1599558446.812667,0.0,10,0.5,0.5,-0.02517209930419924,-0.001,-0.001,-0.37525,0.12486018620835226,10,1,100,-0.25564923312304644,-10,-1,-100,15027.236424820032,0.01763092288556238,0.014158592681513335,0.9997443097169808,24.368452636524886,0.032660107339916214,-28.91519762407419,10.471547423313163,-43.785552978515625,5356.25390625,True
1599558446.8459253,0.0,10,0.5,0.5,-0.024162423706054703,-0.001,-0.001,-0.37525,0.12150275328743068,10,1,100,-0.2676654743039245,-10,-1,-100,15027.421991473413,0.018347351942855226,0.013834180142082049,0.9997359602097352,24.32746225767376,0.03261107666981612,-28.355271305551728,10.285871818637956,-43.970611572265625,5356.25390625,True
1599558446.8793552,0.0,10,0.5,0.5,0.04304585876464842,-0.001,-0.001,-0.37525,0.06927065021172513,10,1,100,-0.3426924995134313,-10,-1,-100,15027.809726724168,0.019670222638304924,0.013066679217185607,0.9997211332344608,24.24333723299138,0.03250741386809348,-27.238118419654267,9.914526862374032,-44.332977294921875,5356.25390625,True
1599558446.9147944,0.0,10,0.5,0.5,0.045060829162597654,-0.001,-0.001,-0.37525,0.051216657118288905,10,1,100,-0.3552433967106597,-10,-1,-100,15028.194532596739,0.020977220072479576,0.012207771882751808,0.999705419883122,24.155529139426854,0.03239544322525177,-26.123975173075042,9.543189826170345,-44.698974609375,5356.25390625,True
1599558446.9461951,0.0,10,0.5,0.5,-0.023083764648437505,-0.001,-0.001,-0.37525,0.08479733035775737,10,1,100,-0.2933557470132697,-10,-1,-100,15028.380100040347,0.021592548895793245,0.011735911431646148,0.9996979694963132,24.110427362233175,0.032336700000055216,-25.56837153141696,9.357524010482189,-44.882080078125,5356.25390625,True
1599558446.979054,0.0,10,0.5,0.5,-0.09151322631835937,-0.001,-0.001,-0.37525,0.1315464585589827,10,1,100,-0.23286322513095892,-10,-1,-100,15028.380100040347,0.021592548895793245,0.011735911431646148,0.9996979694963132,24.110427362233175,0.032336700000055216,-25.56837153141696,9.357524010482189,-44.882080078125,5356.25390625,True
1599558447.0129335,0.0,10,0.5,0.5,0.1116625518798828,-0.001,-0.001,-0.37525,-0.04010662596025644,10,1,100,-0.4302423907951313,-10,-1,-100,15028.935824547312,0.02337810132314238,0.010179284459324388,0.9996748704185882,23.968524171483182,0.03214758302731765,-23.90623545594207,8.800536579840076,-45.42138671875,5356.25390625,True
1599558447.0457747,0.0,10,0.5,0.5,-0.022509759521484388,-0.001,-0.001,-0.37525,0.05269717961971102,10,1,100,-0.3156129269259001,-10,-1,-100,15029.121392056113,0.023949489591733975,0.009612992309862187,0.9996669507026557,23.91920960288563,0.03208079966217716,-23.354160984261433,8.614876989547955,-45.60186767578125,5356.25390625,True
1599558447.0792224,0.0,10,0.5,0.5,0.12255851440429685,-0.001,-0.001,-0.37525,-0.09391370104968683,10,1,100,-0.43637999992843113,-10,-1,-100,15029.60583035776,0.025558522049326238,0.007770508029899614,0.9996431268986005,23.765798314602296,0.03186992326795135,-21.70526249650775,8.057905408799762,-46.166748046875,5356.25390625,True
1599558447.1129198,0.0,10,0.5,0.5,0.048825808715820304,-0.001,-0.001,-0.37525,-0.05833175977275769,10,1,100,-0.3833891238320134,-10,-1,-100,15029.922277911566,0.026529786930149034,0.006425822452885095,0.9996273701791307,23.65732160760717,0.03171904135921881,-20.611243253816927,7.686595993521735,-46.5333251953125,5356.25390625,True
1599558447.146468,0.0,10,0.5,0.5,-0.021635449218750005,-0.001,-0.001,-0.37525,-0.0017455153701358833,10,1,100,-0.33431307610611083,-10,-1,-100,15030.0404624301,0.026957900887259093,0.005725126950131764,0.9996201751171079,23.60133440455849,0.03164089020167915,-20.066137707640724,7.5009423956944925,-46.71087646484375,5356.25390625,True
1599558447.182416,0.0,10,0.5,0.5,-0.02374886932373048,-0.001,-0.001,-0.37525,-0.012157782288069172,10,1,100,-0.3367371854343399,-10,-1,-100,15030.223098965012,0.027360653680341504,0.005001140853585143,0.9996131167708572,23.54384994650785,0.03156057628253482,-19.52212508168923,7.315289305495129,-46.881561279296875,5356.25390625,True
1599558447.2136955,0.0,10,0.5,0.5,0.03612201385498044,-0.001,-0.001,-0.37525,-0.10658223315685317,10,1,100,-0.38025028443989006,-10,-1,-100,15030.508292299579,0.028114172299796437,0.003492597611816085,0.9995986169847472,23.42458234501949,0.03139414764271271,-18.437909270523754,6.943984382659801,-47.21014404296875,5356.25390625,True
1599558447.2457724,0.0,10,0.5,0.5,-0.025862852478027352,-0.001,-0.001,-0.37525,-0.04321015654727618,10,1,100,-0.3437438372156354,-10,-1,-100,15030.641122812405,0.028459636115751797,0.0027060081626634315,0.9995912797898862,23.363006697243165,0.03130851933028363,-17.898046278967453,6.758332209855725,-47.372344970703125,5356.25390625,True
1599558447.2794747,0.0,10,0.5,0.5,0.09868968658447265,-0.001,-0.001,-0.37525,-0.2364357647430659,10,1,100,-0.402208218579699,-10,-1,-100,15030.987856720574,0.029298386309890637,0.00024296837412664794,0.9995706806054315,23.170653353753845,0.031042353245576956,-16.28851828017608,6.201374983598971,-47.86444091796875,5356.25390625,True
1599558447.3152928,0.0,10,0.5,0.5,-0.023529205322265635,-0.001,-0.001,-0.37525,-0.08574877269938157,10,1,100,-0.3446739265513021,-10,-1,-100,15031.102132792352,0.02953084216120043,-0.0006158288304573711,0.999563679870423,23.103641134468667,0.030950048529514943,-15.755390958745638,6.015722004694158,-48.02960205078125,5356.25390625,True
1599558447.3465288,0.0,10,0.5,0.5,0.04105604705810546,-0.001,-0.001,-0.37525,-0.19587152754935416,10,1,100,-0.36453769083434845,-10,-1,-100,15031.332637842512,0.029915528707450293,-0.002386440660295227,0.9995495815831893,22.965441073804342,0.030760266319677196,-14.694864833528671,5.6444140931123865,-48.365142822265625,5356.25390625,True
1599558447.3799658,0.0,10,0.5,0.5,0.03982584075927734,-0.001,-0.001,-0.37525,-0.21904852970438543,10,1,100,-0.3524423450844593,-10,-1,-100,15031.565094962367,0.03014934294505635,-0.0041953644114484535,0.9995366006492391,22.82070982572541,0.030562581694099217,-13.641988360454443,5.273102637078186,-48.69573974609375,5356.25390625,True
1599558447.4132404,0.0,10,0.5,0.5,0.03828419952392577,-0.001,-0.001,-0.37525,-0.2433615234764888,10,1,100,-0.3414617110619797,-10,-1,-100,15031.780949719949,0.030256441166899933,-0.00604831471340568,0.999523869478384,22.6697201206228,0.03035740676702546,-12.597740130611289,4.901786426230485,-49.020538330078125,5356.25390625,True
1599558447.447643,0.0,10,0.5,0.5,-0.08331109008789063,-0.001,-0.001,-0.37525,-0.05944837555509666,10,1,100,-0.33122168078937886,-10,-1,-100,15031.780949719949,0.030256441166899933,-0.00604831471340568,0.999523869478384,22.6697201206228,0.03035740676702546,-12.597740130611289,4.901786426230485,-49.020538330078125,5356.25390625,True
1599558447.4796154,0.0,10,0.5,0.5,0.09327037200927735,-0.001,-0.001,-0.37525,-0.37268427870282844,10,1,100,-0.3208559780564998,-10,-1,-100,15032.05638843251,0.030158819638203986,-0.008884573708233886,0.9995056327745497,22.430326085634114,0.030035093327950114,-11.048700211266736,4.34480015687335,-49.48919677734375,5356.25390625,True
1599558447.512926,0.0,10,0.5,0.5,-0.08231587829589844,-0.001,-0.001,-0.37525,-0.09051934928584436,10,1,100,-0.330938222801189,-10,-1,-100,15032.05638843251,0.030158819638203986,-0.008884573708233886,0.9995056327745497,22.430326085634114,0.030035093327950114,-11.048700211266736,4.34480015687335,-49.48919677734375,5356.25390625,True
1599558447.5459235,0.0,10,0.5,0.5,0.09697595214843747,-0.001,-0.001,-0.37525,-0.41295728432688095,10,1,100,-0.28898116623796194,-10,-1,-100,15032.260538758128,0.029774848064031138,-0.01180320428627802,0.9994869397802757,22.176131583991463,0.029696702887520517,-9.523371752651379,3.7877959863754675,-49.96502685546875,5356.25390625,True
1599558447.581458,0.0,10,0.5,0.5,0.035263891601562486,-0.001,-0.001,-0.37525,-0.339136335946783,10,1,100,-0.27996665789011255,-10,-1,-100,15032.42170285061,0.029342323215471523,-0.01377150000659171,0.9994745488785031,21.997668804660805,0.02946160158315553,-8.520746533703452,3.416447842434072,-50.27484130859375,5356.25390625,True
1599558447.6479156,0.0,10,0.5,0.5,-0.020444943237304697,-0.001,-0.001,-0.37525,-0.2551792675925571,10,1,100,-0.2955096942522033,-10,-1,-100,15032.467618041905,0.02908961669543659,-0.01478263412350278,0.9994674921821535,21.906699544483224,0.02934238949988358,-8.024406304319381,3.2307697154509736,-50.43499755859375,5356.25390625,True
1599558447.679922,0.0,10,0.5,0.5,0.1503112808227539,-0.001,-0.001,-0.37525,-0.5801434097062701,10,1,100,-0.1580002181873882,-10,-1,-100,15032.704008858069,0.02760998713991965,-0.018642406792185116,0.9994449205829845,21.543294667691256,0.028870652652166373,-6.077310739296563,2.4880271627114774,-51.047882080078125,5356.25390625,True
1599558447.715284,0.0,10,0.5,0.5,0.03344118804931641,-0.001,-0.001,-0.37525,-0.4102194808256542,10,1,100,-0.20262922819308765,-10,-1,-100,15032.783142114291,0.026672333866793595,-0.02059014024847098,0.9994321551414317,21.357878051788774,0.028632190372594814,-5.1257247521105,2.1166361183781253,-51.34771728515625,5356.25390625,True
1599558447.7463546,0.0,10,0.5,0.5,-0.07877371520996093,-0.001,-0.001,-0.37525,-0.21726650515588541,10,1,100,-0.29607023602162763,-10,-1,-100,15032.783142114291,0.026672333866793595,-0.02059014024847098,0.9994321551414317,21.357878051788774,0.028632190372594814,-5.1257247521105,2.1166361183781253,-51.34771728515625,5356.25390625,True
1599558447.7794616,0.0,10,0.5,0.5,0.08565305023193358,-0.001,-0.001,-0.37525,-0.5235455963580165,10,1,100,-0.1075648613714828,-10,-1,-100,15032.902329913923,0.024961809560045244,-0.023359591281365787,0.9994154479287659,21.088552610272878,0.028288809869799234,-3.72906084714056,1.5595230487667027,-51.784027099609375,5356.25390625,True
1599558447.81371,0.0,10,0.5,0.5,-0.07779585876464844,-0.001,-0.001,-0.37525,-0.24833162072533177,10,1,100,-0.2780878288856324,-10,-1,-100,15032.902329913923,0.024961809560045244,-0.023359591281365787,0.9994154479287659,21.088552610272878,0.028288809869799234,-3.72906084714056,1.5595230487667027,-51.784027099609375,5356.25390625,True
1599558447.8488257,0.0,10,0.5,0.5,0.08562013854980467,-0.001,-0.001,-0.37525,-0.5509500856169187,10,1,100,-0.05633518942217347,-10,-1,-100,15032.95609047776,0.022950689775474577,-0.026094930710772977,0.999395977793602,20.815274683955483,0.027941919482619662,-2.3658316675084676,1.002376513269128,-52.217620849609375,5356.25390625,True
1599558447.8802109,0.0,10,0.5,0.5,0.028651289367675775,-0.001,-0.001,-0.37525,-0.47073246451236783,10,1,100,-0.08920860508203182,-10,-1,-100,15033.029365937226,0.02142780114082971,-0.02783670603928129,0.9993827930953944,20.63280075234282,0.02771027191350785,-1.476094891161617,0.6309261498792571,-52.4979248046875,5356.25390625,True
1599558447.9129615,0.0,10,0.5,0.5,-0.07623189697265625,-0.001,-0.001,-0.37525,-0.29845014489464144,10,1,100,-0.24062436669678117,-10,-1,-100,15033.029365937226,0.02142780114082971,-0.02783670603928129,0.9993827930953944,20.63280075234282,0.02771027191350785,-1.476094891161617,0.6309261498792571,-52.4979248046875,5356.25390625,True
1599558447.9468324,0.0,10,0.5,0.5,0.02485841369628905,-0.001,-0.001,-0.37525,-0.4726555969554494,10,1,100,-0.057188396581467155,-10,-1,-100,15033.035257213167,0.01976778963698431,-0.029405816056422267,0.9993720690888475,20.45222540684781,0.027480345000623536,-0.6017217621552111,0.25946012087118575,-52.76593017578125,5356.25390625,True
1599558447.9818945,0.0,10,0.5,0.5,0.06811242065429685,-0.001,-0.001,-0.37525,-0.5688441213690012,10,1,100,0.07854285195072397,-10,-1,-100,15033.02065577812,0.01703347195008538,-0.031692507824810146,0.9993525132710179,20.291881479077094,0.02728127746022109,0.6851620563003812,-0.2977661719995268,-53.14752197265625,5356.25390625,True
1599558448.046853,0.0,10,0.5,0.5,0.019552389526367175,-0.001,-0.001,-0.37525,-0.4885983031687764,10,1,100,0.023458058087774097,-10,-1,-100,15032.970883600181,0.015059459583245307,-0.033026438472704985,0.9993410163897354,20.258247130923074,0.027244347456391028,1.5374563445877198,-0.6692637706595179,-53.3983154296875,5356.25390625,True
1599558448.0798018,0.0,10,0.5,0.5,0.056276171875,-0.001,-0.001,-0.37525,-0.545840278147623,10,1,100,0.17500134807134968,-10,-1,-100,15032.93772494141,0.011898646184046076,-0.03474640789634388,0.999325327086874,20.224934781173747,0.027205572568808106,2.8130741853473347,-1.2265278448198085,-53.74542236328125,5356.25390625,True
1599558448.0977638,0.0,10,0.5,0.5,0.006444538879394515,-0.001,-0.001,-0.37525,-0.48557927749121654,10,1,100,0.10691364416573942,-10,-1,-100,15032.874275570153,0.009657589209082093,-0.03574931985036839,0.999314123337054,20.21505504133525,0.027190574366206446,3.6634546482036683,-1.598047791122037,-53.958526611328125,5356.25390625,True
1599558448.1472533,0.0,10,0.5,0.5,-0.03527850341796875,-0.001,-0.001,-0.37525,-0.4315528884756019,10,1,100,0.009732862426314798,-10,-1,-100,15032.84694425913,0.00851919428825298,-0.036156127926974264,0.9993098407110815,20.213695642162932,0.02718584369521404,4.089079869556466,-1.783810609354187,-54.059478759765625,5356.25390625,True
1599558448.1802483,0.0,10,0.5,0.5,-0.0009051681518554705,-0.001,-0.001,-0.37525,-0.47119295811972806,10,1,100,0.15631692597259983,-10,-1,-100,15032.716108148801,0.0061666552509619145,-0.03687468450552111,0.9993008706118663,20.21963378198246,0.02718326381048036,4.942322251562479,-2.155341468478207,-54.25091552734375,5356.25390625,True
1599558448.2136073,0.0,10,0.5,0.5,-0.07249512634277344,-0.001,-0.001,-0.37525,-0.40068880958745917,10,1,100,-0.07705746232559835,-10,-1,-100,15032.716108148801,0.0061666552509619145,-0.03687468450552111,0.9993008706118663,20.21963378198246,0.02718326381048036,4.942322251562479,-2.155341468478207,-54.25091552734375,5356.25390625,True
1599558448.2489266,0.0,10,0.5,0.5,-0.0003670532226562606,-0.001,-0.001,-0.37525,-0.4684351632382574,10,1,100,0.19451568706087344,-10,-1,-100,15032.653632208123,0.003713066651561728,-0.03748076067162405,0.9992904511279579,20.23965813210085,0.027192507278626214,5.800168749668627,-2.5268789127871485,-54.44207763671875,5356.25390625,True
1599558448.2798445,0.0,10,0.5,0.5,-0.03588643646240235,-0.001,-0.001,-0.37525,-0.43221365010887614,10,1,100,0.08651089197232638,-10,-1,-100,15032.610675639007,0.0024804976388113206,-0.03769368519905749,0.9992862619027534,20.25633024323766,0.02720320088659323,6.231799724838101,-2.71264974169581,-54.537811279296875,5356.25390625,True
1599558448.3127563,0.0,10,0.5,0.5,0.03861151275634764,-0.001,-0.001,-0.37525,-0.4632864593561127,10,1,100,0.38771143293085386,-10,-1,-100,15032.384153425111,-0.0013609815601283736,-0.038160772145190244,0.999270685649527,20.333314359403804,0.027258588112483623,7.5410216445679765,-3.269970160912864,-54.83074951171875,5356.25390625,True
1599558448.3469882,0.0,10,0.5,0.5,0.0029533630371093716,-0.001,-0.001,-0.37525,-0.42763509250481524,10,1,100,0.29350686683831734,-10,-1,-100,15032.252346383873,-0.003977622257234934,-0.03825333425567298,0.9992601567857605,20.4020278049703,0.027307096441197765,8.42652466835138,-3.641522463840637,-55.027587890625,5356.25390625,True
1599558448.3819637,0.0,10,0.5,0.5,-0.033278651428222665,-0.001,-0.001,-0.37525,-0.42008239219292176,10,1,100,0.18206900584855054,-10,-1,-100,15032.214276013663,-0.005324214069054545,-0.03826285632924838,0.9992535246723295,20.440221032959766,0.027332686144215933,8.873144854797191,-3.827299880006671,-55.127105712890625,5356.25390625,True
1599558448.3989167,0.0,10,0.5,0.5,-0.0338789047241211,-0.001,-0.001,-0.37525,-0.4110078775083247,10,1,100,0.19319135693728676,-10,-1,-100,15032.11956494383,-0.006630970113649702,-0.0381842567918601,0.9992487141691027,20.480486954492516,0.027358416505239968,9.322339791823307,-4.013077970390046,-55.22430419921875,5356.25390625,True
1599558448.446677,0.0,10,0.5,0.5,0.0005143600463867193,-0.001,-0.001,-0.37525,-0.3904139590391952,10,1,100,0.3570916018957295,-10,-1,-100,15031.966274625156,-0.009292087275360511,-0.037922459909155465,0.9992374813569123,20.569897818280076,0.027413454110363587,10.230304645808042,-4.384635852984093,-55.412261962890625,5356.25390625,True
1599558448.4811795,0.0,10,0.5,0.5,-0.03456353302001953,-0.001,-0.001,-0.37525,-0.3973136969128652,10,1,100,0.24259479577297655,-10,-1,-100,15031.858868644107,-0.010653177660813999,-0.037745212050949356,0.9992306084047646,20.617962939999117,0.027441166845773465,10.688890339786365,-4.570415376151308,-55.506103515625,5356.25390625,True
1599558448.5162692,0.0,10,0.5,0.5,0.03854125823974608,-0.001,-0.001,-0.37525,-0.3233192797577279,10,1,100,0.5535690725532001,-10,-1,-100,15031.560093514621,-0.014700142007456413,-0.036909956492875304,0.9992104687885605,20.77409739777412,0.02752244906961617,12.083897726457941,-5.127755502750768,-55.793609619140625,5356.25390625,True
1599558448.5477374,0.0,10,0.5,0.5,0.002882875061035156,-0.001,-0.001,-0.37525,-0.3201726607083307,10,1,100,0.44588652239475784,-10,-1,-100,15031.344311485533,-0.017381298414546935,-0.03612199556509769,0.9991962229221143,20.889724792641832,0.02757646328928857,13.032202758327015,-5.499316034465735,-55.98516845703125,5356.25390625,True
1599558448.5821419,0.0,10,0.5,0.5,-0.06882615356445312,-0.001,-0.001,-0.37525,-0.39889348459205,10,1,100,0.1801256770522566,-10,-1,-100,15031.344311485533,-0.017381298414546935,-0.03612199556509769,0.9991962229221143,20.889724792641832,0.02757646328928857,13.032202758327015,-5.499316034465735,-55.98516845703125,5356.25390625,True
1599558448.6136625,0.0,10,0.5,0.5,0.07340937805175782,-0.001,-0.001,-0.37525,-0.16670916204840153,10,1,100,0.7601952137131998,-10,-1,-100,15030.865878797369,-0.022635481143222683,-0.034012464237525,0.9991650450600771,21.145694049524273,0.027677807851018112,14.975912767618592,-6.242435614271038,-56.36279296875,5356.25390625,True
1599558448.6489038,0.0,10,0.5,0.5,-0.06811172180175781,-0.001,-0.001,-0.37525,-0.3772941727095172,10,1,100,0.23728853872382832,-10,-1,-100,15030.865878797369,-0.022635481143222683,-0.034012464237525,0.9991650450600771,21.145694049524273,0.027677807851018112,14.975912767618592,-6.242435614271038,-56.36279296875,5356.25390625,True
1599558448.6805356,0.0,10,0.5,0.5,-0.03219134368896484,-0.001,-0.001,-0.37525,-0.30820322614443346,10,1,100,0.3869271414978165,-10,-1,-100,15030.75847997563,-0.023976491623365216,-0.03338813591230393,0.9991548229527476,21.21456423043898,0.02770121674875997,15.472220945529498,-6.428214781275172,-56.457855224609375,5356.25390625,True
1599558448.71399,0.0,10,0.5,0.5,0.08038896942138671,-0.001,-0.001,-0.37525,-0.04294981599070519,10,1,100,0.8148312540977241,-10,-1,-100,15030.194130452117,-0.02906744865679747,-0.030413592977381224,0.99911465647882,21.503790959203563,0.027778722440610137,17.498020027830208,-7.1713267031493615,-56.85150146484375,5356.25390625,True
1599558448.7480807,0.0,10,0.5,0.5,-0.06715434265136719,-0.001,-0.001,-0.37525,-0.3396191831477893,10,1,100,0.30810987421327296,-10,-1,-100,15030.194130452117,-0.02906744865679747,-0.030413592977381224,0.99911465647882,21.503790959203563,0.027778722440610137,17.498020027830208,-7.1713267031493615,-56.85150146484375,5356.25390625,True
1599558448.7830753,0.0,10,0.5,0.5,0.012924758911132803,-0.001,-0.001,-0.37525,-0.1476575836015873,10,1,100,0.5844097226444098,-10,-1,-100,15029.853374018683,-0.03155886866204131,-0.02867555176679255,0.9990904616398067,21.655838649751082,0.027806796052081497,18.535796529541862,-7.542879023124263,-57.06390380859375,5356.25390625,True
1599558448.815075,0.0,10,0.5,0.5,-0.027172566223144526,-0.001,-0.001,-0.37525,-0.21766003265045436,10,1,100,0.4597206592569474,-10,-1,-100,15029.744031465147,-0.03267001647111634,-0.027740306483194695,0.9990811505678583,21.733985027823383,0.0278184725283852,19.06141364390492,-7.728653977258636,-57.168731689453125,5356.25390625,True
1599558448.8473659,0.0,10,0.5,0.5,0.047067106628417954,-0.001,-0.001,-0.37525,0.023848164237513847,10,1,100,0.727508350130627,-10,-1,-100,15029.222644179827,-0.03609456908839045,-0.024703649804185802,0.9990429979578836,21.98181663414901,0.027850663021939046,20.67088141069761,-8.285973638932706,-57.47015380859375,5356.25390625,True
1599558448.8642886,0.0,10,0.5,0.5,-0.06587388916015625,-0.001,-0.001,-0.37525,-0.2785968729945065,10,1,100,0.38719253111130925,-10,-1,-100,15029.222644179827,-0.03609456908839045,-0.024703649804185802,0.9990429979578836,21.98181663414901,0.027850663021939046,20.67088141069761,-8.285973638932706,-57.47015380859375,5356.25390625,True
1599558448.8812408,0.0,10,0.5,0.5,0.009150288391113273,-0.001,-0.001,-0.37525,-0.032756751110905924,10,1,100,0.6216410962083827,-10,-1,-100,15028.880915096728,-0.038208907615933076,-0.02247911991957208,0.9990169010314283,22.150679557786383,0.027860567321531915,21.76507736756472,-8.657515056196512,-57.669158935546875,5356.25390625,True
1599558448.9163525,0.0,10,0.5,0.5,-0.028534446716308608,-0.001,-0.001,-0.37525,-0.12650649107924253,10,1,100,0.5166331701434654,-10,-1,-100,15028.699308027746,-0.03915748185019859,-0.021321493002040417,0.9990055483085742,22.236387565401813,0.02786232983886808,22.318867164212374,-8.843284094190238,-57.76702880859375,5356.25390625,True
1599558448.9472854,0.0,10,0.5,0.5,-0.029444377136230465,-0.001,-0.001,-0.37525,-0.10934046893106426,10,1,100,0.5243803925755735,-10,-1,-100,15028.519652995165,-0.040075231357361886,-0.020124587394969543,0.9989939823711833,22.323511685362448,0.027862864370757162,22.877771260380978,-9.029052045675286,-57.861846923828125,5356.25390625,True
1599558448.981306,0.0,10,0.5,0.5,0.04379293823242185,-0.001,-0.001,-0.37525,0.19289285096685885,10,1,100,0.7301412155519305,-10,-1,-100,15027.985577290645,-0.04276424770891891,-0.016301541095689952,0.9989521904855085,22.58832309947345,0.02785126545833436,24.5805753713425,-9.586348598934245,-58.150665283203125,5356.25390625,True
1599558449.0134463,0.0,10,0.5,0.5,0.010056930541992179,-0.001,-0.001,-0.37525,0.11102798224105079,10,1,100,0.6377156336159697,-10,-1,-100,15027.573541982449,-0.04435149568720242,-0.013585803807321864,0.998923606070663,22.76642538233538,0.027831400903498636,25.73642219898412,-9.95787292435315,-58.348602294921875,5356.25390625,True
1599558449.0480154,0.0,10,0.5,0.5,-0.02691269836425781,-0.001,-0.001,-0.37525,-0.007699451969823801,10,1,100,0.5535560114820524,-10,-1,-100,15027.39291431487,-0.04501546633257872,-0.01221159002814979,0.9989116501772541,22.855920137546747,0.027817935083836214,26.32057376918842,-10.14363295965671,-58.447357177734375,5356.25390625,True
1599558449.0810697,0.0,10,0.5,0.5,0.007907180786132811,-0.001,-0.001,-0.37525,0.17029588928184458,10,1,100,0.6261643760954025,-10,-1,-100,15026.964274039958,-0.04626465385424601,-0.009360712583841128,0.9988853582186844,23.037751182308636,0.027787334521712403,27.503766593297843,-10.5151484736491,-58.637969970703125,5356.25390625,True
1599558449.1480029,0.0,10,0.5,0.5,-0.06346286315917969,-0.001,-0.001,-0.37525,-0.1128603712307264,10,1,100,0.5027162024478937,-10,-1,-100,15026.964274039958,-0.04626465385424601,-0.009360712583841128,0.9988853582186844,23.037751182308636,0.027787334521712403,27.503766593297843,-10.5151484736491,-58.637969970703125,5356.25390625,True
1599558449.1819232,0.0,10,0.5,0.5,0.11207525787353514,-0.001,-0.001,-0.37525,0.7153638163651552,10,1,100,0.7527876701987999,-10,-1,-100,15025.873623489868,-0.04852567207254231,-0.0018481105092416168,0.9988202258852459,23.490044868453786,0.027670423469399585,30.526962548220997,-11.443908640731715,-59.1041259765625,5356.25390625,True
1599558449.215302,0.0,10,0.5,0.5,0.009456520080566397,-0.001,-0.001,-0.37525,0.3192551400741125,10,1,100,0.5974881238790747,-10,-1,-100,15025.392249183147,-0.04915802811991949,0.0013597620111166922,0.9987900877154491,23.668445515278474,0.027608547569259005,31.76002897010218,-11.815400211429015,-59.295867919921875,5356.25390625,True
1599558449.2478495,0.0,10,0.5,0.5,-0.024156593322753918,-0.001,-0.001,-0.37525,0.18047592474001997,10,1,100,0.5617405700901568,-10,-1,-100,15025.144241174916,-0.049396043620334465,0.002990686515845857,0.9987747927680305,23.7561891448357,0.027574109721648445,32.38032339952294,-12.00114315402899,-59.39727783203125,5356.25390625,True
1599558449.2808254,0.0,10,0.5,0.5,0.01199962463378905,-0.001,-0.001,-0.37525,0.36610090366287806,10,1,100,0.5564837180965003,-10,-1,-100,15024.64431239292,-0.04955446166076538,0.00613769059541161,0.9987525639935383,23.93147154038588,0.02750168084001043,33.63193996065835,-12.372623312577948,-59.59405517578125,5356.25390625,True
1599558449.3635628,0.0,10,0.5,0.5,-0.02520226287841798,-0.001,-0.001,-0.37525,0.23657454096743552,10,1,100,0.5497955404286856,-10,-1,-100,15024.39727818966,-0.04962822464616738,0.007796128112696951,0.9987373326880897,24.019148299257914,0.027464424055064978,34.2634527126603,-12.558360330847052,-59.690948486328125,5356.25390625,True
1599558449.4133518,0.0,10,0.5,0.5,0.04937910766601561,-0.001,-0.001,-0.37525,0.6132376371726111,10,1,100,0.5211150913000573,-10,-1,-100,15023.65129122138,-0.049425866010555486,0.012702626079814615,0.9986970146444731,24.27433522910569,0.027339918337468815,36.16894327745478,-13.115558739526062,-59.985321044921875,5356.25390625,True
1599558449.447201,0.0,10,0.5,0.5,-0.023927920532226574,-0.001,-0.001,-0.37525,0.3081637218006866,10,1,100,0.5234567765872506,-10,-1,-100,15023.347615739214,-0.049257135645972214,0.014363312121835446,0.9986828474810433,24.35743258029008,0.027295912537133007,36.80846666395362,-13.301287212886768,-60.083587646484375,5356.25390625,True
1599558449.4835145,0.0,10,0.5,0.5,-0.02315093688964845,-0.001,-0.001,-0.37525,0.32750046811543343,10,1,100,0.5159268879826795,-10,-1,-100,15023.098627912812,-0.049030831199983346,0.016023407021143757,0.9986687278668906,24.439252160249204,0.027250515201963733,37.44961615992519,-13.48701352859428,-60.183197021484375,5356.25390625,True
1599558449.5158963,0.0,10,0.5,0.5,0.09147387237548826,-0.001,-0.001,-0.37525,0.884575096668109,10,1,100,0.37399706592799964,-10,-1,-100,15021.978653286817,-0.047531178444162374,0.022571230828221732,0.9986147037845018,24.753511011903335,0.027058633048657348,40.02847965149872,-14.22989589662236,-60.58673095703125,5356.25390625,True
1599558449.5494096,0.0,10,0.5,0.5,-0.059757360839843746,-0.001,-0.001,-0.37525,0.23298591030151772,10,1,100,0.5240889939690886,-10,-1,-100,15021.978653286817,-0.047531178444162374,0.022571230828221732,0.9986147037845018,24.753511011903335,0.027058633048657348,40.02847965149872,-14.22989589662236,-60.58673095703125,5356.25390625,True
1599558449.5814168,0.0,10,0.5,0.5,-0.020832893371582034,-0.001,-0.001,-0.37525,0.41630597668808533,10,1,100,0.46808408221616116,-10,-1,-100,15021.661306973197,-0.04702089149678129,0.024208747846815926,0.9986005068547368,24.8282607546469,0.027008315162147977,40.67543667097909,-14.415610620512187,-60.689666748046875,5356.25390625,True
1599558449.6157618,0.0,10,0.5,0.5,0.01878971099853515,-0.001,-0.001,-0.37525,0.5993148947880498,10,1,100,0.3847217079704972,-10,-1,-100,15021.091065761051,-0.04580052248836133,0.027337429066123,0.9985764753447017,24.972878403220584,0.026905706826101626,41.97085779287396,-14.787032708985574,-60.897216796875,5356.25390625,True
1599558449.648774,0.0,10,0.5,0.5,0.01919184265136719,-0.001,-0.001,-0.37525,0.6486934517741663,10,1,100,0.3533686549135776,-10,-1,-100,15020.523756460403,-0.044409120639854416,0.030606964631680483,0.9985444625654033,25.110955239722117,0.026801666149008863,43.26755145575766,-15.158444879781168,-61.1048583984375,5356.25390625,True
1599558449.6818244,0.0,10,0.5,0.5,0.06503990783691405,-0.001,-0.001,-0.37525,0.8316255675569098,10,1,100,0.212477360978839,-10,-1,-100,15019.568794262363,-0.04186791348996913,0.03521718321828874,0.9985022923489791,25.30268126052567,0.026642370306377144,45.20759078466782,-15.715544189569405,-61.433349609375,5356.25390625,True
1599558449.7155604,0.0,10,0.5,0.5,0.024101446533203112,-0.001,-0.001,-0.37525,0.6988589456725182,10,1,100,0.24991331854110946,-10,-1,-100,15018.947777713649,-0.039905039829885684,0.03817488583205371,0.9984739685579613,25.420401460383967,0.026536240681555592,46.496401482479165,-16.086930775034656,-61.65167236328125,5356.25390625,True
1599558449.7488525,0.0,10,0.5,0.5,-0.05762809448242188,-0.001,-0.001,-0.37525,0.406126560067957,10,1,100,0.4452283660678256,-10,-1,-100,15018.947777713649,-0.039905039829885684,0.03817488583205371,0.9984739685579613,25.420401460383967,0.026536240681555592,46.496401482479165,-16.086930775034656,-61.65167236328125,5356.25390625,True
1599558449.7839258,0.0,10,0.5,0.5,-0.01737696380615235,-0.001,-0.001,-0.37525,0.5612588066035342,10,1,100,0.3283695200616048,-10,-1,-100,15018.626524954452,-0.03885134198090247,0.039562022382602376,0.9984615263550627,25.475921935232396,0.02648325787938511,47.13848469277987,-16.27262016227938,-61.758209228515625,5356.25390625,True
1599558449.815214,0.0,10,0.5,0.5,0.019295732116699223,-0.001,-0.001,-0.37525,0.7224420798867716,10,1,100,0.183632587524625,-10,-1,-100,15017.921512856497,-0.036587104362095245,0.04226545017634808,0.9984362851558369,25.580291608847638,0.026378467347156414,48.417316486223164,-16.64399084698241,-61.96148681640625,5356.25390625,True
1599558449.848796,0.0,10,0.5,0.5,0.06125402526855468,-0.001,-0.001,-0.37525,0.8866763988798413,10,1,100,-0.00823346869226066,-10,-1,-100,15016.909895637538,-0.032795782131060526,0.04619229466773098,0.9983940647799051,25.728140040404465,0.026233154696494163,50.335711453252195,-17.20102658447569,-62.2752685546875,5356.25390625,True
1599558449.8826206,0.0,10,0.5,0.5,0.026222096252441388,-0.001,-0.001,-0.37525,0.7559786659417168,10,1,100,0.06617030069669233,-10,-1,-100,15016.20293507853,-0.03003891927575863,0.04855251839333294,0.9983688277818019,25.83538636636477,0.026160153571229756,51.64283803509418,-17.572369639778188,-62.494659423828125,5356.25390625,True
1599558449.9153466,0.0,10,0.5,0.5,-0.05591353454589844,-0.001,-0.001,-0.37525,0.5225544221380324,10,1,100,0.34010736031004174,-10,-1,-100,15016.20293507853,-0.03003891927575863,0.04855251839333294,0.9983688277818019,25.83538636636477,0.026160153571229756,51.64283803509418,-17.572369639778188,-62.494659423828125,5356.25390625,True
1599558449.9492712,0.0,10,0.5,0.5,0.024619671630859374,-0.001,-0.001,-0.37525,0.756093554690088,10,1,100,0.019722869226776962,-10,-1,-100,15015.497921083937,-0.02714177114974806,0.05065347071603661,0.9983474095540462,25.941484462868306,0.02609852886701437,52.95703805924188,-17.94370090451617,-62.708221435546875,5356.25390625,True
1599558449.9820545,0.0,10,0.5,0.5,0.06021887817382811,-0.001,-0.001,-0.37525,0.8702197282563672,10,1,100,-0.20823107303272637,-10,-1,-100,15014.402303269482,-0.022452654061323525,0.053579741640324384,0.9983111186455644,26.082135520868384,0.026011462080784045,54.906885011125034,-18.50067592358964,-63.015350341796875,5356.25390625,True
1599558450.015869,0.0,10,0.5,0.5,0.023434226989746086,-0.001,-0.001,-0.37525,0.75458068264098,10,1,100,-0.100621906700884,-10,-1,-100,15013.64356729004,-0.019188045917207543,0.055167839541347345,0.9982927067620094,26.163285300951017,0.02595683709744957,56.19003547687269,-18.87197771648925,-63.223388671875,5356.25390625,True
1599558450.0506186,0.0,10,0.5,0.5,-0.05445315246582032,-0.001,-0.001,-0.37525,0.5977659581709898,10,1,100,0.22357092095343806,-10,-1,-100,15013.64356729004,-0.019188045917207543,0.055167839541347345,0.9982927067620094,26.163285300951017,0.02595683709744957,56.19003547687269,-18.87197771648925,-63.223388671875,5356.25390625,True
1599558450.0826974,0.0,10,0.5,0.5,-0.015922338867187504,-0.001,-0.001,-0.37525,0.6742960112342391,10,1,100,0.039230997520124516,-10,-1,-100,15013.307652929332,-0.017531062062279855,0.05584811915673207,0.9982853547205949,26.199821035798287,0.02593043418760648,56.82555452557745,-19.057624019714453,-63.32537841796875,5356.25390625,True
1599558450.1160133,0.0,10,0.5,0.5,0.09509321441650388,-0.001,-0.001,-0.37525,0.8638212123754616,10,1,100,-0.5714195879854888,-10,-1,-100,15011.700309341075,-0.010493684123901477,0.058173444968979596,0.9982513375367693,26.3201362706483,0.02583104105059098,59.325739573656904,-19.80018010574028,-63.721710205078125,5356.25390625,True
1599558450.1488962,0.0,10,0.5,0.5,-0.013843179321289069,-0.001,-0.001,-0.37525,0.6791186689113657,10,1,100,-0.06985334517811104,-10,-1,-100,15011.31068111863,-0.008681540621676387,0.058591344018997946,0.9982443013904371,26.34338914671613,0.02580706485700135,59.93865239495868,-19.98581193597285,-63.826934814453125,5356.25390625,True
1599558450.184274,0.0,10,0.5,0.5,-0.05314216918945312,-0.001,-0.001,-0.37525,0.6389613532937957,10,1,100,0.10857044867035609,-10,-1,-100,15011.31068111863,-0.008681540621676387,0.058591344018997946,0.9982443013904371,26.34338914671613,0.02580706485700135,59.93865239495868,-19.98581193597285,-63.826934814453125,5356.25390625,True
1599558450.248774,0.0,10,0.5,0.5,0.10642091827392577,-0.001,-0.001,-0.37525,0.7585494406846901,10,1,100,-0.711302592180469,-10,-1,-100,15009.673059663502,-0.001250071378950145,0.05966723658677765,0.9982175405189218,26.4065798739229,0.025710993597390455,62.330613390299824,-20.72831080881858,-64.2506103515625,5356.25390625,True
1599558450.2823205,0.0,10,0.5,0.5,0.07519142303466794,-0.001,-0.001,-0.37525,0.683096051389368,10,1,100,-0.6191212843887267,-10,-1,-100,15008.435817902442,0.004641626181878957,0.059949276547353145,0.9981906328692114,26.42454638648021,0.02563694881393273,64.06115652067118,-21.285155800309994,-64.58969116210938,5356.25390625,True
1599558450.3185098,0.0,10,0.5,0.5,-0.007919584655761723,-0.001,-0.001,-0.37525,0.6434046925114227,10,1,100,-0.23755525716603926,-10,-1,-100,15007.978807716398,0.006497405039283128,0.05983448528702771,0.998187165865296,26.42387719472195,0.025610180424570743,64.62239300941542,-21.470765326469497,-64.7064208984375,5356.25390625,True
1599558450.3496995,0.0,10,0.5,0.5,0.030529479980468746,-0.001,-0.001,-0.37525,0.6139910696973792,10,1,100,-0.4726867193210616,-10,-1,-100,15007.132161596324,0.01029145440543346,0.059454386647903285,0.9981779710425103,26.41582390890394,0.025556191268935394,65.72831707854074,-21.841976382117338,-64.92449951171875,5356.25390625,True
1599558450.382742,0.0,10,0.5,0.5,-0.05111360473632812,-0.001,-0.001,-0.37525,0.6525883981105792,10,1,100,-0.09655619355270421,-10,-1,-100,15007.132161596324,0.01029145440543346,0.059454386647903285,0.9981779710425103,26.41582390890394,0.025556191268935394,65.72831707854074,-21.841976382117338,-64.92449951171875,5356.25390625,True
1599558450.4161062,0.0,10,0.5,0.5,0.02482779998779297,-0.001,-0.001,-0.37525,0.5883128049861674,10,1,100,-0.5231253920592855,-10,-1,-100,15006.21323919692,0.014142556664290888,0.058866166213039035,0.9981656989530224,26.401252032936053,0.025502296392853518,66.81738436347514,-22.213176891708745,-65.12588500976562,5356.25390625,True
1599558450.4521244,0.0,10,0.5,0.5,0.024231962585449213,-0.001,-0.001,-0.37525,0.5477520192999458,10,1,100,-0.5505413690517029,-10,-1,-100,15005.313841859344,0.017862494324472802,0.05795932383267707,0.9981591296368364,26.38005800180374,0.02544669376086019,67.88849361897971,-22.58436702869622,-65.32464599609375,5356.25390625,True
1599558450.482553,0.0,10,0.5,0.5,-0.012135478210449219,-0.001,-0.001,-0.37525,0.5800724715461181,10,1,100,-0.3933993222170923,-10,-1,-100,15004.855842817575,0.01978351581124467,0.05742682468488054,0.9981536817087628,26.36671648657222,0.025417566102401225,68.41637262895306,-22.7699583093187,-65.42568969726562,5356.25390625,True
1599558450.515736,0.0,10,0.5,0.5,0.1097213897705078,-0.001,-0.001,-0.37525,0.3218230942194366,10,1,100,-1.0095449348608767,-10,-1,-100,15003.006272663712,0.027103698005130638,0.05459569168417214,0.9981406213575186,26.28758938560713,0.02527957630456924,70.45396638439642,-23.512298033418908,-65.84988403320312,5356.25390625,True
1599558450.5497727,0.0,10,0.5,0.5,-0.04925523986816406,-0.001,-0.001,-0.37525,0.6045368290567945,10,1,100,-0.2811052393349605,-10,-1,-100,15003.006272663712,0.027103698005130638,0.05459569168417214,0.9981406213575186,26.28758938560713,0.02527957630456924,70.45396638439642,-23.512298033418908,-65.84988403320312,5356.25390625,True
1599558450.584239,0.0,10,0.5,0.5,0.07002935333251953,-0.001,-0.001,-0.37525,0.29916850052873273,10,1,100,-0.8596718588444443,-10,-1,-100,15001.562938624294,0.032330862511010666,0.051823248381494144,0.9981327898914473,26.207919250189963,0.025154148150458654,71.91837725617815,-24.069027137953164,-66.1663818359375,5356.25390625,True
1599558450.6498377,0.0,10,0.5,0.5,-0.04854486999511719,-0.001,-0.001,-0.37525,0.5756284319760037,10,1,100,-0.3403135016454376,-10,-1,-100,15001.562938624294,0.032330862511010666,0.051823248381494144,0.9981327898914473,26.207919250189963,0.025154148150458654,71.91837725617815,-24.069027137953164,-66.1663818359375,5356.25390625,True
1599558450.6828604,0.0,10,0.5,0.5,0.09790800323486326,-0.001,-0.001,-0.37525,0.07710594754602318,10,1,100,-1.0481186495823647,-10,-1,-100,14999.629354100325,0.038740282731956246,0.04729861309409965,0.9981292660238065,26.090895322986096,0.024961577842186194,73.8256354175198,-24.81129909610823,-66.55520629882812,5356.25390625,True
1599558450.700815,0.0,10,0.5,0.5,-0.013642355346679687,-0.001,-0.001,-0.37525,0.3882475109524891,10,1,100,-0.5715950906421806,-10,-1,-100,14999.118608957739,0.04020568432636631,0.046025264202157,0.998130842125906,26.060904072110247,0.024908483200914048,74.2974330219472,-24.996861187027225,-66.64602661132812,5356.25390625,True
1599558450.7496495,0.0,10,0.5,0.5,0.05806310729980467,-0.001,-0.001,-0.37525,0.05887294643613561,10,1,100,-0.8998634513147588,-10,-1,-100,14997.58832982101,0.044494930663834406,0.04188556837064752,0.9981311538607983,25.967845713459095,0.024732388715719648,75.69664132671542,-25.553534087504502,-66.92672729492188,5356.25390625,True
1599558450.7836683,0.0,10,0.5,0.5,0.019642205810546876,-0.001,-0.001,-0.37525,0.1405152378914823,10,1,100,-0.7565658193543318,-10,-1,-100,14996.586366242147,0.04706044570165752,0.0388803828263941,0.998135076170372,25.90399949015362,0.024599133840532843,76.61788424467187,-25.924638204402683,-67.10403442382812,5356.25390625,True
1599558450.8157735,0.0,10,0.5,0.5,0.016974534606933593,-0.001,-0.001,-0.37525,0.09373808362612751,10,1,100,-0.7525780742459853,-10,-1,-100,14995.531661973684,0.04932655451775051,0.035741318005011985,0.9981430003795407,25.842279196749278,0.024454815503692526,77.54038096108818,-26.295733612671974,-67.27325439453125,5356.25390625,True
1599558450.8496947,0.0,10,0.5,0.5,-0.015443176269531254,-0.001,-0.001,-0.37525,0.224907817498405,10,1,100,-0.6483211514435072,-10,-1,-100,14994.986729283934,0.050410259543091356,0.0341002730260741,0.9981462703994567,25.81317952740193,0.02437875652394394,78.00509614364935,-26.481278078644763,-67.3553466796875,5356.25390625,True
1599558450.8827393,0.0,10,0.5,0.5,-0.015478138732910159,-0.001,-0.001,-0.37525,0.20192037036399904,10,1,100,-0.6549789464196283,-10,-1,-100,14994.457420401624,0.051428128844337,0.032420643118234886,0.9981503140626516,25.78518477186809,0.02429972937031795,78.47201453299411,-26.66682046018955,-67.43661499023438,5356.25390625,True
1599558450.9159434,0.0,10,0.5,0.5,0.04521578979492187,-0.001,-0.001,-0.37525,-0.2091736249335433,10,1,100,-0.8517408958286881,-10,-1,-100,14992.858746864018,0.05412009644842521,0.02717664783437243,0.998164538026121,25.706955676283872,0.024042883224248295,79.88398468298342,-27.223435122351614,-67.67855834960938,5356.25390625,True
1599558450.9499013,0.0,10,0.5,0.5,-0.014262239074707039,-0.001,-0.001,-0.37525,0.11173647024876318,10,1,100,-0.6727397087887258,-10,-1,-100,14992.262053512619,0.054915495844102755,0.02535167029965462,0.9981691144937384,25.682500733872935,0.023949653225657088,80.35765800444165,-27.408969268094936,-67.76129150390625,5356.25390625,True
1599558450.9677842,0.0,10,0.5,0.5,-0.013365527343750003,-0.001,-0.001,-0.37525,0.08699758752218417,10,1,100,-0.676743512229554,-10,-1,-100,14991.717118693865,0.055654452932059784,0.02349176595065302,0.9981736916996725,25.658376113141237,0.023852125446968485,80.83141456321061,-27.59450137703634,-67.84576416015625,5356.25390625,True
1599558450.9837413,0.0,10,0.5,0.5,-0.013870944213867194,-0.001,-0.001,-0.37525,0.068942833701641,10,1,100,-0.6727813386340707,-10,-1,-100,14991.189761459595,0.056269009078951736,0.021662565582674664,0.9981806108463785,25.634574965484415,0.023749522483385688,81.30525410301055,-27.78003144179525,-67.92822265625,5356.25390625,True
1599558451.0158622,0.0,10,0.5,0.5,-0.012962249755859377,-0.001,-0.001,-0.37525,0.03817303236829628,10,1,100,-0.6824080477499613,-10,-1,-100,14990.593069068389,0.05689927681686434,0.019743236188310684,0.9981846907874967,25.61239391450573,0.02364328367009504,81.78333789849883,-27.965559651139756,-68.01251220703125,5356.25390625,True
1599558451.0489492,0.0,10,0.5,0.5,-0.0122590576171875,-0.001,-0.001,-0.37525,0.013003806281443986,10,1,100,-0.6841475932247617,-10,-1,-100,14990.050088809221,0.05747288554429171,0.017793472890839178,0.9981884890889574,25.591674198948542,0.02353314242393295,82.26526162550726,-28.15108582077493,-68.09808349609375,5356.25390625,True
