Timestamp,Input Throttle,horizon,dT,dt,Input Roll,Roll P,Roll I,Roll D,Input Pitch,Pitch P,Pitch I,Pitch D,Input Yaw,Yaw P,Yaw I,Yaw D,Altitude,Direction X,Direction Y,Direction Z,Drag X,Drag Y,Drag Z,Vertical Velocity,Roll,Mass,Has Fuel
1599560130.7850947,0.0,10,0.5,0.5,-2.9540430068969727,-0.05075,-0.02275,-0.001,-0.0005280578023567806,10,1,100,0.17115205145384582,-10,-1,-100,14993.997835691436,-0.016775661470945433,-7.678921173321874e-05,0.9998592757411561,28.649036164155483,0.027034312481419014,-87.51364973483024,27.009297530853857,-31.792266845703125,5356.25390625,True
1599560130.8180072,0.0,10,0.5,0.5,-3.086556649017334,-0.05075,-0.02275,-0.001,-1.1960846791325848e-05,10,1,100,0.1811883953151157,-10,-1,-100,14995.606238643522,-0.016882517966023313,-6.984730089945344e-05,0.9998574776979375,28.43133100667684,0.027525405295840345,-85.05943868346644,26.451406957348162,-31.790496826171875,5356.25390625,True
1599560130.8504353,0.0,10,0.5,0.5,-3.2189814987182617,-0.05075,-0.02275,-0.001,-0.0007131366602578015,10,1,100,0.17219099760393,-10,-1,-100,14995.606238643522,-0.016882517966023313,-6.984730089945344e-05,0.9998574776979375,28.43133100667684,0.027525405295840345,-85.05943868346644,26.451406957348162,-31.790496826171875,5356.25390625,True
1599560130.8783603,0.0,10,0.5,0.5,-3.344244483184815,-0.05075,-0.02275,-0.001,0.006948506787953023,10,1,100,0.17797249343649063,-10,-1,-100,14996.670694601606,-0.016919729275441116,-1.32499278537338e-07,0.9998568511348155,28.289774899818735,0.02784798009371348,-83.44908250032582,26.07949932408162,-31.928924560546875,5356.25390625,True
1599560130.9072812,0.0,10,0.5,0.5,-3.456202378845215,-0.05075,-0.02275,-0.001,0.00964701898436471,10,1,100,0.17900009809764555,-10,-1,-100,14997.6794852569,-0.01694751802703558,8.77766426162913e-05,0.9998563766501588,28.16572275006827,0.02817639376820205,-81.9014875751555,25.70760645687381,-32.321044921875,5356.25390625,True
1599560131.173088,0.0,10,0.5,0.5,-3.5724129379272465,-0.05075,-0.02275,-0.001,0.007414869932768922,10,1,100,0.17860799130346122,-10,-1,-100,14998.20780569152,-0.016953809086695203,0.00014732198328561353,0.9998562629966794,28.111382882540205,0.02834207611931112,-81.15377129449077,25.521665318030333,-32.61865234375,5356.25390625,True
1599560131.2146087,0.0,10,0.5,0.5,-3.6357765945434575,-0.05075,-0.02275,-0.001,0.0297002476875005,10,1,100,0.17573973126996728,-10,-1,-100,14999.68046077888,-0.016918040586911556,0.0004039145253159339,0.9998567981244894,27.97664703738543,0.028832817929199187,-79.00410453456348,24.96386151026718,-33.92254638671875,5356.25390625,True
1599560131.2535326,0.0,10,0.5,0.5,-3.7019038192749023,-0.05075,-0.02275,-0.001,0.029929067797652895,10,1,100,0.17393798186061094,-10,-1,-100,15000.68338740652,-0.016853764191944173,0.0006388934604127779,0.999857761107903,27.906138558252305,0.029140909822411926,-77.63407664680656,24.59200743799848,-35.135162353515625,5356.25390625,True
1599560131.2924032,0.0,10,0.5,0.5,-3.7509548683166503,-0.05075,-0.02275,-0.001,0.03713650918093334,10,1,100,0.17023718698861334,-10,-1,-100,15001.684360523475,-0.016746365912053897,0.0009174520562939012,0.9998593488638609,27.845451389369327,0.029417653745546172,-76.29680954514468,24.220164794425695,-36.6226806640625,5356.25390625,True
1599560131.3293047,0.0,10,0.5,0.5,-3.873875788116455,-0.05075,-0.02275,-0.001,0.009372394798450397,10,1,100,0.1826516515688463,-10,-1,-100,15001.684360523475,-0.016746365912053897,0.0009174520562939012,0.9998593488638609,27.845451389369327,0.029417653745546172,-76.29680954514468,24.220164794425695,-36.6226806640625,5356.25390625,True
1599560131.3652084,0.0,10,0.5,0.5,-3.8531719902038577,-0.05075,-0.02275,-0.001,0.06457815082346577,10,1,100,0.15837129388839866,-10,-1,-100,15003.087672151043,-0.016510411418675233,0.0014184885182883192,0.9998626876752176,27.75883950973501,0.029736535043463234,-74.31215569928786,23.6624217829839,-39.369293212890625,5356.25390625,True
1599560131.4001138,0.0,10,0.5,0.5,-3.7261489387512206,-0.05075,-0.02275,-0.001,0.05809434175409078,10,1,100,0.15900128804211758,-10,-1,-100,15004.025164821185,-0.016301875689775955,0.0018136731488070889,0.9998654706702818,27.692524169787763,0.02985578510917659,-72.97243563454451,23.29060734863809,-41.5438232421875,5356.25390625,True
1599560131.4380488,0.0,10,0.5,0.5,-3.5793575744628905,-0.05075,-0.02275,-0.001,0.06386519609250316,10,1,100,0.15057957449195442,-10,-1,-100,15004.955820402014,-0.016036264578753536,0.0022236819246736223,0.9998689381399235,27.60833701227289,0.029874575604704426,-71.59188733379223,22.918805259487524,-43.993621826171875,5356.25390625,True
1599560131.4709268,0.0,10,0.5,0.5,-3.413043569946289,-0.05075,-0.02275,-0.001,0.07238268310468818,10,1,100,0.14277203784048953,-10,-1,-100,15005.830809906009,-0.015724591647708265,0.00267176384900345,0.9998727913567045,27.49565074972494,0.029770625624742055,-70.1456681254716,22.547016526616893,-46.718292236328125,5356.25390625,True
1599560131.5078273,0.0,10,0.5,0.5,-3.3062804412841795,-0.05075,-0.02275,-0.001,0.053192075229008505,10,1,100,0.15451658327394216,-10,-1,-100,15006.29760132602,-0.015549107703087345,0.002902221984662313,0.9998748933527581,27.42495021681134,0.029665943911160623,-69.38977530197346,22.36112778087892,-48.183837890625,5356.25390625,True
1599560131.5437307,0.0,10,0.5,0.5,-3.109295034790039,-0.05075,-0.02275,-0.001,0.08247878986167623,10,1,100,0.12875900683810837,-10,-1,-100,15007.170636269613,-0.015156688340673427,0.0033754136543382167,0.999879433422453,27.246763036344024,0.029339211494721986,-67.79537097305743,21.989362834835784,-51.3212890625,5356.25390625,True
1599560131.5806336,0.0,10,0.5,0.5,-2.983361297607422,-0.05075,-0.02275,-0.001,0.06199113445751697,10,1,100,0.14400588778541043,-10,-1,-100,15007.629614225472,-0.014940185220496267,0.003616401857941179,0.9998818492717924,27.13586939421099,0.029113292851097546,-66.95000620770928,21.803487421202163,-52.99322509765625,5356.25390625,True
1599560131.6305006,0.0,10,0.5,0.5,-2.6607163864135743,-0.05075,-0.02275,-0.001,0.1198192652563094,10,1,100,0.08492423668089055,-10,-1,-100,15008.905961170327,-0.0142080563333545,0.004358271879994144,0.9998895622024706,26.694221562183525,0.028171384928419963,-64.17996169650723,21.245893942388292,-58.421844482421875,5356.25390625,True
1599560131.6763794,0.0,10,0.5,0.5,-2.4080724212646487,-0.05075,-0.02275,-0.001,0.10118256450535468,10,1,100,0.09656236247797051,-10,-1,-100,15009.770204550354,-0.013650690950343249,0.0048598933673794495,0.999895014525543,26.2898578281618,0.027322199266761497,-62.10459977919672,20.87419690859717,-62.385040283203125,5356.25390625,True
1599560131.714277,0.0,10,0.5,0.5,-2.134054132843018,-0.05075,-0.02275,-0.001,0.10258522126643141,10,1,100,0.08593501713550161,-10,-1,-100,15010.570971191511,-0.013050197167184857,0.005325080288911256,0.9999006630029876,25.778793700201863,0.026306207730711788,-59.815743283242895,20.50253022304082,-66.62411499023438,5356.25390625,True
1599560131.770127,0.0,10,0.5,0.5,-1.9550064285278321,-0.05075,-0.02275,-0.001,0.0818337912796727,10,1,100,0.11046262236173744,-10,-1,-100,15010.975260616513,-0.0127306321106838,0.005555321192030895,0.9999035300530327,25.478014394015535,0.02574216478861334,-58.58342223986697,20.316709699367937,-68.84698486328125,5356.25390625,True
1599560131.8060284,0.0,10,0.5,0.5,-1.771572747039795,-0.05075,-0.02275,-0.001,0.08428270200474738,10,1,100,0.10548843754373491,-10,-1,-100,15011.377596729086,-0.012398334723980988,0.0057831331717551155,0.9999064139542211,25.14431695451374,0.02514593558528437,-57.28876494260603,20.13089823804709,-71.138671875,5356.25390625,True
1599560131.841935,0.0,10,0.5,0.5,-1.4586358390808105,-0.05075,-0.02275,-0.001,0.10888385450162597,10,1,100,0.062058979997359875,-10,-1,-100,15012.174456353416,-0.011704981613798474,0.0062102732123642595,0.9999122091024033,24.369966652995537,0.023876628588523456,-54.50237956766934,19.75930459502757,-75.92901611328125,5356.25390625,True
1599560131.8783505,0.0,10,0.5,0.5,-0.9921680282592773,-0.05075,-0.02275,-0.001,0.1315538097023159,10,1,100,0.006954808032489046,-10,-1,-100,15013.317011974636,-0.01057765111664732,0.006801048668117308,0.9999209263906164,22.91070396282148,0.021865068849833913,-49.797730430502945,19.201990746908454,-83.63153076171875,5356.25390625,True
1599560131.9302144,0.0,10,0.5,0.5,-0.6323055152893067,-0.05075,-0.02275,-0.001,0.11055760195713875,10,1,100,0.03217748270204322,-10,-1,-100,15014.116801823839,-0.009786781289443184,0.007143488753101092,0.9999265920458497,21.763392293190844,0.020561758243309934,-46.39148488592735,18.830498163556747,-89.11148071289062,5356.25390625,True
1599560131.97709,0.0,10,0.5,0.5,-0.39753865280151374,-0.05075,-0.02275,-0.001,0.09330539926798355,10,1,100,0.06754348444322095,-10,-1,-100,15014.452732021222,-0.009394556304553443,0.007294104017940904,0.9999292666776065,21.178138999232296,0.019977717566858757,-44.69996160074921,18.644765108231503,-91.95469665527344,5356.25390625,True
1599560132.03593,0.0,10,0.5,0.5,0.15211225891113286,-0.05075,-0.02275,-0.001,0.12222131521385554,10,1,100,-0.028312261751418405,-10,-1,-100,15015.582593951141,-0.008171810563826157,0.007690336503336294,0.999937038136189,22.66214626023308,0.021578780087526356,-46.40674051051834,18.087554502633576,-100.84461212158203,5356.25390625,True
1599560132.0857973,0.0,10,0.5,0.5,0.5691947397232057,-0.05075,-0.02275,-0.001,0.10547725536416375,10,1,100,0.001054465181088704,-10,-1,-100,15016.254456394003,-0.007333346839512026,0.007894625550839092,0.9999419467706829,23.553501905218415,0.022746780382516107,-47.24404206546237,17.716062831079093,-106.97235107421875,5356.25390625,True
1599560132.1316755,0.0,10,0.5,0.5,0.9954743497848512,-0.05075,-0.02275,-0.001,0.10249656519839079,10,1,100,-0.005855790684045056,-10,-1,-100,15016.989796139533,-0.006514536318174184,0.008050030816452022,0.999946377472519,24.264387490767653,0.02381519064841057,-47.65183113601097,17.34455418025963,-113.1937026977539,5356.25390625,True
1599560132.1745584,0.0,10,0.5,0.5,1.425340366744995,-0.05075,-0.02275,-0.001,0.09978403702096844,10,1,100,-0.013722833197868461,-10,-1,-100,15017.659707298502,-0.0057051319619524496,0.008163748858624417,0.99995040110691,24.80243507518296,0.02470515935232011,-47.667467424195614,16.97303050419233,-119.38689422607422,5356.25390625,True
1599560132.2244263,0.0,10,0.5,0.5,1.8520873537063598,-0.05075,-0.02275,-0.001,0.09650572277528206,10,1,100,-0.021158424162361633,-10,-1,-100,15018.323760116356,-0.0049083908704420556,0.008234745432393342,0.9999540472775369,25.228988190009407,0.02539974062438307,-47.42806378416006,16.60149621393508,-125.43336486816406,5356.25390625,True
1599560132.2673109,0.0,10,0.5,0.5,2.2748792562484748,-0.05075,-0.02275,-0.001,0.09370361812648623,10,1,100,-0.026794404561638105,-10,-1,-100,15018.989767175983,-0.00413995573020304,0.008271378253339345,0.9999572216191762,25.447088068900918,0.025748038055753,-46.769526571902105,16.229959095343418,-131.23248291015625,5356.25390625,True
1599560132.3181753,0.0,10,0.5,0.5,2.6918746587753297,-0.05075,-0.02275,-0.001,0.09083724785311255,10,1,100,-0.032233265466907274,-10,-1,-100,15019.595228779479,-0.003399441757204923,0.00827636086527633,0.999959972022164,25.47115987864291,0.02574261638327022,-45.7440989290855,15.858428221538619,-136.7606201171875,5356.25390625,True
1599560132.3600643,0.0,10,0.5,0.5,3.096598062705994,-0.05075,-0.02275,-0.001,0.08849380791917713,10,1,100,-0.036896987518304315,-10,-1,-100,15020.26026172901,-0.0026914002538817464,0.00825770825158971,0.9999622825982514,25.323263305605224,0.025408497036548638,-44.41499659568286,15.48691231366583,-142.01394653320312,5356.25390625,True
1599560132.4079342,0.0,10,0.5,0.5,3.4817665922164918,-0.05075,-0.02275,-0.001,0.08623693889653483,10,1,100,-0.04106934443443714,-10,-1,-100,15020.863772404497,-0.002016964961498347,0.008218910102956514,0.9999641900433553,25.02646641725092,0.024794875552681943,-42.84343515529808,15.115418656445955,-146.99176025390625,5356.25390625,True
1599560132.4812565,0.0,10,0.5,0.5,3.8518025960922246,-0.05075,-0.02275,-0.001,0.08450068591657546,10,1,100,-0.04462557342907948,-10,-1,-100,15021.464354157099,-0.0013785760833148217,0.008166877284972292,0.9999657002334603,24.616171876767385,0.02397570051883095,-41.10732347036216,14.743952371867916,-151.69390869140625,5356.25390625,True
1599560132.5351086,0.0,10,0.5,0.5,4.426868269538879,-0.05075,-0.02275,-0.001,0.0759116048346013,10,1,100,-0.1101810920537332,-10,-1,-100,15022.595208502607,-0.0002095505522158909,0.008040698737635023,0.9999676511029628,23.6928078666664,0.02212270680490405,-37.5756648381774,14.00110998565798,-160.27093505859375,5356.25390625,True
1599560132.583494,0.0,10,0.5,0.5,4.754006322860718,-0.05075,-0.02275,-0.001,0.08135581744753446,10,1,100,-0.052384742828542954,-10,-1,-100,15023.132316455012,0.0003205401558163074,0.007975165298142082,0.999968146488915,23.12549442681991,0.021117401471379554,-35.7049678891275,13.629734713806915,-164.14572143554688,5356.25390625,True
1599560132.6343603,0.0,10,0.5,0.5,5.066420726394654,-0.05075,-0.02275,-0.001,0.08420622006430706,10,1,100,-0.054181358008589614,-10,-1,-100,15023.669425792992,0.0008118155856684316,0.007941428977167065,0.9999681368229966,22.51157545508736,0.02012711743367937,-33.811921991585805,13.258388731393103,-167.74417114257812,5356.25390625,True
1599560132.6902075,0.0,10,0.5,0.5,5.186924592399597,-0.05075,-0.02275,-0.001,0.08756899197788026,10,1,100,-0.005786450213761462,-10,-1,-100,15023.669425792992,0.0008118155856684316,0.007941428977167065,0.9999681368229966,22.51157545508736,0.02012711743367937,-33.811921991585805,13.258388731393103,-167.74417114257812,5356.25390625,True
1599560132.7430665,0.0,10,0.5,0.5,5.626560165786744,-0.05075,-0.02275,-0.001,0.07991823677896706,10,1,100,-0.10333651531959388,-10,-1,-100,15024.6674743318,0.0016927098615872529,0.007872078766160088,0.9999675820291496,21.212430230635842,0.01833361376203464,-30.07929938031144,12.515773359758372,-174.1136932373047,5356.25390625,True
1599560132.8168688,0.0,10,0.5,0.5,5.87433664894104,-0.05075,-0.02275,-0.001,0.08364038497717544,10,1,100,-0.05867702894971859,-10,-1,-100,15025.198725920985,0.002081526508394561,0.007843200527652215,0.9999670751844173,20.55782152121846,0.017574275277380765,-28.287794225116798,12.144497167251306,-176.88467407226562,5356.25390625,True
1599560133.1359487,0.0,10,0.5,0.5,6.104524607467652,-0.05075,-0.02275,-0.001,0.08684264509977502,10,1,100,-0.05958677900484226,-10,-1,-100,15025.668454395956,0.002437610749412695,0.007846448291692043,0.9999662450818229,19.917736500103203,0.01692056602508812,-26.57055729688942,11.773237082088968,-179.37936401367188,5356.25390625,True
1599560133.2032828,0.0,10,0.5,0.5,-12.21566828956604,-0.05075,-0.02275,-0.001,0.09311966573873401,10,1,100,-0.09265737871410049,-10,-1,-100,15026.537600615295,0.0030566590999618753,0.007906855458058408,0.999964068590423,20.08549567333177,0.017077514891559432,-25.107006186370246,11.030739313291013,176.4593963623047,5356.25390625,True
1599560133.2391846,0.0,10,0.5,0.5,-12.498117965698242,-0.05075,-0.02275,-0.001,0.09417378328240766,10,1,100,-0.060199349314529305,-10,-1,-100,15027.000494953245,0.003319131824688807,0.00797167290769171,0.9999627172024881,20.284092790654494,0.017340472521796223,-24.503068601401154,10.65949233013144,174.79295349121094,5356.25390625,True
1599560133.3159802,0.0,10,0.5,0.5,-13.125000497055055,-0.05075,-0.02275,-0.001,0.10400907117946566,10,1,100,-0.0717066596023023,-10,-1,-100,15027.598157340428,0.003657504307251057,0.008120234331145481,0.9999603414419241,20.468372232959087,0.017710641399499776,-23.435564995555172,10.102623063664142,172.72833251953125,5356.25390625,True
1599560133.3518877,0.0,10,0.5,0.5,-13.787391746139527,-0.05075,-0.02275,-0.001,0.10373457042231804,10,1,100,-0.05897490285500659,-10,-1,-100,15027.999529092689,0.003844794156977172,0.008252837111905591,0.9999585532598314,20.566880600324215,0.01797287839687545,-22.683992412899418,9.7313768423163,171.22622680664062,5356.25390625,True
1599560133.3877892,0.0,10,0.5,0.5,-14.499254751968383,-0.05075,-0.02275,-0.001,0.09906145456967998,10,1,100,-0.04950271540073514,-10,-1,-100,15028.199726854451,0.003925261093771906,0.008330709369959645,0.9999575949042733,20.62453231863139,0.018121789490182304,-22.314141742217426,9.545753100088191,170.37994384765625,5356.25390625,True
1599560133.4226947,0.0,10,0.5,0.5,-15.108687519454957,-0.05075,-0.02275,-0.001,0.12170048502458503,10,1,100,-0.0634294544009229,-10,-1,-100,15028.73391449789,0.004121742553643412,0.00860698847771536,0.9999544644570899,20.84611552599319,0.01865292156966218,-21.23941524133766,8.988877204662431,167.43386840820312,5356.25390625,True
1599560133.4576025,0.0,10,0.5,0.5,-15.874163634872438,-0.05075,-0.02275,-0.001,0.09413913019906836,10,1,100,-0.04411230111056984,-10,-1,-100,15028.73391449789,0.004121742553643412,0.00860698847771536,0.9999544644570899,20.84611552599319,0.01865292156966218,-21.23941524133766,8.988877204662431,167.43386840820312,5356.25390625,True
1599560133.493508,0.0,10,0.5,0.5,-16.38366542320252,-0.05075,-0.02275,-0.001,0.14596523855117288,10,1,100,-0.06064104232772757,-10,-1,-100,15029.400919207023,0.004268994812919414,0.009077529863188539,0.9999496858016758,21.293999612662965,0.019579524436160397,-19.9050480892343,8.246357881297179,162.54443359375,5356.25390625,True
1599560133.5264175,0.0,10,0.5,0.5,-17.15445209655762,-0.05075,-0.02275,-0.001,0.09903164511355782,10,1,100,-0.04617344489526057,-10,-1,-100,15029.400919207023,0.004268994812919414,0.009077529863188539,0.9999496858016758,21.293999612662965,0.019579524436160397,-19.9050480892343,8.246357881297179,162.54443359375,5356.25390625,True
1599560133.5613246,0.0,10,0.5,0.5,-17.699501644134518,-0.05075,-0.02275,-0.001,0.1462384841509231,10,1,100,-0.04966422790228356,-10,-1,-100,15029.921437568264,0.004298740596342782,0.009505560827768645,0.9999455810906086,21.65580139273586,0.020327794646492228,-18.8770918256994,7.68945016252325,158.155029296875,5356.25390625,True
1599560133.599224,0.0,10,0.5,0.5,-18.47178179321289,-0.05075,-0.02275,-0.001,0.10360129894652018,10,1,100,-0.04687576254463975,-10,-1,-100,15029.921437568264,0.004298740596342782,0.009505560827768645,0.9999455810906086,21.65580139273586,0.020327794646492228,-18.8770918256994,7.68945016252325,158.155029296875,5356.25390625,True
1599560133.638119,0.0,10,0.5,0.5,-18.170951896286013,-0.05075,-0.02275,-0.001,0.15872526546667182,10,1,100,-0.04298323371758207,-10,-1,-100,15030.329653714434,0.004262224805645548,0.010005234427615741,0.999940862613262,22.041053699608675,0.021083998921468658,-17.822201216173788,7.132526473515899,153.14657592773438,5356.25390625,True
1599560133.6720283,0.0,10,0.5,0.5,-17.83550185470581,-0.05075,-0.02275,-0.001,0.17261683933929314,10,1,100,-0.03585729763951004,-10,-1,-100,15030.722245965619,0.0041633900379556285,0.010583921497664274,0.9999353213028945,22.344396633499322,0.021700881025046314,-16.657410931049185,6.5755892389100605,147.51927185058594,5356.25390625,True
1599560133.7039468,0.0,10,0.5,0.5,-17.78377854576111,-0.05075,-0.02275,-0.001,0.11499450105109177,10,1,100,-0.04579136298157243,-10,-1,-100,15030.722245965619,0.0041633900379556285,0.010583921497664274,0.9999353213028945,22.344396633499322,0.021700881025046314,-16.657410931049185,6.5755892389100605,147.51927185058594,5356.25390625,True
1599560133.7398474,0.0,10,0.5,0.5,-17.517921803283695,-0.05075,-0.02275,-0.001,0.16398849775873348,10,1,100,-0.033120153614144665,-10,-1,-100,15030.985928847687,0.004047907592905396,0.011027202300110327,0.9999310052466379,22.51134102320734,0.022020393814505036,-15.834687564762877,6.204292194439131,143.42413330078125,5356.25390625,True
1599560133.7847273,0.0,10,0.5,0.5,-17.116122564697267,-0.05075,-0.02275,-0.001,0.20066372594424087,10,1,100,-0.022142176681612752,-10,-1,-100,15031.321885934565,0.0038430122648375,0.011761144655902124,0.9999234504366398,22.645240673821995,0.02227494946654979,-14.499512815050654,5.647340499351085,136.76577758789062,5356.25390625,True
1599560133.8196368,0.0,10,0.5,0.5,-16.8055244720459,-0.05075,-0.02275,-0.001,0.18868903904777606,10,1,100,-0.02274657921033227,-10,-1,-100,15031.579714412335,0.0036624917443903227,0.012316636774673907,0.9999174398983063,22.585176062256032,0.022221924035681698,-13.510582532240617,5.2760350535983775,131.98342895507812,5356.25390625,True
1599560133.8515859,0.0,10,0.5,0.5,-16.6005852935791,-0.05075,-0.02275,-0.001,0.16651384694287402,10,1,100,-0.02944457518425874,-10,-1,-100,15031.647105607437,0.00355969055357336,0.012616664546879184,0.9999140704974975,22.501748601095013,0.022121590937422025,-12.987167495820398,5.090380584366594,129.48928833007812,5356.25390625,True
1599560133.888453,0.0,10,0.5,0.5,-16.259070514678953,-0.05075,-0.02275,-0.001,0.20710838369187504,10,1,100,-0.015779701907808426,-10,-1,-100,15031.84634362557,0.003342653626916887,0.013255240915071544,0.9999065582618277,22.214380790480895,0.021764480048527157,-11.886327861340739,4.719066258785185,124.294921875,5356.25390625,True
1599560133.9283433,0.0,10,0.5,0.5,-15.894222846984865,-0.05075,-0.02275,-0.001,0.21977208885032865,10,1,100,-0.011922273270234984,-10,-1,-100,15032.04265511292,0.003111121925238519,0.013947091559367011,0.9998978945659407,21.74127418953695,0.021184306025049005,-10.718029582473612,4.347742116549657,118.82585144042969,5356.25390625,True
1599560134.0390487,0.0,10,0.5,0.5,-15.663382466506958,-0.05075,-0.02275,-0.001,0.19243232944759245,10,1,100,-0.020659788606979382,-10,-1,-100,15032.108097713324,0.0029811501710205013,0.014323465668036562,0.9998929698097264,21.4262570484908,0.020807648727866414,-10.111753637944766,4.162075091753445,115.98844909667969,5356.25390625,True
1599560134.1023939,0.0,10,0.5,0.5,-14.782859563446046,-0.05075,-0.02275,-0.001,0.3910958953664204,10,1,100,0.04148558635970005,-10,-1,-100,15032.498803233611,0.0022992338860573286,0.016467276452597983,0.9998617616099593,18.976675214510564,0.018111164835944913,-6.95828650006196,3.2336654361975294,100.77238464355469,5356.25390625,True
1599560134.1672192,0.0,10,0.5,0.5,-14.339098605728148,-0.05075,-0.02275,-0.001,0.2851749527500334,10,1,100,0.003392870096218803,-10,-1,-100,15032.572087550652,0.0020273919484129904,0.017447403103845772,0.999845727003331,17.575014312465765,0.01669765029266915,-5.7042115506937945,2.8622523907486004,94.20570373535156,5356.25390625,True
1599560134.208624,0.0,10,0.5,0.5,-13.870428429031373,-0.05075,-0.02275,-0.001,0.3137426664636631,10,1,100,0.008008958894049761,-10,-1,-100,15032.69811423542,0.0017402402870192585,0.018591894291825686,0.999825641314717,15.986181379006434,0.015160918713302518,-4.515248935831856,2.4908120208159246,87.36611938476562,5356.25390625,True
1599560134.2545016,0.0,10,0.5,0.5,-13.740419591522215,-0.05075,-0.02275,-0.001,0.20009434494508788,10,1,100,-0.02046389227022979,-10,-1,-100,15032.69811423542,0.0017402402870192585,0.018591894291825686,0.999825641314717,15.986181379006434,0.015160918713302518,-4.515248935831856,2.4908120208159246,87.36611938476562,5356.25390625,True
1599560134.2993822,0.0,10,0.5,0.5,-13.24473582305908,-0.05075,-0.02275,-0.001,0.33430654364115275,10,1,100,0.00763172818039632,-10,-1,-100,15032.763603551779,0.0014869234350189176,0.0198051281963429,0.9998027535248265,17.075335071207792,0.01620328132962567,-4.103681333868172,2.1193575156321773,80.2520751953125,5356.25390625,True
1599560134.3352873,0.0,10,0.5,0.5,-12.544477311706542,-0.05075,-0.02275,-0.001,0.4354080973255927,10,1,100,0.018215564801390006,-10,-1,-100,15032.8906665768,0.001162560590127591,0.02181986043072578,0.9997612425692736,18.804764786924153,0.017845499650114047,-3.3312590091936496,1.5621857503303622,69.06745910644531,5356.25390625,True
1599560134.3682013,0.0,10,0.5,0.5,-12.212496689987182,-0.05075,-0.02275,-0.001,0.31303281906079666,10,1,100,-0.004357685478846423,-10,-1,-100,15032.893637859845,0.0010751693074596824,0.022530293365342936,0.9997455825818045,19.275720363171285,0.01829072470885144,-3.0087606463814502,1.3764685144362696,65.20211791992188,5356.25390625,True
1599560134.40315,0.0,10,0.5,0.5,-11.659450484848023,-0.05075,-0.02275,-0.001,0.41252271670207863,10,1,100,-0.0006225575897010963,-10,-1,-100,15032.955253867665,0.0009640256344476386,0.024071582712807946,0.999709772664185,20.041285360792365,0.019007931589771324,-2.2841497765622143,1.0050369064127707,57.266693115234375,5356.25390625,True
1599560134.4450061,0.0,10,0.5,0.5,-10.872302340316773,-0.05075,-0.02275,-0.001,0.529889654400794,10,1,100,-0.011229624559818824,-10,-1,-100,15033.011080965167,0.0009615762023400047,0.026529893969766516,0.9996475579408775,20.713469635508922,0.019611919518331793,-1.0520524629554147,0.4478755338403806,44.84941101074219,5356.25390625,True
1599560134.4769182,0.0,10,0.5,0.5,-10.495141749191284,-0.05075,-0.02275,-0.001,0.38133552900520007,10,1,100,-0.018149070029553287,-10,-1,-100,15033.014071901329,0.0010242076280787403,0.027402791424850362,0.999623948302991,20.729842164372783,0.01961433822176242,-0.616271350834409,0.2621471892024756,40.57344055175781,5356.25390625,True
1599560134.5118268,0.0,10,0.5,0.5,-9.87463730583191,-0.05075,-0.02275,-0.001,0.4926562469568959,10,1,100,-0.0356195205601569,-10,-1,-100,15033.011276369449,0.0012417466040675709,0.02919645079652672,0.9995729214650911,20.462062999995947,0.01933461708969887,0.25368998691220157,-0.10932406477640821,31.81573486328125,5356.25390625,True
1599560134.5427423,0.0,10,0.5,0.5,-9.259109594726562,-0.05075,-0.02275,-0.001,0.5188472691384727,10,1,100,-0.055506420751959,-10,-1,-100,15033.002636356978,0.0016212606633301538,0.031053578450297804,0.9995164064582895,19.87794848482301,0.018762415430189232,1.0839041806555205,-0.4808100839278959,22.783676147460938,5356.25390625,True
1599560134.5772276,0.0,10,0.5,0.5,-8.624032360839843,-0.05075,-0.02275,-0.001,0.5430301612127301,10,1,100,-0.07730362776170703,-10,-1,-100,15032.94322920451,0.0021647990820984685,0.03294935154044981,0.9994546782510941,18.88987027774096,0.01783620685832356,1.8258901964295635,-0.8522992975597394,13.4769287109375,5356.25390625,True
1599560134.610103,0.0,10,0.5,0.5,-8.46524119949341,-0.05075,-0.02275,-0.001,0.35488859792239175,10,1,100,-0.022992241764383487,-10,-1,-100,15032.94322920451,0.0021647990820984685,0.03294935154044981,0.9994546782510941,18.88987027774096,0.01783620685832356,1.8258901964295635,-0.8522992975597394,13.4769287109375,5356.25390625,True
1599560134.6410575,0.0,10,0.5,0.5,-7.801277911376954,-0.05075,-0.02275,-0.001,0.5654816062918842,10,1,100,-0.10613911929553582,-10,-1,-100,15032.932663213578,0.002920293824386145,0.03485078120085554,0.9993882603541375,17.456950322684683,0.016497067396817944,2.42288321723954,-1.2237784611586522,3.894989013671875,5356.25390625,True
1599560134.673035,0.0,10,0.5,0.5,-6.866598697662353,-0.05075,-0.02275,-0.001,0.684948462116942,10,1,100,-0.19266454326108964,-10,-1,-100,15032.800134317833,0.004392398925798733,0.037651738078720805,0.9992812684381351,16.980506589605262,0.01603982361264835,3.4299158246601005,-1.7809831709715103,-10.994842529296875,5356.25390625,True
1599560134.7079415,0.0,10,0.5,0.5,-6.699346792984009,-0.05075,-0.02275,-0.001,0.4064359620952149,10,1,100,-0.0457770169533979,-10,-1,-100,15032.800134317833,0.004392398925798733,0.037651738078720805,0.9992812684381351,16.980506589605262,0.01603982361264835,3.4299158246601005,-1.7809831709715103,-10.994842529296875,5356.25390625,True
1599560134.73886,0.0,10,0.5,0.5,-6.261989690017701,-0.05075,-0.02275,-0.001,0.5055913021531977,10,1,100,-0.11342942261016171,-10,-1,-100,15032.796326473355,0.005004405132116278,0.03853940349314485,0.9992445498013317,17.76078540299197,0.016774764152502293,3.96171228254031,-1.9667235467020394,-16.096466064453125,5356.25390625,True
1599560134.9665754,0.0,10,0.5,0.5,-5.561402948379516,-0.05075,-0.02275,-0.001,0.6016785789122536,10,1,100,-0.20299717243321308,-10,-1,-100,15032.665665903944,0.006371353609434814,0.040206740185176004,0.9991710683846211,19.196124679742738,0.018158913061386835,5.090823191675395,-2.338228619579043,-26.5078125,5356.25390625,True
1599560134.9974945,0.0,10,0.5,0.5,-4.2889141265869135,-0.05075,-0.02275,-0.001,0.7676098739012833,10,1,100,-0.4115740014740163,-10,-1,-100,15032.457079586806,0.00950526905517979,0.04321853363581786,0.9990204243210237,20.572777195859885,0.019580475888834156,7.190193108814173,-3.081313631830901,-48.16119384765625,5356.25390625,True
1599560135.0373988,0.0,10,0.5,0.5,-3.8195339298248294,-0.05075,-0.02275,-0.001,0.5347390676713941,10,1,100,-0.19415139697427142,-10,-1,-100,15032.388815789018,0.01037000390910745,0.043825142405028765,0.9989853952446472,20.605160899359525,0.019630000116452984,7.635825074267001,-3.267092879665259,-53.748870849609375,5356.25390625,True
1599560135.125199,0.0,10,0.5,0.5,-3.041291032028198,-0.05075,-0.02275,-0.001,0.5872050078507887,10,1,100,-0.30183871433573384,-10,-1,-100,15032.254229240934,0.012126803700232218,0.04484026920447999,0.9989205628525653,20.20234883411919,0.019242753953080987,8.338246154404821,-3.6386506860072325,-65.13381958007812,5356.25390625,True
1599560135.1590748,0.0,10,0.5,0.5,-2.2491242492675783,-0.05075,-0.02275,-0.001,0.5817638120654309,10,1,100,-0.32663409737503024,-10,-1,-100,15032.117671445478,0.013939756498851154,0.04570111297797405,0.9988578935270659,19.132512873259532,0.018166239350632163,8.703319803335525,-4.010201055343101,-76.79641723632812,5356.25390625,True
1599560135.1929471,0.0,10,0.5,0.5,-1.437374564361572,-0.05075,-0.02275,-0.001,0.5581281137009344,10,1,100,-0.339287602654075,-10,-1,-100,15031.918590852176,0.015692222766117182,0.04625723573107548,0.998806298682171,17.25719625441222,0.016320571372201522,8.57785449492,-4.381747511919918,-88.73922729492188,5356.25390625,True
1599560135.2248943,0.0,10,0.5,0.5,-0.5843060646057128,-0.05075,-0.02275,-0.001,0.5410484065812696,10,1,100,-0.3486523599329683,-10,-1,-100,15031.717531703878,0.017358210417363493,0.04659543372899744,0.998763013976145,16.611637803495373,0.015731588837751578,8.957434244307793,-4.753301838227776,-100.96086120605469,5356.25390625,True
1599560135.249799,0.0,10,0.5,0.5,-0.036342339324951095,-0.05075,-0.02275,-0.001,0.5189958661792202,10,1,100,-0.2698088076953987,-10,-1,-100,15031.645313147572,0.018142859701252255,0.04669173185751864,0.9987445713584661,17.773229609982096,0.016886108084017894,9.958555178383772,-4.939081021051605,-107.17609405517578,5356.25390625,True
1599560135.2747638,0.0,10,0.5,0.5,0.17625477504730236,-0.05075,-0.02275,-0.001,0.5102700527049797,10,1,100,-0.1927189253840679,-10,-1,-100,15031.645313147572,0.018142859701252255,0.04669173185751864,0.9987445713584661,17.773229609982096,0.016886108084017894,9.958555178383772,-4.939081021051605,-107.17609405517578,5356.25390625,True
1599560135.3036513,0.0,10,0.5,0.5,0.7203069808959962,-0.05075,-0.02275,-0.001,0.516586391322148,10,1,100,-0.27611646113942234,-10,-1,-100,15031.513518594322,0.018888518698323246,0.04674093494151217,0.9987284460063087,18.809119209895687,0.0179412986355406,10.935611455231275,-5.124862280443517,-113.46092224121094,5356.25390625,True
1599560135.337968,0.0,10,0.5,0.5,1.5925892559051515,-0.05075,-0.02275,-0.001,0.5109091993034832,10,1,100,-0.35362085737078136,-10,-1,-100,15031.314364316408,0.020258354012703587,0.04672659824365628,0.9987022700030634,20.250999138445334,0.01946911428221373,12.628105641017521,-5.496430577954561,-126.15779113769531,5356.25390625,True
1599560135.3728828,0.0,10,0.5,0.5,2.135834300994873,-0.05075,-0.02275,-0.001,0.5056546846684739,10,1,100,-0.2874132533764712,-10,-1,-100,15031.23919385206,0.020889146989098106,0.04665986942341585,0.9986923951465023,20.65795354283024,0.019915993485804997,13.317601432931582,-5.682216898948825,-132.51988220214844,5356.25390625,True
1599560135.4045408,0.0,10,0.5,0.5,2.9775391544342042,-0.05075,-0.02275,-0.001,0.49209761959061027,10,1,100,-0.34508736704418885,-10,-1,-100,15030.970674055861,0.021976556293768813,0.04647283232631889,0.998677779280703,20.946453691319963,0.02022915163215633,14.387311758643186,-6.053791482639232,-145.19912719726562,5356.25390625,True
1599560135.4375756,0.0,10,0.5,0.5,3.818502653121948,-0.05075,-0.02275,-0.001,0.4898177161505389,10,1,100,-0.33372764725242754,-10,-1,-100,15030.703116588527,0.022851288615921932,0.04627966521593801,0.9986671173099136,20.514568381379203,0.01972682847760805,14.956288040686811,-6.425367749725973,-157.6743621826172,5356.25390625,True
1599560135.470458,0.0,10,0.5,0.5,4.959138203430176,-0.05075,-0.02275,-0.001,0.4778153052867779,10,1,100,-0.353044368303822,-10,-1,-100,15030.300789988716,0.023812356841150455,0.0459936373840926,0.9986578778449856,18.487188882321224,0.017574188282915865,14.648570803122247,-6.982752957445638,-175.88848876953125,5356.25390625,True
1599560135.5073917,0.0,10,0.5,0.5,5.166358539581299,-0.05075,-0.02275,-0.001,0.5064473409119304,10,1,100,-0.2579248058151997,-10,-1,-100,15030.300789988716,0.023812356841150455,0.0459936373840926,0.9986578778449856,18.487188882321224,0.017574188282915865,14.648570803122247,-6.982752957445638,-175.88848876953125,5356.25390625,True
1599560135.5379086,0.0,10,0.5,0.5,-12.354949285888674,-0.05075,-0.02275,-0.001,0.49787807653891125,10,1,100,-0.32078170466566447,-10,-1,-100,15029.88772188744,0.024376401254268286,0.04591597461556241,0.9986478430042265,17.898233697474925,0.01707977429481923,15.315296029587332,-7.540170828608586,166.51870727539062,5356.25390625,True
1599560135.5708172,0.0,10,0.5,0.5,-12.032068629074097,-0.05075,-0.02275,-0.001,0.5172942626254491,10,1,100,-0.28615725077044235,-10,-1,-100,15029.552783148014,0.02456802096638529,0.0460225005714248,0.9986382437033685,19.784242670827403,0.019128684245235613,17.76448873113512,-7.911761935683957,155.13726806640625,5356.25390625,True
1599560135.6047847,0.0,10,0.5,0.5,-12.640212967109681,-0.05075,-0.02275,-0.001,0.5065747439106012,10,1,100,-0.26763779568525514,-10,-1,-100,15029.552783148014,0.02456802096638529,0.0460225005714248,0.9986382437033685,19.784242670827403,0.019128684245235613,17.76448873113512,-7.911761935683957,155.13726806640625,5356.25390625,True
1599560135.6418405,0.0,10,0.5,0.5,-12.64786162338257,-0.05075,-0.02275,-0.001,0.5383513404965077,10,1,100,-0.27875871156558574,-10,-1,-100,15029.213952304795,0.024663279145965448,0.04631198711428403,0.9986225125197682,20.917830324430643,0.02050490289630247,19.66566696331699,-8.28332961915672,143.75341796875,5356.25390625,True
1599560135.6717603,0.0,10,0.5,0.5,-12.337866322708132,-0.05075,-0.02275,-0.001,0.5942809310744075,10,1,100,-0.27113842206231936,-10,-1,-100,15028.732597831637,0.024675352349692585,0.04708399747470718,0.9985861125452428,21.55980163217341,0.02137466897081263,21.635042688411275,-8.84064675371295,126.23570251464844,5356.25390625,True
1599560135.7046936,0.0,10,0.5,0.5,-12.929579236221315,-0.05075,-0.02275,-0.001,0.517115634955198,10,1,100,-0.27037280152330456,-10,-1,-100,15028.732597831637,0.024675352349692585,0.04708399747470718,0.9985861125452428,21.55980163217341,0.02137466897081263,21.635042688411275,-8.84064675371295,126.23570251464844,5356.25390625,True
1599560135.7371385,0.0,10,0.5,0.5,-12.896616477584839,-0.05075,-0.02275,-0.001,0.6025098333780199,10,1,100,-0.2694327575667924,-10,-1,-100,15028.335229405435,0.024663364490669207,0.04785992279850439,0.998549521176452,21.23306990896765,0.02099747749047153,22.20411582835739,-9.212185688698714,114.22349548339844,5356.25390625,True
1599560135.7743418,0.0,10,0.5,0.5,-12.540064594268799,-0.05075,-0.02275,-0.001,0.6959588864252841,10,1,100,-0.2770841550618267,-10,-1,-100,15027.789529819973,0.024719582043151084,0.04941358531104772,0.9984724532255859,19.337178740224218,0.018891471210603347,21.4472281301508,-9.76953136556094,95.69691467285156,5356.25390625,True
1599560135.8042927,0.0,10,0.5,0.5,-12.808410022735595,-0.05075,-0.02275,-0.001,0.6097159645337741,10,1,100,-0.27840207349293355,-10,-1,-100,15027.587465524208,0.024780971537119917,0.05003913019607783,0.9984397773020145,18.38876467324995,0.017922863982134534,20.783979266656306,-9.955328708111235,89.38578796386719,5356.25390625,True
1599560135.8371305,0.0,10,0.5,0.5,-13.08810541343689,-0.05075,-0.02275,-0.001,0.621504383886885,10,1,100,-0.2828046074552665,-10,-1,-100,15027.387364320108,0.024875922645207365,0.050711297092213496,0.9984035020069665,17.454190940589257,0.01702577203407252,20.0966245634332,-10.141131487002278,83.00675964355469,5356.25390625,True
1599560135.8720763,0.0,10,0.5,0.5,-13.349853562927247,-0.05075,-0.02275,-0.001,0.6354573770555818,10,1,100,-0.288675896255941,-10,-1,-100,15027.180438049836,0.02501465030910749,0.051444914517772146,0.9983625033224015,18.100397102575762,0.01773774607478522,21.223303982064152,-10.326928855577268,76.56004333496094,5356.25390625,True
1599560135.9071364,0.0,10,0.5,0.5,-12.47382402534485,-0.05075,-0.02275,-0.001,0.7346657257293329,10,1,100,-0.32034814512983073,-10,-1,-100,15026.716814451269,0.0254281156760022,0.053008707219948464,0.9982702479248983,20.369709928824797,0.020270368916869622,24.745425721409863,-10.698488906484473,63.462066650390625,5356.25390625,True
1599560135.9380553,0.0,10,0.5,0.5,-11.586432875442506,-0.05075,-0.02275,-0.001,0.7651366568714674,10,1,100,-0.3480253021405486,-10,-1,-100,15026.308897558367,0.026054821896267902,0.054700994317174956,0.9981627860608039,21.757056627170087,0.021974961603574147,27.350774270184466,-11.070004938223857,50.09147644042969,5356.25390625,True
1599560135.9724376,0.0,10,0.5,0.5,-11.009561373138428,-0.05075,-0.02275,-0.001,0.6938535112560611,10,1,100,-0.3304983438020872,-10,-1,-100,15026.102024439373,0.02646386720167809,0.055583518996562845,0.9981032692806344,22.074783657722946,0.022403287703642118,28.21692108629156,-11.255750960064749,43.30378723144531,5356.25390625,True
1599560136.005494,0.0,10,0.5,0.5,-10.07466936454773,-0.05075,-0.02275,-0.001,0.8042533205286655,10,1,100,-0.4040085046809423,-10,-1,-100,15025.62971258862,0.027502363861808113,0.05738102012404617,0.9979734658354081,22.272662448374902,0.02264552406006608,29.41182696441527,-11.627235890397124,29.522979736328125,5356.25390625,True
1599560136.040399,0.0,10,0.5,0.5,-9.141037057495119,-0.05075,-0.02275,-0.001,0.8202839670840141,10,1,100,-0.4493701480963342,-10,-1,-100,15025.158411985147,0.02885626030069159,0.059151484278943865,0.9978318586560847,21.621437419214764,0.021831137119602786,29.466622112085727,-11.99873933767667,15.46710205078125,5356.25390625,True
1599560136.0712907,0.0,10,0.5,0.5,-8.161421227645876,-0.05075,-0.02275,-0.001,0.8298965388549822,10,1,100,-0.49227809893207297,-10,-1,-100,15024.628541938378,0.030473346700046016,0.060837413720583086,0.997682406496521,20.079762496210652,0.020122481971732938,28.21551462745269,-12.370284347220585,1.13525390625,5356.25390625,True
1599560136.1042702,0.0,10,0.5,0.5,-7.162416901397704,-0.05075,-0.02275,-0.001,0.8257603175151265,10,1,100,-0.5453014003573902,-10,-1,-100,15024.155323690968,0.03242017345586258,0.062320677118145436,0.9975294810463636,18.71138245213031,0.018842420988043177,27.08503770609013,-12.741856845835596,-13.474609375,5356.25390625,True
1599560136.1391451,0.0,10,0.5,0.5,-6.5452207057952885,-0.05075,-0.02275,-0.001,0.7504252528930226,10,1,100,-0.467931818800979,-10,-1,-100,15023.885999105405,0.033479655591171435,0.06297250044499472,0.9974535462111515,20.06997252246323,0.020382022437803116,29.47657921342225,-12.927627569191028,-20.88409423828125,5356.25390625,True
1599560136.1740835,0.0,10,0.5,0.5,-5.5240158882141115,-0.05075,-0.02275,-0.001,0.8041611413752342,10,1,100,-0.6123196709283004,-10,-1,-100,15023.348313288996,0.03574753011165145,0.06404181757356062,0.9973067530568472,22.015793222173997,0.022814844271781043,33.26664533577615,-13.29911818289191,-35.9130859375,5356.25390625,True
1599560136.2041085,0.0,10,0.5,0.5,-4.47623670539856,-0.05075,-0.02275,-0.001,0.7793909330820303,10,1,100,-0.650003503969371,-10,-1,-100,15022.81352543598,0.03814193124203716,0.06477662168733563,0.997170588396942,22.764718021423658,0.023929212408011293,35.36220582032544,-13.670556450406144,-51.222564697265625,5356.25390625,True
1599560136.2381985,0.0,10,0.5,0.5,-3.799261824798584,-0.05075,-0.02275,-0.001,0.7334184939832143,10,1,100,-0.546787683678535,-10,-1,-100,15022.541233025724,0.03936840001162299,0.06501457442880589,0.9971074336260692,22.710371313342396,0.023938441216331832,35.75862839560053,-13.856267906612198,-58.9825439453125,5356.25390625,True
1599560136.271077,0.0,10,0.5,0.5,-2.714334330749512,-0.05075,-0.02275,-0.001,0.7272079303202906,10,1,100,-0.6885320392980504,-10,-1,-100,15021.948752722703,0.041759283685664235,0.06516352100847149,0.9970004401984176,21.97965651097711,0.02311482250010397,35.539104430904544,-14.227704816365177,-74.71444702148438,5356.25390625,True
1599560136.3070526,0.0,10,0.5,0.5,-2.03362518196106,-0.05075,-0.02275,-0.001,0.708018815680983,10,1,100,-0.5775849676129173,-10,-1,-100,15021.67739093583,0.04290992777239198,0.06511496910536352,0.9969547526828766,21.242701436534677,0.022273306933227873,34.79761251435792,-14.413439342232092,-82.68560791015625,5356.25390625,True
1599560136.3373585,0.0,10,0.5,0.5,-0.919083521270752,-0.05075,-0.02275,-0.001,0.6780034536718842,10,1,100,-0.7075706424176285,-10,-1,-100,15021.070164620993,0.045122704839850286,0.06478929912962919,0.9968782715187584,19.241837319769225,0.020165060490693946,32.33574228161881,-14.784942778035843,-98.8380126953125,5356.25390625,True
1599560136.3720949,0.0,10,0.5,0.5,0.6377139091491701,-0.05075,-0.02275,-0.001,0.6065319146467104,10,1,100,-0.7935179474249242,-10,-1,-100,15020.194357240573,0.04789964100035322,0.06383675945236406,0.996810158723645,21.67258248045947,0.02328676838110215,37.79895052764882,-15.342144354648324,-123.59025573730469,5356.25390625,True
1599560136.4060051,0.0,10,0.5,0.5,1.8005848171234131,-0.05075,-0.02275,-0.001,0.6167233151846183,10,1,100,-0.6773832518399016,-10,-1,-100,15019.529359656735,0.04935104629485598,0.06305920404594635,0.9967888497644296,22.93886314928016,0.025003452763479744,40.97990533767545,-15.713529954190683,-140.4263458251953,5356.25390625,True
1599560136.4419098,0.0,10,0.5,0.5,2.105801366424561,-0.05075,-0.02275,-0.001,0.6947010348589252,10,1,100,-0.5341304923491059,-10,-1,-100,15019.529359656735,0.04935104629485598,0.06305920404594635,0.9967888497644296,22.93886314928016,0.025003452763479744,40.97990533767545,-15.713529954190683,-140.4263458251953,5356.25390625,True
1599560136.6819615,0.0,10,0.5,0.5,3.7008215953826906,-0.05075,-0.02275,-0.001,0.5731323253641514,10,1,100,-0.7115324401129671,-10,-1,-100,15018.588929204037,0.050948399571946544,0.06195336257151404,0.9967778295323084,22.35611043700185,0.024365821127243927,41.36096065476816,-16.2706017852187,-165.66702270507812,5356.25390625,True
1599560136.7099214,0.0,10,0.5,0.5,-13.768679494094851,-0.05075,-0.02275,-0.001,0.6114321156118269,10,1,100,-0.6277537805990747,-10,-1,-100,15017.912148694042,0.051623034061010965,0.06129715854053034,0.9967836880232304,20.91724616615006,0.022702078607572493,39.58674788649894,-16.642036728263065,177.7849884033203,5356.25390625,True
1599560136.7448268,0.0,10,0.5,0.5,-13.069276535034183,-0.05075,-0.02275,-0.001,0.6327049660884271,10,1,100,-0.6145559681530852,-10,-1,-100,15017.244159610476,0.05210192575251566,0.060896494115817004,0.9967833296846822,20.001779523689706,0.02190282287393481,38.70354664096208,-17.013498000412604,161.5122528076172,5356.25390625,True
1599560136.7838628,0.0,10,0.5,0.5,-13.149590766525272,-0.05075,-0.02275,-0.001,0.6588912853830878,10,1,100,-0.5882333179097319,-10,-1,-100,15016.901384153753,0.05228529411120719,0.06077383856654863,0.9967812139911104,21.332475953057425,0.023586012520514652,41.73136307336899,-17.199205491465282,153.3976593017578,5356.25390625,True
1599560136.8482034,0.0,10,0.5,0.5,-13.640870322418214,-0.05075,-0.02275,-0.001,0.6707327667236994,10,1,100,-0.5711881714505371,-10,-1,-100,15016.901384153753,0.05228529411120719,0.06077383856654863,0.9967812139911104,21.332475953057425,0.023586012520514652,41.73136307336899,-17.199205491465282,153.3976593017578,5356.25390625,True
1599560136.877124,0.0,10,0.5,0.5,-12.451652905654907,-0.05075,-0.02275,-0.001,0.6925283446261307,10,1,100,-0.634328214861275,-10,-1,-100,15015.493271951098,0.052849725405463406,0.06097597080424521,0.9967391020267274,23.501831113458206,0.026768127451636356,47.97061611656524,-17.941882253041467,120.38949584960938,5356.25390625,True
1599560136.9060416,0.0,10,0.5,0.5,-12.946656930160522,-0.05075,-0.02275,-0.001,0.6719012210263611,10,1,100,-0.5788790651989607,-10,-1,-100,15015.493271951098,0.052849725405463406,0.06097597080424521,0.9967391020267274,23.501831113458206,0.026768127451636356,47.97061611656524,-17.941882253041467,120.38949584960938,5356.25390625,True
1599560136.941137,0.0,10,0.5,0.5,-12.128633806991578,-0.05075,-0.02275,-0.001,0.7681862836160359,10,1,100,-0.6448691750340476,-10,-1,-100,15014.41340885975,0.05344261093072273,0.06185475621717442,0.996653338162383,22.158622140051172,0.02517736859354156,46.64087179727909,-18.498891953831667,94.94474792480469,5356.25390625,True
1599560136.9730506,0.0,10,0.5,0.5,-12.205356772232056,-0.05075,-0.02275,-0.001,0.7250130320415076,10,1,100,-0.618422241008749,-10,-1,-100,15014.01410182321,0.053736132035337246,0.06226296976300998,0.9966121365456931,21.26459924882184,0.024148733239189143,45.2110785723847,-18.68458653028529,86.32853698730469,5356.25390625,True
1599560137.004999,0.0,10,0.5,0.5,-11.371161211013794,-0.05075,-0.02275,-0.001,0.8468883247438623,10,1,100,-0.7294961178496691,-10,-1,-100,15012.870978799649,0.055008745478322005,0.06374275404223002,0.9964491453295612,21.84613875671241,0.02530198583556233,47.840933418708545,-19.24166480632555,60.07386779785156,5356.25390625,True
1599560137.0389314,0.0,10,0.5,0.5,-11.393613264846802,-0.05075,-0.02275,-0.001,0.7575999819737392,10,1,100,-0.6661371733527144,-10,-1,-100,15012.466861866531,0.0555845330227145,0.06427567886179596,0.9963829568973478,22.927806965381976,0.026813571068282527,50.69705197512996,-19.427319966964347,51.186126708984375,5356.25390625,True
1599560137.0757604,0.0,10,0.5,0.5,-11.89584192085266,-0.05075,-0.02275,-0.001,0.7045397316461741,10,1,100,-0.6090220322585415,-10,-1,-100,15012.466861866531,0.0555845330227145,0.06427567886179596,0.9963829568973478,22.927806965381976,0.026813571068282527,50.69705197512996,-19.427319966964347,51.186126708984375,5356.25390625,True
1599560137.1056802,0.0,10,0.5,0.5,-10.677321301269531,-0.05075,-0.02275,-0.001,0.8217056922104745,10,1,100,-0.7682913032363043,-10,-1,-100,15011.723128957441,0.05702883412345625,0.06533811621208845,0.9962322232533813,24.009184891556625,0.02844458720708751,54.10881346010595,-19.798593134879656,33.205291748046875,5356.25390625,True
1599560137.13856,0.0,10,0.5,0.5,-8.980861555862427,-0.05075,-0.02275,-0.001,0.8662885772884256,10,1,100,-0.9280141330158723,-10,-1,-100,15010.514840740245,0.059789381841789425,0.06670522946570275,0.9959797398445938,23.141945754779396,0.027425526746739575,53.63100546218712,-20.355520567247442,5.716552734375,5356.25390625,True
1599560137.1739697,0.0,10,0.5,0.5,-8.672375777435303,-0.05075,-0.02275,-0.001,0.7301703910169111,10,1,100,-0.6527097699556133,-10,-1,-100,15010.514840740245,0.059789381841789425,0.06670522946570275,0.9959797398445938,23.141945754779396,0.027425526746739575,53.63100546218712,-20.355520567247442,5.716552734375,5356.25390625,True
1599560137.2094407,0.0,10,0.5,0.5,-7.370019599533081,-0.05075,-0.02275,-0.001,0.7958329381056493,10,1,100,-0.8974703148438016,-10,-1,-100,15009.648137817625,0.062007655806472425,0.06729676953841932,0.9958042957484562,21.20179169933604,0.025197465300128227,50.037598821686494,-20.72686737477829,-12.957489013671875,5356.25390625,True
1599560137.2403617,0.0,10,0.5,0.5,-5.6084359249114994,-0.05075,-0.02275,-0.001,0.7521290936981867,10,1,100,-1.0741690351588538,-10,-1,-100,15008.375372207141,0.06562229511322926,0.06743147938379002,0.9955635137811076,23.39619527557874,0.028605812933074962,56.71100499419672,-21.283827986034105,-41.496490478515625,5356.25390625,True
1599560137.274267,0.0,10,0.5,0.5,-4.265854336166382,-0.05075,-0.02275,-0.001,0.69236767156701,10,1,100,-0.9830638028493136,-10,-1,-100,15007.561293895822,0.06806849003500531,0.06700478857968037,0.9954280682057075,24.302236375787576,0.030144296165039563,59.941737356302255,-21.655050756698774,-60.874847412109375,5356.25390625,True
1599560137.311179,0.0,10,0.5,0.5,-3.9307431137084965,-0.05075,-0.02275,-0.001,0.7355517552142253,10,1,100,-0.7399068985821362,-10,-1,-100,15007.561293895822,0.06806849003500531,0.06700478857968037,0.9954280682057075,24.302236375787576,0.030144296165039563,59.941737356302255,-21.655050756698774,-60.874847412109375,5356.25390625,True
1599560137.3440902,0.0,10,0.5,0.5,-2.064269881057739,-0.05075,-0.02275,-0.001,0.5841780814787333,10,1,100,-1.0990783754355335,-10,-1,-100,15006.226707335562,0.07132065586276377,0.06562435352861529,0.995292323024375,22.830268793258888,0.02840932759694028,57.76994132881512,-22.211913649594738,-90.470703125,5356.25390625,True
1599560137.3879738,0.0,10,0.5,0.5,-1.7513768379211423,-0.05075,-0.02275,-0.001,0.72240974653388,10,1,100,-0.7754929836981317,-10,-1,-100,15006.226707335562,0.07132065586276377,0.06562435352861529,0.995292323024375,22.830268793258888,0.02840932759694028,57.76994132881512,-22.211913649594738,-90.470703125,5356.25390625,True
1599560137.4358518,0.0,10,0.5,0.5,-0.3899398178100585,-0.05075,-0.02275,-0.001,0.5792166557722824,10,1,100,-0.9790724783271463,-10,-1,-100,15005.289320068783,0.07315707297499113,0.06432137209017638,0.995244092555273,20.32438011621372,0.0254871656971311,52.29564334042769,-22.58322120311518,-110.55123901367188,5356.25390625,True
1599560137.4707549,0.0,10,0.5,0.5,1.0113608261108398,-0.05075,-0.02275,-0.001,0.5566323092394935,10,1,100,-0.9503123279955485,-10,-1,-100,15004.418242916348,0.07454911212859032,0.06293148972927168,0.9952296506240624,23.171717555706703,0.029600841264281613,60.60984920556004,-22.95446775704039,-130.9073486328125,5356.25390625,True
1599560137.5031085,0.0,10,0.5,0.5,2.4320782241821295,-0.05075,-0.02275,-0.001,0.5293359701749147,10,1,100,-0.9254434933956212,-10,-1,-100,15003.473844042397,0.07557259442822194,0.06142199961557379,0.9952467638403111,24.415770578192287,0.03159237614353357,64.90454923280763,-23.32564779143697,-151.53956604003906,5356.25390625,True
1599560137.5349944,0.0,10,0.5,0.5,-13.710548131179811,-0.05075,-0.02275,-0.001,0.4210381246843821,10,1,100,-0.9448595417429239,-10,-1,-100,15001.589829362929,0.07666519403778395,0.05907001294398008,0.9953055719697077,22.06231047162155,0.028692236970727238,60.53115458211006,-24.0680786058987,166.9097442626953,5356.25390625,True
1599560137.561957,0.0,10,0.5,0.5,-13.758813331604005,-0.05075,-0.02275,-0.001,0.6554732701915811,10,1,100,-0.8372871620063221,-10,-1,-100,15001.589829362929,0.07666519403778395,0.05907001294398008,0.9953055719697077,22.06231047162155,0.028692236970727238,60.53115458211006,-24.0680786058987,166.9097442626953,5356.25390625,True
1599560137.5918794,0.0,10,0.5,0.5,-13.636191123580934,-0.05075,-0.02275,-0.001,0.6071855795686706,10,1,100,-0.8552713376802532,-10,-1,-100,15001.061458888114,0.07681536150915486,0.058638512807948566,0.9953195090280756,21.420715339152647,0.028042393242854128,59.22823496935134,-24.25371036334967,156.63302612304688,5356.25390625,True
1599560137.6192868,0.0,10,0.5,0.5,-13.03993747138977,-0.05075,-0.02275,-0.001,0.5807468752774527,10,1,100,-0.8722271548079567,-10,-1,-100,15000.113154566614,0.07709584566938396,0.058013881705795974,0.9953344262658397,23.980561851810815,0.03197639318685292,67.32995821564249,-24.62490100876763,136.2025909423828,5356.25390625,True
1599560137.6462402,0.0,10,0.5,0.5,-12.443144127655032,-0.05075,-0.02275,-0.001,0.6122168143983275,10,1,100,-0.8739000207661227,-10,-1,-100,14999.106321893632,0.07735783245499886,0.057740299156641466,0.9953300073900946,24.861405303355657,0.03354934587461792,70.86417619761983,-24.996032023005395,115.61177062988281,5356.25390625,True
1599560137.6761599,0.0,10,0.5,0.5,-11.78668296394348,-0.05075,-0.02275,-0.001,0.6360595772564503,10,1,100,-0.9012346706557675,-10,-1,-100,14998.099572370062,0.07783605422053645,0.05771676240105034,0.9952940892024419,24.112735172228728,0.032618302665096605,69.75998618411687,-25.367176632581664,94.77005004882812,5356.25390625,True
1599560137.707219,0.0,10,0.5,0.5,-12.228947397994995,-0.05075,-0.02275,-0.001,0.6376224937028068,10,1,100,-0.8540640339377854,-10,-1,-100,14998.099572370062,0.07783605422053645,0.05771676240105034,0.9952940892024419,24.112735172228728,0.032618302665096605,69.75998618411687,-25.367176632581664,94.77005004882812,5356.25390625,True
1599560137.740912,0.0,10,0.5,0.5,-12.105940149307251,-0.05075,-0.02275,-0.001,0.6440797896572534,10,1,100,-0.8907120573643162,-10,-1,-100,14997.561563975294,0.0781632949804524,0.057782653810752184,0.9952646202073023,23.240525582958668,0.03146967171656742,67.73329320629767,-25.552769621688043,84.24966430664062,5356.25390625,True
1599560137.7778096,0.0,10,0.5,0.5,-11.460296480941773,-0.05075,-0.02275,-0.001,0.6602356279147514,10,1,100,-0.956264435287787,-10,-1,-100,14996.555928972899,0.07905216617785711,0.057995370638530594,0.9951820396324925,22.010989829939092,0.030120699438410274,65.09101580830679,-25.923980836413318,63.00645446777344,5356.25390625,True
1599560137.8132365,0.0,10,0.5,0.5,-10.247196533966063,-0.05075,-0.02275,-0.001,0.6694468821880724,10,1,100,-1.0824467689411865,-10,-1,-100,14995.007587729837,0.08100324934139297,0.058276975629078194,0.9950086772021961,25.075849557297257,0.035103562023309935,75.76202110396794,-26.480657229220505,30.62969970703125,5356.25390625,True
1599560137.8541286,0.0,10,0.5,0.5,-9.559110716629029,-0.05075,-0.02275,-0.001,0.6348789768482339,10,1,100,-1.0743372370193152,-10,-1,-100,14993.930828774814,0.08269830133176022,0.05822158559374702,0.9948724731983448,24.942520371573323,0.03506888082651836,76.42563017160481,-26.851747833181594,8.699310302734375,5356.25390625,True
1599560137.9334326,0.0,10,0.5,0.5,-8.071724780273438,-0.05075,-0.02275,-0.001,0.5960234242565631,10,1,100,-1.1151278192975436,-10,-1,-100,14992.795484111295,0.08460459651890163,0.057818770017476435,0.9947356694527144,23.17384524941598,0.03269855657845875,71.99821980278514,-27.222890066786338,-13.511077880859375,5356.25390625,True
1599560137.9803078,0.0,10,0.5,0.5,-6.519548156356811,-0.05075,-0.02275,-0.001,0.5484314781295251,10,1,100,-1.1426648042117842,-10,-1,-100,14991.720650363597,0.08658071073144954,0.05702105747691783,0.9946116727313484,23.458016620536082,0.03358672925486065,73.88544912050327,-27.5940444192122,-36.002471923828125,5356.25390625,True
1599560138.0411465,0.0,10,0.5,0.5,-5.516363067245484,-0.05075,-0.02275,-0.001,0.5668602609073986,10,1,100,-1.0525843484120587,-10,-1,-100,14991.182718189084,0.08754938737265715,0.05646486906105525,0.9945586072889774,24.537259685691087,0.03543654847799054,77.80975418353471,-27.779584619901783,-47.353790283203125,5356.25390625,True
1599560138.0815535,0.0,10,0.5,0.5,-3.3260325767517087,-0.05075,-0.02275,-0.001,0.3761541218018421,10,1,100,-1.2436951245556314,-10,-1,-100,14989.5043145261,0.09015786997351175,0.05422695924807943,0.9944500969744768,24.991967171181866,0.03656035544101104,80.8560019185041,-28.336156973248354,-81.8289794921875,5356.25390625,True
1599560138.1174865,0.0,10,0.5,0.5,-2.911330059432983,-0.05075,-0.02275,-0.001,0.5995937691085681,10,1,100,-0.984126868222023,-10,-1,-100,14989.5043145261,0.09015786997351175,0.05422695924807943,0.9944500969744768,24.991967171181866,0.03656035544101104,80.8560019185041,-28.336156973248354,-81.8289794921875,5356.25390625,True
1599560138.1932836,0.0,10,0.5,0.5,-0.0805295322418213,-0.05075,-0.02275,-0.001,0.18611370084457934,10,1,100,-1.2374082910145536,-10,-1,-100,14987.162518619793,0.09244922671185023,0.050471222084909506,0.9944374270016374,23.600818282512865,0.03513636945412961,78.37783200210694,-29.0783635299772,-128.76690673828125,5356.25390625,True
1599560138.2381656,0.0,10,0.5,0.5,1.616818832778931,-0.05075,-0.02275,-0.001,0.34789547294408274,10,1,100,-1.0642355415252591,-10,-1,-100,14986.014907544246,0.09294469586726316,0.04853424581049246,0.9944876623134893,25.323811251798052,0.03815316965800931,85.1846065038375,-29.449384449594938,-152.64593505859375,5356.25390625,True
1599560138.2800522,0.0,10,0.5,0.5,2.754941418075562,-0.05075,-0.02275,-0.001,0.44294015139044973,10,1,100,-1.028405966897156,-10,-1,-100,14985.413242986426,0.09305596132930415,0.04764580846326236,0.9945202184958137,25.449906264175347,0.038437491819422895,86.15400379430004,-29.63488713183456,-164.68582153320312,5356.25390625,True
1599560138.5672863,0.0,10,0.5,0.5,-14.121608946990968,-0.05075,-0.02275,-0.001,0.3570518772315233,10,1,100,-1.035340395633738,-10,-1,-100,14984.204045333667,0.09320742128771811,0.04606674434813136,0.9945804299713813,24.18154047826607,0.036613867402104414,82.89737262806895,-30.00592759400987,171.20809936523438,5356.25390625,True
1599560138.6121664,0.0,10,0.5,0.5,-12.868643029785158,-0.05075,-0.02275,-0.001,0.3720037280344969,10,1,100,-1.0144219864402253,-10,-1,-100,14982.993885699427,0.09314385010092949,0.04477825764284016,0.994645228627196,23.55361560452865,0.03603185027841003,81.75554951333565,-30.377004451654646,147.306884765625,5356.25390625,True
1599560138.6470702,0.0,10,0.5,0.5,-11.980739124298097,-0.05075,-0.02275,-0.001,0.392967106938547,10,1,100,-1.018501725983212,-10,-1,-100,14981.783779754653,0.09311365070081319,0.04380970347165853,0.9946911872208843,25.525558222847685,0.03955595252881057,89.69509704650527,-30.74799855614353,123.59408569335938,5356.25390625,True
1599560138.7039192,0.0,10,0.5,0.5,-11.70012850341797,-0.05075,-0.02275,-0.001,0.445366757664924,10,1,100,-1.0261731671395657,-10,-1,-100,14981.177290940075,0.0931482015710544,0.04341829565586577,0.9947051141652073,25.81077684479621,0.04014135054786386,91.25086451294719,-30.933479901096973,111.68611145019531,5356.25390625,True
1599560138.7438114,0.0,10,0.5,0.5,-10.806245156478882,-0.05075,-0.02275,-0.001,0.4134686424146445,10,1,100,-1.0480864027541221,-10,-1,-100,14979.903834312689,0.09337285223973364,0.04278485364997985,0.994711499261352,24.937708079032923,0.038885332103649896,89.23464108608951,-31.30446466495924,87.6903076171875,5356.25390625,True
1599560138.7807138,0.0,10,0.5,0.5,-9.882070790481569,-0.05075,-0.02275,-0.001,0.4154275791975308,10,1,100,-1.0813804279063393,-10,-1,-100,14978.630470728618,0.09387445901731031,0.04223924217484715,0.9946876054142335,22.89915879692144,0.035954424853894044,82.92389203183167,-31.67550820140989,63.43145751953125,5356.25390625,True
1599560138.8206058,0.0,10,0.5,0.5,-8.327259563827514,-0.05075,-0.02275,-0.001,0.36196762626020695,10,1,100,-1.1740790216151236,-10,-1,-100,14976.74400726927,0.09516980094969278,0.041268130095362864,0.9946052736767627,26.020305794390524,0.04153103294121662,95.90258358705883,-32.231948494342454,26.532180786132812,5356.25390625,True
1599560138.8595016,0.0,10,0.5,0.5,-7.31975818939209,-0.05075,-0.02275,-0.001,0.3536792237236779,10,1,100,-1.1681980828594596,-10,-1,-100,14975.412195542129,0.09628936514410155,0.040321732572002084,0.9945363321882906,25.659160349005187,0.04108026663934182,95.67405401198971,-32.602885192598954,1.586822509765625,5356.25390625,True
1599560138.8964036,0.0,10,0.5,0.5,-6.990386112213136,-0.05075,-0.02275,-0.001,0.3815619036116915,10,1,100,-1.1222661305021604,-10,-1,-100,14974.739452439127,0.09688609653719567,0.039724076903849596,0.994502429364515,24.738957969490766,0.039670631904484124,92.77493303231756,-32.78837484410238,-10.99041748046875,5356.25390625,True
1599560138.929316,0.0,10,0.5,0.5,-5.350943781280517,-0.05075,-0.02275,-0.001,0.18565985402623275,10,1,100,-1.2475883179623994,-10,-1,-100,14972.789506895351,0.09856428914358346,0.03740783509012193,0.9944273401206799,25.554971800932666,0.04163198872214934,97.48376025544007,-33.34483074079354,-49.140869140625,5356.25390625,True
