Timestamp,Input Throttle,horizon,dT,dt,Input Roll,Roll P,Roll I,Roll D,Input Pitch,Pitch P,Pitch I,Pitch D,Input Yaw,Yaw P,Yaw I,Yaw D,Altitude,Direction X,Direction Y,Direction Z,Drag X,Drag Y,Drag Z,Vertical Velocity,Roll,Mass,Has Fuel
1599560227.494893,0.0,10,0.5,0.5,-2.9543331527709964,-0.05075,-0.02275,-0.2505,-0.0003134123516714034,10,1,100,0.17494274630540718,-10,-1,-100,14994.57401015656,-0.016810776210744238,-7.446535982676768e-05,0.9998586861442483,28.576464383201714,0.027199436932840573,-86.6925261450388,26.823330327011128,-31.791961669921875,5356.25390625,True
1599560227.5278897,0.0,10,0.5,0.5,-3.0868397758483885,-0.05075,-0.02275,-0.2505,-0.00019003911453289047,10,1,100,0.17773462177823218,-10,-1,-100,14995.640419729752,-0.016883010593014378,-6.935571419297256e-05,0.9998574694140667,28.431355458247992,0.0275253157211187,-85.05951499288516,26.451407118196702,-31.790771484375,5356.25390625,True
1599560227.5518272,0.0,10,0.5,0.5,-3.2070253761291507,-0.05075,-0.02275,-0.2505,0.003513523411435595,10,1,100,0.17834662777396348,-10,-1,-100,14996.70878233551,-0.01693889371268205,-3.097878091326988e-05,0.9998565261676824,28.286422141456733,0.02784518891213006,-83.43919765273651,26.079499529752013,-31.830413818359375,5356.25390625,True
1599560227.5727692,0.0,10,0.5,0.5,-3.349291589355469,-0.05075,-0.02275,-0.2505,-0.00032726779462599983,10,1,100,0.17445220517846455,-10,-1,-100,14996.70878233551,-0.01693889371268205,-3.097878091326988e-05,0.9998565261676824,28.286422141456733,0.02784518891213006,-83.43919765273651,26.079499529752013,-31.830413818359375,5356.25390625,True
1599560227.5967054,0.0,10,0.5,0.5,-3.4520705513000487,-0.05075,-0.02275,-0.2505,0.003605992518818943,10,1,100,0.17823611446140716,-10,-1,-100,14997.242963102064,-0.01695789389369727,4.8062935552416615e-06,0.9998562045672317,28.217429549758172,0.02800561010611694,-82.64377152401406,25.89355150543348,-31.92852783203125,5356.25390625,True
1599560227.627612,0.0,10,0.5,0.5,-3.4906252586364745,-0.05075,-0.02275,-0.2505,0.009603740442224968,10,1,100,0.18132428680366214,-10,-1,-100,14998.246870849747,-0.0169878248123737,9.185879119980217e-05,0.9998556922726933,28.093494952219412,0.02833117932759488,-81.1021499119375,25.521666443089618,-32.3206787109375,5356.25390625,True
1599560227.6605797,0.0,10,0.5,0.5,-3.52016858291626,-0.05075,-0.02275,-0.2505,0.015612355761332594,10,1,100,0.18041955814900085,-10,-1,-100,14999.247847471037,-0.01699136645538956,0.00022553769305838124,0.9998556108752541,27.989872041291104,0.028659654498977494,-79.62867888471551,25.149795245245883,-32.984283447265625,5356.25390625,True
1599560227.685546,0.0,10,0.5,0.5,-3.8161123245239263,-0.05075,-0.02275,-0.2505,0.0022670193447805265,10,1,100,0.18176453049295394,-10,-1,-100,14999.247847471037,-0.01699136645538956,0.00022553769305838124,0.9998556108752541,27.989872041291104,0.028659654498977494,-79.62867888471551,25.149795245245883,-32.984283447265625,5356.25390625,True
1599560227.7074795,0.0,10,0.5,0.5,-3.6633000770568853,-0.05075,-0.02275,-0.2505,0.022702628344417115,10,1,100,0.18001024232393567,-10,-1,-100,15000.248822734458,-0.01695997168434813,0.0004111109224250244,0.9998560848183481,27.90466897927731,0.028982511174559588,-78.21548489767162,24.777936715808135,-33.922119140625,5356.25390625,True
1599560227.7313905,0.0,10,0.5,0.5,-3.853502011871338,-0.05075,-0.02275,-0.2505,0.016457056915209434,10,1,100,0.1816525573570335,-10,-1,-100,15000.720501540578,-0.016930942963989223,0.000522662198926971,0.9998565247047078,27.867887719870875,0.029138356010520346,-77.52773875616265,24.592012014999437,-34.49407958984375,5356.25390625,True
1599560227.7623348,0.0,10,0.5,0.5,-3.9300565986633305,-0.05075,-0.02275,-0.2505,0.01895911088730435,10,1,100,0.1821191726870292,-10,-1,-100,15001.248820453766,-0.016893403409422914,0.00064634324803967,0.999857087368816,27.83428214808903,0.029288347695435705,-76.8502873575415,24.406090231912838,-35.134735107421875,5356.25390625,True
1599560227.795387,0.0,10,0.5,0.5,-3.3797772361755376,-0.05075,-0.02275,-0.2505,0.05578590982568123,10,1,100,0.16719786307432388,-10,-1,-100,15002.658970316057,-0.016723553156793785,0.0010929143661202168,0.9998595542915015,27.745236057704254,0.02968360946209847,-74.85804809544341,23.848341936738944,-37.4688720703125,5356.25390625,True
1599560227.8284836,0.0,10,0.5,0.5,-3.675776641082764,-0.05075,-0.02275,-0.2505,0.030241960144163346,10,1,100,0.175675783404586,-10,-1,-100,15003.125764670549,-0.016646360800529888,0.0012656137762884483,0.999860638736153,27.716718935102612,0.02978978218683102,-74.19954179415925,23.662431353268083,-38.38433837890625,5356.25390625,True
1599560227.9975479,0.0,10,0.5,0.5,-3.890190773010254,-0.05075,-0.02275,-0.2505,0.01310167838306037,10,1,100,0.1833657657397605,-10,-1,-100,15003.125764670549,-0.016646360800529888,0.0012656137762884483,0.999860638736153,27.716718935102612,0.02978978218683102,-74.19954179415925,23.662431353268083,-38.38433837890625,5356.25390625,True
1599560228.0194483,0.0,10,0.5,0.5,-3.578801979827881,-0.05075,-0.02275,-0.2505,0.0334453494054675,10,1,100,0.17368199402192727,-10,-1,-100,15003.59353449312,-0.016558592451196997,0.001449377519621966,0.9998618466172419,27.687223380104903,0.0298791063509663,-73.53961655017386,23.4765235850855,-39.368499755859375,5356.25390625,True
1599560228.045379,0.0,10,0.5,0.5,-2.7947327407836915,-0.05075,-0.02275,-0.2505,0.08216093053776745,10,1,100,0.14565656957097267,-10,-1,-100,15004.992937164148,-0.016224389458106146,0.0020579911409223757,0.9998662579861247,27.581684480258666,0.030019065481296243,-71.52295696243284,22.91881768322767,-42.7333984375,5356.25390625,True
1599560228.081256,0.0,10,0.5,0.5,-3.2346487838745115,-0.05075,-0.02275,-0.2505,0.04578639672365026,10,1,100,0.16402519929004455,-10,-1,-100,15005.460706032463,-0.016088250130337177,0.002278811278021935,0.9998679788986657,27.536719663417667,0.030013709390422673,-70.82849631413151,22.732921922795597,-43.99249267578125,5356.25390625,True
1599560228.1480799,0.0,10,0.5,0.5,-3.525008214569092,-0.05075,-0.02275,-0.2505,0.02390971037219069,10,1,100,0.17754882043443615,-10,-1,-100,15005.460706032463,-0.016088250130337177,0.002278811278021935,0.9998679788986657,27.536719663417667,0.030013709390422673,-70.82849631413151,22.732921922795597,-43.99249267578125,5356.25390625,True
1599560228.1745718,0.0,10,0.5,0.5,-1.7756190261840819,-0.05075,-0.02275,-0.2505,0.1289816328248895,10,1,100,0.1035950769165565,-10,-1,-100,15007.20580255962,-0.015416764385924682,0.0032321439606965026,0.9998759306140368,27.27060483322175,0.029658544970063587,-67.85485285978298,21.98937443269834,-49.716461181640625,5356.25390625,True
1599560228.1995046,0.0,10,0.5,0.5,-2.6907025688171387,-0.05075,-0.02275,-0.2505,0.0626023739315525,10,1,100,0.14851110274022902,-10,-1,-100,15007.667711095535,-0.015216053223308913,0.0034927976522446174,0.999878128618116,27.17468037931892,0.02947402614898259,-67.04590249758007,21.80349787453915,-51.319244384765625,5356.25390625,True
1599560228.2294445,0.0,10,0.5,0.5,-2.025951014709473,-0.05075,-0.02275,-0.2505,0.09266208119714914,10,1,100,0.11962600783120511,-10,-1,-100,15008.538792358595,-0.014772555748794979,0.004000325496563493,0.9998828776374614,26.935519359903218,0.028976552500288764,-65.32537046716577,21.431759547323225,-54.731597900390625,5356.25390625,True
1599560228.2636614,0.0,10,0.5,0.5,-2.8361627075195313,-0.05075,-0.02275,-0.2505,0.04224469499011393,10,1,100,0.16376367051653576,-10,-1,-100,15008.538792358595,-0.014772555748794979,0.004000325496563493,0.9998828776374614,26.935519359903218,0.028976552500288764,-65.32537046716577,21.431759547323225,-54.731597900390625,5356.25390625,True
1599560228.2956884,0.0,10,0.5,0.5,-1.0995271827697755,-0.05075,-0.02275,-0.2505,0.12998988829628216,10,1,100,0.07923431419959279,-10,-1,-100,15009.804397719097,-0.01400588068901186,0.004795365971046438,0.9998904138811057,26.430820888284714,0.02789749336688226,-62.43757103663736,20.874195016350786,-60.365997314453125,5356.25390625,True
1599560228.3295977,0.0,10,0.5,0.5,-2.4609359619140627,-0.05075,-0.02275,-0.2505,0.050838816067463495,10,1,100,0.15563777216675287,-10,-1,-100,15009.804397719097,-0.01400588068901186,0.004795365971046438,0.9998904138811057,26.430820888284714,0.02789749336688226,-62.43757103663736,20.874195016350786,-60.365997314453125,5356.25390625,True
1599560228.365533,0.0,10,0.5,0.5,-0.5269016563415527,-0.05075,-0.02275,-0.2505,0.1380991526133936,10,1,100,0.0573172572076731,-10,-1,-100,15011.01238477067,-0.013114458262212515,0.005585432892196022,0.9998984018008508,25.7041376611657,0.026429881050157464,-59.10318045854032,20.316694163894667,-66.62002563476562,5356.25390625,True
1599560228.395962,0.0,10,0.5,0.5,-2.0315385292053225,-0.05075,-0.02275,-0.2505,0.05950606603569255,10,1,100,0.14611508646870916,-10,-1,-100,15011.01238477067,-0.013114458262212515,0.005585432892196022,0.9998984018008508,25.7041376611657,0.026429881050157464,-59.10318045854032,20.316694163894667,-66.62002563476562,5356.25390625,True
1599560228.4298706,0.0,10,0.5,0.5,-0.6174160263061523,-0.05075,-0.02275,-0.2505,0.11607745116189998,10,1,100,0.07313477102389876,-10,-1,-100,15011.813151350478,-0.01245382805925596,0.00609651144629675,0.9999038627362412,25.068769591036276,0.02526490772488047,-56.5906092710712,19.945069368759977,-71.13381958007812,5356.25390625,True
1599560228.4624808,0.0,10,0.5,0.5,-0.26345405349731443,-0.05075,-0.02275,-0.2505,0.11567380036278647,10,1,100,0.06287774242589626,-10,-1,-100,15012.61684774363,-0.011763313453014597,0.006553988124425221,0.9999093307376778,24.297238115955484,0.023993393320278476,-53.82985759174554,19.573482731271216,-75.85720825195312,5356.25390625,True
1599560228.4983857,0.0,10,0.5,0.5,0.8856088226318359,-0.05075,-0.02275,-0.2505,0.14421790758118122,10,1,100,0.005201254279104228,-10,-1,-100,15013.754521897528,-0.010615172952076452,0.007225481373030689,0.9999175518622149,22.873133118597046,0.022001949306758486,-49.23603179609888,19.016178220322974,-83.35855102539062,5356.25390625,True
1599560228.529496,0.0,10,0.5,0.5,-0.9169417877197266,-0.05075,-0.02275,-0.2505,0.07746791646186782,10,1,100,0.11953514522953397,-10,-1,-100,15013.754521897528,-0.010615172952076452,0.007225481373030689,0.9999175518622149,22.873133118597046,0.022001949306758486,-49.23603179609888,19.016178220322974,-83.35855102539062,5356.25390625,True
1599560228.563501,0.0,10,0.5,0.5,1.5007065269470217,-0.05075,-0.02275,-0.2505,0.13916636219416406,10,1,100,-0.012153073641099965,-10,-1,-100,15014.891219895915,-0.009422189944408172,0.007782982985396304,0.9999253209677714,21.174739789808612,0.02011386184865139,-44.2483406943135,18.45896051668656,-91.14198303222656,5356.25390625,True
1599560228.5904284,0.0,10,0.5,0.5,-0.3662095645904541,-0.05075,-0.02275,-0.2505,0.08379446670648585,10,1,100,0.10661019054528927,-10,-1,-100,15014.891219895915,-0.009422189944408172,0.007782982985396304,0.9999253209677714,21.174739789808612,0.02011386184865139,-44.2483406943135,18.45896051668656,-91.14198303222656,5356.25390625,True
1599560228.6133676,0.0,10,0.5,0.5,1.2507898826599122,-0.05075,-0.02275,-0.2505,0.11970768003083156,10,1,100,0.013808516847616428,-10,-1,-100,15015.625581978471,-0.008583402334251498,0.008106027963355054,0.999930306328909,21.89427654610959,0.02085178374676269,-44.83385100212636,18.087499580835537,-96.23464965820312,5356.25390625,True
1599560228.6363063,0.0,10,0.5,0.5,0.8164935886383057,-0.05075,-0.02275,-0.2505,0.10265533037469783,10,1,100,0.05266845556595356,-10,-1,-100,15015.963466472924,-0.008179069839143733,0.008241674162814239,0.9999325865394928,22.310526268192344,0.021335921193859613,-45.218396697851524,17.90176667627486,-98.7568588256836,5356.25390625,True
1599560228.6632335,0.0,10,0.5,0.5,2.48474239025116,-0.05075,-0.02275,-0.2505,0.12723820287397597,10,1,100,-0.04582446776413526,-10,-1,-100,15017.030831733951,-0.006921401732272109,0.008585336541232601,0.999939191248415,23.407310941240798,0.02282849656351175,-45.968527107015326,17.344552547839893,-106.10199737548828,5356.25390625,True
1599560228.6963153,0.0,10,0.5,0.5,1.4472369506835938,-0.05075,-0.02275,-0.2505,0.10308580003584236,10,1,100,0.03285886302524314,-10,-1,-100,15017.364810486324,-0.006499000148228564,0.008675462401585319,0.9999412479486942,23.699555187355788,0.023296190573916034,-46.045264115688624,17.158809218032005,-108.46757507324219,5356.25390625,True
1599560228.7302103,0.0,10,0.5,0.5,0.9498629123687744,-0.05075,-0.02275,-0.2505,0.0943822169515095,10,1,100,0.07443747561819922,-10,-1,-100,15017.364810486324,-0.006499000148228564,0.008675462401585319,0.9999412479486942,23.699555187355788,0.023296190573916034,-46.045264115688624,17.158809218032005,-108.46757507324219,5356.25390625,True
1599560228.7661142,0.0,10,0.5,0.5,3.0657524826049807,-0.05075,-0.02275,-0.2505,0.11694735634812604,10,1,100,-0.06299895246830087,-10,-1,-100,15018.36870224902,-0.005254991554634043,0.008878255531595207,0.9999467794050224,24.38675416864288,0.024546738785615963,-45.845211144452776,16.601565865022792,-115.20933532714844,5356.25390625,True
1599560228.7970636,0.0,10,0.5,0.5,2.720238723373413,-0.05075,-0.02275,-0.2505,0.10512955423966391,10,1,100,-0.03134700469196807,-10,-1,-100,15019.038615184603,-0.004417736287422395,0.00895306538752075,0.9999501618712112,24.762106760605146,0.025272125921771315,-45.51133776187229,16.230061756971317,-119.37123107910156,5356.25390625,True
1599560228.8298192,0.0,10,0.5,0.5,2.9318289474487305,-0.05075,-0.02275,-0.2505,0.10343091143214125,10,1,100,-0.03342064842690207,-10,-1,-100,15019.645053289947,-0.0036433778620620916,0.009004061609189682,0.9999528252234163,25.017701204977065,0.02581593948000105,-44.93067542921839,15.85855507079982,-123.26240539550781,5356.25390625,True
1599560228.863761,0.0,10,0.5,0.5,2.602995056152344,-0.05075,-0.02275,-0.2505,0.09951924356710684,10,1,100,0.00033085487367377764,-10,-1,-100,15019.978057626286,-0.003252585500912518,0.009013244302628254,0.9999540900034861,25.10526803474461,0.026017341577490465,-44.56082690365919,15.672802004254244,-125.10514068603516,5356.25390625,True
1599560228.901053,0.0,10,0.5,0.5,2.218656049537659,-0.05075,-0.02275,-0.2505,0.09872400035497281,10,1,100,0.038793130544281546,-10,-1,-100,15019.978057626286,-0.003252585500912518,0.009013244302628254,0.9999540900034861,25.10526803474461,0.026017341577490465,-44.56082690365919,15.672802004254244,-125.10514068603516,5356.25390625,True
1599560228.9299743,0.0,10,0.5,0.5,3.8369302574157715,-0.05075,-0.02275,-0.2505,0.09661517049551102,10,1,100,-0.0854153801372492,-10,-1,-100,15020.911642928026,-0.00212902595330178,0.00899295470270839,0.9999572960952909,25.231284861497805,0.026349603711380978,-43.19502565604855,15.115549541770573,-130.22052001953125,5356.25390625,True
1599560228.9649158,0.0,10,0.5,0.5,3.105038048553467,-0.05075,-0.02275,-0.2505,0.09625141764024547,10,1,100,-0.013304103356208009,-10,-1,-100,15021.183124941192,-0.0017690328592841651,0.008970396470697597,0.9999582003813466,25.234281808920986,0.026375461941905487,-42.6702153952799,14.929802274771548,-131.7879638671875,5356.25390625,True
1599560228.997991,0.0,10,0.5,0.5,4.079665173912049,-0.05075,-0.02275,-0.2505,0.08694605992955773,10,1,100,-0.09163895414899306,-10,-1,-100,15022.052260031807,-0.0007354587093154326,0.008864632351219821,0.999960437914303,25.152563347820653,0.02623045163333942,-40.94724785923348,14.372576532992351,-136.07717895507812,5356.25390625,True
1599560229.0340917,0.0,10,0.5,0.5,3.073410332489014,-0.05075,-0.02275,-0.2505,0.09755040145833407,10,1,100,0.011099866545584532,-10,-1,-100,15022.052260031807,-0.0007354587093154326,0.008864632351219821,0.999960437914303,25.152563347820653,0.02623045163333942,-40.94724785923348,14.372576532992351,-136.07717895507812,5356.25390625,True
1599560229.0639777,0.0,10,0.5,0.5,4.241593084335327,-0.05075,-0.02275,-0.2505,0.0809031557432443,10,1,100,-0.09537003877394046,-10,-1,-100,15022.92334935395,0.00022720993773578258,0.008713121781128428,0.999962014220776,24.968964962400026,0.025811535861604496,-39.075017743138496,13.815380387838767,-139.7464599609375,5356.25390625,True
1599560229.097619,0.0,10,0.5,0.5,3.393597655487061,-0.05075,-0.02275,-0.2505,0.0960579786903379,10,1,100,0.0002242049225846341,-10,-1,-100,15022.92334935395,0.00022720993773578258,0.008713121781128428,0.999962014220776,24.968964962400026,0.025811535861604496,-39.075017743138496,13.815380387838767,-139.7464599609375,5356.25390625,True
1599560229.1302786,0.0,10,0.5,0.5,4.082579671096801,-0.05075,-0.02275,-0.2505,0.08241716393747822,10,1,100,-0.06621465236865834,-10,-1,-100,15023.458503719303,0.0008262157299358371,0.008589264495875583,0.999962770258467,24.809671890059086,0.025420839393258662,-37.78347684865339,13.4439351137269,-141.84823608398438,5356.25390625,True
1599560229.1662643,0.0,10,0.5,0.5,4.157207121276856,-0.05075,-0.02275,-0.2505,0.08299763376745486,10,1,100,-0.06697529926395407,-10,-1,-100,15023.992682331125,0.0013729141927864312,0.008482274690365188,0.999963082379893,24.647859416563954,0.02498377187458909,-36.501546335005564,13.072505195163297,-143.67391967773438,5356.25390625,True
1599560229.1941924,0.0,10,0.5,0.5,3.990247793197632,-0.05075,-0.02275,-0.2505,0.0853800011134609,10,1,100,-0.04245420121363162,-10,-1,-100,15024.258307149401,0.001642433456688723,0.008407143467518361,0.9999633105024689,24.576282704046907,0.024761761457130212,-35.87928293026466,12.886795867835389,-144.48367309570312,5356.25390625,True
1599560229.2161312,0.0,10,0.5,0.5,4.2570035902023315,-0.05075,-0.02275,-0.2505,0.07790349977561167,10,1,100,-0.07097415945999329,-10,-1,-100,15024.731939378544,0.0021422732997871843,0.008271425162618171,0.9999634964291887,24.428522373143508,0.024293533136265394,-34.63720954049623,12.515388221297183,-145.8961639404297,5356.25390625,True
1599560229.2430587,0.0,10,0.5,0.5,4.1320488613128665,-0.05075,-0.02275,-0.2505,0.08436925570643282,10,1,100,-0.047236270725650426,-10,-1,-100,15024.995611299528,0.0023759697515638506,0.008207498865843654,0.9999634951987533,24.354061066400394,0.024051378306645943,-34.01999763389183,12.329689826893919,-146.4989013671875,5356.25390625,True
1599560229.266995,0.0,10,0.5,0.5,4.319006296920776,-0.05075,-0.02275,-0.2505,0.07526577998115666,10,1,100,-0.07316275442668442,-10,-1,-100,15025.467290660948,0.0028200209270930693,0.008067339231125096,0.9999634820930716,24.208106473035514,0.023560351072142216,-32.79893703270917,11.95830302872579,-147.49777221679688,5356.25390625,True
1599560229.299991,0.0,10,0.5,0.5,4.2238135929107665,-0.05075,-0.02275,-0.2505,0.08195635167205578,10,1,100,-0.051925798384993144,-10,-1,-100,15025.675298882532,0.003026468710116641,0.00800156572151601,0.9999634070470533,24.137917534154777,0.023314590478254668,-32.196701962145255,11.772614466776815,-147.89373779296875,5356.25390625,True
1599560229.3313498,0.0,10,0.5,0.5,4.250018983840943,-0.05075,-0.02275,-0.2505,0.08120565859741964,10,1,100,-0.05335653923260293,-10,-1,-100,15025.933111655526,0.0032237353138259476,0.007935731745401698,0.9999633151732575,24.0703060830489,0.023070427603788534,-31.60078330300265,11.586928944704546,-148.2207489013672,5356.25390625,True
1599560229.3643544,0.0,10,0.5,0.5,4.330468092346192,-0.05075,-0.02275,-0.2505,0.0729374629147126,10,1,100,-0.07446781609788458,-10,-1,-100,15026.399909275584,0.00359139002140684,0.007801561716005731,0.9999631180961153,23.944709893060704,0.022591506052892577,-30.42964945360113,11.215566361150012,-148.6680145263672,5356.25390625,True
1599560229.398297,0.0,10,0.5,0.5,4.27494666633606,-0.05075,-0.02275,-0.2505,0.07880855171822747,10,1,100,-0.05677987150614142,-10,-1,-100,15026.60694075469,0.003761763731933922,0.007733791187555098,0.9999630181199165,23.887372142881148,0.022358611350586158,-29.854836929236793,11.029888958624822,-148.7882537841797,5356.25390625,True
1599560229.4341664,0.0,10,0.5,0.5,4.202545994567871,-0.05075,-0.02275,-0.2505,0.05781270976752188,10,1,100,-0.10467779630575788,-10,-1,-100,15027.475106077618,0.004348871372596693,0.0074822006263149925,0.9999625512945832,23.698553558048026,0.021487638154357943,-27.626729544822183,10.287201187183257,-148.57962036132812,5356.25390625,True
1599560229.4651158,0.0,10,0.5,0.5,4.270122566223145,-0.05075,-0.02275,-0.2505,0.08286105950457633,10,1,100,-0.04631929780374686,-10,-1,-100,15027.475106077618,0.004348871372596693,0.0074822006263149925,0.9999625512945832,23.698553558048026,0.021487638154357943,-27.626729544822183,10.287201187183257,-148.57962036132812,5356.25390625,True
1599560229.4979975,0.0,10,0.5,0.5,4.016025276184082,-0.05075,-0.02275,-0.2505,0.06379959125604265,10,1,100,-0.08449208884880319,-10,-1,-100,15028.016122181667,0.004693191330115559,0.0073098237095683685,0.9999622695044419,23.598496484954598,0.020911464058214868,-26.022077970120336,9.730204208579279,-147.6990966796875,5356.25390625,True
1599560229.532903,0.0,10,0.5,0.5,4.243911547088623,-0.05075,-0.02275,-0.2505,0.08092755095491005,10,1,100,-0.05036516888425923,-10,-1,-100,15028.016122181667,0.004693191330115559,0.0073098237095683685,0.9999622695044419,23.598496484954598,0.020911464058214868,-26.022077970120336,9.730204208579279,-147.6990966796875,5356.25390625,True
1599560229.5668108,0.0,10,0.5,0.5,3.7958578197479245,-0.05075,-0.02275,-0.2505,0.06234209985250564,10,1,100,-0.0796437418516267,-10,-1,-100,15028.610849332297,0.004957041158882238,0.00714173924632201,0.9999622109377367,23.526204552690704,0.020410402313836895,-24.45870811962389,9.173219267519507,-146.1981658935547,5356.25390625,True
1599560229.5977285,0.0,10,0.5,0.5,4.17115680847168,-0.05075,-0.02275,-0.2505,0.07904397021518933,10,1,100,-0.05351686611569069,-10,-1,-100,15028.610849332297,0.004957041158882238,0.00714173924632201,0.9999622109377367,23.526204552690704,0.020410402313836895,-24.45870811962389,9.173219267519507,-146.1981658935547,5356.25390625,True
1599560229.6316364,0.0,10,0.5,0.5,3.762908265304566,-0.05075,-0.02275,-0.2505,0.06767423479310046,10,1,100,-0.06812988559570862,-10,-1,-100,15028.949716103729,0.005087944044853502,0.00703921946974375,0.9999622803959424,23.48656735075318,0.02012002174398093,-23.429951501745183,8.801901113582067,-144.85279846191406,5356.25390625,True
1599560229.6655805,0.0,10,0.5,0.5,3.3292750595092775,-0.05075,-0.02275,-0.2505,0.06255341020060898,10,1,100,-0.06949551535521524,-10,-1,-100,15029.482918542693,0.005217487415973132,0.0069003415822424755,0.9999625808554602,23.425158308304425,0.01975011771219143,-21.891077916625687,8.244930589549075,-142.31759643554688,5356.25390625,True
1599560229.7014515,0.0,10,0.5,0.5,3.9509134952545164,-0.05075,-0.02275,-0.2505,0.07633765993442053,10,1,100,-0.05674055345346695,-10,-1,-100,15029.482918542693,0.005217487415973132,0.0069003415822424755,0.9999625808554602,23.425158308304425,0.01975011771219143,-21.891077916625687,8.244930589549075,-142.31759643554688,5356.25390625,True
1599560229.7324028,0.0,10,0.5,0.5,2.6274519355773926,-0.05075,-0.02275,-0.2505,0.05698152149782908,10,1,100,-0.06261668507743201,-10,-1,-100,15030.089361106511,0.005269428524014117,0.006725195978395065,0.9999635017649807,23.296362718958946,0.019367957537667617,-19.811112122844058,7.5023144870088885,-137.97232055664062,5356.25390625,True
1599560229.7653139,0.0,10,0.5,0.5,3.691337295150757,-0.05075,-0.02275,-0.2505,0.0743952223616541,10,1,100,-0.05757334075254146,-10,-1,-100,15030.089361106511,0.005269428524014117,0.006725195978395065,0.9999635017649807,23.296362718958946,0.019367957537667617,-19.811112122844058,7.5023144870088885,-137.97232055664062,5356.25390625,True
1599560229.7982972,0.0,10,0.5,0.5,3.288064433670044,-0.05075,-0.02275,-0.2505,0.0692317310508801,10,1,100,-0.05671004733807404,-10,-1,-100,15030.223149676225,0.005260743531926761,0.006678943334340683,0.9999638574935736,23.247369848107635,0.01928824791225163,-19.28052932016533,7.316662348690116,-136.71376037597656,5356.25390625,True
1599560229.834198,0.0,10,0.5,0.5,2.7557526084899906,-0.05075,-0.02275,-0.2505,0.06407975643024787,10,1,100,-0.05320060735235374,-10,-1,-100,15030.495608636294,0.005220115110014135,0.006590789577096383,0.9999646553208712,23.118765785402942,0.019140189042406622,-18.201383800113838,6.945359858989269,-133.9898223876953,5356.25390625,True
1599560229.8651383,0.0,10,0.5,0.5,2.503316763687134,-0.05075,-0.02275,-0.2505,0.06242486590882154,10,1,100,-0.04901553266037271,-10,-1,-100,15030.759277710575,0.005144655025821103,0.006496259005890846,0.9999656649823502,22.937747424347613,0.01899617340986672,-17.093922780284423,6.574059257418812,-130.99034118652344,5356.25390625,True
1599560229.899047,0.0,10,0.5,0.5,2.7337440116882328,-0.05075,-0.02275,-0.2505,0.06648915394798938,10,1,100,-0.05122887900122602,-10,-1,-100,15030.895995174884,0.005095765858111826,0.006448009800336135,0.9999662275996797,22.822874816412746,0.018920558558562655,-16.528231776281505,6.388409328375859,-129.3872528076172,5356.25390625,True
1599560229.9329567,0.0,10,0.5,0.5,2.0689588287353518,-0.05075,-0.02275,-0.2505,0.06007100548886964,10,1,100,-0.04288824776781365,-10,-1,-100,15031.157710831729,0.004975371126527617,0.006346430745154388,0.999967483720821,22.535350284522355,0.018751639691463443,-15.37187963416502,6.017109440246128,-125.97442626953125,5356.25390625,True
1599560229.9688604,0.0,10,0.5,0.5,1.7667621665954591,-0.05075,-0.02275,-0.2505,0.05798248962934218,10,1,100,-0.038605188757557335,-10,-1,-100,15031.363761732122,0.004826967806841782,0.006235822649449066,0.9999689069654499,22.15616921223092,0.018539841267954032,-14.180981068638465,5.6458078173498585,-122.28612518310547,5356.25390625,True
1599560230.0017734,0.0,10,0.5,0.5,0.8171191442489625,-0.05075,-0.02275,-0.2505,0.04829079012216161,10,1,100,-0.023175477651066798,-10,-1,-100,15031.693833342753,0.004552022848193848,0.006047893836761036,0.9999713506236709,21.377943170535357,0.018083019186327157,-12.333475871494706,5.088846607954056,-116.23725128173828,5356.25390625,True
1599560230.0336874,0.0,10,0.5,0.5,2.2730292713165285,-0.05075,-0.02275,-0.2505,0.06699842661641647,10,1,100,-0.05060342705908232,-10,-1,-100,15031.693833342753,0.004552022848193848,0.006047893836761036,0.9999713506236709,21.377943170535357,0.018083019186327157,-12.333475871494706,5.088846607954056,-116.23725128173828,5356.25390625,True
1599560230.0666292,0.0,10,0.5,0.5,0.8951692358016967,-0.05075,-0.02275,-0.2505,0.05131233575024416,10,1,100,-0.027412664138193654,-10,-1,-100,15031.898906539078,0.004341802698520114,0.005906067963200816,0.9999731331943579,20.75940126582131,0.017698583365977873,-11.102949173153782,4.717528840779174,-111.86039733886719,5356.25390625,True
1599560230.1045294,0.0,10,0.5,0.5,-0.1866594655990601,-0.05075,-0.02275,-0.2505,0.03872529981254347,10,1,100,-0.009832458565645644,-10,-1,-100,15032.165500464966,0.003991716717089459,0.005663452413271696,0.9999759954640977,19.69932929060809,0.01697693819729468,-9.292232438959536,4.1605259981374285,-104.82695007324219,5356.25390625,True
1599560230.1434236,0.0,10,0.5,0.5,-0.006930789756774969,-0.05075,-0.02275,-0.2505,0.042807481958616236,10,1,100,-0.017263298173835297,-10,-1,-100,15032.299284518696,0.0037421713775059743,0.00548096879063236,0.9999779773247495,18.821278835898006,0.01631349878824472,-8.085739693895913,3.789167551498281,-99.82530975341797,5356.25390625,True
1599560230.1793277,0.0,10,0.5,0.5,-0.37338482131958006,-0.05075,-0.02275,-0.2505,0.039243826936194715,10,1,100,-0.01391923884261903,-10,-1,-100,15032.435997604276,0.0034862919586503135,0.005283766792159776,0.9999799635877036,17.75683291083088,0.015449577924306871,-6.880857907336112,3.4177855813484324,-94.72840118408203,5356.25390625,True
1599560230.2182257,0.0,10,0.5,0.5,0.04670773220062252,-0.05075,-0.02275,-0.2505,0.04714285415995861,10,1,100,-0.024643062698981276,-10,-1,-100,15032.503377852961,0.003352739815795155,0.005177489789023404,0.9999809761866533,17.221098985210215,0.014997453466033721,-6.310709977530353,3.2320846095301703,-92.18113708496094,5356.25390625,True
1599560230.257121,0.0,10,0.5,0.5,-0.9331086282730103,-0.05075,-0.02275,-0.2505,0.032931654855747575,10,1,100,-0.008219655272756289,-10,-1,-100,15032.63227931119,0.0030836540867884435,0.004952880491785573,0.9999829798813115,16.238530858152497,0.014138161858271492,-5.2668706166382195,2.8606654195337344,-87.10357666015625,5356.25390625,True
1599560230.2916684,0.0,10,0.5,0.5,-1.2670726377487183,-0.05075,-0.02275,-0.2505,0.02845416036159143,10,1,100,-0.00479888171499953,-10,-1,-100,15032.767039613915,0.002809761947867575,0.004709344934630262,0.999984963540994,17.224969902461016,0.014962841758249034,-4.86145658541362,2.489228730605175,-82.09213256835938,5356.25390625,True
1599560230.321589,0.0,10,0.5,0.5,-1.6069214879989624,-0.05075,-0.02275,-0.2505,0.024173050052165353,10,1,100,-0.0017867027651493235,-10,-1,-100,15032.834417050006,0.002535354384921474,0.004450518048776582,0.9999868823475838,18.093948630094328,0.015684175941245507,-4.344733093809067,2.1177850548384094,-77.12820434570312,5356.25390625,True
1599560230.3624792,0.0,10,0.5,0.5,-0.4661917381286622,-0.05075,-0.02275,-0.2505,0.049877208177466076,10,1,100,-0.02899829771756736,-10,-1,-100,15032.834417050006,0.002535354384921474,0.004450518048776582,0.9999868823475838,18.093948630094328,0.015684175941245507,-4.344733093809067,2.1177850548384094,-77.12820434570312,5356.25390625,True
1599560230.4043663,0.0,10,0.5,0.5,-3.3395208990097047,-0.05075,-0.02275,-0.2505,-0.011699800349631362,10,1,100,0.03112963248603381,-10,-1,-100,15032.970149885165,0.00199057017258262,0.003892179221973864,0.9999904442399897,19.396270202082484,0.016783087145668896,-3.0237745659469932,1.3749038021145985,-67.88552856445312,5356.25390625,True
1599560230.4442606,0.0,10,0.5,0.5,-1.7861178394317627,-0.05075,-0.02275,-0.2505,0.026832271405937004,10,1,100,-0.007948394200921109,-10,-1,-100,15032.975030824891,0.0018528951791338079,0.003736849772308185,0.9999913013287838,19.62978385474471,0.016980555255151273,-2.6468340573078493,1.1891846395812427,-65.72158813476562,5356.25390625,True
1599560230.4811609,0.0,10,0.5,0.5,-3.2171931274414067,-0.05075,-0.02275,-0.2505,-0.007139286088279434,10,1,100,0.022048012957489628,-10,-1,-100,15033.038500821334,0.0014573041268487776,0.003288780857383684,0.999993530071647,20.116058168455595,0.01739354734371615,-1.4415984975496157,0.632018608390208,-59.520172119140625,5356.25390625,True
1599560230.516068,0.0,10,0.5,0.5,-2.9142421367645266,-0.05075,-0.02275,-0.2505,0.0016007611586775702,10,1,100,0.011582747968029737,-10,-1,-100,15033.040450621047,0.001195118681575877,0.002963059247475463,0.9999948959725908,20.276530380317954,0.017536987510808323,-0.5990764681350524,0.2605614451724372,-55.711273193359375,5356.25390625,True
1599560230.5534832,0.0,10,0.5,0.5,-2.0604723890304566,-0.05075,-0.02275,-0.2505,0.033921131195183966,10,1,100,-0.01438109128966732,-10,-1,-100,15033.040450621047,0.001195118681575877,0.002963059247475463,0.9999948959725908,20.276530380317954,0.017536987510808323,-0.5990764681350524,0.2605614451724372,-55.711273193359375,5356.25390625,True
1599560230.5933774,0.0,10,0.5,0.5,-3.7154918102264403,-0.05075,-0.02275,-0.2505,-0.01739618996314072,10,1,100,0.027433035837385565,-10,-1,-100,15033.045329227229,0.0008170731379454638,0.002498647880167679,0.9999965445691592,20.363463941422292,0.01762629831324749,0.6849966767886351,-0.2966519786684545,-50.5120849609375,5356.25390625,True
1599560230.6292808,0.0,10,0.5,0.5,-2.507892251586914,-0.05075,-0.02275,-0.2505,0.02877706257675212,10,1,100,-0.010117951857870778,-10,-1,-100,15033.045329227229,0.0008170731379454638,0.002498647880167679,0.9999965445691592,20.363463941422292,0.01762629831324749,0.6849966767886351,-0.2966519786684545,-50.5120849609375,5356.25390625,True
1599560230.6661825,0.0,10,0.5,0.5,-4.38878254852295,-0.05075,-0.02275,-0.2505,-0.04183353290177923,10,1,100,0.04362715908678877,-10,-1,-100,15032.978918240522,0.0003305417484020525,0.00185896449637341,0.9999982174949883,20.442480565201702,0.017723709605776933,2.410048689613133,-1.039647359279568,-44.5447998046875,5356.25390625,True
1599560230.704081,0.0,10,0.5,0.5,-3.753557344818115,-0.05075,-0.02275,-0.2505,-0.01514072129044972,10,1,100,0.020969747116294225,-10,-1,-100,15032.910557368305,9.647079418477944e-05,0.0015226873261527584,0.9999988360576689,20.412793038774968,0.01771650694098062,3.266588973064652,-1.4111613702721861,-41.9749755859375,5356.25390625,True
1599560230.7409818,0.0,10,0.5,0.5,-3.189789973449707,-0.05075,-0.02275,-0.2505,0.01819421265935306,10,1,100,-0.0021934599463594136,-10,-1,-100,15032.910557368305,9.647079418477944e-05,0.0015226873261527584,0.9999988360576689,20.412793038774968,0.01771650694098062,3.266588973064652,-1.4111613702721861,-41.9749755859375,5356.25390625,True
1599560230.7748933,0.0,10,0.5,0.5,-3.9610536231994633,-0.05075,-0.02275,-0.2505,-0.014683930074039096,10,1,100,0.024142790405757862,-10,-1,-100,15032.849032658036,-0.00014073249666107153,0.0012264567837788514,0.9999992379987704,20.358349120574484,0.017692111020980256,4.115687597189373,-1.7826848794912054,-39.68023681640625,5356.25390625,True
1599560230.8152943,0.0,10,0.5,0.5,-4.331467625427246,-0.05075,-0.02275,-0.2505,-0.03685908833294649,10,1,100,0.038483360756610026,-10,-1,-100,15032.714266168303,-0.0004848031254657342,0.0007579873269381369,0.999999595210489,20.277309893244333,0.01766787105357035,5.3810231342080135,-2.3399850063199317,-36.7554931640625,5356.25390625,True
1599560230.8551888,0.0,10,0.5,0.5,-4.1483830543518065,-0.05075,-0.02275,-0.2505,-0.022300062025462846,10,1,100,0.029578229230910923,-10,-1,-100,15032.64590659563,-0.0007145136847776179,0.00046716884391949327,0.9999996356116664,20.220087817360522,0.01765936280414239,6.217990973966075,-2.711526503596433,-35.14996337890625,5356.25390625,True
1599560230.8935997,0.0,10,0.5,0.5,-4.012353263854981,-0.05075,-0.02275,-0.2505,-0.008762263631807142,10,1,100,0.019635695898970205,-10,-1,-100,15032.580476885312,-0.0008309804194874817,0.0003284244011298365,0.999999600804398,20.193658181014243,0.01766094576913441,6.635409741645881,-2.8972993504536637,-34.45050048828125,5356.25390625,True
1599560230.9304988,0.0,10,0.5,0.5,-4.393111582183837,-0.05075,-0.02275,-0.2505,-0.040038030119087444,10,1,100,0.04624426671018628,-10,-1,-100,15032.382235199213,-0.00117691345923381,-7.963693779390367e-05,0.9999993042660918,20.134069423210942,0.01770092475973892,7.888814335122187,-3.454625547517698,-32.7655029296875,5356.25390625,True
1599560230.9664035,0.0,10,0.5,0.5,-4.023221321105957,-0.05075,-0.02275,-0.2505,0.00046383415475963327,10,1,100,0.011888165949634417,-10,-1,-100,15032.382235199213,-0.00117691345923381,-7.963693779390367e-05,0.9999993042660918,20.134069423210942,0.01770092475973892,7.888814335122187,-3.454625547517698,-32.7655029296875,5356.25390625,True
1599560231.011285,0.0,10,0.5,0.5,-4.449929901123046,-0.05075,-0.02275,-0.2505,-0.05426313230264451,10,1,100,0.06326307102051613,-10,-1,-100,15032.049229788128,-0.0016421453356989352,-0.0005748109193903398,0.9999984864744063,20.14563105069121,0.017879612053689136,9.59191773592031,-4.1977423006893035,-31.483062744140625,5356.25390625,True
1599560231.0471866,0.0,10,0.5,0.5,-4.216649683380127,-0.05075,-0.02275,-0.2505,-0.018685747508762583,10,1,100,0.02954850575721766,-10,-1,-100,15031.983800678514,-0.001756351704206659,-0.0006987442601703934,0.9999982134909792,20.16602325470586,0.017947929813796278,10.026755685568457,-4.3835238002732115,-31.334747314453125,5356.25390625,True
1599560231.0900738,0.0,10,0.5,0.5,-4.236743675231933,-0.05075,-0.02275,-0.2505,-0.030508237527060895,10,1,100,0.04426157701060726,-10,-1,-100,15031.783607400022,-0.001992033692923942,-0.0009165629258126597,0.9999975958541947,20.228763741675795,0.018113432581685154,10.910925081798208,-4.755089064369148,-31.244476318359375,5356.25390625,True
1599560231.139939,0.0,10,0.5,0.5,-4.182766194915772,-0.05075,-0.02275,-0.2505,-0.031151063377566835,10,1,100,0.04704209879894292,-10,-1,-100,15031.585366864922,-0.0022296688766635154,-0.0011182062657175327,0.9999968890908851,20.32220254761401,0.018318024539312073,11.818338630578864,-5.126656897573236,-31.42962646484375,5356.25390625,True
1599560231.181827,0.0,10,0.5,0.5,-4.114371488189698,-0.05075,-0.02275,-0.2505,-0.031811373105466,10,1,100,0.04971555391199019,-10,-1,-100,15031.379314416205,-0.0024678903268446043,-0.0013051203962557093,0.99999610308145,20.44588460402759,0.018560279548139637,12.752603923696302,-5.498226867077932,-31.8902587890625,5356.25390625,True
1599560231.2207227,0.0,10,0.5,0.5,-3.8837903739929205,-0.05075,-0.02275,-0.2505,-0.039773889970594785,10,1,100,0.06594752626255973,-10,-1,-100,15030.990645925282,-0.002829903068532423,-0.001545127416264282,0.9999948021014361,20.684428021792158,0.018987801115097527,14.210202758633129,-6.055583547458984,-33.0975341796875,5356.25390625,True
1599560231.2616134,0.0,10,0.5,0.5,-3.8483840507507328,-0.05075,-0.02275,-0.2505,-0.03088033697392864,10,1,100,0.05661712274233633,-10,-1,-100,15030.782640343416,-0.0030720518017528942,-0.0016803713938085627,0.9999938694060609,20.873979432330053,0.01930810296230564,15.221113984434803,-6.427154241238203,-34.24658203125,5356.25390625,True
1599560231.3064952,0.0,10,0.5,0.5,-3.709209606170654,-0.05075,-0.02275,-0.2505,-0.029224211385981788,10,1,100,0.05926901496953066,-10,-1,-100,15030.517017681152,-0.003314151908457839,-0.0017863124678331847,0.9999929127173327,21.08232707253359,0.019647244689946754,16.262645558982534,-6.7987231702734325,-35.670867919921875,5356.25390625,True
1599560231.3453903,0.0,10,0.5,0.5,-3.8175594985961916,-0.05075,-0.02275,-0.2505,-0.024074559701706362,10,1,100,0.04854608661231222,-10,-1,-100,15030.320730018546,-0.0034345043190431024,-0.0018338850317540071,0.9999924204941619,21.191417040480946,0.019820374932389275,16.79394965056597,-6.984506527091951,-36.486328125,5356.25390625,True
1599560231.3802958,0.0,10,0.5,0.5,-3.152026651000977,-0.05075,-0.02275,-0.2505,-0.030711138116728667,10,1,100,0.07604314909827144,-10,-1,-100,15029.914484274923,-0.0037918365413931445,-0.0019358705771877211,0.9999909371493083,21.52502493137327,0.02033174139106304,18.42111005090361,-7.541850253663391,-39.345550537109375,5356.25390625,True
1599560231.4092188,0.0,10,0.5,0.5,-3.5247010246276855,-0.05075,-0.02275,-0.2505,-0.02333482157271256,10,1,100,0.05356847678974374,-10,-1,-100,15029.780696397414,-0.003909991610650059,-0.0019598398011460476,0.9999904354510388,21.63434808628629,0.020492657713784675,18.971304160518798,-7.727628816665362,-40.436309814453125,5356.25390625,True
1599560231.623446,0.0,10,0.5,0.5,-3.777567586517334,-0.05075,-0.02275,-0.2505,-0.021076402065055483,10,1,100,0.04197975449154741,-10,-1,-100,15029.780696397414,-0.003909991610650059,-0.0019598398011460476,0.9999904354510388,21.63434808628629,0.020492657713784675,18.971304160518798,-7.727628816665362,-40.436309814453125,5356.25390625,True
1599560231.6523678,0.0,10,0.5,0.5,-3.037503964996338,-0.05075,-0.02275,-0.2505,-0.02393548299029595,10,1,100,0.06747173154462326,-10,-1,-100,15029.452573990566,-0.004139779002126709,-0.001984684995429165,0.9999894615721119,21.842061459707573,0.020785911852764988,20.075594255516688,-8.099181239001481,-42.82421875,5356.25390625,True
1599560231.6842835,0.0,10,0.5,0.5,-2.8070030532836916,-0.05075,-0.02275,-0.2505,-0.02262620629377378,10,1,100,0.06967742743483907,-10,-1,-100,15029.116639381275,-0.00436677591582635,-0.0019943980002003277,0.9999884767559662,22.0252837130765,0.0210228869461598,21.17402222254234,-8.470726569821963,-45.487548828125,5356.25390625,True
1599560231.7192483,0.0,10,0.5,0.5,-3.4421854644775394,-0.05075,-0.02275,-0.2505,-0.02174252499010578,10,1,100,0.047191446768791216,-10,-1,-100,15029.116639381275,-0.00436677591582635,-0.0019943980002003277,0.9999884767559662,22.0252837130765,0.0210228869461598,21.17402222254234,-8.470726569821963,-45.487548828125,5356.25390625,True
1599560231.748422,0.0,10,0.5,0.5,-2.9790137756347654,-0.05075,-0.02275,-0.2505,-0.02095505942435199,10,1,100,0.059259549715291335,-10,-1,-100,15028.924257838167,-0.004474759682986368,-0.0019866126063262527,0.9999880148762443,22.1033124506229,0.02111267465678896,21.715749875831683,-8.656496529315806,-46.92236328125,5356.25390625,True
1599560231.8383865,0.0,10,0.5,0.5,-1.3706283294677732,-0.05075,-0.02275,-0.2505,-0.013567981390365677,10,1,100,0.09418327796441013,-10,-1,-100,15028.189887304092,-0.004888919858474324,-0.0019119783705044344,0.9999862213057379,22.28129496149979,0.0212097635803992,23.7728915172154,-9.399558835849906,-53.35009765625,5356.25390625,True
1599560231.8703392,0.0,10,0.5,0.5,-1.8447508239746093,-0.05075,-0.02275,-0.2505,-0.01348072269547072,10,1,100,0.07368649861054956,-10,-1,-100,15027.791451992467,-0.0050774430529221684,-0.0018431252525521946,0.9999854111242562,22.261185482147344,0.02106230705358763,24.69197810968757,-9.771081838750053,-56.97686767578125,5356.25390625,True
1599560231.895235,0.0,10,0.5,0.5,-2.1274111824035646,-0.05075,-0.02275,-0.2505,-0.01555298832331797,10,1,100,0.06409697757971748,-10,-1,-100,15027.590281101526,-0.005160047319281313,-0.0017993186394081161,0.9999850680705672,22.216702245445926,0.02093239206154044,25.112038493048527,-9.95684230103895,-58.893463134765625,5356.25390625,True
1599560231.9211667,0.0,10,0.5,0.5,-1.9584273742675782,-0.05075,-0.02275,-0.2505,-0.014710231951679805,10,1,100,0.06473259993411062,-10,-1,-100,15027.391062962823,-0.005239351816465712,-0.001751864448073467,0.9999847399653151,22.146416622197986,0.02076345251150231,25.500558645633383,-10.142602604520443,-60.87890625,5356.25390625,True
1599560231.9510884,0.0,10,0.5,0.5,-1.1483511375427249,-0.05075,-0.02275,-0.2505,-0.00791794660478955,10,1,100,0.07391754518408587,-10,-1,-100,15026.98676798644,-0.005393630393201237,-0.0016471435038239782,0.9999840977082883,21.919851885143082,0.020307564934389177,26.166195451266283,-10.514124477303332,-65.05630493164062,5356.25390625,True
1599560231.975022,0.0,10,0.5,0.5,-2.1387790184021,-0.05075,-0.02275,-0.2505,-0.018358771400006215,10,1,100,0.058638051388788436,-10,-1,-100,15026.98676798644,-0.005393630393201237,-0.0016471435038239782,0.9999840977082883,21.919851885143082,0.020307564934389177,26.166195451266283,-10.514124477303332,-65.05630493164062,5356.25390625,True
1599560232.0049422,0.0,10,0.5,0.5,-0.7414025245666505,-0.05075,-0.02275,-0.2505,-0.004846740729175205,10,1,100,0.07320234232637068,-10,-1,-100,15026.59028494428,-0.0055246842755587566,-0.00152459113072308,0.9999835766079059,21.565022624112828,0.01969710158325953,26.654374368509192,-10.885651111466855,-69.50897216796875,5356.25390625,True
1599560232.0338676,0.0,10,0.5,0.5,-0.37178800277709945,-0.05075,-0.02275,-0.2505,-0.0020959843559489166,10,1,100,0.07221496306501599,-10,-1,-100,15026.120559427422,-0.005633588988713793,-0.00138859127347903,0.9999831671030176,21.066173957729877,0.01894438715818234,26.928699672163408,-11.257186136900042,-74.2369384765625,5356.25390625,True
1599560232.0679278,0.0,10,0.5,0.5,-1.4907387016296387,-0.05075,-0.02275,-0.2505,-0.015635389407681787,10,1,100,0.06145117305680106,-10,-1,-100,15026.120559427422,-0.005633588988713793,-0.00138859127347903,0.9999831671030176,21.066173957729877,0.01894438715818234,26.928699672163408,-11.257186136900042,-74.2369384765625,5356.25390625,True
1599560232.10084,0.0,10,0.5,0.5,0.83834368057251,-0.05075,-0.02275,-0.2505,0.008597213001983725,10,1,100,0.07439300806614418,-10,-1,-100,15025.393998303334,-0.005750090386005197,-0.0011688456213245447,0.9999827849820547,20.096728917912554,0.01767717128745777,26.96481222493178,-11.814511546787772,-81.751220703125,5356.25390625,True
1599560232.1336854,0.0,10,0.5,0.5,0.6229645317077637,-0.05075,-0.02275,-0.2505,0.004313211022145566,10,1,100,0.06874083860900164,-10,-1,-100,15024.92622489587,-0.005803457996929705,-0.001008765743714452,0.999982650982982,19.296894711906486,0.016798446805613914,26.708350267184557,-12.186078132088928,-87.02163696289062,5356.25390625,True
1599560232.1716757,0.0,10,0.5,0.5,-0.620671989440918,-0.05075,-0.02275,-0.2505,-0.011604455476184708,10,1,100,0.06349553133039634,-10,-1,-100,15024.92622489587,-0.005803457996929705,-0.001008765743714452,0.999982650982982,19.296894711906486,0.016798446805613914,26.708350267184557,-12.186078132088928,-87.02163696289062,5356.25390625,True
1599560232.2035904,0.0,10,0.5,0.5,1.8142455459594726,-0.05075,-0.02275,-0.2505,0.014021048878884324,10,1,100,0.06657770150944846,-10,-1,-100,15024.187943316181,-0.0058308177122447175,-0.0007765651218582224,0.9999826991060485,18.83127671989275,0.01636027666192749,27.259855773462036,-12.743442191980115,-94.87745666503906,5356.25390625,True
1599560232.2345092,0.0,10,0.5,0.5,1.4960883010864259,-0.05075,-0.02275,-0.2505,0.008796089894739168,10,1,100,0.06284137029281414,-10,-1,-100,15023.660599189112,-0.005821113742022632,-0.0006139030504971059,0.9999828687321832,19.930453139942635,0.017458786727134176,29.695104381957986,-13.114998774731713,-100.08197784423828,5356.25390625,True
1599560232.2675328,0.0,10,0.5,0.5,1.060967811012268,-0.05075,-0.02275,-0.2505,0.00075495193564693,10,1,100,0.06238278340626542,-10,-1,-100,15023.392044084962,-0.005807594104737968,-0.000540164204703817,0.9999829898920014,20.482002559219847,0.018054805291205085,30.950670780471768,-13.300767424368345,-102.66928100585938,5356.25390625,True
1599560232.3034563,0.0,10,0.5,0.5,2.0063525838851928,-0.05075,-0.02275,-0.2505,0.009635656225323318,10,1,100,0.059019957823096214,-10,-1,-100,15022.858840211295,-0.005764356053076248,-0.0003934015598029692,0.9999833085779513,21.455033184157095,0.01920246006153393,33.32994747320197,-13.672283552441169,-107.67487335205078,5356.25390625,True
1599560232.3354118,0.0,10,0.5,0.5,2.2780021221160887,-0.05075,-0.02275,-0.2505,0.010800071603976018,10,1,100,0.05615746532665261,-10,-1,-100,15022.26313612482,-0.005698689050998038,-0.0002505351445817385,0.9999837309552798,22.255763023930733,0.020256194951674397,35.51684162643386,-14.043770933319873,-112.4170913696289,5356.25390625,True
1599560232.367546,0.0,10,0.5,0.5,1.1876924798965456,-0.05075,-0.02275,-0.2505,-0.0033591643195329214,10,1,100,0.06274156601201757,-10,-1,-100,15022.26313612482,-0.005698689050998038,-0.0002505351445817385,0.9999837309552798,22.255763023930733,0.020256194951674397,35.51684162643386,-14.043770933319873,-112.4170913696289,5356.25390625,True
1599560232.4005332,0.0,10,0.5,0.5,1.957991201019287,-0.05075,-0.02275,-0.2505,0.003958710168055024,10,1,100,0.05848676571613369,-10,-1,-100,15021.994580920786,-0.005659949866433381,-0.00018504360935720925,0.9999839652346291,22.595757405056712,0.020738190384914895,36.5381630577149,-14.229504122694125,-114.6857681274414,5356.25390625,True
1599560232.4365687,0.0,10,0.5,0.5,2.786427493476868,-0.05075,-0.02275,-0.2505,0.011082399018788245,10,1,100,0.05229145772720989,-10,-1,-100,15021.397899762727,-0.0055683874797682765,-6.183917656835506e-05,0.9999844944981854,23.267081896311748,0.02169176945203955,38.609753238903,-14.600949589388943,-119.01678466796875,5356.25390625,True
1599560232.4675558,0.0,10,0.5,0.5,3.5877331407546995,-0.05075,-0.02275,-0.2505,0.017116410484494953,10,1,100,0.0421568946951034,-10,-1,-100,15020.526803630637,-0.005393181739695611,0.0001040131334327041,0.9999854512801628,24.045226551903827,0.022844297779206775,41.42982521788771,-15.158071104324891,-124.99668884277344,5356.25390625,True
1599560232.501466,0.0,10,0.5,0.5,2.176160387992859,-0.05075,-0.02275,-0.2505,0.0006424573721037507,10,1,100,0.05963644107664657,-10,-1,-100,15020.526803630637,-0.005393181739695611,0.0001040131334327041,0.9999854512801628,24.045226551903827,0.022844297779206775,41.42982521788771,-15.158071104324891,-124.99668884277344,5356.25390625,True
1599560232.5349252,0.0,10,0.5,0.5,4.3739283525466925,-0.05075,-0.02275,-0.2505,0.019528715402084,10,1,100,0.029296237500270605,-10,-1,-100,15019.262151482282,-0.005117734685598769,0.0002746947710896635,0.9999868665809919,24.710317173849127,0.023797288091073756,44.67122826886712,-15.900829310213885,-132.00540161132812,5356.25390625,True
1599560232.5712945,0.0,10,0.5,0.5,3.1786690435409546,-0.05075,-0.02275,-0.2505,0.006263671681299815,10,1,100,0.04791404856754218,-10,-1,-100,15018.931095894659,-0.005037229357964697,0.00030831289886799955,0.9999872655506927,24.82368632838584,0.023935220801531893,45.40258493810851,-16.0865090955474,-133.58534240722656,5356.25390625,True
1599560232.6022453,0.0,10,0.5,0.5,2.859114028549194,-0.05075,-0.02275,-0.2505,0.00299408049840272,10,1,100,0.05588619289254363,-10,-1,-100,15018.931095894659,-0.005037229357964697,0.00030831289886799955,0.9999872655506927,24.82368632838584,0.023935220801531893,45.40258493810851,-16.0865090955474,-133.58534240722656,5356.25390625,True
1599560232.6351547,0.0,10,0.5,0.5,3.8191091514587403,-0.05075,-0.02275,-0.2505,0.009248822515074733,10,1,100,0.03831521565905198,-10,-1,-100,15018.32367159333,-0.004878193532884567,0.0003644028471072253,0.9999880351476316,25.00080646921445,0.024102690834362627,46.787062523670784,-16.457859591013797,-136.53857421875,5356.25390625,True
1599560232.6692393,0.0,10,0.5,0.5,3.9516339990615847,-0.05075,-0.02275,-0.2505,0.008207031907525772,10,1,100,0.035251150902241096,-10,-1,-100,15017.599060162553,-0.004706565978222705,0.0004052339723407034,0.9999888419488092,25.123985776476243,0.024141668036334534,48.08361874052716,-16.82920019324264,-139.2162322998047,5356.25390625,True
1599560232.7051432,0.0,10,0.5,0.5,4.0654903961181645,-0.05075,-0.02275,-0.2505,0.0067860969369168325,10,1,100,0.032341359888079055,-10,-1,-100,15016.934019203298,-0.004524990213012972,0.0004288394327138546,0.9999896702268045,25.206996860234185,0.024073785950291002,49.312358655909954,-17.20053269711294,-141.6183624267578,5356.25390625,True
1599560232.7380545,0.0,10,0.5,0.5,3.860877023124695,-0.05075,-0.02275,-0.2505,0.005365613444578274,10,1,100,0.04045398574622231,-10,-1,-100,15016.601010238053,-0.00443473947865814,0.0004367678425979182,0.9999900711105127,25.237533137550972,0.02400644620195068,49.90780118602044,-17.386196271121868,-142.71607971191406,5356.25390625,True
1599560232.770968,0.0,10,0.5,0.5,4.517209515762329,-0.05075,-0.02275,-0.2505,0.004894253711866695,10,1,100,0.01823628233939448,-10,-1,-100,15015.532647487125,-0.004151828062262381,0.00043912511632972977,0.9999912847084588,25.335680087490417,0.023732021831813513,51.71576424621324,-17.943177097829277,-145.59588623046875,5356.25390625,True
1599560232.8038783,0.0,10,0.5,0.5,4.330886574172974,-0.05075,-0.02275,-0.2505,0.002912344221294455,10,1,100,0.02490148715896411,-10,-1,-100,15014.802176660625,-0.0039565164179146016,0.00042279531135990347,0.9999920835796449,25.40491304725603,0.02349753616133932,52.93638026957361,-18.31448918199041,-147.17132568359375,5356.25390625,True
1599560232.8387845,0.0,10,0.5,0.5,3.9866862899780275,-0.05075,-0.02275,-0.2505,0.004577202936069804,10,1,100,0.04428898506156393,-10,-1,-100,15014.802176660625,-0.0039565164179146016,0.00042279531135990347,0.9999920835796449,25.40491304725603,0.02349753616133932,52.93638026957361,-18.31448918199041,-147.17132568359375,5356.25390625,True
1599560232.8707,0.0,10,0.5,0.5,4.428695154190064,-0.05075,-0.02275,-0.2505,0.002232515150146965,10,1,100,0.022731707421899505,-10,-1,-100,15014.066823008703,-0.0037618472260283623,0.0004011901658715802,0.9999928437503435,25.47387379348847,0.02322789595567329,54.16266167600096,-18.685794458694655,-148.4711151123047,5356.25390625,True
1599560232.9016175,0.0,10,0.5,0.5,4.572271229553222,-0.05075,-0.02275,-0.2505,-0.002212820815058481,10,1,100,0.008927630576273438,-10,-1,-100,15012.934984411462,-0.0034606162506802445,0.0003410219835668896,0.9999939539013085,25.5909895365961,0.022785483468678952,56.043708230631786,-19.24273881797815,-149.90419006347656,5356.25390625,True
1599560232.935435,0.0,10,0.5,0.5,4.250411332702637,-0.05075,-0.02275,-0.2505,0.0038072683238804667,10,1,100,0.03889306680035677,-10,-1,-100,15012.934984411462,-0.0034606162506802445,0.0003410219835668896,0.9999939539013085,25.5909895365961,0.022785483468678952,56.043708230631786,-19.24273881797815,-149.90419006347656,5356.25390625,True
1599560232.9724529,0.0,10,0.5,0.5,4.471570600891114,-0.05075,-0.02275,-0.2505,-0.0018442681231542442,10,1,100,0.016356362558746673,-10,-1,-100,15012.135177713237,-0.0032571704058540476,0.00028961464397139324,0.99999465346786,25.685379397674126,0.02247996391066996,57.34291646623877,-19.61402489440016,-150.5150909423828,5356.25390625,True
1599560233.005331,0.0,10,0.5,0.5,4.470719749832154,-0.05075,-0.02275,-0.2505,-0.006686497967895109,10,1,100,0.0026376506325323026,-10,-1,-100,15010.933026906452,-0.0029489777322528566,0.00019892841684433034,0.9999956319693699,25.859711237519033,0.022024159605862136,59.38266916458123,-20.17093654145414,-150.91470336914062,5356.25390625,True
1599560233.036247,0.0,10,0.5,0.5,4.397230858612061,-0.05075,-0.02275,-0.2505,0.0023614941892615426,10,1,100,0.033281159168054415,-10,-1,-100,15010.933026906452,-0.0029489777322528566,0.00019892841684433034,0.9999956319693699,25.859711237519033,0.022024159605862136,59.38266916458123,-20.17093654145414,-150.91470336914062,5356.25390625,True
1599560233.0683577,0.0,10,0.5,0.5,4.3948540714263915,-0.05075,-0.02275,-0.2505,-0.005112806715627151,10,1,100,0.010271048535531062,-10,-1,-100,15010.136150517617,-0.002741227646939699,0.0001311892368143145,0.9999962342230954,26.000410838030554,0.021729636071117758,60.81257415056861,-20.542197897031187,-150.83660888671875,5356.25390625,True
1599560233.1042607,0.0,10,0.5,0.5,4.326325410461426,-0.05075,-0.02275,-0.2505,-0.005961755978178705,10,1,100,0.007949797790619176,-10,-1,-100,15009.271890788688,-0.002532801209730101,6.216824222363472e-05,0.9999967905214204,26.161137111982857,0.02144704308696081,62.30250882845088,-20.913447671107882,-150.4828643798828,5356.25390625,True
1599560233.1351771,0.0,10,0.5,0.5,4.341679072189331,-0.05075,-0.02275,-0.2505,-0.0038704304182001284,10,1,100,0.016884303258147687,-10,-1,-100,15008.87052302598,-0.002426017250019391,1.8776622117463886e-05,0.9999970570395401,26.248758013607766,0.02131119156033017,63.070180888072855,-21.09906788952465,-150.20277404785156,5356.25390625,True
1599560233.1690862,0.0,10,0.5,0.5,4.0409897941589366,-0.05075,-0.02275,-0.2505,-0.012471389121911132,10,1,100,-0.007565882188998629,-10,-1,-100,15007.603919453686,-0.002108057872733684,-9.849354920438924e-05,0.9999977731930336,26.537411770027056,0.02092956653038708,65.45973099102389,-21.655908475791122,-148.94883728027344,5356.25390625,True
1599560233.2020001,0.0,10,0.5,0.5,4.359144793319702,-0.05075,-0.02275,-0.2505,-0.0007965008757822486,10,1,100,0.024045209685053987,-10,-1,-100,15007.603919453686,-0.002108057872733684,-9.849354920438924e-05,0.9999977731930336,26.537411770027056,0.02092956653038708,65.45973099102389,-21.655908475791122,-148.94883728027344,5356.25390625,True
1599560233.2379062,0.0,10,0.5,0.5,4.004643899917602,-0.05075,-0.02275,-0.2505,-0.010117290668238365,10,1,100,0.00019783505930779863,-10,-1,-100,15006.67520768044,-0.0018927670028208046,-0.00018277374394028487,0.9999981920117813,26.747228382971553,0.020700436304132812,67.11730664474855,-22.027117701197405,-147.76846313476562,5356.25390625,True
1599560233.268821,0.0,10,0.5,0.5,3.856841563415527,-0.05075,-0.02275,-0.2505,-0.01023876852793925,10,1,100,-0.002034379730928397,-10,-1,-100,15005.806066096644,-0.0016781804859413666,-0.0002600202690361006,0.9999985580488187,26.965614672995677,0.020495652703650617,68.81497728586548,-22.398311746874686,-146.31243896484375,5356.25390625,True
1599560233.301698,0.0,10,0.5,0.5,3.6918248706817627,-0.05075,-0.02275,-0.2505,-0.012658041616564464,10,1,100,-0.00491098934058487,-10,-1,-100,15004.872471581213,-0.0014585712339311267,-0.0003516913724265232,0.9999988744409335,27.186619854267448,0.020319764670063998,70.53840348836573,-22.769490367695433,-144.5810546875,5356.25390625,True
1599560233.335668,0.0,10,0.5,0.5,3.820090441131592,-0.05075,-0.02275,-0.2505,-0.007924935224718852,10,1,100,0.004871378005863864,-10,-1,-100,15004.473057167255,-0.0013494921617730998,-0.0003914174937497674,0.9999990128311381,27.29583796247229,0.02024445418655866,71.40395253410885,-22.955073804592868,-143.6119384765625,5356.25390625,True
1599560233.3725388,0.0,10,0.5,0.5,3.045931767272949,-0.05075,-0.02275,-0.2505,-0.017396387758533905,10,1,100,-0.020663748580411083,-10,-1,-100,15003.069736088975,-0.0010196459322728301,-0.0005130995853414043,0.9999993485252818,27.605993698549025,0.0200794892966205,73.98217368748269,-23.51180086980712,-140.29141235351562,5356.25390625,True
1599560233.4024796,0.0,10,0.5,0.5,3.8535555740356444,-0.05075,-0.02275,-0.2505,-0.005299381399588787,10,1,100,0.012127941189617878,-10,-1,-100,15003.069736088975,-0.0010196459322728301,-0.0005130995853414043,0.9999993485252818,27.605993698549025,0.0200794892966205,73.98217368748269,-23.51180086980712,-140.29141235351562,5356.25390625,True
1599560233.43544,0.0,10,0.5,0.5,3.0589589630126954,-0.05075,-0.02275,-0.2505,-0.014211738815930693,10,1,100,-0.012427600593196435,-10,-1,-100,15002.074618525454,-0.0007979788085333062,-0.0005935352992880073,0.9999995054727127,27.786180244822404,0.020029483647941607,75.65111073295508,-23.88293352983207,-137.73338317871094,5356.25390625,True
1599560233.4683928,0.0,10,0.5,0.5,2.3591792655944825,-0.05075,-0.02275,-0.2505,-0.01790426685295982,10,1,100,-0.02684866357614421,-10,-1,-100,15000.610750818392,-0.0004669397801989382,-0.0006996310181747188,0.9999996462417775,27.989074083062675,0.02006067621715208,77.99629759273112,-24.43960769677391,-133.37965393066406,5356.25390625,True
1599560233.5053484,0.0,10,0.5,0.5,3.411515843963623,-0.05075,-0.02275,-0.2505,-0.0073665357283178865,10,1,100,0.006059331510310548,-10,-1,-100,15000.610750818392,-0.0004669397801989382,-0.0006996310181747188,0.9999996462417775,27.989074083062675,0.02006067621715208,77.99629759273112,-24.43960769677391,-133.37965393066406,5356.25390625,True
1599560233.5352714,0.0,10,0.5,0.5,2.3980033576965334,-0.05075,-0.02275,-0.2505,-0.014723974361850717,10,1,100,-0.01844900552239316,-10,-1,-100,14999.67129773763,-0.0002456286418039361,-0.0007659703353259534,0.9999996764779555,28.061238148332134,0.02015735459532254,79.39619688719627,-24.810710077589803,-130.13287353515625,5356.25390625,True
1599560233.568184,0.0,10,0.5,0.5,2.107404050445557,-0.05075,-0.02275,-0.2505,-0.013931425332290732,10,1,100,-0.02015004251572766,-10,-1,-100,14998.612703954568,-3.066584262446574e-05,-0.0008184670172073289,0.9999996645856176,28.06717064318163,0.020311861613509865,80.61251958334458,-25.181804644648484,-126.61051177978516,5356.25390625,True
1599560233.6020923,0.0,10,0.5,0.5,2.3799837862014774,-0.05075,-0.02275,-0.2505,-0.012110423350664845,10,1,100,-0.011097256073842498,-10,-1,-100,14998.141024489189,8.076400610319098e-05,-0.0008490588070181013,0.9999996362880924,28.04083818540589,0.020407663704176397,81.13629558445625,-25.367350131518137,-124.74615478515625,5356.25390625,True
1599560233.6389928,0.0,10,0.5,0.5,1.6124020895004274,-0.05075,-0.02275,-0.2505,-0.014388147773608929,10,1,100,-0.02389885131748977,-10,-1,-100,14997.080477843876,0.0002968429667141772,-0.0008970406211110388,0.9999995536010889,27.920060621328027,0.02062393127107003,81.98091831933772,-25.73843989836924,-120.81075286865234,5356.25390625,True
1599560233.6689143,0.0,10,0.5,0.5,1.2756185962677002,-0.05075,-0.02275,-0.2505,-0.01388487841332903,10,1,100,-0.025488491144479514,-10,-1,-100,14996.075595287606,0.0005061338255143939,-0.0009355895040578151,0.9999994342502552,27.69590038304643,0.020846942963324355,82.50788230098075,-26.10953197384903,-116.59988403320312,5356.25390625,True
1599560233.7022064,0.0,10,0.5,0.5,0.9175261367797856,-0.05075,-0.02275,-0.2505,-0.01375273712960641,10,1,100,-0.02769865505674948,-10,-1,-100,14995.00918952073,0.0007148037090922383,-0.000968937956875308,0.9999992751071839,27.35305258798303,0.021032528769190158,82.65772694302464,-26.48063080399111,-112.11370086669922,5356.25390625,True
