Timestamp,Input Throttle,horizon,dT,dt,Input Roll,Roll P,Roll I,Roll D,Input Pitch,Pitch P,Pitch I,Pitch D,Input Yaw,Yaw P,Yaw I,Yaw D,Altitude,Direction X,Direction Y,Direction Z,Drag X,Drag Y,Drag Z,Vertical Velocity,Roll,Mass,Has Fuel
1599562546.5278578,0.0,10,0.5,0.5,-8.745758888244628,-0.15025,-0.02275,-0.001,-0.00027481566198553494,10,1,100,0.17498101323635173,-10,-1,-100,14993.952916324488,-0.01681235063609701,-7.425669486256387e-05,0.9998586596874741,28.644473747614512,0.02727495595901981,-87.50354814061515,27.00897898290259,-31.791961669921875,5356.25390625,True
1599562546.56277,0.0,10,0.5,0.5,-8.87845799331665,-0.15025,-0.02275,-0.001,6.603864328910355e-05,10,1,100,0.18190835986193882,-10,-1,-100,14995.522257317672,-0.01692238353098209,-6.683822884982752e-05,0.9998568039815908,28.426647169440393,0.027763685423217777,-85.04913062091185,26.451088070858944,-31.790130615234375,5356.25390625,True
1599562546.5976694,0.0,10,0.5,0.5,-9.004795396423338,-0.15025,-0.02275,-0.001,0.0032382672569517866,10,1,100,0.1746174590094436,-10,-1,-100,14996.065227180254,-0.016940748533554043,-3.119496486963387e-05,0.9998564947361182,28.354118061357394,0.02792358960355445,-84.23732138695875,26.2651323546144,-31.83038330078125,5356.25390625,True
1599562546.6375635,0.0,10,0.5,0.5,-9.097743502807617,-0.15025,-0.02275,-0.001,0.007897574537973098,10,1,100,0.17859067155549738,-10,-1,-100,14997.09062007768,-0.01697816342400762,4.359370036243556e-05,0.9998558596449475,28.220442186435594,0.028247488855433094,-82.65616266698599,25.893232205298098,-32.091064453125,5356.25390625,True
1599562546.677461,0.0,10,0.5,0.5,-9.150013964843751,-0.15025,-0.02275,-0.001,0.012232997318811056,10,1,100,0.1785144090535824,-10,-1,-100,14998.116011492908,-0.016996048971289823,0.0001509566997625143,0.9998555453321445,28.10658110427172,0.02857683393145341,-81.1434027426489,25.521346537027554,-32.61822509765625,5356.25390625,True
1599562546.715325,0.0,10,0.5,0.5,-9.281084663391113,-0.15025,-0.02275,-0.001,0.0015117930487794353,10,1,100,0.17842545922249128,-10,-1,-100,14998.116011492908,-0.016996048971289823,0.0001509566997625143,0.9998555453321445,28.10658110427172,0.02857683393145341,-81.1434027426489,25.521346537027554,-32.61822509765625,5356.25390625,True
1599562546.7552192,0.0,10,0.5,0.5,-9.290537731933593,-0.15025,-0.02275,-0.001,0.01905419702892281,10,1,100,0.17856012187601325,-10,-1,-100,14999.142378176679,-0.016981822223620668,0.00031029586621857905,0.999855750311234,28.012378679082257,0.02890520023743125,-79.69608630504717,25.14947418063602,-33.4188232421875,5356.25390625,True
1599562546.794154,0.0,10,0.5,0.5,-9.053244177246095,-0.15025,-0.02275,-0.001,0.054887657677065584,10,1,100,0.1676486952642891,-10,-1,-100,15001.129677884746,-0.016854256009066107,0.0007806262999197371,0.9998576522070334,27.870111238673633,0.029516161670738332,-76.95238658333827,24.405765855271383,-35.84405517578125,5356.25390625,True
1599562546.8389945,0.0,10,0.5,0.5,-9.178874183654784,-0.15025,-0.02275,-0.001,0.007932676936941746,10,1,100,0.18209074232065178,-10,-1,-100,15001.129677884746,-0.016854256009066107,0.0007806262999197371,0.9998576522070334,27.870111238673633,0.029516161670738332,-76.95238658333827,24.405765855271383,-35.84405517578125,5356.25390625,True
1599562546.8812582,0.0,10,0.5,0.5,-9.05632540283203,-0.15025,-0.02275,-0.001,0.041698541017459206,10,1,100,0.1702549408043251,-10,-1,-100,15002.093540667789,-0.016731335762545804,0.0010868790403790597,0.9998594306689078,27.811980138553725,0.029770221997761324,-75.62474538880447,24.03392888625631,-37.4688720703125,5356.25390625,True
1599562546.9221337,0.0,10,0.5,0.5,-8.73086300048828,-0.15025,-0.02275,-0.001,0.07017174811248006,10,1,100,0.15507870002466143,-10,-1,-100,15003.53493760794,-0.016466413953382636,0.0016231498879873798,0.9998631019274373,27.722101112028195,0.030036874289497008,-73.63517689639174,23.4761942282885,-40.42156982421875,5356.25390625,True
1599562546.9620273,0.0,10,0.5,0.5,-8.544539441680907,-0.15025,-0.02275,-0.001,0.03913308375638441,10,1,100,0.16962899675761878,-10,-1,-100,15003.955831994768,-0.016358165857790926,0.001826956067500574,0.9998645271442009,27.68727663400685,0.030084868259621297,-72.96165128182719,23.290288481200516,-41.543182373046875,5356.25390625,True
1599562547.0002956,0.0,10,0.5,0.5,-7.740857505035399,-0.15025,-0.02275,-0.001,0.11450460173956789,10,1,100,0.1176290484773766,-10,-1,-100,15005.818118361756,-0.01578754462077189,0.002695708399363009,0.9998717350695903,27.49016047190489,0.029997250473668104,-70.13455074332656,22.546697524098338,-46.717498779296875,5356.25390625,True
1599562547.041147,0.0,10,0.5,0.5,-7.490527548217774,-0.15025,-0.02275,-0.001,0.05445309988621391,10,1,100,0.15556689648591268,-10,-1,-100,15006.236081624753,-0.01561473593620744,0.002937081499330884,0.999873768819799,27.419368358569283,0.029891667018751598,-69.37850090349686,22.36080881587396,-48.182861328125,5356.25390625,True
1599562547.3862653,0.0,10,0.5,0.5,-7.223344010925292,-0.15025,-0.02275,-0.001,0.0576635160420057,10,1,100,0.15214357068528722,-10,-1,-100,15006.714591335738,-0.015427755467950256,0.003183066748173452,0.9998759185255427,27.336851155683902,0.029747540081724366,-68.59600315991791,22.174924113719843,-49.717010498046875,5356.25390625,True
1599562547.4231157,0.0,10,0.5,0.5,-6.153658400726318,-0.15025,-0.02275,-0.001,0.14064997676869848,10,1,100,0.07266291188673016,-10,-1,-100,15008.451870732359,-0.014536647501823515,0.0041583556082289835,0.9998856904456845,26.855493975367548,0.028749546258168116,-65.1338290920356,21.431433445160724,-56.542266845703125,5356.25390625,True
1599562547.463047,0.0,10,0.5,0.5,-5.52745412902832,-0.15025,-0.02275,-0.001,0.09888779604223402,10,1,100,0.10320387364678901,-10,-1,-100,15009.290723810089,-0.014006430277226527,0.004661682566303911,0.9998910383769526,26.49830651055226,0.027984825258786858,-63.15548889904716,21.05972273422994,-60.36773681640625,5356.25390625,True
1599562547.5156322,0.0,10,0.5,0.5,-4.849618724060059,-0.15025,-0.02275,-0.001,0.0994482454830033,10,1,100,0.09291579491829727,-10,-1,-100,15010.12567018182,-0.013433591531830607,0.005120391717015307,0.9998966547634911,26.04270788821913,0.02704631911781181,-60.976840605524075,20.68804020221884,-64.46923828125,5356.25390625,True
1599562547.5605118,0.0,10,0.5,0.5,-4.78859793395996,-0.15025,-0.02275,-0.001,0.0540113069535733,10,1,100,0.14985760301016565,-10,-1,-100,15010.12567018182,-0.013433591531830607,0.005120391717015307,0.9998966547634911,26.04270788821913,0.02704631911781181,-60.976840605524075,20.68804020221884,-64.46923828125,5356.25390625,True
1599562547.5975869,0.0,10,0.5,0.5,-3.357803721618652,-0.15025,-0.02275,-0.001,0.15411199888489824,10,1,100,0.006463664774632449,-10,-1,-100,15011.735014730832,-0.012133119970123247,0.00602645276601181,0.9999082304225972,24.769968028855203,0.024724482209908083,-55.918573343119654,19.944777023096847,-73.49847412109375,5356.25390625,True
1599562547.6308956,0.0,10,0.5,0.5,-3.2848656127929683,-0.15025,-0.02275,-0.001,0.06399985135781117,10,1,100,0.13605099936612622,-10,-1,-100,15011.735014730832,-0.012133119970123247,0.00602645276601181,0.9999082304225972,24.769968028855203,0.024724482209908083,-55.918573343119654,19.944777023096847,-73.49847412109375,5356.25390625,True
1599562547.6698227,0.0,10,0.5,0.5,-2.8421531158447264,-0.15025,-0.02275,-0.001,0.08853528421542424,10,1,100,0.09579830902030231,-10,-1,-100,15012.091452411492,-0.011771125779691447,0.006245499153010089,0.9999112132275586,24.364399491864194,0.024075544796206643,-54.49205272380298,19.75898508351233,-75.927978515625,5356.25390625,True
1599562547.7126794,0.0,10,0.5,0.5,-1.1921487968444824,-0.15025,-0.02275,-0.001,0.15149705389096138,10,1,100,-0.03671212892889891,-10,-1,-100,15013.639273221255,-0.010241569843468072,0.007012995099072035,0.9999229611059454,22.353342452897433,0.021391671175777754,-48.1194950246432,19.015920391097545,-86.33596801757812,5356.25390625,True
1599562547.7525709,0.0,10,0.5,0.5,-1.1124247688293458,-0.15025,-0.02275,-0.001,0.07517918795473771,10,1,100,0.11568886721570822,-10,-1,-100,15013.639273221255,-0.010241569843468072,0.007012995099072035,0.9999229611059454,22.353342452897433,0.021391671175777754,-48.1194950246432,19.015920391097545,-86.33596801757812,5356.25390625,True
1599562547.7924652,0.0,10,0.5,0.5,0.7155371650695801,-0.15025,-0.02275,-0.001,0.14153645334005,10,1,100,-0.06254036264053178,-10,-1,-100,15015.12264278857,-0.008626188813950199,0.0076125375902114725,0.999933816878889,22.157247786206646,0.021175666937596777,-45.83916362204495,18.272975027994185,-97.84779357910156,5356.25390625,True
1599562547.8328571,0.0,10,0.5,0.5,0.8135228710174561,-0.15025,-0.02275,-0.001,0.08202515131031,10,1,100,0.09831758364585554,-10,-1,-100,15015.12264278857,-0.008626188813950199,0.0076125375902114725,0.999933816878889,22.157247786206646,0.021175666937596777,-45.83916362204495,18.272975027994185,-97.84779357910156,5356.25390625,True
1599562547.8727868,0.0,10,0.5,0.5,2.7791147628784176,-0.15025,-0.02275,-0.001,0.12975751442056485,10,1,100,-0.08713165615820644,-10,-1,-100,15016.544492012705,-0.006945659778174975,0.008043327998502896,0.9999435297480325,23.95448389965239,0.02352285606691751,-47.54756493944937,17.529990179339624,-110.22215270996094,5356.25390625,True
1599562547.9146407,0.0,10,0.5,0.5,3.792381146621704,-0.15025,-0.02275,-0.001,0.10219012474890388,10,1,100,-0.01614579187139864,-10,-1,-100,15017.255417841487,-0.0060696510305312526,0.008181268785905273,0.9999481117425144,24.54683665162779,0.024485888443590113,-47.69314074411728,17.158473043352334,-116.25337219238281,5356.25390625,True
1599562547.9525368,0.0,10,0.5,0.5,3.904158831787109,-0.15025,-0.02275,-0.001,0.08870213371555516,10,1,100,0.07071868884284366,-10,-1,-100,15017.255417841487,-0.0060696510305312526,0.008181268785905273,0.9999481117425144,24.54683665162779,0.024485888443590113,-47.69314074411728,17.158473043352334,-116.25337219238281,5356.25390625,True
1599562547.9904358,0.0,10,0.5,0.5,4.897553054046631,-0.15025,-0.02275,-0.001,0.10092463666030885,10,1,100,-0.015277659417217045,-10,-1,-100,15017.96536882664,-0.0052945605377137,0.008289599833522225,0.9999516239115334,25.03452650416206,0.025299051651566908,-47.589741429660535,16.786943471266543,-122.04236602783203,5356.25390625,True
1599562548.029334,0.0,10,0.5,0.5,6.630240249824523,-0.15025,-0.02275,-0.001,0.09821734288616582,10,1,100,-0.11303575238650586,-10,-1,-100,15019.26027387532,-0.0037074397530973083,0.008361413436074962,0.9999581699530378,25.47336839083452,0.026035813487328287,-46.28459151961731,16.04387362452645,-132.80625915527344,5356.25390625,True
1599562548.068227,0.0,10,0.5,0.5,6.754401567649841,-0.15025,-0.02275,-0.001,0.0912694786978984,10,1,100,0.044833758053430726,-10,-1,-100,15019.26027387532,-0.0037074397530973083,0.008361413436074962,0.9999581699530378,25.47336839083452,0.026035813487328287,-46.28459151961731,16.04387362452645,-132.80625915527344,5356.25390625,True
1599562548.1111143,0.0,10,0.5,0.5,7.635396946144104,-0.15025,-0.02275,-0.001,0.09108816274498457,10,1,100,-0.03648468764915078,-10,-1,-100,15019.846204496454,-0.002975511779461653,0.008357841550791141,0.9999606456327479,25.442108281199225,0.025933686045987232,-45.15925344110671,15.67234856879573,-137.77549743652344,5356.25390625,True
1599562548.1500087,0.0,10,0.5,0.5,8.457323242759704,-0.15025,-0.02275,-0.001,0.09097381191729073,10,1,100,-0.03984339263014216,-10,-1,-100,15020.494636891992,-0.0022861945382056867,0.008352332241688888,0.9999625052273998,25.272417447794925,0.025553213284175397,-43.79662018346847,15.30083998541718,-142.46885681152344,5356.25390625,True
1599562548.1899025,0.0,10,0.5,0.5,9.875172617530822,-0.15025,-0.02275,-0.001,0.07721872080159112,10,1,100,-0.11764025624012875,-10,-1,-100,15021.662597150193,-0.0009595304454324415,0.0082210599167781,0.9999657461509215,24.62079798329908,0.02417071752074407,-40.599315718233186,14.557892045022374,-151.02978515625,5356.25390625,True
1599562548.2278008,0.0,10,0.5,0.5,10.57245743999481,-0.15025,-0.02275,-0.001,0.08211298731927319,10,1,100,-0.052042770417587474,-10,-1,-100,15022.248532188125,-0.00035678264890579177,0.008145661569450343,0.9999667598994165,24.237021691229437,0.023333074229365383,-38.94862320803622,14.18645794687309,-154.8966064453125,5356.25390625,True
1599562548.265738,0.0,10,0.5,0.5,11.241449006080627,-0.15025,-0.02275,-0.001,0.08430699820513236,10,1,100,-0.054030260156871734,-10,-1,-100,15022.830562181887,0.00020172033996188816,0.008096578512679066,0.9999672018247862,23.81208734407968,0.02243875308538019,-37.265788387255974,13.815051597654243,-158.48716735839844,5356.25390625,True
1599562548.3016043,0.0,10,0.5,0.5,11.347661353492736,-0.15025,-0.02275,-0.001,0.08922062893367769,10,1,100,0.0011053007180825683,-10,-1,-100,15022.830562181887,0.00020172033996188816,0.008096578512679066,0.9999672018247862,23.81208734407968,0.02243875308538019,-37.265788387255974,13.815051597654243,-158.48716735839844,5356.25390625,True
1599562548.343492,0.0,10,0.5,0.5,12.180189217567444,-0.15025,-0.02275,-0.001,0.07828587393504267,10,1,100,-0.08488603885459027,-10,-1,-100,15023.584467419074,0.000977758543922102,0.00799724864021259,0.9999675434744952,23.09593577755611,0.0210527864893565,-34.69020200793585,13.257993175312308,-163.35623168945312,5356.25390625,True
1599562548.384383,0.0,10,0.5,0.5,12.282479158592224,-0.15025,-0.02275,-0.001,0.08820045916712103,10,1,100,-0.00798695941601422,-10,-1,-100,15023.584467419074,0.000977758543922102,0.00799724864021259,0.9999675434744952,23.09593577755611,0.0210527864893565,-34.69020200793585,13.257993175312308,-163.35623168945312,5356.25390625,True
1599562548.4282665,0.0,10,0.5,0.5,13.212322008514404,-0.15025,-0.02275,-0.001,0.07692685911449151,10,1,100,-0.1082511952082175,-10,-1,-100,15024.624507857603,0.001883549488322463,0.007895027140818967,0.9999670598513587,22.074684006180995,0.019304992226192124,-31.302244931837,12.515334803097844,-168.88253784179688,5356.25390625,True
1599562548.472149,0.0,10,0.5,0.5,13.644252270126342,-0.15025,-0.02275,-0.001,0.08032940541974373,10,1,100,-0.062413061234355485,-10,-1,-100,15025.145993427956,0.0022852027750682093,0.00783345473168638,0.9999667068634052,21.56633010900883,0.018526786786107217,-29.675654393015975,12.144037330759609,-171.232177734375,5356.25390625,True
1599562548.5170283,0.0,10,0.5,0.5,13.72932159500122,-0.15025,-0.02275,-0.001,0.08643385046256352,10,1,100,-0.0228469968125974,-10,-1,-100,15025.145993427956,0.0022852027750682093,0.00783345473168638,0.9999667068634052,21.56633010900883,0.018526786786107217,-29.675654393015975,12.144037330759609,-171.232177734375,5356.25390625,True
1599562548.5619082,0.0,10,0.5,0.5,14.390823077774046,-0.15025,-0.02275,-0.001,0.0842930383336359,10,1,100,-0.10040085836230243,-10,-1,-100,15026.064942968544,0.0029854554122886825,0.007814469518531679,0.9999650099489107,20.60921461477485,0.017217421566887214,-26.62734903606826,11.401491659388693,-175.10250854492188,5356.25390625,True
1599562548.6057906,0.0,10,0.5,0.5,14.691318816375732,-0.15025,-0.02275,-0.001,0.08551144701436439,10,1,100,-0.06382790923457327,-10,-1,-100,15026.521977002849,0.0032847749541002162,0.007808775642509625,0.999964115994402,20.178689433952353,0.01669219781990858,-25.22341036808813,11.030238316496055,-176.62399291992188,5356.25390625,True
1599562548.6516685,0.0,10,0.5,0.5,14.748024154663085,-0.15025,-0.02275,-0.001,0.08603960618914291,10,1,100,-0.03432038559337316,-10,-1,-100,15026.521977002849,0.0032847749541002162,0.007808775642509625,0.999964115994402,20.178689433952353,0.01669219781990858,-25.22341036808813,11.030238316496055,-176.62399291992188,5356.25390625,True
1599562548.6935565,0.0,10,0.5,0.5,15.13233598937988,-0.15025,-0.02275,-0.001,0.09592556586065085,10,1,100,-0.08973130866145483,-10,-1,-100,15027.376475272118,0.0037852001114436805,0.00789895426309328,0.9999616386550364,19.449024947851044,0.01588938383496137,-22.67695752926035,10.287758563729858,-178.8380889892578,5356.25390625,True
1599562548.7349555,0.0,10,0.5,0.5,15.281270074462888,-0.15025,-0.02275,-0.001,0.09345088131469886,10,1,100,-0.06220438863275899,-10,-1,-100,15027.771009906428,0.003986629636248248,0.007958617353433025,0.9999603828122218,19.16010693459495,0.015600863175958476,-21.534894062832066,9.916527927813727,-179.53131103515625,5356.25390625,True
1599562548.7768435,0.0,10,0.5,0.5,15.328452279281615,-0.15025,-0.02275,-0.001,0.08747077616479967,10,1,100,-0.04243992708193089,-10,-1,-100,15027.771009906428,0.003986629636248248,0.007958617353433025,0.9999603828122218,19.16010693459495,0.015600863175958476,-21.534894062832066,9.916527927813727,-179.53131103515625,5356.25390625,True
1599562548.8217318,0.0,10,0.5,0.5,-39.00582874565124,-0.15025,-0.02275,-0.001,0.10458888267223165,10,1,100,-0.06858870902202019,-10,-1,-100,15028.331562259584,0.004221610498346945,0.008114271622852207,0.9999581674254334,19.07255143580118,0.015485047078778826,-20.234026021550864,9.359686230163442,179.9468994140625,5356.25390625,True
1599562548.8646169,0.0,10,0.5,0.5,15.007652007675171,-0.15025,-0.02275,-0.001,0.10962230611434573,10,1,100,-0.06319069086991232,-10,-1,-100,15028.831568483845,0.004383207615277121,0.008301427514541009,0.9999559359252899,18.911446828046802,0.015324652537844962,-18.870582370356765,8.802845456997797,-179.95404052734375,5356.25390625,True
1599562548.9242525,0.0,10,0.5,0.5,14.65328703727722,-0.15025,-0.02275,-0.001,0.10858417654638533,10,1,100,-0.053760511097482366,-10,-1,-100,15029.2270803235,0.0044421127617125045,0.008461762237845987,0.9999543320642411,18.75215088567683,0.015172189742416546,-17.923185588254977,8.43161734607343,-179.82411193847656,5356.25390625,True
1599562548.9751127,0.0,10,0.5,0.5,14.663233544158935,-0.15025,-0.02275,-0.001,0.10201865515627964,10,1,100,-0.04979764287189575,-10,-1,-100,15029.392121341196,0.004457675992796934,0.008547263330480316,0.9999535356276825,18.68196164413693,0.01510271296667149,-17.46331607050273,8.24600254938789,-179.75978088378906,5356.25390625,True
1599562549.0229855,0.0,10,0.5,0.5,14.665335902023314,-0.15025,-0.02275,-0.001,0.10357137101671055,10,1,100,-0.04910297975731635,-10,-1,-100,15029.559115793789,0.004463534289815941,0.00863845827833472,0.999952725832685,18.606871889358107,0.015028661142337904,-17.00189657976873,8.060387132404792,-179.64498901367188,5356.25390625,True
1599562549.0748465,0.0,10,0.5,0.5,14.612456284713746,-0.15025,-0.02275,-0.001,0.1159377059638206,10,1,100,-0.046804525650151474,-10,-1,-100,15029.827674985281,0.0044466212689703325,0.008833034922485357,0.9999511013311342,18.424457390853476,0.014850165809678793,-16.06036188759148,7.689153647175225,-179.22628784179688,5356.25390625,True
1599562549.1406791,0.0,10,0.5,0.5,14.368799746322631,-0.15025,-0.02275,-0.001,0.14550017526036457,10,1,100,-0.03225033539493917,-10,-1,-100,15030.429246474756,0.0042978787510497855,0.009277741356881813,0.9999477245104146,18.436501608778986,0.014757556491522177,-14.519863118789202,6.946668356889594,-177.57342529296875,5356.25390625,True
1599562549.195533,0.0,10,0.5,0.5,14.185105586624145,-0.15025,-0.02275,-0.001,0.12814641393073384,10,1,100,-0.03194865869417527,-10,-1,-100,15030.698781705461,0.004158994761299662,0.009522923043596155,0.9999460068920129,18.53223195940181,0.014753203686014507,-13.815595163684876,6.575412537306567,-176.33370971679688,5356.25390625,True
1599562549.2561924,0.0,10,0.5,0.5,14.071246842193602,-0.15025,-0.02275,-0.001,0.11785420355233317,10,1,100,-0.036588954591221384,-10,-1,-100,15030.80230023712,0.004074581283636464,0.009650773601914185,0.9999451286726927,18.60844595011391,0.014764558423421404,-13.480944461497403,6.389780501420485,-175.6103973388672,5356.25390625,True
1599562549.3080544,0.0,10,0.5,0.5,13.672287060165404,-0.15025,-0.02275,-0.001,0.14827165471539383,10,1,100,-0.008736333763408287,-10,-1,-100,15031.175353916013,0.0037445561585558117,0.010041985341641598,0.9999425667654985,18.926469263054404,0.014831937194386845,-12.516730012981737,5.83286500054723,-173.02684020996094,5356.25390625,True
1599562549.3619118,0.0,10,0.5,0.5,13.508954496002197,-0.15025,-0.02275,-0.001,0.12431417601928853,10,1,100,-0.027389598185793677,-10,-1,-100,15031.276918471558,0.0036143285154838973,0.010177943145985373,0.9999416713502339,19.051970397977936,0.014857840417826737,-12.198841876363936,5.647219652236521,-172.0277099609375,5356.25390625,True
1599562549.4137738,0.0,10,0.5,0.5,13.7948266456604,-0.15025,-0.02275,-0.001,0.15476116780437058,10,1,100,0.011920101445082647,-10,-1,-100,15031.58551882382,0.0031391309178495203,0.010576455919323066,0.9999391403666862,19.47308641404891,0.014941963067666396,-11.239112829111788,5.090262166927255,-168.61700439453125,5356.25390625,True
1599562549.4646358,0.0,10,0.5,0.5,13.772445594024658,-0.15025,-0.02275,-0.001,0.11513739331107951,10,1,100,-0.03547525064861229,-10,-1,-100,15031.58551882382,0.0031391309178495203,0.010576455919323066,0.9999391403666862,19.47308641404891,0.014941963067666396,-11.239112829111788,5.090262166927255,-168.61700439453125,5356.25390625,True
1599562549.5184927,0.0,10,0.5,0.5,13.137282867050171,-0.15025,-0.02275,-0.001,0.15857228151205444,10,1,100,0.02861790321470787,-10,-1,-100,15031.896072868374,0.0025576504116773943,0.010969396090530586,0.9999365633747875,19.936899467607432,0.015035221556658544,-10.247988202219645,4.533274210242831,-164.58615112304688,5356.25390625,True
1599562549.565367,0.0,10,0.5,0.5,12.882750495910642,-0.15025,-0.02275,-0.001,0.13275478600483714,10,1,100,-0.005013762904102215,-10,-1,-100,15031.997637420776,0.00233650148494748,0.011089707984508129,0.9999357775065503,20.094933523135914,0.015068636349359444,-9.906254850605446,4.347605493057049,-163.10487365722656,5356.25390625,True
1599562549.6132393,0.0,10,0.5,0.5,12.367214640426637,-0.15025,-0.02275,-0.001,0.1491122658998747,10,1,100,0.024757213569600273,-10,-1,-100,15032.141196637764,0.001866745431618325,0.011345558387436987,0.9999338945982235,20.40714840064926,0.01513852251152234,-9.201049080813117,3.9762607752629076,-159.93536376953125,5356.25390625,True
1599562549.6551633,0.0,10,0.5,0.5,11.529418383407592,-0.15025,-0.02275,-0.001,0.15800643023681735,10,1,100,0.06650877721262426,-10,-1,-100,15032.325773742981,0.0010624801462346496,0.011656721590012745,0.9999314936422954,20.838596783589225,0.015243464187204547,-8.079557622195194,3.4192291060772897,-154.66542053222656,5356.25390625,True
1599562549.6990454,0.0,10,0.5,0.5,10.591825602722166,-0.15025,-0.02275,-0.001,0.155304232451049,10,1,100,0.08585209540771052,-10,-1,-100,15032.507421137998,0.00015842281102581055,0.011912869084999058,0.999929026707584,21.164699115097605,0.015322774396584568,-6.8692795320704025,2.8621845582731154,-148.77618408203125,5356.25390625,True
1599562549.7438886,0.0,10,0.5,0.5,10.535021468353271,-0.15025,-0.02275,-0.001,0.12992847755655806,10,1,100,-0.004153580918145993,-10,-1,-100,15032.507421137998,0.00015842281102581055,0.011912869084999058,0.999929026707584,21.164699115097605,0.015322774396584568,-6.8692795320704025,2.8621845582731154,-148.77618408203125,5356.25390625,True
1599562549.7867749,0.0,10,0.5,0.5,9.828183952713013,-0.15025,-0.02275,-0.001,0.1420480062725193,10,1,100,0.06755769431817422,-10,-1,-100,15032.65000291646,-0.0004899377288747274,0.012020990168341355,0.9999276252591458,21.285749648091528,0.015339096775366077,-6.012273383220963,2.4908143265920066,-144.50650024414062,5356.25390625,True
1599562549.8306575,0.0,10,0.5,0.5,9.080215050506592,-0.15025,-0.02275,-0.001,0.13769990452378175,10,1,100,0.07778612021084719,-10,-1,-100,15032.731061383267,-0.0011684925515473062,0.012077954769276103,0.9999263761066354,21.31832358536523,0.015315811514528339,-5.1237582763922145,2.1194358655754377,-139.96200561523438,5356.25390625,True
1599562549.8745403,0.0,10,0.5,0.5,7.902794183349609,-0.15025,-0.02275,-0.001,0.13385690587699994,10,1,100,0.1298317537300539,-10,-1,-100,15032.851183413644,-0.0022541546759087742,0.012093077135497593,0.9999243352734706,21.12653114936534,0.015141717696946326,-3.743094975474157,1.5623458481362165,-132.62966918945312,5356.25390625,True
1599562549.915942,0.0,10,0.5,0.5,7.437824652862549,-0.15025,-0.02275,-0.001,0.12921159270912133,10,1,100,0.06228640840409104,-10,-1,-100,15032.887317612418,-0.0026221686627343026,0.012063215874885347,0.9999237986238052,20.989421241263734,0.015036640791155673,-3.276801819414781,1.3766416060029059,-130.04830932617188,5356.25390625,True
1599562549.9578292,0.0,10,0.5,0.5,6.540629331588745,-0.15025,-0.02275,-0.001,0.1215229166062172,10,1,100,0.10814332379789227,-10,-1,-100,15032.908804973704,-0.0033683703365369904,0.01196482061888821,0.999922745590295,20.59475976954978,0.014744563146556797,-2.347757820306633,1.005219949875963,-124.67949676513672,5356.25390625,True
1599562549.9997172,0.0,10,0.5,0.5,4.706549702644348,-0.15025,-0.02275,-0.001,0.08892729960630166,10,1,100,0.19770114830316343,-10,-1,-100,15032.94298883574,-0.004855510243907159,0.011578141663865803,0.9999211822218202,19.254539168219495,0.013761923176305223,-0.572813940844192,0.26232022850346715,-113.11810302734375,5356.25390625,True
1599562550.0486217,0.0,10,0.5,0.5,4.604391193199158,-0.15025,-0.02275,-0.001,0.12764403847647826,10,1,100,0.04970635873903206,-10,-1,-100,15032.94298883574,-0.004855510243907159,0.011578141663865803,0.9999211822218202,19.254539168219495,0.013761923176305223,-0.572813940844192,0.26232022850346715,-113.11810302734375,5356.25390625,True
1599562550.0914712,0.0,10,0.5,0.5,2.583055217170715,-0.15025,-0.02275,-0.001,0.05853373174977823,10,1,100,0.20130534369944714,-10,-1,-100,15032.912717169733,-0.006227571692933182,0.010949654708826322,0.9999206580587116,17.464756571982623,0.012409261705121738,0.9519996814448771,-0.48063146720606675,-100.45809173583984,5356.25390625,True
1599562550.134072,0.0,10,0.5,0.5,2.4723935554504393,-0.15025,-0.02275,-0.001,0.12131172056560768,10,1,100,0.06482820398076161,-10,-1,-100,15032.912717169733,-0.006227571692933182,0.010949654708826322,0.9999206580587116,17.464756571982623,0.012409261705121738,0.9519996814448771,-0.48063146720606675,-100.45809173583984,5356.25390625,True
1599562550.1739652,0.0,10,0.5,0.5,1.3427359609603882,-0.15025,-0.02275,-0.001,0.0771716637651397,10,1,100,0.14044712350515448,-10,-1,-100,15032.930295742466,-0.006909210966333154,0.010549257114618588,0.9999204848277449,16.52101750453,0.011712147804350672,1.5966056774512871,-0.8521027999239821,-93.71604919433594,5356.25390625,True
1599562550.2148561,0.0,10,0.5,0.5,-0.3833851026535035,-0.15025,-0.02275,-0.001,0.04393374716362419,10,1,100,0.1673623908259858,-10,-1,-100,15032.797481950838,-0.0077671421598158145,0.009884336070752672,0.9999209825796784,16.021760584097944,0.011345847121773575,2.5608971237493523,-1.4092971470841917,-83.0872802734375,5356.25390625,True
1599562550.2547495,0.0,10,0.5,0.5,-1.0691208776473997,-0.15025,-0.02275,-0.001,0.08260837561625528,10,1,100,0.11290925285297104,-10,-1,-100,15032.775020201807,-0.008045435441017244,0.009633392338714474,0.9999212312580491,16.790487378839437,0.011886848886551744,3.037492196646493,-1.5950291971706423,-79.40704345703125,5356.25390625,True
1599562550.2926493,0.0,10,0.5,0.5,-3.50449445476532,-0.15025,-0.02275,-0.001,-0.0028060358692487963,10,1,100,0.18610558037283112,-10,-1,-100,15032.62071934971,-0.008957598726026843,0.008630989352839314,0.9999226307309255,19.219597951843422,0.013561518260307144,5.096741170662379,-2.338009568191517,-64.19189453125,5356.25390625,True
1599562550.332672,0.0,10,0.5,0.5,-3.6449752431869507,-0.15025,-0.02275,-0.001,0.09708805394000142,10,1,100,0.09555959627688294,-10,-1,-100,15032.62071934971,-0.008957598726026843,0.008630989352839314,0.9999226307309255,19.219597951843422,0.013561518260307144,5.096741170662379,-2.338009568191517,-64.19189453125,5356.25390625,True
1599562550.3734324,0.0,10,0.5,0.5,-6.020183299064636,-0.15025,-0.02275,-0.001,-0.015694849164749905,10,1,100,0.17319516014221847,-10,-1,-100,15032.401963880984,-0.009657617097472355,0.007608810439634343,0.9999244153613274,20.512068327394083,0.014401011121329485,7.168663109182632,-3.081078599969789,-49.478607177734375,5356.25390625,True
1599562550.4134674,0.0,10,0.5,0.5,-7.228466059875488,-0.15025,-0.02275,-0.001,0.027822443993701075,10,1,100,0.13286875164683834,-10,-1,-100,15032.291609210894,-0.009921676224500332,0.007079128647415065,0.9999257203805137,20.723924704736582,0.014549023136468803,8.116371575256311,-3.4526320300204105,-42.5238037109375,5356.25390625,True
1599562550.4533532,0.0,10,0.5,0.5,-7.89256357421875,-0.15025,-0.02275,-0.001,0.055836591237549874,10,1,100,0.1199343501119523,-10,-1,-100,15032.20567045093,-0.010039538902408081,0.006856363823083847,0.9999260962359932,20.720392856813678,0.014558778557276268,8.551780642526346,-3.638410902798263,-39.14892578125,5356.25390625,True
1599562550.4942439,0.0,10,0.5,0.5,-8.557505653381346,-0.15025,-0.02275,-0.001,0.05333106844329505,10,1,100,0.1205262540817742,-10,-1,-100,15032.119731483166,-0.010147354983269415,0.006635365391781133,0.9999264988552715,20.64847351164774,0.014530027982016781,8.957394154460193,-3.8241903384637532,-35.8428955078125,5356.25390625,True
1599562550.5361319,0.0,10,0.5,0.5,-9.669987570381164,-0.15025,-0.02275,-0.001,0.025617645951034496,10,1,100,0.1296851270270851,-10,-1,-100,15031.948829888599,-0.01032506864420042,0.006186439603682703,0.9999275578373279,20.325898029895907,0.014378174822471673,9.674507663441053,-4.195749221977074,-29.43768310546875,5356.25390625,True
1599562550.5790179,0.0,10,0.5,0.5,-10.752326257705688,-0.15025,-0.02275,-0.001,0.02451876961596766,10,1,100,0.127053568188996,-10,-1,-100,15031.776952595334,-0.01045897825838119,0.005772665661551835,0.9999286405063866,19.814175945974675,0.014128748858524692,10.266486806198015,-4.567307101847303,-23.3076171875,5356.25390625,True
1599562550.6179132,0.0,10,0.5,0.5,-12.635886444854735,-0.15025,-0.02275,-0.001,-0.012751119639784016,10,1,100,0.13381237237696803,-10,-1,-100,15031.368743656669,-0.01063893088453432,0.005062032713156091,0.9999305920784927,18.682618678403028,0.013590314170822456,11.256071718087771,-5.310426408290718,-11.872833251953125,5356.25390625,True
1599562550.6568086,0.0,10,0.5,0.5,-13.588803128051758,-0.15025,-0.02275,-0.001,0.025021311704331854,10,1,100,0.12190898292584809,-10,-1,-100,15031.135342712048,-0.010691700832640877,0.004763772411704283,0.9999314946563663,17.909040690148966,0.013144214699797369,11.54545827842871,-5.681996145003216,-6.568115234375,5356.25390625,True
1599562550.6977,0.0,10,0.5,0.5,-13.749206971740723,-0.15025,-0.02275,-0.001,0.05436037985681162,10,1,100,0.11689661465435483,-10,-1,-100,15031.135342712048,-0.010691700832640877,0.004763772411704283,0.9999314946563663,17.909040690148966,0.013144214699797369,11.54545827842871,-5.681996145003216,-6.568115234375,5356.25390625,True
1599562550.737568,0.0,10,0.5,0.5,-14.641046842956543,-0.15025,-0.02275,-0.001,0.026364352721736616,10,1,100,0.1228722814699002,-10,-1,-100,15030.899989361526,-0.010744448619958004,0.00451277872587736,0.9999320935203672,17.093862733260174,0.012610973981767018,11.741116827683783,-6.0535780171189515,-1.53839111328125,5356.25390625,True
1599562551.0872061,0.0,10,0.5,0.5,-15.841642675781248,-0.15025,-0.02275,-0.001,0.017876143342300654,10,1,100,0.12180011341268056,-10,-1,-100,15030.51619792974,-0.010781029762549821,0.0042111809358825235,0.9999330154327262,17.231896300604284,0.012662401970818683,12.92665672252246,-6.610970049944781,5.49029541015625,5356.25390625,True
1599562551.124108,0.0,10,0.5,0.5,-16.929144370269775,-0.15025,-0.02275,-0.001,0.02565657327315259,10,1,100,0.12163648333771113,-10,-1,-100,15030.131430892274,-0.010811776516347136,0.004010821062080191,0.9999335071908374,18.704422362578907,0.013517972292062315,15.215513339597578,-7.168361654563226,11.900054931640625,5356.25390625,True
1599562551.1640165,0.0,10,0.5,0.5,-17.348905799865722,-0.15025,-0.02275,-0.001,0.04029787148705533,10,1,100,0.11977808303537321,-10,-1,-100,15029.98396970774,-0.010822024380421761,0.003964567803827491,0.9999335807894636,19.128173688811703,0.013721962172615851,15.96397397007822,-7.354156750057285,13.89910888671875,5356.25390625,True
1599562551.2084534,0.0,10,0.5,0.5,-18.312237898254395,-0.15025,-0.02275,-0.001,0.036720352461876486,10,1,100,0.12211674304642431,-10,-1,-100,15029.472250993014,-0.010851889815610055,0.00389262539247728,0.9999335397690108,20.216680516504326,0.01413493594454251,18.152804994812026,-7.9115322491409525,19.483551025390625,5356.25390625,True
1599562551.2522957,0.0,10,0.5,0.5,-18.943603771209716,-0.15025,-0.02275,-0.001,0.04443369429314643,10,1,100,0.12164402197662857,-10,-1,-100,15029.174400461488,-0.010874102260753688,0.003899837889715273,0.9999332703558056,20.80581093646951,0.014276981882391512,19.560433290251126,-8.28310589859029,22.86260986328125,5356.25390625,True
1599562551.2901952,0.0,10,0.5,0.5,-19.528683853912355,-0.15025,-0.02275,-0.001,0.049007586537995015,10,1,100,0.12292598155524728,-10,-1,-100,15028.814049851499,-0.010905450449220293,0.003950054272806588,0.9999327318483686,21.301324882686277,0.014341356267777172,20.92599693035896,-8.654669755580482,25.966583251953125,5356.25390625,True
1599562551.3306253,0.0,10,0.5,0.5,-20.065538755798336,-0.15025,-0.02275,-0.001,0.05426452938154118,10,1,100,0.1238094487249579,-10,-1,-100,15028.453699960839,-0.010941574438286542,0.004045152839093426,0.9999319570287369,21.71567633610881,0.014349944513391407,22.250406024939302,-9.026223452052863,28.79541015625,5356.25390625,True
1599562551.3705187,0.0,10,0.5,0.5,-20.155230182647703,-0.15025,-0.02275,-0.001,0.044652984765451126,10,1,100,0.12022731417370833,-10,-1,-100,15028.453699960839,-0.010941574438286542,0.004045152839093426,0.9999319570287369,21.71567633610881,0.014349944513391407,22.250406024939302,-9.026223452052863,28.79541015625,5356.25390625,True
1599562551.4119914,0.0,10,0.5,0.5,-20.966582318878174,-0.15025,-0.02275,-0.001,0.08053670182155724,10,1,100,0.13097554935660646,-10,-1,-100,15027.730073975632,-0.011039058509398665,0.004372021739214946,0.9999295098221364,22.35005158911528,0.014275780879182487,24.789181102049536,-9.769298627838817,33.6278076171875,5356.25390625,True
1599562551.4798095,0.0,10,0.5,0.5,-21.356224153137205,-0.15025,-0.02275,-0.001,0.07290542676840661,10,1,100,0.12855473051683272,-10,-1,-100,15027.307226873003,-0.011105357168523781,0.004600156193999039,0.9999277521927025,22.59292170048741,0.014221966149113571,26.013452294185196,-10.140820442342898,35.63130187988281,5356.25390625,True
1599562551.5301993,0.0,10,0.5,0.5,-21.574709616470336,-0.15025,-0.02275,-0.001,0.06527888867886632,10,1,100,0.12551217664990846,-10,-1,-100,15027.095315575483,-0.011137640997530425,0.004738139554381375,0.9999267488104182,22.700265662559097,0.014195550964020557,26.616827412806202,-10.3265773555012,36.529998779296875,5356.25390625,True
1599562551.5740824,0.0,10,0.5,0.5,-21.989788412094118,-0.15025,-0.02275,-0.001,0.10423389674473024,10,1,100,0.1353515409582398,-10,-1,-100,15026.459582826938,-0.011256114507398586,0.005217236356583626,0.9999230372038619,22.980059181444993,0.014128596563690103,28.402238647193773,-10.883832935559655,38.813385009765625,5356.25390625,True
1599562551.6199605,0.0,10,0.5,0.5,-22.226971339035032,-0.15025,-0.02275,-0.001,0.09813398679175733,10,1,100,0.13383614513841713,-10,-1,-100,15026.034786251024,-0.011349637428924843,0.005596228436018188,0.9999199307732215,23.140793831371706,0.014098617468745933,29.579486563663284,-11.25532418849823,39.9918212890625,5356.25390625,True
1599562551.6648402,0.0,10,0.5,0.5,-22.28515382347107,-0.15025,-0.02275,-0.001,0.060397944911520195,10,1,100,0.12453661429064176,-10,-1,-100,15026.034786251024,-0.011349637428924843,0.005596228436018188,0.9999199307732215,23.140793831371706,0.014098617468745933,29.579486563663284,-11.25532418849823,39.9918212890625,5356.25390625,True
1599562551.7127116,0.0,10,0.5,0.5,-22.521221129989623,-0.15025,-0.02275,-0.001,0.13570165647985516,10,1,100,0.14073955843263264,-10,-1,-100,15025.336559141055,-0.011496484423294474,0.006279258902054378,0.9999141971957123,23.3597383119483,0.014078435798997892,31.34148457019736,-11.812543220472932,41.24412536621094,5356.25390625,True
1599562551.7595859,0.0,10,0.5,0.5,-22.636057041168215,-0.15025,-0.02275,-0.001,0.12431528786671023,10,1,100,0.13869487254462834,-10,-1,-100,15024.847313454025,-0.011610827835409971,0.006794520137411106,0.9999095074920924,23.49834838380501,0.014079794289685461,32.52166229973902,-12.184010808795552,41.73516845703125,5356.25390625,True
1599562551.804466,0.0,10,0.5,0.5,-22.70415158843994,-0.15025,-0.02275,-0.001,0.13688884266280915,10,1,100,0.14005469343495003,-10,-1,-100,15024.361976056709,-0.011726497147803175,0.007374658607823027,0.9999040472340637,23.64795619769094,0.014097150728415513,33.7294665443052,-12.555468993947244,41.951446533203125,5356.25390625,True
1599562551.8523405,0.0,10,0.5,0.5,-22.725014527893066,-0.15025,-0.02275,-0.001,0.1499450945883427,10,1,100,0.14153917373959707,-10,-1,-100,15023.810234941076,-0.011844432777557864,0.008017723593185325,0.9998977075284058,23.801845448631706,0.014120883340471756,34.956439119658256,-12.926917519823952,41.89292907714844,5356.25390625,True
1599562551.8962207,0.0,10,0.5,0.5,-22.734851247024533,-0.15025,-0.02275,-0.001,0.12380409022346506,10,1,100,0.13658124224243232,-10,-1,-100,15023.538759623887,-0.011905754101597655,0.008361071203148442,0.9998941671535084,23.877716538803796,0.014131718691505092,35.573294979631335,-13.112638077424593,41.76057434082031,5356.25390625,True
1599562551.9393559,0.0,10,0.5,0.5,-22.682294106292723,-0.15025,-0.02275,-0.001,0.17129058367139982,10,1,100,0.14354861439664848,-10,-1,-100,15023.049522485002,-0.01202405260158834,0.009101274380401652,0.9998862880166358,24.026823855029985,0.014147201275423696,36.81277898168847,-13.484072180361954,41.289886474609375,5356.25390625,True
1599562551.983239,0.0,10,0.5,0.5,-22.582904481124878,-0.15025,-0.02275,-0.001,0.1869545305198425,10,1,100,0.14413807987091154,-10,-1,-100,15022.499741319683,-0.012136120291861296,0.009912493950902775,0.9998772209866243,24.171205622355927,0.014148472557477398,38.05768659261579,-13.855496650027273,40.54454040527344,5356.25390625,True
1599562552.0291512,0.0,10,0.5,0.5,-22.345776168823242,-0.15025,-0.02275,-0.001,0.25396053932506757,10,1,100,0.1505830783666743,-10,-1,-100,15021.61111160065,-0.012295683197257889,0.01125440786377264,0.9998610675880668,24.37268758764248,0.014106095459202052,39.92372702498388,-14.412616370003796,38.91143798828125,5356.25390625,True
1599562552.0740316,0.0,10,0.5,0.5,-22.244536505126952,-0.15025,-0.02275,-0.001,0.17392212828109224,10,1,100,0.1396213903113751,-10,-1,-100,15021.336713705794,-0.012340143611943109,0.011741219346429842,0.9998549217881041,24.433760902314557,0.014075872401260086,40.541460473718246,-14.598318610719051,38.22981262207031,5356.25390625,True
1599562552.1178803,0.0,10,0.5,0.5,-21.72505647315979,-0.15025,-0.02275,-0.001,0.3629537833395619,10,1,100,0.14680816256294038,-10,-1,-100,15020.11315618828,-0.012444996003777522,0.013896658475822103,0.9998259873386331,24.628467046660287,0.013846309368351746,42.952493006779356,-15.341108199674778,34.817230224609375,5356.25390625,True
1599562552.1647513,0.0,10,0.5,0.5,-21.396324546432492,-0.15025,-0.02275,-0.001,0.2785245355937415,10,1,100,0.13898215266479785,-10,-1,-100,15019.49894404586,-0.012468175034939463,0.015081064132089607,0.9998085347284958,24.683295354042905,0.013652191034868456,44.09487316662001,-15.712493530745888,32.699066162109375,5356.25390625,True
1599562552.2084732,0.0,10,0.5,0.5,-21.379002700805664,-0.15025,-0.02275,-0.001,0.1609641504899947,10,1,100,0.13676141860976826,-10,-1,-100,15019.49894404586,-0.012468175034939463,0.015081064132089607,0.9998085347284958,24.683295354042905,0.013652191034868456,44.09487316662001,-15.712493530745888,32.699066162109375,5356.25390625,True
1599562552.2550359,0.0,10,0.5,0.5,-20.593374805450438,-0.15025,-0.02275,-0.001,0.4579691166370403,10,1,100,0.11475223557059068,-10,-1,-100,15018.209014793276,-0.012267312146220094,0.017773576057067586,0.9997667793274843,24.677376184851635,0.013080173638844355,46.17831928555571,-16.45525263705643,27.6407470703125,5356.25390625,True
1599562552.2999156,0.0,10,0.5,0.5,-20.12105782470703,-0.15025,-0.02275,-0.001,0.3493127764701066,10,1,100,0.11860457629038326,-10,-1,-100,15017.533298927592,-0.012119239149383858,0.019224075698757948,0.9997417461304536,24.63310459493016,0.012716786702817241,47.141159820772444,-16.826629776156317,24.699798583984375,5356.25390625,True
1599562552.3428044,0.0,10,0.5,0.5,-20.08488440132141,-0.15025,-0.02275,-0.001,0.20538344751162768,10,1,100,0.13343935661118944,-10,-1,-100,15017.533298927592,-0.012119239149383858,0.019224075698757948,0.9997417461304536,24.63310459493016,0.012716786702817241,47.141159820772444,-16.826629776156317,24.699798583984375,5356.25390625,True
1599562552.3846886,0.0,10,0.5,0.5,-19.301157501220704,-0.15025,-0.02275,-0.001,0.4675982880645465,10,1,100,0.07740716428391209,-10,-1,-100,15016.517785457661,-0.011609661505456077,0.021597971517879382,0.9996993264907411,24.459300039211403,0.012070959866804615,48.36677217212672,-17.383697730690887,19.774749755859375,5356.25390625,True
1599562552.4265766,0.0,10,0.5,0.5,-18.41880544052124,-0.15025,-0.02275,-0.001,0.508497821911591,10,1,100,0.05782083506079416,-10,-1,-100,15015.441744798096,-0.010968728282671687,0.024116511936474294,0.9996489788180044,24.096078482570306,0.011331507305305867,49.18460248197705,-17.940774936376847,14.232070922851562,5356.25390625,True
1599562552.4684644,0.0,10,0.5,0.5,-18.364487251281737,-0.15025,-0.02275,-0.001,0.25806418185065705,10,1,100,0.12179741813831417,-10,-1,-100,15015.441744798096,-0.010968728282671687,0.024116511936474294,0.9996489788180044,24.096078482570306,0.011331507305305867,49.18460248197705,-17.940774936376847,14.232070922851562,5356.25390625,True
1599562552.5128553,0.0,10,0.5,0.5,-17.69756965370178,-0.15025,-0.02275,-0.001,0.4530495764271921,10,1,100,0.048590551130789736,-10,-1,-100,15014.703562200884,-0.010304417632525634,0.02587741361074034,0.9996120139544508,23.727961619548537,0.010823295306845771,49.44219439557068,-18.31216831501199,10.19390869140625,5356.25390625,True
1599562552.5552511,0.0,10,0.5,0.5,-16.98549588851929,-0.15025,-0.02275,-0.001,0.47626422548656844,10,1,100,0.02784608733609094,-10,-1,-100,15013.964410863118,-0.009513763485149613,0.027676424493099882,0.9995716601783117,23.245983508783176,0.010338301727614975,49.426848647429715,-18.683570325847224,5.8809814453125,5356.25390625,True
1599562552.596142,0.0,10,0.5,0.5,-16.230134245300295,-0.15025,-0.02275,-0.001,0.5018370320991233,10,1,100,0.013268707108303038,-10,-1,-100,15013.225270547322,-0.008665130105935729,0.029531841931706986,0.9995262807112015,22.63724757519057,0.009909843358076249,49.09602134230113,-19.054981207136723,1.2935791015625,5356.25390625,True
1599562552.6360357,0.0,10,0.5,0.5,-15.427781343841552,-0.15025,-0.02275,-0.001,0.5210558055680965,10,1,100,-0.023076115950472514,-10,-1,-100,15012.423639208311,-0.0075666950469606056,0.03138016410943173,0.9994788794299415,21.891787611404226,0.00956988262101487,48.41141368964651,-19.426400018072965,-3.569183349609375,5356.25390625,True
1599562552.6759288,0.0,10,0.5,0.5,-14.57300203323364,-0.15025,-0.02275,-0.001,0.540870064185621,10,1,100,-0.05010426511776382,-10,-1,-100,15011.622993145254,-0.006326863164542371,0.03322576925845232,0.9994278458496548,22.00795917518409,0.009784540036691611,49.60573609798022,-19.797815005511325,-8.707244873046875,5356.25390625,True
1599562552.7178173,0.0,10,0.5,0.5,-13.251545481872558,-0.15025,-0.02275,-0.001,0.6545284825809841,10,1,100,-0.16854708865883258,-10,-1,-100,15010.421061520232,-0.004128390738317604,0.035922803021882166,0.9993460404749512,23.52676183321759,0.011050602265615378,54.53269538050133,-20.354876692637006,-16.931396484375,5356.25390625,True
1599562552.75771,0.0,10,0.5,0.5,-12.729531778717039,-0.15025,-0.02275,-0.001,0.48177581324140456,10,1,100,-0.04003483312282684,-10,-1,-100,15010.01976955426,-0.0033053370815415645,0.03678899242434665,0.999317589549578,24.008933950789142,0.011544312655869126,56.16185948820701,-20.54054466997821,-19.8109130859375,5356.25390625,True
1599562552.8005958,0.0,10,0.5,0.5,-11.728717556762694,-0.15025,-0.02275,-0.001,0.5789989110984491,10,1,100,-0.15491380674024902,-10,-1,-100,15009.217189908843,-0.0015207648171030018,0.038444315573718774,0.9992595868313896,24.87817739956825,0.012572667815360716,59.25536253281519,-20.91185038038742,-25.77740478515625,5356.25390625,True
1599562552.8394918,0.0,10,0.5,0.5,-10.68658046951294,-0.15025,-0.02275,-0.001,0.5773572220812591,10,1,100,-0.19467966238015239,-10,-1,-100,15008.355039017857,0.0004539096593963105,0.039918915496577306,0.9992028193272866,25.59299880593326,0.01357992783250537,62.048597860578,-21.28311685393757,-32.0218505859375,5356.25390625,True
1599562552.8803823,0.0,10,0.5,0.5,-9.092406432724,-0.15025,-0.02275,-0.001,0.6523677465628422,10,1,100,-0.3527788965018417,-10,-1,-100,15007.027146844892,0.0036759498228273444,0.04192700891849936,0.9991139140838986,26.491757306957606,0.014934826194471978,65.92111669704279,-21.839949596281855,-41.90740966796875,5356.25390625,True
1599562552.920844,0.0,10,0.5,0.5,-8.455105145263671,-0.15025,-0.02275,-0.001,0.5146522494810648,10,1,100,-0.15788735518890368,-10,-1,-100,15006.625855933758,0.00482002261573294,0.04248439796770141,0.9990855035037322,26.70996080954796,0.015286676712181126,67.03331158068237,-22.025545865186913,-45.3419189453125,5356.25390625,True
1599562552.961736,0.0,10,0.5,0.5,-6.14892072906494,-0.15025,-0.02275,-0.001,0.6417079504950286,10,1,100,-0.5675692036524644,-10,-1,-100,15004.83512598509,0.009570719740544707,0.044131069854051165,0.9989799047013832,26.96300813480571,0.015883571859034894,69.96760487823309,-22.76789195439083,-59.77679443359375,5356.25390625,True
1599562553.006625,0.0,10,0.5,0.5,-6.01398416442871,-0.15025,-0.02275,-0.001,0.47868622639614844,10,1,100,-0.09440793949385712,-10,-1,-100,15004.83512598509,0.009570719740544707,0.044131069854051165,0.9989799047013832,26.96300813480571,0.015883571859034894,69.96760487823309,-22.76789195439083,-59.77679443359375,5356.25390625,True
1599562553.0574872,0.0,10,0.5,0.5,-3.5229795532226564,-0.15025,-0.02275,-0.001,0.5537744692642428,10,1,100,-0.6241228314955954,-10,-1,-100,15002.919344451395,0.014369731622518256,0.044800418218377165,0.998892603506781,26.068565489631215,0.015130258371529511,69.8716720581576,-23.510248802046732,-75.32766723632812,5356.25390625,True
1599562553.0983784,0.0,10,0.5,0.5,-3.3752798751831055,-0.15025,-0.02275,-0.001,0.4881816582425374,10,1,100,-0.14641528596518852,-10,-1,-100,15002.919344451395,0.014369731622518256,0.044800418218377165,0.998892603506781,26.068565489631215,0.015130258371529511,69.8716720581576,-23.510248802046732,-75.32766723632812,5356.25390625,True
1599562553.1387832,0.0,10,0.5,0.5,-1.3489624786376953,-0.15025,-0.02275,-0.001,0.4779323443711688,10,1,100,-0.5350542553307543,-10,-1,-100,15001.526898842421,0.017883998076035162,0.04469672022958297,0.9988405106990478,24.564613322307938,0.014017665494215582,67.41506240692014,-24.06707512002057,-87.72274780273438,5356.25390625,True
1599562553.1796737,0.0,10,0.5,0.5,-0.5542613784790039,-0.15025,-0.02275,-0.001,0.471243852572941,10,1,100,-0.3008075762052008,-10,-1,-100,15001.001541968086,0.01892925923371427,0.044533668571415545,0.9988285315850935,23.9024209412989,0.013624401561942954,66.10874908859313,-24.252698642565466,-91.99412536621094,5356.25390625,True
1599562553.2275453,0.0,10,0.5,0.5,1.6068870738983152,-0.15025,-0.02275,-0.001,0.4051006189383553,10,1,100,-0.5434709942831308,-10,-1,-100,14999.546540007927,0.02206531445384441,0.043777097052633406,0.9987976209781926,23.074696135249848,0.013490758002115874,65.29996715657911,-24.809590485978354,-105.2252197265625,5356.25390625,True
1599562553.2694342,0.0,10,0.5,0.5,3.1582613288879395,-0.15025,-0.02275,-0.001,0.4039940859910283,10,1,100,-0.43233165834343384,-10,-1,-100,14998.55731015664,0.0238844742551737,0.043074397389238565,0.9987863275891937,24.66814981707266,0.014973824116971473,70.86462688907929,-25.180796083454368,-114.37471771240234,5356.25390625,True
1599562553.3103244,0.0,10,0.5,0.5,4.03885417766571,-0.15025,-0.02275,-0.001,0.42934668830451933,10,1,100,-0.34688642595747,-10,-1,-100,14998.02899696317,0.024740180539604497,0.042663189096372574,0.9987831475165142,25.33933649684667,0.015702782339774523,73.33470807240266,-25.366377117063017,-119.01861572265625,5356.25390625,True
1599562553.3512154,0.0,10,0.5,0.5,5.59931226940155,-0.15025,-0.02275,-0.001,0.38151998832485645,10,1,100,-0.42496588302606425,-10,-1,-100,14997.038766639656,0.026208759289059008,0.04185390593924485,0.9987799314634617,26.381560757280106,0.016987874137191543,77.47938416925061,-25.737500106984356,-128.20654296875,5356.25390625,True
1599562553.391108,0.0,10,0.5,0.5,8.444759564018248,-0.15025,-0.02275,-0.001,0.26237909861768854,10,1,100,-0.5404989402835806,-10,-1,-100,14994.933269402944,0.028574687093928415,0.040035668155453084,0.9987895837126209,27.440224009780216,0.01844803984159387,82.93607374733449,-26.4796430512775,-145.83377075195312,5356.25390625,True
1599562553.4310021,0.0,10,0.5,0.5,9.263559654808043,-0.15025,-0.02275,-0.001,0.39618049746932005,10,1,100,-0.35543394257550076,-10,-1,-100,14994.404935338767,0.02902584514886953,0.03960282416129231,0.9987938308939657,27.484944688308982,0.018523421984586032,83.65934371892341,-26.66516959182062,-150.0694580078125,5356.25390625,True
1599562553.471893,0.0,10,0.5,0.5,10.09494195613861,-0.15025,-0.02275,-0.001,0.3921047944738332,10,1,100,-0.3564269122589562,-10,-1,-100,14993.879529030412,0.029427329354658024,0.03917639436272605,0.9987988998851514,27.439977354862474,0.01848494440705907,84.10979685010648,-26.850696837165714,-154.236083984375,5356.25390625,True
1599562553.5127845,0.0,10,0.5,0.5,11.499101296806336,-0.15025,-0.02275,-0.001,0.3518366627891064,10,1,100,-0.3934872232973163,-10,-1,-100,14992.761334817857,0.030115538189603438,0.03842776973403707,0.9988074693717595,27.104425892437416,0.018126439385484007,84.24219460937026,-27.221760175308294,-162.36044311523438,5356.25390625,True
1599562553.5626507,0.0,10,0.5,0.5,14.020861192131042,-0.15025,-0.02275,-0.001,0.27934526000517634,10,1,100,-0.414400216288415,-10,-1,-100,14990.529822452343,0.030916986333502816,0.03709398245399712,0.9988334077421303,25.62055562281646,0.01681475208515058,81.82774011691914,-27.963951802323667,-177.77786254882812,5356.25390625,True
1599562553.6045372,0.0,10,0.5,0.5,-39.13695627002716,-0.15025,-0.02275,-0.001,0.36169373463768373,10,1,100,-0.35685942531892767,-10,-1,-100,14989.411626116489,0.03111062928436376,0.03663698263950686,0.9988442622594392,24.569178177164382,0.01614873399633732,79.52464269293282,-28.3350850514285,174.931396484375,5356.25390625,True
1599562553.6434352,0.0,10,0.5,0.5,-38.855942423057556,-0.15025,-0.02275,-0.001,0.38720378093854513,10,1,100,-0.3457178933800114,-10,-1,-100,14988.821768374532,0.031174307703837514,0.03646061657991619,0.9988487302779129,23.986780294380875,0.01585801431480942,78.15466218168368,-28.520659934690435,171.3905029296875,5356.25390625,True
1599562553.685324,0.0,10,0.5,0.5,-38.9637617696762,-0.15025,-0.02275,-0.001,0.3886990594517453,10,1,100,-0.3441919985308921,-10,-1,-100,14988.292459239718,0.031210044501776214,0.03632052858538351,0.9988527180347839,23.990968821416438,0.01601414673814354,78.68358565125523,-28.706232028612682,167.91928100585938,5356.25390625,True
1599562553.726212,0.0,10,0.5,0.5,-38.548486262512206,-0.15025,-0.02275,-0.001,0.382949103087759,10,1,100,-0.3377837433384417,-10,-1,-100,14987.114706282155,0.031177616025201298,0.036147043413230155,0.9988600239830739,25.273625562889034,0.017351196564686658,83.9761245937235,-29.077340271229644,160.90463256835938,5356.25390625,True
1599562553.7681005,0.0,10,0.5,0.5,-37.53405062026977,-0.15025,-0.02275,-0.001,0.4066527284780396,10,1,100,-0.3216893108439891,-10,-1,-100,14985.34418700519,0.030995970355196717,0.03621074089271433,0.9988633700690702,26.88507260665142,0.019468988035544248,91.06300198325992,-29.633910924309966,149.94082641601562,5356.25390625,True
1599562553.806997,0.0,10,0.5,0.5,-36.4283068939209,-0.15025,-0.02275,-0.001,0.449817188203709,10,1,100,-0.3080920157255032,-10,-1,-100,14983.573695712956,0.030702874144055283,0.03666618202161197,0.998855807719639,28.03547039538993,0.021342563194048446,96.76606186081737,-30.190380961861884,138.37393188476562,5356.25390625,True
1599562553.84689,0.0,10,0.5,0.5,-35.86882103729247,-0.15025,-0.02275,-0.001,0.46256416728290956,10,1,100,-0.3119297232042449,-10,-1,-100,14982.331539432635,0.030469376577324243,0.037199164208724225,0.9988432506019959,28.613331916124736,0.022317063759721593,99.98982084192336,-30.56131686062092,130.32351684570312,5356.25390625,True
1599562553.8867826,0.0,10,0.5,0.5,-35.89056380996704,-0.15025,-0.02275,-0.001,0.44656986816826316,10,1,100,-0.3219529319564186,-10,-1,-100,14981.741718374891,0.030346913840380827,0.037540475895922736,0.9988342092108541,28.794204268178955,0.02264797262900761,101.24049705619356,-30.746775887827766,126.19656372070312,5356.25390625,True
1599562553.932661,0.0,10,0.5,0.5,-35.89821479721069,-0.15025,-0.02275,-0.001,0.45494425795946014,10,1,100,-0.32146879564638914,-10,-1,-100,14981.08842590882,0.03023034685444498,0.037928377262811175,0.9988230896045954,28.897853032782837,0.022862205692977818,102.22589769812599,-30.932231540394476,122.00178527832031,5356.25390625,True
1599562553.9785383,0.0,10,0.5,0.5,-35.24963281288147,-0.15025,-0.02275,-0.001,0.5174296107216216,10,1,100,-0.3101737566400521,-10,-1,-100,14979.846312318929,0.030021590322932196,0.03884951752370325,0.9987939823119969,28.859570698349547,0.022931869734939166,103.3313433507252,-31.30314113658432,113.40872192382812,5356.25390625,True
1599562554.0174346,0.0,10,0.5,0.5,-34.579921743392944,-0.15025,-0.02275,-0.001,0.5468547473641502,10,1,100,-0.3145229279698834,-10,-1,-100,14978.60129533417,0.029872163575474106,0.039952823062110204,0.9987549377963983,28.475283738120957,0.02256251573870975,103.18077423511923,-31.67406149395057,104.54423522949219,5356.25390625,True
1599562554.0603192,0.0,10,0.5,0.5,-33.046862892913815,-0.15025,-0.02275,-0.001,0.578404378031425,10,1,100,-0.3220137610851234,-10,-1,-100,14977.295761727612,0.029805545438567924,0.04123962852088939,0.9987046222485249,27.729795731855056,0.02186623580925101,101.6739607701608,-32.04500632476574,95.40841674804688,5356.25390625,True
1599562554.102208,0.0,10,0.5,0.5,-30.733529766082764,-0.15025,-0.02275,-0.001,0.7010324631530623,10,1,100,-0.34250225535248335,-10,-1,-100,14975.338014109991,0.029932486864052185,0.04351990788275719,0.9986040575964078,25.927533982443403,0.02054568608263344,96.743007335516,-32.601487015400224,81.19612121582031,5356.25390625,True
1599562554.153939,0.0,10,0.5,0.5,-28.308389950180054,-0.15025,-0.02275,-0.001,0.7632208343654686,10,1,100,-0.38547334283226287,-10,-1,-100,14973.37937815662,0.03043969582579744,0.04615169305975218,0.998470553469531,26.712982614646265,0.02195044568551152,101.40288793896391,-33.15797624749914,66.37260437011719,5356.25390625,True
1599562554.1998153,0.0,10,0.5,0.5,-28.108153102874756,-0.15025,-0.02275,-0.001,0.5010427816306215,10,1,100,-0.334678654637797,-10,-1,-100,14973.37937815662,0.03043969582579744,0.04615169305975218,0.998470553469531,26.712982614646265,0.02195044568551152,101.40288793896391,-33.15797624749914,66.37260437011719,5356.25390625,True
1599562554.241704,0.0,10,0.5,0.5,-26.37199711341858,-0.15025,-0.02275,-0.001,0.71666521800321,10,1,100,-0.40397340574786167,-10,-1,-100,14972.073026870494,0.031070153812733845,0.048102859797532954,0.9983590338256835,28.19312411663554,0.02398592560621212,108.23797814708179,-33.52888661020427,56.15086364746094,5356.25390625,True
1599562554.2855866,0.0,10,0.5,0.5,-24.607908757019043,-0.15025,-0.02275,-0.001,0.7478346442881302,10,1,100,-0.44143650881222835,-10,-1,-100,14970.706178701832,0.03198353721083511,0.05014960918194573,0.9982294676307553,29.275772967392253,0.025741412461778523,113.65728979032868,-33.89973807820478,45.65663146972656,5356.25390625,True
1599562554.3284721,0.0,10,0.5,0.5,-21.967287881088257,-0.15025,-0.02275,-0.001,0.8858657393611902,10,1,100,-0.5496627204586498,-10,-1,-100,14968.621807280695,0.033796383896227813,0.053253345445736774,0.9980089606984377,30.1633404602802,0.027425460689179237,119.05489012639438,-34.45594328157993,29.402099609375,5356.25390625,True
1599562554.3723567,0.0,10,0.5,0.5,-19.211425140762326,-0.15025,-0.02275,-0.001,0.9095781701178743,10,1,100,-0.6499941005272816,-10,-1,-100,14966.537525089458,0.036353393910794334,0.056276206992835025,0.9977531855512495,30.00978581605062,0.02761073279711698,120.39257953590422,-35.01212993232991,12.52996826171875,5356.25390625,True
1599562554.7630527,0.0,10,0.5,0.5,-18.107705843353273,-0.15025,-0.02275,-0.001,0.7114836162271859,10,1,100,-0.5085037920683756,-10,-1,-100,14965.82292448869,0.037386106531631706,0.05720672351870897,0.9976621020278658,29.682922179568827,0.027351110937619747,119.72286659079913,-35.1975357513075,6.7677001953125,5356.25390625,True
1599562554.8019226,0.0,10,0.5,0.5,-16.096275588989258,-0.15025,-0.02275,-0.001,0.806405597893425,10,1,100,-0.6570547429140765,-10,-1,-100,14964.454286086373,0.0396687043617096,0.05889888637011018,0.9974754709157635,28.613135861853433,0.02650675378212129,116.6460499489649,-35.56837598827288,-4.965087890625,5356.25390625,True
1599562554.8477998,0.0,10,0.5,0.5,-14.042259142684937,-0.15025,-0.02275,-0.001,0.7989098682779284,10,1,100,-0.7080854255865808,-10,-1,-100,14962.96065854805,0.04219880264899751,0.060351849544599497,0.9972847714226548,27.108213622289806,0.025508187823790204,111.68492333868338,-35.93925915393029,-16.97576904296875,5356.25390625,True
1599562554.8996606,0.0,10,0.5,0.5,-12.874492827224731,-0.15025,-0.02275,-0.001,0.7244024636966817,10,1,100,-0.6049943778068176,-10,-1,-100,14962.245094404672,0.04355043406016101,0.06097801036973871,0.9971885688998444,26.58914337702782,0.025359321075922536,110.12217767265922,-36.12470932029362,-23.085540771484375,5356.25390625,True
1599562554.957021,0.0,10,0.5,0.5,-10.763154641723634,-0.15025,-0.02275,-0.001,0.7632597273195818,10,1,100,-0.7845281715470538,-10,-1,-100,14960.81590690068,0.04639893533413351,0.061884624332358015,0.9970042287127481,28.352080325826854,0.027992470041916285,118.65116391764863,-36.49554736569603,-35.51666259765625,5356.25390625,True
1599562555.0019026,0.0,10,0.5,0.5,-6.656070014572144,-0.15025,-0.02275,-0.001,0.7505850217225098,10,1,100,-1.1464407061878017,-10,-1,-100,14957.829494847567,0.052264087498562276,0.06257929158269981,0.9966706062802042,30.101803781133047,0.03165699515874658,128.57823185980465,-37.237032682628566,-61.2205810546875,5356.25390625,True
1599562555.0587487,0.0,10,0.5,0.5,-4.383762772369384,-0.15025,-0.02275,-0.001,0.6521292066222906,10,1,100,-0.8703946995481243,-10,-1,-100,14956.335718782502,0.05506669450434339,0.06230082021980587,0.996537137770743,30.05634217177623,0.03216326987440871,129.68455462659588,-37.607738194539145,-74.494873046875,5356.25390625,True
1599562555.1036296,0.0,10,0.5,0.5,-4.099818013381958,-0.15025,-0.02275,-0.001,0.6813961389539125,10,1,100,-0.5925336530391736,-10,-1,-100,14956.335718782502,0.05506669450434339,0.06230082021980587,0.996537137770743,30.05634217177623,0.03216326987440871,129.68455462659588,-37.607738194539145,-74.494873046875,5356.25390625,True
1599562555.154495,0.0,10,0.5,0.5,0.31595019378662087,-0.15025,-0.02275,-0.001,0.5163729174638001,10,1,100,-1.1261200309146209,-10,-1,-100,14953.284447257989,0.05989649506930791,0.060789562559861336,0.9963518650367414,28.014538235789974,0.03060371926636796,123.3027119614591,-38.34922716115243,-101.88279724121094,5356.25390625,True
