Timestamp,Input Throttle,horizon,dT,dt,Input Roll,Roll P,Roll I,Roll D,Input Pitch,Pitch P,Pitch I,Pitch D,Input Yaw,Yaw P,Yaw I,Yaw D,Altitude,Direction X,Direction Y,Direction Z,Drag X,Drag Y,Drag Z,Vertical Velocity,Roll,Mass,Has Fuel
1599563311.5752394,0.0,10,0.5,0.5,-11.64224853515625,-0.2,-0.001,-0.5,-0.0002681082249885067,10,1,100,0.17492320440151835,-10,-1,-100,14994.547642070102,-0.016809233737392622,-7.433110873550975e-05,0.9998587120868868,28.576529545125684,0.027199611186354052,-86.69271901994095,26.8233294121672,-31.791656494140625,5356.25390625,True
1599563311.6171572,0.0,10,0.5,0.5,-11.648771273803712,-0.2,-0.001,-0.5,7.18426886870692e-05,10,1,100,0.1818680443346306,-10,-1,-100,14996.118936776998,-0.016919186315455942,-6.685304612718504e-05,0.999856858087743,28.358872854001756,0.027686140577414118,-84.24778506483787,26.26545082011267,-31.789825439453125,5356.25390625,True
1599563311.658038,0.0,10,0.5,0.5,-11.653676763916016,-0.2,-0.001,-0.5,-0.0006826488767581199,10,1,100,0.1725647051598443,-10,-1,-100,14996.118936776998,-0.016919186315455942,-6.685304612718504e-05,0.999856858087743,28.358872854001756,0.027686140577414118,-84.24778506483787,26.26545082011267,-31.789825439453125,5356.25390625,True
1599563311.9983299,0.0,10,0.5,0.5,-11.562641091918946,-0.2,-0.001,-0.5,0.007119432771365567,10,1,100,0.17838925138736555,-10,-1,-100,14997.148236165405,-0.01695675565723754,4.135744352236819e-06,0.999856223874451,28.21742604644392,0.02800575055095067,-82.64375693582079,25.893550953845146,-31.928192138671875,5356.25390625,True
1599563312.033205,0.0,10,0.5,0.5,-11.52383462524414,-0.2,-0.001,-0.5,0.0043384070151797575,10,1,100,0.17821753507790586,-10,-1,-100,14997.694134397781,-0.016973933314537323,4.3385196327883664e-05,0.9998559314749093,28.152995778228217,0.02816786867300178,-81.86448776618083,25.707606583691533,-32.09075927734375,5356.25390625,True
1599563312.073098,0.0,10,0.5,0.5,-11.450243225097658,-0.2,-0.001,-0.5,0.0058613487551163876,10,1,100,0.179547286199728,-10,-1,-100,14998.175581100164,-0.016986207164722295,9.287200012668846e-05,0.9998557196620664,28.093486841268,0.028331328286203345,-81.10212260342998,25.52166586230536,-32.320281982421875,5356.25390625,True
1599563312.1130247,0.0,10,0.5,0.5,-10.449806973266602,-0.2,-0.001,-0.5,0.03610935168014194,10,1,100,0.17719960550826364,-10,-1,-100,15000.169721122249,-0.016960580652091026,0.00041275741926208266,0.9998560738102543,27.904664731812062,0.02898270280259741,-78.2154693348795,24.777936231506953,-33.921661376953125,5356.25390625,True
1599563312.166881,0.0,10,0.5,0.5,-11.256104504394532,-0.2,-0.001,-0.5,0.004162085508528728,10,1,100,0.18145831483659952,-10,-1,-100,15000.169721122249,-0.016960580652091026,0.00041275741926208266,0.9998560738102543,27.904664731812062,0.02898270280259741,-78.2154693348795,24.777936231506953,-33.921661376953125,5356.25390625,True
1599563312.2249613,0.0,10,0.5,0.5,-10.412923886108398,-0.2,-0.001,-0.5,0.030339529955262734,10,1,100,0.176268590068192,-10,-1,-100,15001.134562799823,-0.016897982626330875,0.0006503589529421535,0.9998570073847521,27.83420410888494,0.029288486351111087,-76.85006810431446,24.406089825708477,-35.13421630859375,5356.25390625,True
1599563312.2818117,0.0,10,0.5,0.5,-9.983467837524415,-0.2,-0.001,-0.5,0.03739485639629827,10,1,100,0.172347438128797,-10,-1,-100,15002.10135553719,-0.016790066691985028,0.0009299084430671391,0.999858604469035,27.773536733164693,0.02956308022380095,-75.51713933651371,24.03425480686439,-36.621673583984375,5356.25390625,True
1599563312.3232129,0.0,10,0.5,0.5,-8.810076422119142,-0.2,-0.001,-0.5,0.06630158134466882,10,1,100,0.1599093185232315,-10,-1,-100,15003.54665852862,-0.016563623785536403,0.0014459873804904336,0.9998617681897767,27.687022284028004,0.029879094070292628,-73.53907688117677,23.476523249523602,-39.3680419921875,5356.25390625,True
1599563312.3641062,0.0,10,0.5,0.5,-7.8270525482177735,-0.2,-0.001,-0.5,0.08128385362328762,10,1,100,0.14602741226148563,-10,-1,-100,15004.932390187401,-0.016231790731796196,0.0020499704184179395,0.9998661543381306,27.58123760656621,0.030018852306425436,-71.52179197962046,22.91881738549972,-42.73297119140625,5356.25390625,True
1599563312.4089847,0.0,10,0.5,0.5,-9.508422833251954,-0.2,-0.001,-0.5,0.02109723217699154,10,1,100,0.17914197807714033,-10,-1,-100,15004.932390187401,-0.016231790731796196,0.0020499704184179395,0.9998661543381306,27.58123760656621,0.030018852306425436,-71.52179197962046,22.91881738549972,-42.73297119140625,5356.25390625,True
1599563312.4543755,0.0,10,0.5,0.5,-5.69276858215332,-0.2,-0.001,-0.5,0.11957797546132787,10,1,100,0.11036414983902257,-10,-1,-100,15006.738034495269,-0.015607162652889361,0.0029433255178532287,0.9998738686998587,27.352743022319462,0.02980285707269544,-68.63323695420326,22.17525515992926,-48.182342529296875,5356.25390625,True
1599563312.5002534,0.0,10,0.5,0.5,-6.2199548126220705,-0.2,-0.001,-0.5,0.08593248527262976,10,1,100,0.12992174540846396,-10,-1,-100,15007.575913465116,-0.015218342170882023,0.0034469264340121443,0.9998782529686944,27.174537929337028,0.029475147263961207,-67.0455444073496,21.803497540320816,-51.319305419921875,5356.25390625,True
1599563312.5481243,0.0,10,0.5,0.5,-7.786513403320313,-0.2,-0.001,-0.5,0.035912747780506626,10,1,100,0.16862823449483227,-10,-1,-100,15007.575913465116,-0.015218342170882023,0.0034469264340121443,0.9998782529686944,27.174537929337028,0.029475147263961207,-67.0455444073496,21.803497540320816,-51.319305419921875,5356.25390625,True
1599563312.5890143,0.0,10,0.5,0.5,-2.814011083984375,-0.2,-0.001,-0.5,0.1419818340794902,10,1,100,0.06402440979915477,-10,-1,-100,15009.321004322497,-0.014269005460006628,0.004408141714517554,0.999888475666065,26.62196927366561,0.028305636202207954,-63.447691724327406,21.060042925719397,-58.420166015625,5356.25390625,True
1599563312.6339357,0.0,10,0.5,0.5,-6.3619915313720705,-0.2,-0.001,-0.5,0.046259844458474815,10,1,100,0.15868892336748586,-10,-1,-100,15009.321004322497,-0.014269005460006628,0.004408141714517554,0.999888475666065,26.62196927366561,0.028305636202207954,-63.447691724327406,21.060042925719397,-58.420166015625,5356.25390625,True
1599563312.67726,0.0,10,0.5,0.5,-0.6178455139160164,-0.2,-0.001,-0.5,0.15199926683464704,10,1,100,0.030929283228000662,-10,-1,-100,15010.935232576332,-0.013110001072549567,0.005365777023123432,0.9998996631206633,25.707095293708267,0.026438353822539264,-59.10997420437635,20.316693341117556,-66.62258911132812,5356.25390625,True
1599563312.7190757,0.0,10,0.5,0.5,-4.715908224487305,-0.2,-0.001,-0.5,0.05670727778107727,10,1,100,0.14645092381832867,-10,-1,-100,15010.935232576332,-0.013110001072549567,0.005365777023123432,0.9998996631206633,25.707095293708267,0.026438353822539264,-59.10997420437635,20.316693341117556,-66.62258911132812,5356.25390625,True
1599563312.760963,0.0,10,0.5,0.5,-1.5530601104736328,-0.2,-0.001,-0.5,0.11114411140397418,10,1,100,0.07217615197593528,-10,-1,-100,15011.774084304576,-0.01243812138818184,0.00585662472098608,0.9999054920757313,25.072852236044522,0.025275825277597305,-56.59981862970125,19.945068497942437,-71.13665771484375,5356.25390625,True
1599563312.8038487,0.0,10,0.5,0.5,1.2250801300048826,-0.2,-0.001,-0.5,0.13093019581009166,10,1,100,0.022557630939327847,-10,-1,-100,15012.910779447993,-0.011379994667875981,0.006478713725152741,0.9999142573190097,23.864865834727397,0.023348685640855665,-52.37152789800029,19.38770343183542,-78.32522583007812,5356.25390625,True
1599563312.8457367,0.0,10,0.5,0.5,3.06296552734375,-0.2,-0.001,-0.5,0.13119354368368855,10,1,100,0.00040968337830250834,-10,-1,-100,15014.10411692306,-0.010221127031646715,0.007042617124785373,0.9999229620856981,22.338106539127356,0.021365224253868127,-47.61602330858837,18.830428914346122,-86.08038330078125,5356.25390625,True
1599563312.8856292,0.0,10,0.5,0.5,-0.8102784667968751,-0.2,-0.001,-0.5,0.0753024683910621,10,1,100,0.11569538063121418,-10,-1,-100,15014.10411692306,-0.010221127031646715,0.007042617124785373,0.9999229620856981,22.338106539127356,0.021365224253868127,-47.61602330858837,18.830428914346122,-86.08038330078125,5356.25390625,True
1599563312.928753,0.0,10,0.5,0.5,2.8556565704345704,-0.2,-0.001,-0.5,0.11045801299765347,10,1,100,0.028252370587728726,-10,-1,-100,15014.817969314521,-0.00943108697272525,0.00735848635611172,0.9999284510789059,21.15034775385686,0.02010637604178795,-44.197365281945,18.458959925205153,-91.31201934814453,5356.25390625,True
1599563312.9706404,0.0,10,0.5,0.5,5.475679859161377,-0.2,-0.001,-0.5,0.12291621809254046,10,1,100,-0.02879007508836308,-10,-1,-100,15015.889236598043,-0.008199562190466862,0.007755340649160008,0.9999363089073724,22.308616723723386,0.021358086793660244,-45.21452001844267,17.901765653572557,-98.78607940673828,5356.25390625,True
1599563313.0134535,0.0,10,0.5,0.5,6.943045555114747,-0.2,-0.001,-0.5,0.11510914020001838,10,1,100,-0.043922941533395835,-10,-1,-100,15016.959530747263,-0.006948803402532043,0.008041227103621753,0.9999435248042466,23.411233329217808,0.02286105737925643,-45.976221457408215,17.344551476635942,-106.21414947509766,5356.25390625,True
1599563313.0543413,0.0,10,0.5,0.5,3.233789919281006,-0.2,-0.001,-0.5,0.08688380329275429,10,1,100,0.08042091705433854,-10,-1,-100,15016.959530747263,-0.006948803402532043,0.008041227103621753,0.9999435248042466,23.411233329217808,0.02286105737925643,-45.976221457408215,17.344551476635942,-106.21414947509766,5356.25390625,True
1599563313.0962305,0.0,10,0.5,0.5,9.59424482421875,-0.2,-0.001,-0.5,0.11304619259197923,10,1,100,-0.09768410117970214,-10,-1,-100,15018.322790710605,-0.005336321602274832,0.008275764201442794,0.9999515165239959,24.38787186044972,0.02458315311610257,-45.847297053258195,16.601564142861747,-115.29368591308594,5356.25390625,True
1599563313.1389675,0.0,10,0.5,0.5,6.529102320861816,-0.2,-0.001,-0.5,0.09284414749692989,10,1,100,0.016852841440399162,-10,-1,-100,15018.619660340599,-0.004918740970833084,0.008302679346617547,0.9999534346672994,24.589340503162983,0.024967060746766846,-45.70994016549326,16.41581261211156,-117.39334106445312,5356.25390625,True
1599563313.1838474,0.0,10,0.5,0.5,6.9060025161743175,-0.2,-0.001,-0.5,0.09222592796946691,10,1,100,0.012886707153995598,-10,-1,-100,15018.974148761015,-0.004510513048829386,0.00831885757168721,0.9999552249379662,24.758900272676527,0.02530730691432687,-45.50542701699249,16.23005990647693,-119.42427062988281,5356.25390625,True
1599563313.224738,0.0,10,0.5,0.5,11.09980069885254,-0.2,-0.001,-0.5,0.09231178343015092,10,1,100,-0.11118277640146568,-10,-1,-100,15020.213391730445,-0.003018699276812151,0.008332107159710667,0.9999607309514486,25.160058070339065,0.026210080848112015,-44.12975768128144,15.487047902497345,-126.85917663574219,5356.25390625,True
1599563313.2666264,0.0,10,0.5,0.5,7.387201091003418,-0.2,-0.001,-0.5,0.09117216397126109,10,1,100,0.03716247126115142,-10,-1,-100,15020.213391730445,-0.003018699276812151,0.008332107159710667,0.9999607309514486,25.160058070339065,0.026210080848112015,-44.12975768128144,15.487047902497345,-126.85917663574219,5356.25390625,True
1599563313.3095133,0.0,10,0.5,0.5,9.704421365356446,-0.2,-0.001,-0.5,0.08617446763201186,10,1,100,-0.04289438275990379,-10,-1,-100,15020.800300126197,-0.0022974573563978623,0.008285501292958469,0.999963035395819,25.22226848272218,0.026392465675729327,-43.179570347108516,15.115547682674576,-130.16366577148438,5356.25390625,True
1599563313.3529077,0.0,10,0.5,0.5,12.104143719482423,-0.2,-0.001,-0.5,0.07470327875235348,10,1,100,-0.11818329000495281,-10,-1,-100,15021.977048898581,-0.0009645416080437441,0.008137718893215783,0.9999664230316443,25.14590419453407,0.026290189078189856,-40.93638586404802,14.372574658500646,-135.94589233398438,5356.25390625,True
1599563313.3937986,0.0,10,0.5,0.5,10.951856618499757,-0.2,-0.001,-0.5,0.07930690877188548,10,1,100,-0.05302017499300154,-10,-1,-100,15022.563959651627,-0.00035288883270744964,0.008044514045866265,0.9999675801060941,25.034876832756016,0.026047470201433387,-39.70398519625376,14.001106704192939,-138.42355346679688,5356.25390625,True
1599563313.4358308,0.0,10,0.5,0.5,11.258215995788575,-0.2,-0.001,-0.5,0.07902500132942147,10,1,100,-0.05520085823842269,-10,-1,-100,15023.089348217472,0.00021585019859504727,0.007956956686620024,0.9999683196226664,24.891344991747168,0.025708644224178887,-38.430681548768874,13.62965335845446,-140.62530517578125,5356.25390625,True
1599563313.4807115,0.0,10,0.5,0.5,11.509244696807862,-0.2,-0.001,-0.5,0.07503975037076491,10,1,100,-0.05923641358714567,-10,-1,-100,15023.676260718144,0.0007630592269483196,0.007841206142605656,0.9999689661318721,24.72591718156617,0.025297387803491254,-37.13650764385323,13.258215123453281,-142.5516815185547,5356.25390625,True
1599563313.5255904,0.0,10,0.5,0.5,11.705006440734865,-0.2,-0.001,-0.5,0.07461939840072562,10,1,100,-0.0605438924714783,-10,-1,-100,15024.14012684254,0.0012653973674638817,0.007732338831011343,0.9999693043817418,24.578478479772517,0.02486655187723822,-35.882451335133084,12.886791979536921,-144.20213317871094,5356.25390625,True
1599563313.5684767,0.0,10,0.5,0.5,11.844925788879394,-0.2,-0.001,-0.5,0.07369276445961954,10,1,100,-0.062207319202226295,-10,-1,-100,15024.66454091901,0.0017311889027850666,0.007625438625888668,0.9999694273680299,24.43448852848291,0.024411363345447506,-34.645625044548915,12.51538332347803,-145.5767822265625,5356.25390625,True
1599563313.611362,0.0,10,0.5,0.5,11.929633476257326,-0.2,-0.001,-0.5,0.07255272880983892,10,1,100,-0.06348499544370978,-10,-1,-100,15025.187978337286,0.0021602056008417953,0.00751850833416162,0.9999694023039861,24.290208618197653,0.023937222754721363,-33.42044526265097,12.143988713475578,-146.6756591796875,5356.25390625,True
1599563313.656242,0.0,10,0.5,0.5,11.382920138549805,-0.2,-0.001,-0.5,0.08316572305879112,10,1,100,-0.021250397503004028,-10,-1,-100,15025.187978337286,0.0021602056008417953,0.00751850833416162,0.9999694023039861,24.290208618197653,0.023937222754721363,-33.42044526265097,12.143988713475578,-146.6756591796875,5356.25390625,True
1599563313.6981308,0.0,10,0.5,0.5,12.344090629577638,-0.2,-0.001,-0.5,0.06060539172692764,10,1,100,-0.10435141287205826,-10,-1,-100,15026.114737184369,0.002910961281580785,0.007314154048258815,0.9999690142474293,24.02276144434887,0.022984450102516932,-31.033545065399316,11.401237482601049,-148.04592895507812,5356.25390625,True
1599563313.740018,0.0,10,0.5,0.5,11.851284378051758,-0.2,-0.001,-0.5,0.0684292073622607,10,1,100,-0.06591163039924314,-10,-1,-100,15026.51122236636,0.003238623277446644,0.007200428433315158,0.9999688320891023,23.907384166551765,0.02252564987810426,-29.879774658814885,11.029878576807494,-148.31765747070312,5356.25390625,True
1599563313.7829027,0.0,10,0.5,0.5,11.717235519409181,-0.2,-0.001,-0.5,0.07969326157066207,10,1,100,-0.033699038876041656,-10,-1,-100,15026.51122236636,0.003238623277446644,0.007200428433315158,0.9999688320891023,23.907384166551765,0.02252564987810426,-29.879774658814885,11.029878576807494,-148.31765747070312,5356.25390625,True
1599563313.8247917,0.0,10,0.5,0.5,11.51917307434082,-0.2,-0.001,-0.5,0.061015020203623406,10,1,100,-0.09326679331466539,-10,-1,-100,15027.372552138986,0.0037763272588109595,0.007031478321305625,0.999968148325261,23.722684053619396,0.021676708954712135,-27.654772872910474,10.287187833157502,-148.03294372558594,5356.25390625,True
1599563313.8666792,0.0,10,0.5,0.5,11.273440592956545,-0.2,-0.001,-0.5,0.0675543830536127,10,1,100,-0.06427704402910088,-10,-1,-100,15027.770990295336,0.003997852051917461,0.006938257005137371,0.9999679383703767,23.653061959108,0.021294947458509638,-26.57932742402853,9.915853502947112,-147.47715759277344,5356.25390625,True
1599563313.908567,0.0,10,0.5,0.5,11.284947311401368,-0.2,-0.001,-0.5,0.07334229961277332,10,1,100,-0.05284622198548044,-10,-1,-100,15028.001458573155,0.004091883479932893,0.0069070538679599485,0.9999677740289692,23.623314312990264,0.021116101229063888,-26.04934980910366,9.73018863922429,-147.0956268310547,5356.25390625,True
1599563313.9494576,0.0,10,0.5,0.5,11.16084878845215,-0.2,-0.001,-0.5,0.07287452995000768,10,1,100,-0.05320698865841232,-10,-1,-100,15028.169428398716,0.004177620089470862,0.006875284157477736,0.9999676384554361,23.596272958705125,0.020945445141887172,-25.52352762599445,9.54452511367042,-146.64517211914062,5356.25390625,True
1599563313.9923427,0.0,10,0.5,0.5,9.642761183166504,-0.2,-0.001,-0.5,0.06043682616128324,10,1,100,-0.07426575310064412,-10,-1,-100,15028.90380414459,0.00444435829968748,0.006734111708663261,0.9999674491796217,23.5061479853868,0.020349088472790676,-23.449382098304522,8.80188263823356,-144.1543731689453,5356.25390625,True
1599563314.0332334,0.0,10,0.5,0.5,10.8880184173584,-0.2,-0.001,-0.5,0.07446493835100824,10,1,100,-0.04786324901867253,-10,-1,-100,15028.90380414459,0.00444435829968748,0.006734111708663261,0.9999674491796217,23.5061479853868,0.020349088472790676,-23.449382098304522,8.80188263823356,-144.1543731689453,5356.25390625,True
1599563314.0751216,0.0,10,0.5,0.5,9.073358940124512,-0.2,-0.001,-0.5,0.0643600082415042,10,1,100,-0.06017205333894311,-10,-1,-100,15029.40770918876,0.004554180018327353,0.006642961795509132,0.9999675647254487,23.436918263169446,0.01999255801182781,-21.901963779126678,8.244910993277498,-141.56236267089844,5356.25390625,True
1599563314.1200018,0.0,10,0.5,0.5,8.120288711547852,-0.2,-0.001,-0.5,0.063180744384224,10,1,100,-0.053431843556775785,-10,-1,-100,15029.85106847703,0.0045905669696007295,0.006550173608974333,0.9999680104486293,23.33664306574088,0.019706596247573323,-20.336041828557956,7.6879472040659955,-138.35012817382812,5356.25390625,True
1599563314.1628876,0.0,10,0.5,0.5,8.879403665161133,-0.2,-0.001,-0.5,0.06923283185898951,10,1,100,-0.049456030595561785,-10,-1,-100,15030.019035718986,0.004585975347758199,0.006521534216839916,0.9999682187057589,23.29064134914821,0.019624318764625465,-19.806145351669546,7.502294250307499,-137.14151000976562,5356.25390625,True
1599563314.2037783,0.0,10,0.5,0.5,7.6458534942626954,-0.2,-0.001,-0.5,0.0653413943849708,10,1,100,-0.04653910673583189,-10,-1,-100,15030.291495113983,0.004554058790930798,0.006460738878059798,0.9999687592128457,23.17084827933282,0.019473001465683946,-18.729637055811526,7.130990461692367,-134.51759338378906,5356.25390625,True
1599563314.2471735,0.0,10,0.5,0.5,7.965722877502442,-0.2,-0.001,-0.5,0.06786717051970925,10,1,100,-0.04691267486613748,-10,-1,-100,15030.458487287746,0.00452724396271459,0.0064291044345348184,0.9999690848612631,23.093843157748218,0.01940115773145741,-18.181664841845986,6.945339606586216,-133.102294921875,5356.25390625,True
1599563314.2900596,0.0,10,0.5,0.5,6.545817031860352,-0.2,-0.001,-0.5,0.06331753262786384,10,1,100,-0.041105836899676326,-10,-1,-100,15030.730946456431,0.004449394758546659,0.006359533117665125,0.9999698791587714,22.896787582177225,0.01925587900125264,-17.06330383689601,6.574039158952035,-130.0650634765625,5356.25390625,True
1599563314.335513,0.0,10,0.5,0.5,3.2319748397827146,-0.2,-0.001,-0.5,0.05248107254666996,10,1,100,-0.022557873283430455,-10,-1,-100,15031.214339115308,0.004209594410331188,0.006198299305124979,0.9999719298063445,22.277423119418906,0.01889621815040683,-14.727187163906832,5.831439356253387,-123.1640396118164,5356.25390625,True
1599563314.3783987,0.0,10,0.5,0.5,3.9754976661682138,-0.2,-0.001,-0.5,0.057868028267887575,10,1,100,-0.02916035861056147,-10,-1,-100,15031.428203119664,0.004051509677717952,0.006101339758974857,0.9999731791015581,21.82057401563785,0.01863453146896887,-13.507005196196282,5.460136076590658,-119.30033111572266,5356.25390625,True
1599563314.4232788,0.0,10,0.5,0.5,5.9046174301147465,-0.2,-0.001,-0.5,0.06748658844304951,10,1,100,-0.04495622083070976,-10,-1,-100,15031.428203119664,0.004051509677717952,0.006101339758974857,0.9999731791015581,21.82057401563785,0.01863453146896887,-13.507005196196282,5.460136076590658,-119.30033111572266,5356.25390625,True
1599563314.4651663,0.0,10,0.5,0.5,-0.08534813766479488,-0.2,-0.001,-0.5,0.041418312591009074,10,1,100,-0.004006563274479208,-10,-1,-100,15031.845188286272,0.003679597198681283,0.005864930680274206,0.9999760312890358,20.62077731469273,0.017887726227006,-11.028727935236661,4.7175090990383985,-110.74678802490234,5356.25390625,True
1599563314.5072112,0.0,10,0.5,0.5,0.9052571792602544,-0.2,-0.001,-0.5,0.048980048586891214,10,1,100,-0.016833418780058583,-10,-1,-100,15031.99264461652,0.0034587979596995837,0.005719546555080169,0.9999776615024348,19.93291515195965,0.01741832878488681,-9.821858259874155,4.346177295455161,-106.05703735351562,5356.25390625,True
1599563314.549098,0.0,10,0.5,0.5,3.2465819824218753,-0.2,-0.001,-0.5,0.063426119582252,10,1,100,-0.038803804472365734,-10,-1,-100,15031.99264461652,0.0034587979596995837,0.005719546555080169,0.9999776615024348,19.93291515195965,0.01741832878488681,-9.821858259874155,4.346177295455161,-106.05703735351562,5356.25390625,True
1599563314.5910232,0.0,10,0.5,0.5,-0.12541868896484365,-0.2,-0.001,-0.5,0.0460508112907138,10,1,100,-0.014832044614900203,-10,-1,-100,15032.201624350972,0.0032419017510043526,0.0055623443224788165,0.9999792749845744,19.100350347478535,0.016794730951892302,-8.60759555151333,3.974827692481999,-101.2445068359375,5356.25390625,True
1599563314.6349506,0.0,10,0.5,0.5,-2.984187985229492,-0.2,-0.001,-0.5,0.031044742188478518,10,1,100,0.0035659760347299674,-10,-1,-100,15032.391070193844,0.0028786905313727355,0.005283886382724867,0.9999818966788944,17.561799247307366,0.01553441974882853,-6.805210056429957,3.417762750965797,-93.72815704345703,5356.25390625,True
1599563314.6828241,0.0,10,0.5,0.5,-4.787842734527588,-0.2,-0.001,-0.5,0.023534312816107822,10,1,100,0.008564440802889785,-10,-1,-100,15032.579540159553,0.0025045809867785015,0.004963536036377302,0.9999845450726207,16.52180270210795,0.014612226384865402,-5.3586852868098145,2.8606428628841343,-85.78851318359375,5356.25390625,True
1599563314.7356806,0.0,10,0.5,0.5,-2.653779404449463,-0.2,-0.001,-0.5,0.042981554563607666,10,1,100,-0.01502337491227772,-10,-1,-100,15032.621529259253,0.0023807548736270263,0.004850433890491476,0.9999854025421101,17.046843444091362,0.015058107121340359,-5.170055570447185,2.674926749040608,-83.17276000976562,5356.25390625,True
1599563315.088314,0.0,10,0.5,0.5,-4.887228400421142,-0.2,-0.001,-0.5,0.02789770121287568,10,1,100,0.00024268299541804414,-10,-1,-100,15032.706485812902,0.002131283916951105,0.004611859726704228,0.9999870941060822,17.972973674145297,0.015836486145006875,-4.694074584394699,2.3034884961531885,-78.12042236328125,5356.25390625,True
1599563315.1232572,0.0,10,0.5,0.5,-2.365563938903809,-0.2,-0.001,-0.5,0.051596473633758376,10,1,100,-0.024496581622836057,-10,-1,-100,15032.706485812902,0.002131283916951105,0.004611859726704228,0.9999870941060822,17.972973674145297,0.015836486145006875,-4.694074584394699,2.3034884961531885,-78.12042236328125,5356.25390625,True
1599563315.1641128,0.0,10,0.5,0.5,-5.719504927825928,-0.2,-0.001,-0.5,0.023192273035986505,10,1,100,0.003210527278197834,-10,-1,-100,15032.791442462825,0.0018811467685424033,0.004354993794026548,0.9999887475946363,18.72538800376944,0.016471713403093634,-4.102024471130284,1.9320495966036724,-73.3349609375,5356.25390625,True
1599563315.205035,0.0,10,0.5,0.5,-4.934334008789063,-0.2,-0.001,-0.5,0.034281041245857444,10,1,100,-0.008147366993476554,-10,-1,-100,15032.832456702483,0.0017589760023762374,0.004223873880741073,0.9999895323916459,19.040145570946667,0.01673957981089181,-3.770064732020458,1.7463312801249327,-71.04501342773438,5356.25390625,True
1599563315.2514281,0.0,10,0.5,0.5,-9.722651720428468,-0.2,-0.001,-0.5,-0.015482939839445015,10,1,100,0.03302571988001232,-10,-1,-100,15032.938894120743,0.0012753568990082832,0.003653766001342013,0.9999925117013565,19.95465093829235,0.01751768355991333,-2.2704291752819667,1.0034594472005596,-62.574554443359375,5356.25390625,True
1599563315.316257,0.0,10,0.5,0.5,-8.166736907196047,-0.2,-0.001,-0.5,0.007477225726260708,10,1,100,0.010836034510231702,-10,-1,-100,15032.959398521692,0.0010394125275451408,0.003346092871170863,0.9999938616232077,20.194656380579026,0.01772622931603651,-1.4472189710287937,0.632014744406284,-58.753173828125,5356.25390625,True
1599563315.3571484,0.0,10,0.5,0.5,-6.260776985931397,-0.2,-0.001,-0.5,0.038007193374984774,10,1,100,-0.012516464092867097,-10,-1,-100,15032.959398521692,0.0010394125275451408,0.003346092871170863,0.9999938616232077,20.194656380579026,0.01772622931603651,-1.4472189710287937,0.632014744406284,-58.753173828125,5356.25390625,True
1599563315.3980365,0.0,10,0.5,0.5,-8.747155025482177,-0.2,-0.001,-0.5,0.0059084680894526675,10,1,100,0.012588483220076978,-10,-1,-100,15032.980879644398,0.0008131879967215212,0.0030563010517126693,0.999994998862076,20.31787733772597,0.017839647638239257,-0.6002888609917305,0.26055803442222736,-55.207275390625,5356.25390625,True
1599563315.4398522,0.0,10,0.5,0.5,-9.266964755249024,-0.2,-0.001,-0.5,0.0006068765395782633,10,1,100,0.014714013320517444,-10,-1,-100,15033.001384445233,0.000590084061000273,0.0027466827338709188,0.9999960537595939,20.344118023545366,0.017871646349515876,0.25586371402760205,-0.11091366601715302,-51.937408447265625,5356.25390625,True
1599563315.4847314,0.0,10,0.5,0.5,-10.70678175048828,-0.2,-0.001,-0.5,-0.02080319407175378,10,1,100,0.02778070801904653,-10,-1,-100,15032.939856866142,0.00027021461938139953,0.0022725898514594964,0.9999973811562841,20.431554226126277,0.017967346896521793,1.5479961331298175,-0.6681467482881853,-47.54974365234375,5356.25390625,True
1599563315.5256524,0.0,10,0.5,0.5,-9.443827938842773,-0.2,-0.001,-0.5,0.009322759156719831,10,1,100,0.007462817908847412,-10,-1,-100,15032.918372536893,0.00016605098277900254,0.002117812118652538,0.999997743646905,20.44273742570271,0.01798480499987146,1.9794537305698785,-0.8538969771232319,-46.225006103515625,5356.25390625,True
1599563315.5685453,0.0,10,0.5,0.5,-10.494487573242187,-0.2,-0.001,-0.5,-0.009842564773675302,10,1,100,0.01974758732908749,-10,-1,-100,15032.877355126315,-3.853637892156626e-05,0.0018051421872863035,0.9999983699869871,20.436828220275146,0.017996612136579476,2.8399005890013043,-1.2254057625835937,-43.782379150390625,5356.25390625,True
1599563315.610395,0.0,10,0.5,0.5,-11.479595571899415,-0.2,-0.001,-0.5,-0.02938303919474883,10,1,100,0.03248153079415472,-10,-1,-100,15032.813876079861,-0.00033831544806281027,0.001345807679979438,0.9999990371717096,20.382488559226022,0.017980321315517595,4.120564446568738,-1.7826874229090233,-40.63525390625,5356.25390625,True
1599563315.6522837,0.0,10,0.5,0.5,-11.678144473266602,-0.2,-0.001,-0.5,-0.033183229446627355,10,1,100,0.034842493530597006,-10,-1,-100,15032.688875910011,-0.0006302874792346845,0.0008964192947870712,0.9999993995848905,20.331097684879598,0.01797896433011311,5.395292089464762,-2.3399879400026986,-38.10833740234375,5356.25390625,True
1599563315.6931746,0.0,10,0.5,0.5,-11.356148223876954,-0.2,-0.001,-0.5,-0.01964186847925507,10,1,100,0.027363804244435942,-10,-1,-100,15032.58340661903,-0.0008255564563516414,0.0006140126393937167,0.9999994707223681,20.299129811772588,0.01798945114993909,6.242293594397111,-2.711530306222539,-36.768096923828125,5356.25390625,True
1599563315.7360604,0.0,10,0.5,0.5,-11.433918078613281,-0.2,-0.001,-0.5,-0.02150451330079489,10,1,100,0.02951355595230378,-10,-1,-100,15032.415437980671,-0.0010207069843882555,0.0003431095937148036,0.9999994202163615,20.276719363112385,0.0180176269378937,7.090016041057102,-3.083078564949495,-35.703369140625,5356.25390625,True
1599563315.779959,0.0,10,0.5,0.5,-11.204149084472657,-0.2,-0.001,-0.5,-0.009365028179610504,10,1,100,0.020855245932215976,-10,-1,-100,15032.393953042221,-0.001117531810137167,0.00020992303808788247,0.9999993535272768,20.271050277894165,0.018040491932769624,7.515249902862201,-3.2688545675114344,-35.274383544921875,5356.25390625,True
1599563315.8218434,0.0,10,0.5,0.5,-11.60369239807129,-0.2,-0.001,-0.5,-0.0375791925634638,10,1,100,0.043610130584834844,-10,-1,-100,15032.143954843981,-0.0014104561082620923,-0.00016479698885063667,0.9999989917272513,20.2915677545298,0.018159034670016387,8.805925700091818,-3.8261900577494696,-34.400543212890625,5356.25390625,True
1599563315.8976412,0.0,10,0.5,0.5,-11.335521606445312,-0.2,-0.001,-0.5,-0.02673895226927642,10,1,100,0.03595220789683204,-10,-1,-100,15031.975987259531,-0.0016051119511165592,-0.00040397564881071126,0.9999986302087116,20.339859576128497,0.018282942189047104,9.684406337741601,-4.197752038101081,-34.162445068359375,5356.25390625,True
1599563315.9475086,0.0,10,0.5,0.5,-11.218250030517579,-0.2,-0.001,-0.5,-0.003136152111537122,10,1,100,0.01670614321259703,-10,-1,-100,15031.975987259531,-0.0016051119511165592,-0.00040397564881071126,0.9999986302087116,20.339859576128497,0.018282942189047104,9.684406337741601,-4.197752038101081,-34.162445068359375,5356.25390625,True
1599563315.9943829,0.0,10,0.5,0.5,-11.193548110961915,-0.2,-0.001,-0.5,-0.02671885530040983,10,1,100,0.038846127620988415,-10,-1,-100,15031.808019457152,-0.0018046796943105737,-0.0006159306182547629,0.9999981818786845,20.41329399267804,0.018440009235357577,10.580083176183896,-4.569317315987149,-34.19964599609375,5356.25390625,True
1599563316.0372684,0.0,10,0.5,0.5,-10.582543615722656,-0.2,-0.001,-0.5,-0.050268068440745134,10,1,100,0.06251709560079967,-10,-1,-100,15031.41153795307,-0.002199503960051517,-0.001020215489264306,0.9999970606670227,20.638211365411248,0.0188519166709595,12.437352332593386,-5.31245494275303,-35.100799560546875,5356.25390625,True
1599563316.0821476,0.0,10,0.5,0.5,-10.755829986572266,-0.2,-0.001,-0.5,-0.019715948678395656,10,1,100,0.034302518978338456,-10,-1,-100,15031.326577451662,-0.0022999744436289723,-0.001107432139909304,0.9999967418504994,20.709650331631344,0.018973222193620357,12.91715155346132,-5.498240143659551,-35.4981689453125,5356.25390625,True
1599563316.127028,0.0,10,0.5,0.5,-9.83139252319336,-0.2,-0.001,-0.5,-0.036669179168681884,10,1,100,0.05755026622390699,-10,-1,-100,15030.948650884093,-0.0026008710772994948,-0.001338610063298369,0.9999957217872172,20.954811460839103,0.01937075504978618,14.395991592136014,-6.055596116144993,-37.103363037109375,5356.25390625,True
1599563316.1726656,0.0,10,0.5,0.5,-10.634090066528321,-0.2,-0.001,-0.5,-0.01377488976558393,10,1,100,0.02765766121666123,-10,-1,-100,15030.948650884093,-0.0026008710772994948,-0.001338610063298369,0.9999957217872172,20.954811460839103,0.01937075504978618,14.395991592136014,-6.055596116144993,-37.103363037109375,5356.25390625,True
1599563316.2195394,0.0,10,0.5,0.5,-9.643828268432618,-0.2,-0.001,-0.5,-0.02988618154213988,10,1,100,0.04970144559840517,-10,-1,-100,15030.718184302677,-0.0027996551947508507,-0.0014833012406282485,0.9999949808615143,21.137284820117024,0.019652462451067495,15.413150047722043,-6.427165433693568,-38.517974853515625,5356.25390625,True
1599563316.26845,0.0,10,0.5,0.5,-8.504252374267578,-0.2,-0.001,-0.5,-0.03363354452537118,10,1,100,0.06276939665893286,-10,-1,-100,15030.278733218322,-0.00309755035824746,-0.0016472452372899298,0.9999938458635165,21.421329109354154,0.02006925540642429,16.976184406206578,-6.984514252603809,-41.155975341796875,5356.25390625,True
1599563316.3133307,0.0,10,0.5,0.5,-7.542323883056641,-0.2,-0.001,-0.5,-0.031004318012969052,10,1,100,0.06538746887695837,-10,-1,-100,15029.839283898706,-0.0033903647829099637,-0.0017706948402556408,0.9999926850064561,21.69075776544469,0.020432995517971928,18.56296605204316,-7.541853413587791,-44.413604736328125,5356.25390625,True
1599563316.3562143,0.0,10,0.5,0.5,-7.409050238037111,-0.2,-0.001,-0.5,-0.02455541450570772,10,1,100,0.05698141319326086,-10,-1,-100,15029.544364042464,-0.0035783411094107644,-0.0018228354493844525,0.9999919363404033,21.84454380980693,0.02061503057781289,19.616746285515447,-7.91340600944147,-46.929443359375,5356.25390625,True
1599563316.3981016,0.0,10,0.5,0.5,-6.71185373840332,-0.2,-0.001,-0.5,-0.0229615527063814,10,1,100,0.05827916478782826,-10,-1,-100,15029.188897422864,-0.003759232576036383,-0.001854456477870793,0.9999912145422134,21.962719552532935,0.020723395198516473,20.650170659489085,-8.284952519794027,-49.72064208984375,5356.25390625,True
1599563316.439026,0.0,10,0.5,0.5,-8.105897283935546,-0.2,-0.001,-0.5,-0.01994449794065335,10,1,100,0.04040543018775838,-10,-1,-100,15029.188897422864,-0.003759232576036383,-0.001854456477870793,0.9999912145422134,21.962719552532935,0.020723395198516473,20.650170659489085,-8.284952519794027,-49.72064208984375,5356.25390625,True
1599563316.4838731,0.0,10,0.5,0.5,-3.6185175476074223,-0.2,-0.001,-0.5,-0.020288499222637833,10,1,100,0.07746332344117823,-10,-1,-100,15028.476986626745,-0.004094345648447722,-0.0018564578296528193,0.9999898948979622,22.032757035597655,0.02063052060052096,22.576990823730696,-9.028028560989975,-56.12896728515625,5356.25390625,True
1599563316.5247633,0.0,10,0.5,0.5,-4.288567440795899,-0.2,-0.001,-0.5,-0.017445329671974593,10,1,100,0.061326326510338015,-10,-1,-100,15028.120543261291,-0.004250571340642759,-0.0018316700241391877,0.999989288756735,21.953114096896655,0.02039217078075988,23.422749163018253,-9.399561038165459,-59.746124267578125,5356.25390625,True
1599563316.5865984,0.0,10,0.5,0.5,-3.3700446228027348,-0.2,-0.001,-0.5,-0.014512644302678991,10,1,100,0.06021521434914432,-10,-1,-100,15027.764098905027,-0.00438072040763011,-0.0017818164813293536,0.9999888171468403,21.775519622354444,0.020010889171396463,24.153317892749318,-9.771093161033,-63.638519287109375,5356.25390625,True
1599563316.6294835,0.0,10,0.5,0.5,-3.8789603210449224,-0.2,-0.001,-0.5,-0.016436417365656337,10,1,100,0.05441257113335947,-10,-1,-100,15027.5541377099,-0.004444668394447539,-0.001753581009876543,0.9999885848731002,21.644979452575846,0.01976607645496336,24.46586706733369,-9.956860021142338,-65.68798828125,5356.25390625,True
1599563316.6763587,0.0,10,0.5,0.5,-0.30785539855957067,-0.2,-0.001,-0.5,-0.007403722476370701,10,1,100,0.06598639156296641,-10,-1,-100,15026.925233730697,-0.004606343297898766,-0.0016454197450654112,0.9999880370260857,21.063057568393138,0.018821809837296078,25.143576879312338,-10.514169015794169,-72.2493896484375,5356.25390625,True
1599563316.7202404,0.0,10,0.5,0.5,-0.2822929260253906,-0.2,-0.001,-0.5,-0.008450418208346577,10,1,100,0.05954369485865624,-10,-1,-100,15026.506289116573,-0.00469310806908511,-0.0015564593577964928,0.9999877760107466,20.496874469351162,0.01803555802657632,25.334381545617912,-10.885719744023685,-76.96780395507812,5356.25390625,True
1599563316.7641237,0.0,10,0.5,0.5,0.7896201660156248,-0.2,-0.001,-0.5,-0.00679975478447347,10,1,100,0.057861018472406184,-10,-1,-100,15026.023867847282,-0.004755237568733296,-0.0014606627799527146,0.9999876270134087,19.83321201954652,0.017207686415050882,25.35294534326422,-11.257282484796256,-81.86428833007812,5356.25390625,True
1599563316.808007,0.0,10,0.5,0.5,-1.654876953125,-0.2,-0.001,-0.5,-0.016348409362821004,10,1,100,0.05178455578616985,-10,-1,-100,15026.023867847282,-0.004755237568733296,-0.0014606627799527146,0.9999876270134087,19.83321201954652,0.017207686415050882,25.35294534326422,-11.257282484796256,-81.86428833007812,5356.25390625,True
1599563316.8528903,0.0,10,0.5,0.5,5.288940933227539,-0.2,-0.001,-0.5,0.0068815804029675725,10,1,100,0.05955630829573366,-10,-1,-100,15025.123477154062,-0.004824819958402674,-0.0012498103026904836,0.9999875794661534,18.191252223701408,0.015560030277074978,24.793521972473922,-12.000442948942997,-91.77903747558594,5356.25390625,True
1599563316.895772,0.0,10,0.5,0.5,0.33577220001220703,-0.2,-0.001,-0.5,-0.014143202705737488,10,1,100,0.05270462806703251,-10,-1,-100,15025.123477154062,-0.004824819958402674,-0.0012498103026904836,0.9999875794661534,18.191252223701408,0.015560030277074978,24.793521972473922,-12.000442948942997,-91.77903747558594,5356.25390625,True
1599563316.9386573,0.0,10,0.5,0.5,3.825793469238281,-0.2,-0.001,-0.5,-0.0014202425459763374,10,1,100,0.05339375098344022,-10,-1,-100,15024.640078386408,-0.004830115996386048,-0.0011346967068519098,0.9999876911456684,19.03817121020627,0.01634672557719366,26.753729889886102,-12.372020858339685,-96.75877380371094,5356.25390625,True
1599563316.996503,0.0,10,0.5,0.5,4.797397190856934,-0.2,-0.001,-0.5,-0.0013730697843509724,10,1,100,0.051148108569385536,-10,-1,-100,15024.095156025258,-0.004813846763199583,-0.0010302752865500675,0.9999878826326719,20.096037135841144,0.017433532012611077,29.091191420682286,-12.743578188453508,-101.69792938232422,5356.25390625,True
1599563317.045372,0.0,10,0.5,0.5,7.31989376296997,-0.2,-0.001,-0.5,0.006511531908732141,10,1,100,0.04636429697471435,-10,-1,-100,15023.339295199607,-0.004755055286330734,-0.0008643970660999909,0.9999883210652692,21.47230249322257,0.019052918994579806,32.44751055532711,-13.300866209170662,-108.82347106933594,5356.25390625,True
1599563317.0942416,0.0,10,0.5,0.5,8.386046321868896,-0.2,-0.001,-0.5,0.006579059245499215,10,1,100,0.04143782866287907,-10,-1,-100,15022.52288797847,-0.004656482109179913,-0.0007138188166431563,0.9999889037569686,22.536889099033818,0.020502382391656006,35.48822503193651,-13.858093898129743,-115.42976379394531,5356.25390625,True
1599563317.1391213,0.0,10,0.5,0.5,7.9325694190979,-0.2,-0.001,-0.5,0.0015625455411663897,10,1,100,0.04208934050233645,-10,-1,-100,15021.915464971913,-0.004572600406933569,-0.0006234794073519991,0.9999893512427755,23.168518000520066,0.021401440721111407,37.46442437463333,-14.229546303089416,-119.49361419677734,5356.25390625,True
1599563317.1830041,0.0,10,0.5,0.5,5.905368640136719,-0.2,-0.001,-0.5,-0.007369201354177991,10,1,100,0.05047413643787438,-10,-1,-100,15021.915464971913,-0.004572600406933569,-0.0006234794073519991,0.9999893512427755,23.168518000520066,0.021401440721111407,37.46442437463333,-14.229546303089416,-119.49361419677734,5356.25390625,True
1599563317.226887,0.0,10,0.5,0.5,11.020611363983155,-0.2,-0.001,-0.5,0.009837766959948945,10,1,100,0.027751872584934043,-10,-1,-100,15020.761165345903,-0.004366143924326976,-0.000467900586269431,0.9999903588816611,24.086130294173795,0.02276617911435063,40.989666159275004,-14.972381944116073,-126.79502868652344,5356.25390625,True
1599563317.2757552,0.0,10,0.5,0.5,9.640499793243407,-0.2,-0.001,-0.5,0.0012997097483167207,10,1,100,0.03451471591004336,-10,-1,-100,15020.153742252965,-0.004240290328225983,-0.00040498650738528323,0.9999909279207793,24.40297492475042,0.023223790857120705,42.5632957243931,-15.343771063018632,-130.03231811523438,5356.25390625,True
1599563317.3196387,0.0,10,0.5,0.5,8.026671881866454,-0.2,-0.001,-0.5,-0.004886130512841313,10,1,100,0.047048580796092,-10,-1,-100,15020.153742252965,-0.004240290328225983,-0.00040498650738528323,0.9999909279207793,24.40297492475042,0.023223790857120705,42.5632957243931,-15.343771063018632,-130.03231811523438,5356.25390625,True
1599563317.3625247,0.0,10,0.5,0.5,11.983880083465577,-0.2,-0.001,-0.5,0.005830073913687066,10,1,100,0.017795221064152548,-10,-1,-100,15018.876395301544,-0.003974882084872148,-0.0003083344887762118,0.9999920525895465,24.828227887940262,0.023723924250356316,45.410611523193644,-16.08650589470595,-135.6800079345703,5356.25390625,True
1599563317.4074883,0.0,10,0.5,0.5,10.032204811859131,-0.2,-0.001,-0.5,-0.0019394913917986287,10,1,100,0.03598109439483814,-10,-1,-100,15018.54240920092,-0.003899700655623559,-0.00029195731628502977,0.9999923535186267,24.901544539126153,0.023773044227375445,46.07282335230153,-16.27218238556461,-136.91969299316406,5356.25390625,True
1599563317.4503713,0.0,10,0.5,0.5,10.235911150360108,-0.2,-0.001,-0.5,-0.0019192597674372771,10,1,100,0.03497589637513915,-10,-1,-100,15018.2689720497,-0.003823061570073726,-0.00027765118051754917,0.9999926535280415,24.965065378378412,0.023796369250344934,46.71988359534705,-16.457856409047018,-138.0904541015625,5356.25390625,True
1599563317.494222,0.0,10,0.5,0.5,12.44991875,-0.2,-0.001,-0.5,0.0010021878507304712,10,1,100,0.008299779427734591,-10,-1,-100,15016.864671819727,-0.0035117802338639507,-0.0002387711915692532,0.9999938051747658,25.1491477193955,0.02367932420065197,49.19889015561868,-17.200531806734872,-142.08438110351562,5356.25390625,True
1599563317.5391026,0.0,10,0.5,0.5,11.56477133026123,-0.2,-0.001,-0.5,-0.0024247663799439713,10,1,100,0.02094770221326342,-10,-1,-100,15016.192795648123,-0.0033449085672257505,-0.00023514862723559793,0.9999943781300973,25.21941574214837,0.02352779178154743,50.40707041223853,-17.571857932633833,-143.66793823242188,5356.25390625,True
1599563317.585977,0.0,10,0.5,0.5,11.691298150634767,-0.2,-0.001,-0.5,-0.00249968501865707,10,1,100,0.019331704300764085,-10,-1,-100,15015.45841887442,-0.0031797085015700783,-0.00023297162018367362,0.999994917576119,25.316613338639286,0.023363030570485173,51.67651646311399,-17.943176209468778,-144.97576904296875,5356.25390625,True
1599563317.6298606,0.0,10,0.5,0.5,11.039930960845947,-0.2,-0.001,-0.5,-0.0026783349451326675,10,1,100,0.035712421675794956,-10,-1,-100,15015.45841887442,-0.0031797085015700783,-0.00023297162018367362,0.999994917576119,25.316613338639286,0.023363030570485173,51.67651646311399,-17.943176209468778,-144.97576904296875,5356.25390625,True
1599563317.674139,0.0,10,0.5,0.5,12.294726795959473,-0.2,-0.001,-0.5,-0.005268141714058511,10,1,100,-0.002930801509695928,-10,-1,-100,15013.989666125737,-0.0028296727379795825,-0.0002568703251622434,0.9999959634767691,25.51907515465557,0.022952650406156856,54.258346628077916,-18.685788077963338,-146.7646942138672,5356.25390625,True
1599563317.7190208,0.0,10,0.5,0.5,11.594746223449707,-0.2,-0.001,-0.5,-0.0042208676582424325,10,1,100,0.021913867045574867,-10,-1,-100,15013.593180425814,-0.002738715822660091,-0.00026926759305453084,0.9999962134581342,25.57488025396195,0.022840971745462034,54.920539509474516,-18.871435554779683,-147.0396728515625,5356.25390625,True
1599563317.7634811,0.0,10,0.5,0.5,11.60323864593506,-0.2,-0.001,-0.5,-0.0044853115309833515,10,1,100,0.020816561403993565,-10,-1,-100,15013.256266646553,-0.0026474172797239653,-0.00028306525263091937,0.9999964555216232,25.633786908742,0.02272799870975664,55.59191694680465,-19.057080759139257,-147.24578857421875,5356.25390625,True
1599563317.8073626,0.0,10,0.5,0.5,11.645606355285645,-0.2,-0.001,-0.5,-0.005151946456436291,10,1,100,0.010208238119045844,-10,-1,-100,15012.46232015593,-0.0024694273681447826,-0.0003017797345269851,0.9999969054239443,25.761557167178875,0.022501317236700364,56.964460069470746,-19.42836375701977,-147.45108032226562,5356.25390625,True
1599563317.851249,0.0,10,0.5,0.5,11.252969375610352,-0.2,-0.001,-0.5,-0.011049062810088234,10,1,100,-0.01354294624798081,-10,-1,-100,15010.869544273592,-0.002093067094933217,-0.00037240900742410726,0.9999977401882804,26.061336713531414,0.022066573748089482,59.84476170080101,-20.17089683337806,-147.03512573242188,5356.25390625,True
1599563317.8941317,0.0,10,0.5,0.5,11.026978965759277,-0.2,-0.001,-0.5,-0.008118102206589213,10,1,100,0.003073942856618623,-10,-1,-100,15010.06973869924,-0.0019036264143833257,-0.0004098992030341008,0.9999981040927616,26.23255336275512,0.021868290068314297,61.3544345495023,-20.542145443909703,-146.41372680664062,5356.25390625,True
1599563317.9370162,0.0,10,0.5,0.5,11.33851075592041,-0.2,-0.001,-0.5,-0.004382307447841516,10,1,100,0.021826067396038738,-10,-1,-100,15010.06973869924,-0.0019036264143833257,-0.0004098992030341008,0.9999981040927616,26.23255336275512,0.021868290068314297,61.3544345495023,-20.542145443909703,-146.41372680664062,5356.25390625,True
1599563317.978907,0.0,10,0.5,0.5,10.32465078277588,-0.2,-0.001,-0.5,-0.010050984864016718,10,1,100,-0.009774468656404436,-10,-1,-100,15008.813877268927,-0.0016178107719242792,-0.0004612770631707255,0.9999985849548875,26.51020707884439,0.021606740484171032,63.69695041888087,-21.09899392681333,-144.96473693847656,5356.25390625,True
1599563318.3140097,0.0,10,0.5,0.5,10.614734075927736,-0.2,-0.001,-0.5,-0.006981400140732093,10,1,100,0.008014355290446628,-10,-1,-100,15008.351963767782,-0.0015212650399286116,-0.0004798733217778558,0.9999987277363273,26.60663316497472,0.021531350146416245,64.49523070421179,-21.28460322142602,-144.34396362304688,5356.25390625,True
1599563318.347919,0.0,10,0.5,0.5,9.911341427612305,-0.2,-0.001,-0.5,-0.009770353879951604,10,1,100,-0.004136292849865435,-10,-1,-100,15007.49258824531,-0.0013245434308948418,-0.0005219086802303387,0.9999989865975011,26.801276521914556,0.021401255964828936,66.10878360055162,-21.65581152570951,-142.8957977294922,5356.25390625,True
1599563318.3908038,0.0,10,0.5,0.5,10.6352163772583,-0.2,-0.001,-0.5,-0.005595711740707978,10,1,100,0.01535035154644402,-10,-1,-100,15007.49258824531,-0.0013245434308948418,-0.0005219086802303387,0.9999989865975011,26.801276521914556,0.021401255964828936,66.10878360055162,-21.65581152570951,-142.8957977294922,5356.25390625,True
1599563318.4301403,0.0,10,0.5,0.5,9.428147663879395,-0.2,-0.001,-0.5,-0.00929543773214593,10,1,100,-0.006117392738024682,-10,-1,-100,15006.632236092002,-0.0011307504185879306,-0.0005553016089206218,0.9999992065214922,26.99335145043974,0.02130321731178906,67.73281451596627,-22.027005700930115,-141.17196655273438,5356.25390625,True
1599563318.4750185,0.0,10,0.5,0.5,7.297557536315919,-0.2,-0.001,-0.5,-0.014011372182290944,10,1,100,-0.03056391116288261,-10,-1,-100,15004.851961880806,-0.0007337956629957322,-0.0006282709172623193,0.999999533409681,27.339641068619297,0.02122636557779816,70.93280426319352,-22.7693522535519,-136.89779663085938,5356.25390625,True
1599563318.514912,0.0,10,0.5,0.5,9.433607698059083,-0.2,-0.001,-0.5,-0.006748961914584342,10,1,100,0.00894020223466441,-10,-1,-100,15004.851961880806,-0.0007337956629957322,-0.0006282709172623193,0.999999533409681,27.339641068619297,0.02122636557779816,70.93280426319352,-22.7693522535519,-136.89779663085938,5356.25390625,True
1599563318.554813,0.0,10,0.5,0.5,6.6822624526977545,-0.2,-0.001,-0.5,-0.011146513467401628,10,1,100,-0.023379538707778785,-10,-1,-100,15003.466218675254,-0.00044155768325092955,-0.0006679518484854443,0.9999996794335189,27.529579889620823,0.021293863171047495,73.18701900079334,-23.326078699475534,-132.96881103515625,5356.25390625,True
1599563318.5967014,0.0,10,0.5,0.5,7.632134507751466,-0.2,-0.001,-0.5,-0.0082324046242985,10,1,100,-0.004862765578905475,-10,-1,-100,15003.006258453475,-0.00034572246593785023,-0.0006772648484409283,0.9999997108941091,27.572613069367577,0.021342591534042235,73.88968065034398,-23.511648843251262,-131.5213623046875,5356.25390625,True
1599563318.6375947,0.0,10,0.5,0.5,3.8195422134399424,-0.2,-0.001,-0.5,-0.011333771624909957,10,1,100,-0.03796275751900886,-10,-1,-100,15001.034578693914,4.089320021275684e-05,-0.0007136823978192844,0.9999997444925579,27.601281377693443,0.02165997834456639,76.32312487645422,-24.253909710123718,-125.04303741455078,5356.25390625,True
1599563318.681031,0.0,10,0.5,0.5,5.802359978485108,-0.2,-0.001,-0.5,-0.008415729797454264,10,1,100,-0.010052926136488421,-10,-1,-100,15000.57364032243,0.0001368685026771264,-0.0007199854413729336,0.9999997314439525,27.56425776828313,0.021763776474513042,76.80942795712394,-24.439471906747013,-123.25131225585938,5356.25390625,True
1599563318.7209246,0.0,10,0.5,0.5,2.6440706245422367,-0.2,-0.001,-0.5,-0.007710413872216216,10,1,100,-0.030170429262806706,-10,-1,-100,14999.063875883003,0.00040541000672526367,-0.0007190683285757212,0.9999996592916747,27.319145763525206,0.022092588617072934,77.87762667114615,-24.996158746875892,-117.4627685546875,5356.25390625,True
1599563318.762811,0.0,10,0.5,0.5,2.5933867469787595,-0.2,-0.001,-0.5,-0.007256433815557873,10,1,100,-0.023101029730255882,-10,-1,-100,14998.077547772205,0.0005835198555216047,-0.0007138900482388179,0.9999995749326984,27.02566769662173,0.022281469741534745,78.1967665559999,-25.36728851574895,-113.25952911376953,5356.25390625,True
1599563318.8017414,0.0,10,0.5,0.5,1.5569430480957034,-0.2,-0.001,-0.5,-0.005918674315779899,10,1,100,-0.023134184478929856,-10,-1,-100,14997.032626260188,0.0007440047037003905,-0.000696846542145462,0.9999994804308139,26.64332864401811,0.022415858974884906,78.2306048059958,-25.738427159690474,-108.78081512451172,5356.25390625,True
1599563318.8425994,0.0,10,0.5,0.5,0.46504201736450224,-0.2,-0.001,-0.5,-0.005197781690619574,10,1,100,-0.024416430826603833,-10,-1,-100,14995.981845075847,0.0008996763069012363,-0.0006746398419573944,0.9999993677216134,26.203575404695496,0.022476209534893182,78.061428047024,-26.109576772303328,-104.02674865722656,5356.25390625,True
1599563318.8834884,0.0,10,0.5,0.5,-0.682211170196533,-0.2,-0.001,-0.5,-0.004392815273806853,10,1,100,-0.02490352317833481,-10,-1,-100,14994.934970894596,0.0010437782159854784,-0.0006470255668762748,0.9999992459421915,25.617844825772398,0.022333455632368573,77.41420995376427,-26.480740282439665,-98.99736022949219,5356.25390625,True
1599563318.9263744,0.0,10,0.5,0.5,1.8286930000305177,-0.2,-0.001,-0.5,-0.007156118246880207,10,1,100,-0.010671089657808719,-10,-1,-100,14994.934970894596,0.0010437782159854784,-0.0006470255668762748,0.9999992459421915,25.617844825772398,0.022333455632368573,77.41420995376427,-26.480740282439665,-98.99736022949219,5356.25390625,True
1599563318.9702568,0.0,10,0.5,0.5,-5.480887754058838,-0.2,-0.001,-0.5,0.0003651124296137646,10,1,100,-0.038815777972198234,-10,-1,-100,14992.774814548553,0.0012980230425899456,-0.0005786336928630442,0.9999989901591053,24.08910110763678,0.0212815402931704,74.86080545044112,-27.223113170109706,-88.56051635742188,5356.25390625,True
1599563319.0111487,0.0,10,0.5,0.5,-2.0973357246398927,-0.2,-0.001,-0.5,-0.004338837776061691,10,1,100,-0.020070886797182996,-10,-1,-100,14992.252353043645,0.001357165164524922,-0.0005593036439531773,0.9999989226404946,24.211904760693177,0.021342322841584944,75.76195973769947,-27.408708037339547,-85.94561767578125,5356.25390625,True
1599563319.0540323,0.0,10,0.5,0.5,-2.661573474884033,-0.2,-0.001,-0.5,-0.004025258621932584,10,1,100,-0.02051303113113192,-10,-1,-100,14991.72501053824,0.001413402144201288,-0.0005389873900925679,0.9999988558928316,24.833332153846428,0.021792600447967565,78.2394284654647,-27.594292768440432,-83.27828979492188,5356.25390625,True
1599563319.0959206,0.0,10,0.5,0.5,-5.002792185974121,-0.2,-0.001,-0.5,-0.00201928077114673,10,1,100,-0.0252963573886204,-10,-1,-100,14990.552159529994,0.001506763719935163,-0.0005024407197646214,0.9999987386074123,26.00305252625647,0.022489087531206268,83.04104226455267,-27.965430436103325,-78.034423828125,5356.25390625,True
1599563319.1368127,0.0,10,0.5,0.5,-5.889525178527832,-0.2,-0.001,-0.5,-0.0012260172206388963,10,1,100,-0.026038401507207872,-10,-1,-100,14989.439855172648,0.0015971383760283373,-0.00046220275511787913,0.9999986177578553,27.018811669632075,0.02290794091819374,87.44500054586055,-28.336525410408665,-73.02850341796875,5356.25390625,True
1599563319.1787,0.0,10,0.5,0.5,-9.828496192932128,-0.2,-0.001,-0.5,0.002847605205192504,10,1,100,-0.032510825463607826,-10,-1,-100,14987.155675773509,0.0017370539826536743,-0.00038882337027097144,0.999998415728669,28.58341853350361,0.02316433048602832,94.96381001694671,-29.07859690194579,-63.83209228515625,5356.25390625,True
1599563319.220588,0.0,10,0.5,0.5,-8.164389864349365,-0.2,-0.001,-0.5,-0.0008904092210324198,10,1,100,-0.024463226601635378,-10,-1,-100,14985.980871143518,0.001790041331634111,-0.0003563923030830709,0.9999983343668916,29.15911096520645,0.023143750470448154,98.12894916137803,-29.44958111329429,-59.6475830078125,5356.25390625,True
1599563319.2654681,0.0,10,0.5,0.5,-8.812854823303223,-0.2,-0.001,-0.5,-0.0012518736441233338,10,1,100,-0.023764676861572274,-10,-1,-100,14984.806066641933,0.001830910254317631,-0.0003305050587940445,0.9999982692655257,29.618257960369498,0.023102695532933218,100.94657226032092,-29.820536987314632,-55.739288330078125,5356.25390625,True
1599563319.3063579,0.0,10,0.5,0.5,-9.406035009765624,-0.2,-0.001,-0.5,-0.0011675475018035164,10,1,100,-0.02321664404239108,-10,-1,-100,14983.569738887367,0.0018622351275397143,-0.0003065174488585343,0.9999982190621058,29.977128593873573,0.02308293396289762,103.45789342947327,-30.19146869868425,-52.107147216796875,5356.25390625,True
1599563319.3542297,0.0,10,0.5,0.5,-9.943802033996581,-0.2,-0.001,-0.5,-0.0015390155727845922,10,1,100,-0.02237479891070191,-10,-1,-100,14982.334387527197,0.0018823150957157483,-0.0002883970660333691,0.9999981868568626,30.25178241168705,0.023112657571858812,105.70619573979894,-30.562380604620646,-48.751220703125,5356.25390625,True
1599563319.3961186,0.0,10,0.5,0.5,-10.426661730957031,-0.2,-0.001,-0.5,-0.0019145292458737147,10,1,100,-0.021610255653966074,-10,-1,-100,14981.097082715947,0.0018928569127420623,-0.00027566377731206817,0.9999981705494215,30.45754137467478,0.02320821610985941,107.734904158189,-30.933275988123675,-45.6715087890625,5356.25390625,True
1599563319.4380062,0.0,10,0.5,0.5,-10.853564157104493,-0.2,-0.001,-0.5,-0.0022510785019941946,10,1,100,-0.020730973691982835,-10,-1,-100,14979.858801489929,0.0018939061523205437,-0.00026742302618066346,0.9999981708005328,30.608880504406173,0.02337663728954485,109.5870348202595,-31.30415767884323,-42.86798095703125,5356.25390625,True
1599563319.4788973,0.0,10,0.5,0.5,-10.364860446166993,-0.2,-0.001,-0.5,-0.0028221942060134325,10,1,100,-0.02035074531826651,-10,-1,-100,14979.270910058287,0.0018909154385510186,-0.0002653887412048091,0.9999981770021484,30.668317524558443,0.023488501814479066,110.45974732441873,-31.489594185323906,-41.56976318359375,5356.25390625,True
1599563319.5217822,0.0,10,0.5,0.5,-10.5803533203125,-0.2,-0.001,-0.5,-0.002901532894249294,10,1,100,-0.020105069830915416,-10,-1,-100,14978.622473414405,0.0018855290913352134,-0.00026450937807334727,0.9999981874057745,30.71927595936891,0.023618555635227887,111.30445865390585,-31.67502793560893,-40.340576171875,5356.25390625,True
1599563319.5646682,0.0,10,0.5,0.5,-12.9280375,-0.2,-0.001,-0.5,-0.003788417660250384,10,1,100,-0.01596047848944255,-10,-1,-100,14976.022863930557,0.0018426099767880008,-0.00027198884704629305,0.9999982654037658,30.864998876836808,0.024306061819518596,114.4914006940853,-32.416739602497614,-36.1141357421875,5356.25390625,True
1599563319.6075547,0.0,10,0.5,0.5,-12.007876397705079,-0.2,-0.001,-0.5,-0.004217951468695476,10,1,100,-0.01647327452984638,-10,-1,-100,14974.720129392925,0.0018080312261116972,-0.0002828661388330824,0.9999983255035145,30.92104988012981,0.024739365651629108,116.03227957905062,-32.787582526032224,-34.4150390625,5356.25390625,True
1599563319.6474833,0.0,10,0.5,0.5,-12.15739403076172,-0.2,-0.001,-0.5,-0.004635767336859298,10,1,100,-0.015253795825023828,-10,-1,-100,14973.42227767629,0.001765445303413527,-0.000296649236742051,0.9999983975997716,30.97755603490762,0.025224070468169015,117.58044999478892,-33.15841674484149,-32.99200439453125,5356.25390625,True
1599563319.689335,0.0,10,0.5,0.5,-12.251487200927734,-0.2,-0.001,-0.5,-0.005262610799966004,10,1,100,-0.013882976750255899,-10,-1,-100,14972.059972650604,0.001714291196670228,-0.0003149322145660298,0.999998481010543,31.04155126178704,0.025754722949779103,119.16297689651951,-33.52924191104141,-31.844940185546875,5356.25390625,True
1599563319.731223,0.0,10,0.5,0.5,-12.290110156250002,-0.2,-0.001,-0.5,-0.0057815582243978154,10,1,100,-0.012452944397424648,-10,-1,-100,14970.697667689412,0.0016548931864757152,-0.000336284964486507,0.9999985741194656,31.118814637620613,0.026326888270473393,120.80326122128766,-33.900057420483286,-30.973846435546875,5356.25390625,True
1599563319.7751055,0.0,10,0.5,0.5,-12.27328427734375,-0.2,-0.001,-0.5,-0.0062963799529686965,10,1,100,-0.010953404858094318,-10,-1,-100,14969.334386094473,0.0015874513104332133,-0.0003603496914779234,0.9999986750723407,31.213885695781737,0.026936966054896618,122.52083230729514,-34.270862314531726,-30.378692626953125,5356.25390625,True
1599563319.8170295,0.0,10,0.5,0.5,-12.20101569519043,-0.2,-0.001,-0.5,-0.006804824795493308,10,1,100,-0.009370405796428574,-10,-1,-100,14967.970128373476,0.0015120176714569617,-0.00038678353037903065,0.9999987820997892,31.329990187953737,0.027581780188782986,124.33078767820402,-34.641655520596494,-30.0594482421875,5356.25390625,True
1599563319.8588817,0.0,10,0.5,0.5,-12.073310543823244,-0.2,-0.001,-0.5,-0.0072688295046404415,10,1,100,-0.0076799985305334335,-10,-1,-100,14966.606846876326,0.0014284205147352181,-0.0004149314996876776,0.99999889372273,31.46916935131017,0.028258179730042115,126.2440285357987,-35.01243565440536,-30.016082763671875,5356.25390625,True
1599563319.9007697,0.0,10,0.5,0.5,-11.890217681884767,-0.2,-0.001,-0.5,-0.007679761130796037,10,1,100,-0.005884275926765837,-10,-1,-100,14965.182041633409,0.0013365215173517324,-0.0004441222061392193,0.9999990082323581,31.632182950139697,0.02896232810057618,128.2666150933541,-35.383201609150404,-30.248504638671875,5356.25390625,True
1599563319.9436545,0.0,10,0.5,0.5,-11.651814285278322,-0.2,-0.001,-0.5,-0.008050182202416984,10,1,100,-0.004038041214973986,-10,-1,-100,14963.757236885373,0.0012366970168242735,-0.00047386419132359813,0.999999123016224,31.818605321086423,0.02968916451319926,130.39988128141732,-35.75395213753472,-30.7567138671875,5356.25390625,True
1599563319.986161,0.0,10,0.5,0.5,-11.35814376525879,-0.2,-0.001,-0.5,-0.008345570687565676,10,1,100,-0.0021486811873091607,-10,-1,-100,14962.329502043896,0.001129361317979186,-0.0005033973869805213,0.99999923556675,32.02683832898494,0.030431713320407946,132.64023285429704,-36.12468598419658,-31.540618896484375,5356.25390625,True
1599563320.027051,0.0,10,0.5,0.5,-11.00883305053711,-0.2,-0.001,-0.5,-0.00857392379642067,10,1,100,-0.00014754411252160607,-10,-1,-100,14960.841220407397,0.0010142396625845002,-0.0005321113126219204,0.9999993440875139,32.253964488616894,0.03118027349498137,134.978279904337,-36.49540195598213,-32.6002197265625,5356.25390625,True
1599563320.068939,0.0,10,0.5,0.5,-11.095589849853516,-0.2,-0.001,-0.5,-0.007238718883247541,10,1,100,-0.0049444215828537245,-10,-1,-100,14960.129305673414,0.0009539132179228299,-0.0005458500683818103,0.9999993960484556,32.37327681986422,0.03155283043639455,136.17908465466124,-36.68075296274214,-33.2333984375,5356.25390625,True
1599563320.110827,0.0,10,0.5,0.5,-9.793170080566407,-0.2,-0.001,-0.5,-0.01005304611846224,10,1,100,0.010226671859875715,-10,-1,-100,14957.863681082148,0.0007618897206469444,-0.0005836980931821713,0.9999995394101887,32.74714597461136,0.032640206124572094,139.8814251235192,-37.236776655016996,-35.546234130859375,5356.25390625,True
1599563320.1577027,0.0,10,0.5,0.5,-9.628771020507815,-0.2,-0.001,-0.5,-0.008978285373618094,10,1,100,0.006236527992382904,-10,-1,-100,14956.374423223431,0.0006244627596242771,-0.0006080905036124471,0.9999996201360285,33.00117329182912,0.03331439455701436,142.39799550660854,-37.607434347157394,-37.432586669921875,5356.25390625,True
1599563320.2000988,0.0,10,0.5,0.5,-9.058081201171875,-0.2,-0.001,-0.5,-0.008297067656462742,10,1,100,0.008198578595568478,-10,-1,-100,14954.885164783103,0.00048262908996275745,-0.0006238254379029893,0.999999688955444,33.24995275353418,0.033919940994273236,144.91429146351567,-37.97807195710763,-39.594329833984375,5356.25390625,True
1599563320.243493,0.0,10,0.5,0.5,-10.138031219482423,-0.2,-0.001,-0.5,-0.006749921802051031,10,1,100,-0.005874306148536443,-10,-1,-100,14954.885164783103,0.00048262908996275745,-0.0006238254379029893,0.999999688955444,33.24995275353418,0.033919940994273236,144.91429146351567,-37.97807195710763,-39.594329833984375,5356.25390625,True
1599563320.2873764,0.0,10,0.5,0.5,-6.532274264526368,-0.2,-0.001,-0.5,-0.009295252907472431,10,1,100,0.02744320866357251,-10,-1,-100,14951.782625543303,0.00018067839947221625,-0.0006467493189454348,0.9999997745352917,33.69303560563648,0.03481034939279609,149.7712931862242,-38.719290086897665,-44.744049072265625,5356.25390625,True
1599563320.328269,0.0,10,0.5,0.5,-9.105661087036134,-0.2,-0.001,-0.5,-0.0070260465851536575,10,1,100,-0.00262708617395531,-10,-1,-100,14951.782625543303,0.00018067839947221625,-0.0006467493189454348,0.9999997745352917,33.69303560563648,0.03481034939279609,149.7712931862242,-38.719290086897665,-44.744049072265625,5356.25390625,True
