Timestamp,Input Throttle,horizon,dT,dt,Input Roll,Roll P,Roll I,Roll D,Input Pitch,Pitch P,Pitch I,Pitch D,Input Yaw,Yaw P,Yaw I,Yaw D,Altitude,Direction X,Direction Y,Direction Z,Drag X,Drag Y,Drag Z,Vertical Velocity,Roll,Mass,Has Fuel
1599561202.0047529,0.0,10,0.5,0.5,-5.850113166809082,-0.1005,-0.0155,-0.37525,-0.0005235856497587042,10,1,100,0.1711311211924617,-10,-1,-100,14993.4021353852,-0.016776161420245763,-7.544816071255443e-05,0.9998592674549639,28.71720225522341,0.02710916407870855,-88.32814886881127,27.1949494833242,-31.792083740234375,5356.25390625,True
1599561202.0400927,0.0,10,0.5,0.5,-5.940684085083008,-0.1005,-0.0155,-0.37525,-0.00021966035474323717,10,1,100,0.1771972248653768,-10,-1,-100,14994.474403965869,-0.016846688643162987,-7.051756009024932e-05,0.9998580819841554,28.57186754794127,0.027439473071403712,-86.68236988269594,26.823010524314498,-31.7908935546875,5356.25390625,True
1599561202.0700102,0.0,10,0.5,0.5,-6.030461582946778,-0.1005,-0.0155,-0.37525,-0.0007197721729827735,10,1,100,0.17182917143797075,-10,-1,-100,14994.474403965869,-0.016846688643162987,-7.051756009024932e-05,0.9998580819841554,28.57186754794127,0.027439473071403712,-86.68236988269594,26.823010524314498,-31.7908935546875,5356.25390625,True
1599561202.1041698,0.0,10,0.5,0.5,-6.055148115539551,-0.1005,-0.0155,-0.37525,0.007281847852423618,10,1,100,0.18152959851140554,-10,-1,-100,14996.077923480887,-0.01691955917233679,2.2885470135271983e-06,0.9998568540107011,28.35754264140705,0.027926400641277528,-84.24749463100298,26.26513150391208,-31.92864990234375,5356.25390625,True
1599561202.1330934,0.0,10,0.5,0.5,-6.196851777648926,-0.1005,-0.0155,-0.37525,1.4659967473193934e-06,10,1,100,0.17593450151125875,-10,-1,-100,14996.077923480887,-0.01691955917233679,2.2885470135271983e-06,0.9998568540107011,28.35754264140705,0.027926400641277528,-84.24749463100298,26.26513150391208,-31.92864990234375,5356.25390625,True
1599561202.1650078,0.0,10,0.5,0.5,-6.100296589660645,-0.1005,-0.0155,-0.37525,0.009457811753769746,10,1,100,0.18090870052758884,-10,-1,-100,14997.086714518839,-0.01694939774596494,8.825324612553697e-05,0.9998563447452907,28.23337623775435,0.028256299287817425,-82.6940376999715,25.8932309475859,-32.32080078125,5356.25390625,True
1599561202.1959226,0.0,10,0.5,0.5,-5.814397186279297,-0.1005,-0.0155,-0.37525,0.02507039379617847,10,1,100,0.17849030182559344,-10,-1,-100,14998.627729684697,-0.016939129735839695,0.0003082553063891474,0.9998564751315352,28.084657062243878,0.028753651417410087,-80.49088684086438,25.33540582533795,-33.418975830078125,5356.25390625,True
1599561202.2218592,0.0,10,0.5,0.5,-6.31418796081543,-0.1005,-0.0155,-0.37525,0.0031010133004563427,10,1,100,0.18121101581170193,-10,-1,-100,14998.627729684697,-0.016939129735839695,0.0003082553063891474,0.9998564751315352,28.084657062243878,0.028753651417410087,-80.49088684086438,25.33540582533795,-33.418975830078125,5356.25390625,True
1599561202.2517748,0.0,10,0.5,0.5,-5.890364378356934,-0.1005,-0.0155,-0.37525,0.026258523493736783,10,1,100,0.1774869935257563,-10,-1,-100,14999.630657517933,-0.01688987577893488,0.0005184978942313431,0.9998572214351936,28.007180498771017,0.0290733610941634,-79.0936519459065,24.963538138742912,-34.494171142578125,5356.25390625,True
1599561202.2787015,0.0,10,0.5,0.5,-6.075059072875977,-0.1005,-0.0155,-0.37525,0.018682063179675922,10,1,100,0.17970376738331822,-10,-1,-100,15000.10526535951,-0.016849897511563853,0.0006402792458743938,0.9998578253913587,27.97346812508317,0.029225113897108,-78.41153682475205,24.777608657473284,-35.134857177734375,5356.25390625,True
1599561202.3106222,0.0,10,0.5,0.5,-6.063058456420898,-0.1005,-0.0155,-0.37525,0.021703014586335924,10,1,100,0.18044528313643332,-10,-1,-100,15000.637490211288,-0.016804976595789816,0.0007778706881141904,0.9998584838259901,27.94223697852037,0.029369058296829183,-77.73772249550322,24.59168203433907,-35.84417724609375,5356.25390625,True
1599561202.338542,0.0,10,0.5,0.5,-5.1144103332519535,-0.1005,-0.0155,-0.37525,0.06083605012287794,10,1,100,0.16294527024506517,-10,-1,-100,15002.052521644975,-0.016605022177732305,0.0012579329415290904,0.9998613358077166,27.85548575785982,0.02973265258211354,-75.74291513404857,24.033919216857885,-38.38446044921875,5356.25390625,True
1599561202.371424,0.0,10,0.5,0.5,-5.088305828857422,-0.1005,-0.0155,-0.37525,0.05452498114313549,10,1,100,0.16252228277102465,-10,-1,-100,15002.99587460165,-0.016419619790157318,0.0016357721352707778,0.9998638508994453,27.794171826187185,0.02989411822772889,-74.40971051127356,23.662091514256996,-40.4215087890625,5356.25390625,True
1599561202.4043682,0.0,10,0.5,0.5,-5.839330764770509,-0.1005,-0.0155,-0.37525,0.016911690738502846,10,1,100,0.1810198146432228,-10,-1,-100,15002.99587460165,-0.016419619790157318,0.0016357721352707778,0.9998638508994453,27.794171826187185,0.02989411822772889,-74.40971051127356,23.662091514256996,-40.4215087890625,5356.25390625,True
1599561202.4374669,0.0,10,0.5,0.5,-5.292501588439942,-0.1005,-0.0155,-0.37525,0.038670893224066666,10,1,100,0.168506039581928,-10,-1,-100,15003.462667562999,-0.016306312689038437,0.0018320980818774877,0.9998653647282246,27.75927354869924,0.029942632454856646,-73.7337500776309,23.47618208347288,-41.543243408203125,5356.25390625,True
1599561202.4743412,0.0,10,0.5,0.5,-4.533154357910156,-0.1005,-0.0155,-0.37525,0.06581997376471571,10,1,100,0.15116038873456628,-10,-1,-100,15004.406994845835,-0.0160461759953028,0.002255722575039612,0.999868707356917,27.674917547355662,0.029961298230984132,-72.34812487262697,23.104372351033934,-43.9927978515625,5356.25390625,True
1599561202.5072508,0.0,10,0.5,0.5,-4.8025623046875,-0.1005,-0.0155,-0.37525,0.04930571099040142,10,1,100,0.16107083047249338,-10,-1,-100,15004.873786875163,-0.015900604127479435,0.002488735662394218,0.9998704801038902,27.622776693392662,0.029925786159364892,-71.63211906868206,22.918472457495998,-45.320587158203125,5356.25390625,True
1599561202.5381348,0.0,10,0.5,0.5,-2.4283178253173827,-0.1005,-0.0155,-0.37525,0.1330782176970392,10,1,100,0.09598638364798281,-10,-1,-100,15006.691148117068,-0.015177533390697516,0.0034601517297260173,0.9998788275737124,27.31256428229082,0.029422309314849474,-68.53490533480691,22.174911256171367,-51.31964111328125,5356.25390625,True
1599561202.5710478,0.0,10,0.5,0.5,-3.8564238906860355,-0.1005,-0.0155,-0.37525,0.06480835014823465,10,1,100,0.14456391405570593,-10,-1,-100,15007.101298296126,-0.014963411721279747,0.00371975672556276,0.999881122793886,27.20137980482348,0.029194942750794435,-67.68507288626022,21.98903217486109,-52.991302490234375,5356.25390625,True
1599561202.6089454,0.0,10,0.5,0.5,-2.7661085388183597,-0.1005,-0.0155,-0.37525,0.09480817860465542,10,1,100,0.11413520437196108,-10,-1,-100,15007.974332617014,-0.0144938823556456,0.004225576745171504,0.9998860294430717,26.926302669748658,0.02860787173410482,-65.87051829233425,21.617289982925655,-56.541351318359375,5356.25390625,True
1599561202.6414425,0.0,10,0.5,0.5,-3.1714269470214846,-0.1005,-0.0155,-0.37525,0.07164766811013132,10,1,100,0.1328785212651775,-10,-1,-100,15008.3815523074,-0.014239573099694631,0.004471603669866237,0.9998886134557979,26.758672487423837,0.02824716887265569,-64.89895242248564,21.431427715705702,-58.419769287109375,5356.25390625,True
1599561202.6743884,0.0,10,0.5,0.5,-1.9559368698120123,-0.1005,-0.0155,-0.37525,0.10419536564758425,10,1,100,0.09746773505413925,-10,-1,-100,15009.258491502027,-0.013688798813726217,0.004987794730854883,0.9998938637129244,26.35343358391192,0.027393402207477466,-62.810233635190855,21.059723424984483,-62.382720947265625,5356.25390625,True
1599561202.7053216,0.0,10,0.5,0.5,-2.413946047973633,-0.1005,-0.0155,-0.37525,0.08002939165770631,10,1,100,0.11984600872969123,-10,-1,-100,15009.662781360326,-0.013394184881136318,0.005233977875673556,0.9998965952972172,26.111932262117087,0.02690300597238166,-61.68682984903229,20.873882410821675,-64.46762084960938,5356.25390625,True
1599561202.7416725,0.0,10,0.5,0.5,0.01326738891601531,-0.1005,-0.0155,-0.37525,0.13540617335155325,10,1,100,0.04297057727464826,-10,-1,-100,15010.883462358732,-0.012430236870016948,0.005957934926597865,0.9999049915980847,25.206509324204738,0.025208471008446445,-57.96166604649932,20.31641061879062,-71.1356201171875,5356.25390625,True
1599561202.7735784,0.0,10,0.5,0.5,-2.441292463684082,-0.1005,-0.0155,-0.37525,0.06344268453825506,10,1,100,0.13896644009457124,-10,-1,-100,15010.883462358732,-0.012430236870016948,0.005957934926597865,0.9999049915980847,25.206509324204738,0.025208471008446445,-57.96166604649932,20.31641061879062,-71.1356201171875,5356.25390625,True
1599561202.8044958,0.0,10,0.5,0.5,-0.11666482696533231,-0.1005,-0.0155,-0.37525,0.11449476539604246,10,1,100,0.0608253250305678,-10,-1,-100,15011.69887703564,-0.011723386801997845,0.006418293991809823,0.9999106798630193,24.431388163228053,0.023935090038223014,-55.15458338483089,19.944809900287034,-75.92544555664062,5356.25390625,True
1599561202.8382504,0.0,10,0.5,0.5,-0.6958218643188478,-0.1005,-0.0155,-0.37525,0.09143629923539301,10,1,100,0.0917718037728987,-10,-1,-100,15012.10219006578,-0.01136605726435922,0.006623395657435908,0.9999134679422158,23.98642951038179,0.023271362730817622,-53.647116437489686,19.759024837725498,-78.38204956054688,5356.25390625,True
1599561202.8741252,0.0,10,0.5,0.5,0.8023583770751952,-0.1005,-0.0155,-0.37525,0.11635591860076294,10,1,100,0.04284580428527851,-10,-1,-100,15012.85315202945,-0.010600552731948576,0.007032634929512946,0.9999190818899923,23.001979678503144,0.021946083883144,-50.4807998640585,19.387485277165656,-83.361083984375,5356.25390625,True
1599561202.9050736,0.0,10,0.5,0.5,1.4028101119995116,-0.1005,-0.0155,-0.37525,0.11505204168186553,10,1,100,0.03267649436467153,-10,-1,-100,15013.661731574568,-0.009816352140168608,0.0073895694928659255,0.9999245138976093,21.91238474481692,0.02068455072582029,-47.17077298117038,19.015984636055528,-88.446044921875,5356.25390625,True
1599561202.9379554,0.0,10,0.5,0.5,0.7789457889556883,-0.1005,-0.0155,-0.37525,0.0982877915483668,10,1,100,0.06536586318729262,-10,-1,-100,15014.006450545392,-0.009405297736557112,0.0075583169921847335,0.999927203459698,21.32422525409141,0.02008534714590963,-45.45758873351809,18.830247486510498,-91.02999114990234,5356.25390625,True
1599561202.971863,0.0,10,0.5,0.5,2.3542980247497556,-0.1005,-0.0155,-0.37525,0.11449269252942967,10,1,100,0.014684120338059381,-10,-1,-100,15014.751554391347,-0.008575494784298258,0.007856011327532391,0.9999323697006843,22.00381987569316,0.020777960019263103,-45.98363906572808,18.4587739548952,-96.26702880859375,5356.25390625,True
1599561203.0079248,0.0,10,0.5,0.5,4.021274347305297,-0.1005,-0.0155,-0.37525,0.12469471948130507,10,1,100,-0.04258259235308795,-10,-1,-100,15015.842355566798,-0.007305671147157411,0.00821631150681307,0.9999395578705308,23.21193943336011,0.02228650373835813,-47.04804774519137,17.901547504841684,-103.77835083007812,5356.25390625,True
1599561203.258255,0.0,10,0.5,0.5,1.2668139850616456,-0.1005,-0.0155,-0.37525,0.0889875532308331,10,1,100,0.08376145859433984,-10,-1,-100,15015.842355566798,-0.007305671147157411,0.00821631150681307,0.9999395578705308,23.21193943336011,0.02228650373835813,-47.04804774519137,17.901547504841684,-103.77835083007812,5356.25390625,True
1599561203.2869706,0.0,10,0.5,0.5,3.573224492645264,-0.1005,-0.0155,-0.37525,0.10915423642905493,10,1,100,-0.010844777358616914,-10,-1,-100,15016.526914299,-0.006451149469161421,0.008396933778041323,0.9999439355152137,23.825839350578,0.023234237909736062,-47.29275476610831,17.530049990753025,-108.49822235107422,5356.25390625,True
1599561203.3228755,0.0,10,0.5,0.5,3.979813049316406,-0.1005,-0.0155,-0.37525,0.10634542114771697,10,1,100,-0.01967675280094587,-10,-1,-100,15017.208544467925,-0.005599456428235582,0.00853338388673535,0.9999479123670143,24.287120957238727,0.024072479908883084,-47.18915746018984,17.158543148281396,-112.95394134521484,5356.25390625,True
1599561203.3587794,0.0,10,0.5,0.5,2.372622894668579,-0.1005,-0.0155,-0.37525,0.09295795517432796,10,1,100,0.06480947324745996,-10,-1,-100,15017.208544467925,-0.005599456428235582,0.00853338388673535,0.9999479123670143,24.287120957238727,0.024072479908883084,-47.18915746018984,17.158543148281396,-112.95394134521484,5356.25390625,True
1599561203.4151394,0.0,10,0.5,0.5,5.365517101287842,-0.1005,-0.0155,-0.37525,0.10739150189643569,10,1,100,-0.07189734326242932,-10,-1,-100,15018.233921725536,-0.004362234396667281,0.008662675138850034,0.9999529633790318,24.866894844882783,0.025195388424289013,-46.74988111586754,16.601270172941597,-119.12419891357422,5356.25390625,True
1599561203.4520404,0.0,10,0.5,0.5,4.026339921951294,-0.1005,-0.0155,-0.37525,0.09727773107567206,10,1,100,0.006609639550741266,-10,-1,-100,15018.576691510389,-0.003957554050695551,0.008686415379236973,0.9999544409390836,25.00608383424207,0.025491408055485814,-46.48661312830259,16.415510804695764,-121.04340362548828,5356.25390625,True
1599561203.4859495,0.0,10,0.5,0.5,5.092567972946167,-0.1005,-0.0155,-0.37525,0.09562542134854576,10,1,100,-0.04428480766600172,-10,-1,-100,15019.193871568772,-0.0031330251239156362,0.008691472981660566,0.9999573203147133,25.205537782947403,0.025949191856960645,-45.799011249902314,16.043992234196036,-124.67556762695312,5356.25390625,True
1599561203.513875,0.0,10,0.5,0.5,5.382575789642334,-0.1005,-0.0155,-0.37525,0.09502899060864398,10,1,100,-0.045080884417177815,-10,-1,-100,15019.87452976976,-0.0023822920627561608,0.008689465155784002,0.9999594081160667,25.31344191021686,0.02623129077622631,-44.932014091618434,15.672477046626907,-128.03199768066406,5356.25390625,True
1599561203.5502906,0.0,10,0.5,0.5,4.9297841358184815,-0.1005,-0.0155,-0.37525,0.09274348086832493,10,1,100,-0.013180281921342924,-10,-1,-100,15020.153823611792,-0.001996197489549501,0.00866583418174459,0.9999604584749925,25.337431303618033,0.026309451457091487,-44.44251805227655,15.486721741271934,-129.6071014404297,5356.25390625,True
1599561203.5842004,0.0,10,0.5,0.5,5.790772119522096,-0.1005,-0.0155,-0.37525,0.08878047698922414,10,1,100,-0.05596672877325902,-10,-1,-100,15020.771983644692,-0.0012622159037030721,0.008607587967485834,0.9999621574041662,25.3352707862702,0.026350479280596355,-43.37459345040719,15.115217641554066,-132.55059814453125,5356.25390625,True
1599561203.6211019,0.0,10,0.5,0.5,6.000071800613403,-0.1005,-0.0155,-0.37525,0.08638672436647818,10,1,100,-0.05968639448241798,-10,-1,-100,15021.391120478977,-0.000566638823980741,0.00853251977026139,0.9999634368449744,25.277573788849043,0.026252875551835583,-42.214029257502546,14.743724410825722,-135.21849060058594,5356.25390625,True
1599561203.6580024,0.0,10,0.5,0.5,5.633189030838013,-0.1005,-0.0155,-0.37525,0.08837849860659167,10,1,100,-0.028272179894781833,-10,-1,-100,15021.669439140707,-0.0002260061862327474,0.00848209553109161,0.999964000840333,25.231878782815688,0.026158640163580195,-41.607762123161905,14.557982476988869,-136.44920349121094,5356.25390625,True
1599561203.695902,0.0,10,0.5,0.5,6.287267053222656,-0.1005,-0.0155,-0.37525,0.08269656652233098,10,1,100,-0.06542307033305375,-10,-1,-100,15022.222171710338,0.00041573599453796547,0.008384523965850304,0.9999647628398958,25.114296650396124,0.025893756677475715,-40.35885775679402,14.18650894283243,-138.70370483398438,5356.25390625,True
1599561203.7308085,0.0,10,0.5,0.5,6.4226305912017825,-0.1005,-0.0155,-0.37525,0.0803520629940328,10,1,100,-0.06854948003230957,-10,-1,-100,15022.777834802517,0.0010220915266656904,0.008274644201665392,0.9999652421920708,24.970675191470036,0.025546066660567444,-39.07903526639607,13.815050136335042,-140.68258666992188,5356.25390625,True
1599561203.7597322,0.0,10,0.5,0.5,6.533397932434082,-0.1005,-0.0155,-0.37525,0.07716541670835947,10,1,100,-0.07187876165118395,-10,-1,-100,15023.331545162946,0.0015975704360852972,0.008146019213159415,0.9999655444762487,24.810891284933337,0.025137821820417097,-37.78662006533506,13.443606305174528,-142.38592529296875,5356.25390625,True
1599561203.7946405,0.0,10,0.5,0.5,6.2862244251251225,-0.1005,-0.0155,-0.37525,0.08343933527010106,10,1,100,-0.044518623490648154,-10,-1,-100,15023.604982264922,0.0018665865478866574,0.008086592715920441,0.9999655608434254,24.729555177558723,0.024919309095276822,-37.143260347954325,13.25788996439625,-143.1341094970703,5356.25390625,True
1599561203.8345318,0.0,10,0.5,0.5,6.653241718292237,-0.1005,-0.0155,-0.37525,0.07556971578668145,10,1,100,-0.07454319337055317,-10,-1,-100,15024.098146571894,0.002378802611524683,0.007961571925547847,0.999965476739377,24.597523754959692,0.024493260957885628,-35.91148967288658,12.886468123079302,-144.42372131347656,5356.25390625,True
1599561203.870435,0.0,10,0.5,0.5,7.033452518463135,-0.1005,-0.0155,-0.37525,0.05946162040131804,10,1,100,-0.12462435994208657,-10,-1,-100,15025.07666388317,0.0032947261584500643,0.007702142977211379,0.9999649102709052,24.336524045875798,0.023594225012698464,-33.48527794175197,12.143665359147827,-146.17575073242188,5356.25390625,True
1599561203.9013562,0.0,10,0.5,0.5,6.404126296234131,-0.1005,-0.0155,-0.37525,0.08530578301710762,10,1,100,-0.03359970707166907,-10,-1,-100,15025.07666388317,0.0032947261584500643,0.007702142977211379,0.9999649102709052,24.336524045875798,0.023594225012698464,-33.48527794175197,12.143665359147827,-146.17575073242188,5356.25390625,True
1599561203.9352615,0.0,10,0.5,0.5,6.71038231048584,-0.1005,-0.0155,-0.37525,0.06675603955462,10,1,100,-0.09795729981563886,-10,-1,-100,15025.779790721484,0.0038749852528061537,0.007534385028647431,0.9999641081216519,24.161698609085757,0.02292553358673419,-31.721705122183202,11.586595294767385,-146.7655029296875,5356.25390625,True
1599561203.9731612,0.0,10,0.5,0.5,6.511110900878907,-0.1005,-0.0155,-0.37525,0.08342451411713096,10,1,100,-0.04044511049568085,-10,-1,-100,15025.779790721484,0.0038749852528061537,0.007534385028647431,0.9999641081216519,24.161698609085757,0.02292553358673419,-31.721705122183202,11.586595294767385,-146.7655029296875,5356.25390625,True
1599561204.0110605,0.0,10,0.5,0.5,6.443994300842286,-0.1005,-0.0155,-0.37525,0.05831147166017445,10,1,100,-0.11229079031815942,-10,-1,-100,15026.690926382318,0.004524089956577062,0.007306992037894748,0.9999630695567826,23.97215520396764,0.022094123124448525,-29.45781549714181,10.843870751363662,-146.58680725097656,5356.25390625,True
1599561204.0449693,0.0,10,0.5,0.5,6.423556692504883,-0.1005,-0.0155,-0.37525,0.07428822140839511,10,1,100,-0.06332581020647247,-10,-1,-100,15026.900887802127,0.004664730689769088,0.007246582592642676,0.9999628629745806,23.932954535955908,0.0219016531850171,-28.906656193564572,10.658195001414615,-146.369873046875,5356.25390625,True
1599561204.0808728,0.0,10,0.5,0.5,6.516843813323975,-0.1005,-0.0155,-0.37525,0.08021537179628156,10,1,100,-0.04968663635679297,-10,-1,-100,15026.900887802127,0.004664730689769088,0.007246582592642676,0.9999628629745806,23.932954535955908,0.0219016531850171,-28.906656193564572,10.658195001414615,-146.369873046875,5356.25390625,True
1599561204.117774,0.0,10,0.5,0.5,5.7845283584594736,-0.1005,-0.0155,-0.37525,0.058705460830644346,10,1,100,-0.10100103749694792,-10,-1,-100,15027.751476166653,0.0051279137554404025,0.007051972548963267,0.9999619863693248,23.80331777971478,0.021206971397846115,-26.748806881924107,9.915510275627986,-144.8120574951172,5356.25390625,True
1599561204.1566708,0.0,10,0.5,0.5,5.805546729278564,-0.1005,-0.0155,-0.37525,0.0673404407903562,10,1,100,-0.07463450675103608,-10,-1,-100,15028.110852138372,0.005306084132615713,0.006954548733128636,0.999961739129601,23.748921098284562,0.020908739819710406,-25.689197450808038,9.544177014755313,-143.61959838867188,5356.25390625,True
1599561204.1915796,0.0,10,0.5,0.5,5.555113335418701,-0.1005,-0.0155,-0.37525,0.06903948889228124,10,1,100,-0.07220222004114794,-10,-1,-100,15028.472180736717,0.005442818689426349,0.006882456650553556,0.9999615030165747,23.69496876649288,0.020644858213113293,-24.634536859946877,9.17284917811009,-142.15106201171875,5356.25390625,True
1599561204.2254863,0.0,10,0.5,0.5,6.102658988952637,-0.1005,-0.0155,-0.37525,0.07614078562228987,10,1,100,-0.0588351659678745,-10,-1,-100,15028.472180736717,0.005442818689426349,0.006882456650553556,0.9999615030165747,23.69496876649288,0.020644858213113293,-24.634536859946877,9.17284917811009,-142.15106201171875,5356.25390625,True
1599561204.2564032,0.0,10,0.5,0.5,5.266667597198487,-0.1005,-0.0155,-0.37525,0.06718791477792599,10,1,100,-0.07051888918544283,-10,-1,-100,15028.834485462401,0.00554708154364881,0.006801812084992664,0.9999614818775315,23.63489785686233,0.02041510297703175,-23.578224056766928,8.801526266209784,-140.40696716308594,5356.25390625,True
1599561204.2903132,0.0,10,0.5,0.5,5.44811338043213,-0.1005,-0.0155,-0.37525,0.07111701163345491,10,1,100,-0.06449534428944827,-10,-1,-100,15028.97999319702,0.0055850588617190975,0.006765036388525951,0.9999615199597297,23.600066803220475,0.020312470070528745,-23.04724780037801,8.615866618778393,-139.43148803710938,5356.25390625,True
1599561204.320234,0.0,10,0.5,0.5,4.7762541030883785,-0.1005,-0.0155,-0.37525,0.06670238525917506,10,1,100,-0.06625586204364896,-10,-1,-100,15029.341320562526,0.005634033790813081,0.006692170378008324,0.999961735527353,23.51507764530028,0.0201295403231602,-21.975306247929296,8.24455095125686,-137.2737579345703,5356.25390625,True
1599561204.3551402,0.0,10,0.5,0.5,4.413498708343506,-0.1005,-0.0155,-0.37525,0.06657805380310684,10,1,100,-0.06296655779358064,-10,-1,-100,15029.635265304707,0.005647054552681529,0.00662556391398317,0.9999621056208584,23.40096236091246,0.019971485433488628,-20.884441421126823,7.87323983604681,-134.84027099609375,5356.25390625,True
1599561204.3910484,0.0,10,0.5,0.5,4.6804277694702145,-0.1005,-0.0155,-0.37525,0.06923505289669628,10,1,100,-0.061068472985876227,-10,-1,-100,15029.84424878168,0.005640615415586347,0.006589786600378307,0.9999623783774544,23.329376083711594,0.01989912342284991,-20.32991967170282,7.687585941692703,-133.5201873779297,5356.25390625,True
1599561204.425955,0.0,10,0.5,0.5,3.075082930755615,-0.1005,-0.0155,-0.37525,0.06098002978246669,10,1,100,-0.05407433583417157,-10,-1,-100,15030.225105527905,0.005570291421642669,0.006482813192419313,0.9999634718261413,23.036931570917822,0.019689849157980385,-18.621513120692395,7.130629991857383,-129.146484375,5356.25390625,True
1599561204.4628572,0.0,10,0.5,0.5,3.1385529342651366,-0.1005,-0.0155,-0.37525,0.06305646973359444,10,1,100,-0.05149025488398485,-10,-1,-100,15030.521001072833,0.005482045636026834,0.006405135702376137,0.999964460074596,22.759110335397963,0.019535946266176357,-17.43949461293125,6.759329910427167,-125.88623046875,5356.25390625,True
1599561204.4967666,0.0,10,0.5,0.5,3.507934836578369,-0.1005,-0.0155,-0.37525,0.06628651895484478,10,1,100,-0.05439866213192669,-10,-1,-100,15030.665530771366,0.005427940322375013,0.006364471919663332,0.9999650148685406,22.58993362275896,0.01944768101249381,-16.83466812536957,6.5736806201801175,-124.15277099609375,5356.25390625,True
1599561204.5336678,0.0,10,0.5,0.5,3.2707870452880865,-0.1005,-0.0155,-0.37525,0.0655782087308794,10,1,100,-0.05297569153078387,-10,-1,-100,15030.812013941584,0.005365706798872278,0.006321602094082428,0.9999656226778562,22.397598524028975,0.01934762280855899,-16.220169178992997,6.388031565800505,-122.35044860839844,5356.25390625,True
1599561204.569571,0.0,10,0.5,0.5,2.1032159637451175,-0.1005,-0.0155,-0.37525,0.05946653305793402,10,1,100,-0.0430559321997463,-10,-1,-100,15031.046385423047,0.005219021339851772,0.0062275787052152596,0.9999669889949991,21.937719809508145,0.019100002415303356,-14.964089022871704,6.016733050650281,-118.53919982910156,5356.25390625,True
1599561204.6004906,0.0,10,0.5,0.5,1.5525554664611818,-0.1005,-0.0155,-0.37525,0.05711837707594372,10,1,100,-0.03842240547212636,-10,-1,-100,15031.275873526349,0.005043751404445289,0.00612135136817732,0.9999685443198689,21.4125047467315,0.018807275886637193,-13.704811982308215,5.645431713784956,-114.45252990722656,5356.25390625,True
1599561204.6363924,0.0,10,0.5,0.5,2.0246045902252203,-0.1005,-0.0155,-0.37525,0.06121996361093632,10,1,100,-0.04522533731770802,-10,-1,-100,15031.358878781903,0.004946717507343959,0.006062686812748958,0.9999693864386616,21.105767683264542,0.018622005569916285,-13.064402892573979,5.45977922575652,-112.3059310913086,5356.25390625,True
1599561204.6732938,0.0,10,0.5,0.5,-1.624423680877685,-0.1005,-0.0155,-0.37525,0.03690373518605519,10,1,100,-0.006284525793851983,-10,-1,-100,15031.758283465868,0.0045050778064480365,0.005788937276293143,0.9999730958776686,19.692344073762477,0.017666152909425633,-10.531909939483171,4.717144747363042,-103.03111267089844,5356.25390625,True
1599561204.7082012,0.0,10,0.5,0.5,1.8028758312225341,-0.1005,-0.0155,-0.37525,0.06418836552146516,10,1,100,-0.05033560028500774,-10,-1,-100,15031.758283465868,0.0045050778064480365,0.005788937276293143,0.9999730958776686,19.692344073762477,0.017666152909425633,-10.531909939483171,4.717144747363042,-103.03111267089844,5356.25390625,True
1599561204.7391188,0.0,10,0.5,0.5,-1.8602474617004394,-0.1005,-0.0155,-0.37525,0.036404072007938756,10,1,100,-0.008780832272958797,-10,-1,-100,15032.007298703073,0.0041283453488350766,0.0055371133594771665,0.9999761482857104,18.24082796592432,0.01650530552369228,-8.60383901856503,4.160130659829104,-95.43506622314453,5356.25390625,True
1599561204.7770166,0.0,10,0.5,0.5,-1.4571662994384764,-0.1005,-0.0155,-0.37525,0.040167177679040114,10,1,100,-0.016623513799735704,-10,-1,-100,15032.172332173446,0.0038585331922183132,0.0053433495532371105,0.9999782799326974,17.16750566692182,0.015569520338429208,-7.374815698991658,3.788764873689246,-90.41498565673828,5356.25390625,True
1599561204.814429,0.0,10,0.5,0.5,0.3665851100921631,-0.1005,-0.0155,-0.37525,0.059429611939127505,10,1,100,-0.043433553638469596,-10,-1,-100,15032.172332173446,0.0038585331922183132,0.0053433495532371105,0.9999782799326974,17.16750566692182,0.015569520338429208,-7.374815698991658,3.788764873689246,-90.41498565673828,5356.25390625,True
1599561204.8523288,0.0,10,0.5,0.5,-2.0307214359283448,-0.1005,-0.0155,-0.37525,0.036718848363906875,10,1,100,-0.013865714372758492,-10,-1,-100,15032.336388829397,0.0035912105738425838,0.005137853326325231,0.9999803526418962,16.86761104461951,0.015276674651963354,-6.535784291880462,3.417377921104893,-85.49154663085938,5356.25390625,True
1599561204.8882315,0.0,10,0.5,0.5,-2.4678029937744137,-0.1005,-0.0155,-0.37525,0.03220633349878625,10,1,100,-0.009897194903536306,-10,-1,-100,15032.436969506787,0.0033137823162794756,0.004911130819989097,0.9999824496664075,17.760412896007114,0.016028188743625885,-6.133874055631244,3.045971618700213,-80.81539916992188,5356.25390625,True
1599561204.920146,0.0,10,0.5,0.5,-2.9643864219665526,-0.1005,-0.0155,-0.37525,0.02668291393954028,10,1,100,-0.005713822194385328,-10,-1,-100,15032.538526488584,0.0030254095343049073,0.004656088792121369,0.9999845837483243,18.51550696376134,0.016648369985547907,-5.614979284450468,2.67455508690727,-76.21859741210938,5356.25390625,True
1599561204.9570465,0.0,10,0.5,0.5,-2.3832965957641603,-0.1005,-0.0155,-0.37525,0.037968851866246045,10,1,100,-0.018987508157092416,-10,-1,-100,15032.618601766066,0.002885916524721316,0.004528260466041755,0.9999855830675579,18.856902744188186,0.016928726622394544,-5.321474496482917,2.488845637498463,-73.9521484375,5356.25390625,True
1599561204.991954,0.0,10,0.5,0.5,-5.614214124298096,-0.1005,-0.0155,-0.37525,-0.0109087210997511,10,1,100,0.029646978964972242,-10,-1,-100,15032.761169687961,0.0023189346647899396,0.0039691595889168,0.99998943410127,19.88285660869528,0.017769412261412217,-3.93640833881386,1.7460077468790551,-65.50521850585938,5356.25390625,True
1599561205.025863,0.0,10,0.5,0.5,-4.332525820541382,-0.1005,-0.0155,-0.37525,0.010945152474888972,10,1,100,0.004426197587083458,-10,-1,-100,15032.858821102418,0.002035165334508181,0.003661460848776143,0.9999912258647643,20.20105068116809,0.018032183530041764,-3.148668629063883,1.3745849660270748,-61.689178466796875,5356.25390625,True
1599561205.0567808,0.0,10,0.5,0.5,-2.964636793899536,-0.1005,-0.0155,-0.37525,0.04150227884620293,10,1,100,-0.023703744193898424,-10,-1,-100,15032.858821102418,0.002035165334508181,0.003661460848776143,0.9999912258647643,20.20105068116809,0.018032183530041764,-3.148668629063883,1.3745849660270748,-61.689178466796875,5356.25390625,True
1599561205.0976713,0.0,10,0.5,0.5,-4.713267863082886,-0.1005,-0.0155,-0.37525,0.009166086394750354,10,1,100,0.006495126696156497,-10,-1,-100,15032.896902965615,0.0017628755195730815,0.003369429532333408,0.999992769581125,20.397269682344792,0.018200353948953907,-2.3202124641174224,1.0031545610605037,-58.148345947265625,5356.25390625,True
1599561205.1375656,0.0,10,0.5,0.5,-4.2353638160705565,-0.1005,-0.0155,-0.37525,0.020864944266517353,10,1,100,-0.005360274945185494,-10,-1,-100,15032.91447903344,0.001625266129852702,0.0032122703924262067,0.9999935198934705,20.45540761697119,0.018252791866004054,-1.8960626960086948,0.8174352637822331,-56.48150634765625,5356.25390625,True
1599561205.172471,0.0,10,0.5,0.5,-6.506409508132935,-0.1005,-0.0155,-0.37525,-0.03487952244377886,10,1,100,0.039976079754715454,-10,-1,-100,15032.927167755435,0.001090048248346317,0.002564567912563159,0.9999961173855816,20.473046938102687,0.018285319482017778,-0.17301358261055827,0.07452337886205385,-50.50372314453125,5356.25390625,True
1599561205.2013934,0.0,10,0.5,0.5,-4.954060539245606,-0.1005,-0.0155,-0.37525,0.011226862511710504,10,1,100,0.0011221835010543548,-10,-1,-100,15032.941814465681,0.0009592205810500425,0.0023974225955927225,0.9999966661248303,20.4353452683653,0.01825803845323565,0.25772281351055903,-0.11121464804116865,-49.18170166015625,5356.25390625,True
1599561205.2353027,0.0,10,0.5,0.5,-4.514252236938477,-0.1005,-0.0155,-0.37525,0.027667351135680904,10,1,100,-0.011697384229293839,-10,-1,-100,15032.941814465681,0.0009592205810500425,0.0023974225955927225,0.9999966661248303,20.4353452683653,0.01825803845323565,0.25772281351055903,-0.11121464804116865,-49.18170166015625,5356.25390625,True
1599561205.2682147,0.0,10,0.5,0.5,-5.722925093078613,-0.1005,-0.0155,-0.37525,-0.00793449530148747,10,1,100,0.017021165227972958,-10,-1,-100,15032.915444702609,0.0007002833693796438,0.002076054635458825,0.9999975997972962,20.440063096668222,0.018277410867139694,1.1188626546010916,-0.48270064626663545,-46.74420166015625,5356.25390625,True
1599561205.2961411,0.0,10,0.5,0.5,-5.882271691894532,-0.1005,-0.0155,-0.37525,-0.013123193561387574,10,1,100,0.019353007274838886,-10,-1,-100,15032.884192601661,0.0004458010912213414,0.0017390774458440647,0.9999983884342136,20.43601052808463,0.01829084973821485,1.979611326169081,-0.8541985780010053,-44.58270263671875,5356.25390625,True
1599561205.33005,0.0,10,0.5,0.5,-6.013819151306152,-0.1005,-0.0155,-0.37525,-0.017394375750535825,10,1,100,0.021513472562948,-10,-1,-100,15032.857824180857,0.0001970312588523472,0.0013964412381294784,0.9999990055647812,20.411031608082737,0.018287189171175337,2.837171613302523,-1.2257073576102422,-42.696990966796875,5356.25390625,True
1599561205.3599699,0.0,10,0.5,0.5,-5.74098359527588,-0.1005,-0.0155,-0.37525,-0.001225790566300457,10,1,100,0.010518937625057727,-10,-1,-100,15032.808995527565,7.275618650311641e-05,0.001234279749473619,0.9999992356297266,20.394070669826796,0.018282356304675607,3.2644702455130674,-1.4114654620374434,-41.857421875,5356.25390625,True
1599561205.3928814,0.0,10,0.5,0.5,-5.8233162017822275,-0.1005,-0.0155,-0.37525,-0.0032056890737707146,10,1,100,0.011957931063029347,-10,-1,-100,15032.765049187117,-5.151890220683079e-05,0.0010710676652633832,0.9999994250797642,20.375846927726457,0.018277334183869946,3.690841859639301,-1.5972260189783012,-41.086761474609375,5356.25390625,True
1599561205.4267912,0.0,10,0.5,0.5,-6.200949517822266,-0.1005,-0.0155,-0.37525,-0.023170667782803432,10,1,100,0.0267742586427551,-10,-1,-100,15032.677157948609,-0.0002972931569981851,0.0007435481397024285,0.99999967937642,20.348023065903433,0.01827831094980519,4.543256028046353,-1.9687535758093069,-39.75225830078125,5356.25390625,True
1599561205.4557145,0.0,10,0.5,0.5,-6.232389707946777,-0.1005,-0.0155,-0.37525,-0.02686748124536471,10,1,100,0.029044927056238498,-10,-1,-100,15032.579501422588,-0.0005394938572251096,0.00041458288625339525,0.9999997685336776,20.33310366086646,0.01829623966113514,5.396818594757592,-2.340289138808492,-38.693511962890625,5356.25390625,True
1599561205.489624,0.0,10,0.5,0.5,-6.37241941986084,-0.1005,-0.0155,-0.37525,-0.04643975316158853,10,1,100,0.04499214208234609,-10,-1,-100,15032.441806485876,-0.0009026830304077665,-5.986282747851257e-05,0.9999995907898105,20.33305564457963,0.018355565694375624,6.682278181789015,-2.89760542390537,-37.622039794921875,5356.25390625,True
1599561205.5215383,0.0,10,0.5,0.5,-6.094705822753906,-0.1005,-0.0155,-0.37525,-0.01595871537464468,10,1,100,0.022246617113336933,-10,-1,-100,15032.39493190602,-0.0010242659324203223,-0.00021169092304435593,0.9999994530329769,20.341176993852176,0.018386341584219798,7.1136469075874205,-3.0833805482055956,-37.402618408203125,5356.25390625,True
1599561205.5584393,0.0,10,0.5,0.5,-6.0306255264282225,-0.1005,-0.0155,-0.37525,-0.0010368171699240544,10,1,100,0.010286675563428395,-10,-1,-100,15032.39493190602,-0.0010242659324203223,-0.00021169092304435593,0.9999994530329769,20.341176993852176,0.018386341584219798,7.1136469075874205,-3.0833805482055956,-37.402618408203125,5356.25390625,True
1599561205.5923483,0.0,10,0.5,0.5,-6.15935618133545,-0.1005,-0.0155,-0.37525,-0.03344026878561878,10,1,100,0.037368274676169794,-10,-1,-100,15032.238683051546,-0.0012686591184329983,-0.0005038958345337289,0.9999990682960805,20.372148023253715,0.018467024243292413,7.983243827793264,-3.4549351820115515,-37.17041015625,5356.25390625,True
1599561205.6202736,0.0,10,0.5,0.5,-6.0068724227905275,-0.1005,-0.0155,-0.37525,-0.05202490661990458,10,1,100,0.05313797284062391,-10,-1,-100,15032.031654184451,-0.0016324056867688206,-0.0009361425066812183,0.999998229442873,20.474823899594767,0.018653293452030165,9.318281079717316,-4.012276119669356,-37.338958740234375,5356.25390625,True
1599561205.6541834,0.0,10,0.5,0.5,-6.081348081970216,-0.1005,-0.0155,-0.37525,-0.00906776140040817,10,1,100,0.016971136684840696,-10,-1,-100,15032.031654184451,-0.0016324056867688206,-0.0009361425066812183,0.999998229442873,20.474823899594767,0.018653293452030165,9.318281079717316,-4.012276119669356,-37.338958740234375,5356.25390625,True
1599561205.6920831,0.0,10,0.5,0.5,-5.872409158325196,-0.1005,-0.0155,-0.37525,-0.038661186078092366,10,1,100,0.044138807721897426,-10,-1,-100,15031.81583549676,-0.001877721389882408,-0.0012030531094376104,0.9999975134097074,20.571308469024224,0.018811367030342776,10.22957500051261,-4.383841429903245,-37.79559326171875,5356.25390625,True
1599561205.7200077,0.0,10,0.5,0.5,-5.478512464904785,-0.1005,-0.0155,-0.37525,-0.05266692369992441,10,1,100,0.06063140115016039,-10,-1,-100,15031.544354376616,-0.0022488951715368003,-0.001570808242270157,0.9999962375089085,20.753302692048003,0.019091255733190957,11.632846146208095,-4.941194379137418,-38.9969482421875,5356.25390625,True
1599561205.7549138,0.0,10,0.5,0.5,-5.932560131835938,-0.1005,-0.0155,-0.37525,-0.016155598007423104,10,1,100,0.023733760611654157,-10,-1,-100,15031.544354376616,-0.0022488951715368003,-0.001570808242270157,0.9999962375089085,20.753302692048003,0.019091255733190957,11.632846146208095,-4.941194379137418,-38.9969482421875,5356.25390625,True
1599561205.7898211,0.0,10,0.5,0.5,-4.7130970199584965,-0.1005,-0.0155,-0.37525,-0.06292463460858294,10,1,100,0.07875825766534662,-10,-1,-100,15031.103930122918,-0.002747343688375333,-0.001993877341933453,0.9999942382613028,21.046744146114623,0.019510931167931508,13.57281233086972,-5.6843355218168705,-41.562652587890625,5356.25390625,True
1599561205.8187432,0.0,10,0.5,0.5,-5.671430407714844,-0.1005,-0.0155,-0.37525,-0.020858570665072008,10,1,100,0.02913419096460837,-10,-1,-100,15031.103930122918,-0.002747343688375333,-0.001993877341933453,0.9999942382613028,21.046744146114623,0.019510931167931508,13.57281233086972,-5.6843355218168705,-41.562652587890625,5356.25390625,True
1599561205.8526525,0.0,10,0.5,0.5,-4.405894548034668,-0.1005,-0.0155,-0.37525,-0.0509130847939815,10,1,100,0.07043368019187776,-10,-1,-100,15030.767997108982,-0.0031211166262069025,-0.0022653420026376714,0.9999925634006568,21.277114572506974,0.019813638733736896,15.06786262508155,-6.241688744807387,-44.20989990234375,5356.25390625,True
1599561205.8865623,0.0,10,0.5,0.5,-5.388722816467285,-0.1005,-0.0155,-0.37525,-0.023971983831519016,10,1,100,0.03326607147809948,-10,-1,-100,15030.767997108982,-0.0031211166262069025,-0.0022653420026376714,0.9999925634006568,21.277114572506974,0.019813638733736896,15.06786262508155,-6.241688744807387,-44.20989990234375,5356.25390625,True
1599561205.9214709,0.0,10,0.5,0.5,-4.892839163208008,-0.1005,-0.0155,-0.37525,-0.03346060918180335,10,1,100,0.04719779534825945,-10,-1,-100,15030.656670467346,-0.0032458624334867326,-0.0023497352775678987,0.9999919715283659,21.350459455984623,0.019903269660981684,15.570239439392843,-6.427472026579989,-45.23004150390625,5356.25390625,True
1599561205.9553788,0.0,10,0.5,0.5,-4.194328950500489,-0.1005,-0.0155,-0.37525,-0.04079576412020309,10,1,100,0.062045348357960634,-10,-1,-100,15030.371517297463,-0.00349244800990654,-0.002491461627450799,0.9999907976705871,21.483889110348883,0.020052617274397198,16.57414028609458,-6.799036056963846,-47.476654052734375,5356.25390625,True
1599561205.988291,0.0,10,0.5,0.5,-3.8217557968139646,-0.1005,-0.0155,-0.37525,-0.04111140217252688,10,1,100,0.06467482291066429,-10,-1,-100,15030.083434051136,-0.0037388300822917275,-0.0026217592740738617,0.9999895737096086,21.590287781485905,0.020146355549048818,17.56743487151085,-7.170596069623748,-49.998779296875,5356.25390625,True
1599561206.0162158,0.0,10,0.5,0.5,-2.703233386230469,-0.1005,-0.0155,-0.37525,-0.044014373268641244,10,1,100,0.0796322641890882,-10,-1,-100,15029.62347855873,-0.0040968755920861855,-0.002765069947543692,0.9999877849246801,21.669904006407823,0.02013760780368716,19.004322836778705,-7.727927958226093,-54.297943115234375,5356.25390625,True
1599561206.0511227,0.0,10,0.5,0.5,-4.2909159667968755,-0.1005,-0.0155,-0.37525,-0.0298395076054688,10,1,100,0.04404962862986278,-10,-1,-100,15029.62347855873,-0.0040968755920861855,-0.002765069947543692,0.9999877849246801,21.669904006407823,0.02013760780368716,19.004322836778705,-7.727927958226093,-54.297943115234375,5356.25390625,True
1599561206.0810423,0.0,10,0.5,0.5,-2.739929840087891,-0.1005,-0.0155,-0.37525,-0.037336634534640124,10,1,100,0.06948081457749354,-10,-1,-100,15029.336372241494,-0.004326388209409602,-0.0028321399544404555,0.9999866305847993,21.64809793811529,0.020003268615996148,19.899192436170114,-8.099477808867155,-57.5081787109375,5356.25390625,True
1599561206.1145444,0.0,10,0.5,0.5,-2.257693296813965,-0.1005,-0.0155,-0.37525,-0.03504669215172261,10,1,100,0.07039050540191752,-10,-1,-100,15028.985788988997,-0.0045414173298912236,-0.0028711483647635627,0.9999855659136804,21.548183399083893,0.01974730825023464,20.717276907634282,-8.47102533396325,-60.99359130859375,5356.25390625,True
1599561206.1474583,0.0,10,0.5,0.5,-1.746303323364258,-0.1005,-0.0155,-0.37525,-0.033680341078234546,10,1,100,0.07200295872065818,-10,-1,-100,15028.632276147022,-0.004749926039007144,-0.0028933916634593776,0.9999845331240408,21.354392258002,0.019360632373130304,21.432867553680484,-8.842572737379118,-64.75433349609375,5356.25390625,True
1599561206.1783738,0.0,10,0.5,0.5,-2.1779148422241215,-0.1005,-0.0155,-0.37525,-0.031498193039102354,10,1,100,0.061960934765646264,-10,-1,-100,15028.457472761627,-0.0048463677546572975,-0.002892957394352984,0.9999840716316941,21.217214467178916,0.01911747278766115,21.74331047655138,-9.028347307704454,-66.73785400390625,5356.25390625,True
1599561206.213284,0.0,10,0.5,0.5,-1.9108984298706058,-0.1005,-0.0155,-0.37525,-0.031048678343783713,10,1,100,0.06264931847804076,-10,-1,-100,15028.282669313368,-0.00493873166524425,-0.0028879055475790794,0.999983634331626,21.050735106014123,0.018841487744152823,22.017359202611253,-9.21412293939358,-68.79022216796875,5356.25390625,True
1599561206.2432005,0.0,10,0.5,0.5,-0.5919170333862307,-0.1005,-0.0155,-0.37525,-0.028764281103169687,10,1,100,0.07250772624557696,-10,-1,-100,15027.86763208732,-0.005110668368174503,-0.002861979745101819,0.9999828449232363,20.622658215895346,0.01819487335309335,22.441002031013312,-9.585679023126973,-73.10137939453125,5356.25390625,True
1599561206.277144,0.0,10,0.5,0.5,-1.0918593124389648,-0.1005,-0.0155,-0.37525,-0.029273975653673068,10,1,100,0.06433918883481005,-10,-1,-100,15027.690875044675,-0.005191019752618044,-0.0028425787437929458,0.9999824863766432,20.357199845598505,0.01782768930251264,22.582296125332135,-9.771460331306267,-75.36016845703125,5356.25390625,True
1599561206.315582,0.0,10,0.5,0.5,0.3512211120605466,-0.1005,-0.0155,-0.37525,-0.02541617415144516,10,1,100,0.07251346907342238,-10,-1,-100,15027.278767366195,-0.005336833948151638,-0.002789551349749769,0.9999818681389563,19.71416744272873,0.017019076758288988,22.70228251819173,-10.143031030333205,-80.084228515625,5356.25390625,True
1599561206.3494644,0.0,10,0.5,0.5,0.976270863342285,-0.1005,-0.0155,-0.37525,-0.023237681905454624,10,1,100,0.07135350469805954,-10,-1,-100,15026.860799885355,-0.00545739444625537,-0.002721387614678171,0.9999814052747724,18.987120446691886,0.01620063965688495,22.667826273583316,-10.514613865183438,-85.02615356445312,5356.25390625,True
1599561206.3803816,0.0,10,0.5,0.5,1.629540702819824,-0.1005,-0.0155,-0.37525,-0.021033530529411495,10,1,100,0.07068360472867491,-10,-1,-100,15026.44673830946,-0.0055596680640332945,-0.0026394225542243853,0.9999810615904673,18.13133591708644,0.01537128953769562,22.41296188380636,-10.886208282422803,-90.1971435546875,5356.25390625,True
1599561206.4152882,0.0,10,0.5,0.5,3.467015501022339,-0.1005,-0.0155,-0.37525,-0.013998521459229023,10,1,100,0.07201695956622302,-10,-1,-100,15025.790488793282,-0.005663435676470984,-0.00250106845989503,0.999980834892798,18.920801392242655,0.01611997076274913,24.589531878895713,-11.443596936065644,-98.0210952758789,5356.25390625,True
1599561206.4511962,0.0,10,0.5,0.5,2.9568698078155515,-0.1005,-0.0155,-0.37525,-0.016775159688484913,10,1,100,0.06600334554551782,-10,-1,-100,15025.309043395799,-0.00570188515352878,-0.0024008351503111655,0.9999808620650082,19.99633846758041,0.017227605345179052,26.833473140938146,-11.815165370197787,-102.98798370361328,5356.25390625,True
1599561206.4831073,0.0,10,0.5,0.5,2.2921186191558838,-0.1005,-0.0155,-0.37525,-0.021277557645598782,10,1,100,0.06333087749333563,-10,-1,-100,15025.072715043789,-0.005711489088721814,-0.0023510724077672805,0.9999809254935429,20.473526154383066,0.017763272580407188,27.907060034472664,-12.000940911758695,-105.37155151367188,5356.25390625,True
1599561206.518015,0.0,10,0.5,0.5,3.630927819442749,-0.1005,-0.0155,-0.37525,-0.015070637387075403,10,1,100,0.06260770026368946,-10,-1,-100,15024.589316188358,-0.005712771452218957,-0.00224990002060962,0.9999811509184721,21.305586334672704,0.018775982672804524,29.9430303605784,-12.37247405779081,-109.9333724975586,5356.25390625,True
1599561206.5549161,0.0,10,0.5,0.5,4.0253739780426026,-0.1005,-0.0155,-0.37525,-0.013920802543653776,10,1,100,0.05999432973542432,-10,-1,-100,15024.048299825634,-0.005689391683597984,-0.002148056676774953,0.9999815081664181,21.987646877639804,0.019692947036190518,31.832424181161763,-12.743982977586302,-114.21990203857422,5356.25390625,True
1599561206.5918171,0.0,10,0.5,0.5,4.395474739074707,-0.1005,-0.0155,-0.37525,-0.013483226716068202,10,1,100,0.05736913815331335,-10,-1,-100,15023.506306278054,-0.005643589552270315,-0.0020521664465570273,0.9999819690923637,22.638550732466413,0.02058908664787422,33.73328644285773,-13.115467548215419,-118.23084259033203,5356.25390625,True
1599561206.6247296,0.0,10,0.5,0.5,3.8652329650878907,-0.1005,-0.0155,-0.37525,-0.01792462149793743,10,1,100,0.05862723934807729,-10,-1,-100,15023.262165218708,-0.005612904060848382,-0.0020061060201018556,0.9999822352655271,22.920029690713783,0.020991537832954973,34.63798948806519,-13.301201086460482,-120.13291931152344,5356.25390625,True
1599561206.6606324,0.0,10,0.5,0.5,4.09299887008667,-0.1005,-0.0155,-0.37525,-0.01752133769586283,10,1,100,0.05773920004419621,-10,-1,-100,15023.020953007857,-0.005576551543785679,-0.0019613271185089224,0.9999825274817624,23.173709193272742,0.021360747338794853,35.51205063159714,-13.486929203126884,-121.96607208251953,5356.25390625,True
1599561206.69654,0.0,10,0.5,0.5,5.889670804977417,-0.1005,-0.0155,-0.37525,-0.008137652980460522,10,1,100,0.04602434362591008,-10,-1,-100,15022.172317854827,-0.005436787181202771,-0.0018360657325855448,0.9999835349683375,23.786086682566605,0.022261792455654204,37.96169213282264,-14.044083299158087,-127.05203247070312,5356.25390625,True
1599561206.735434,0.0,10,0.5,0.5,5.495470316314696,-0.1005,-0.0155,-0.37525,-0.01252856540376027,10,1,100,0.0470666737215479,-10,-1,-100,15021.565870857215,-0.005319223131783246,-0.0017629139691234651,0.9999842988765432,24.089016673367396,0.02269098152932219,39.465702952600395,-14.415497545286414,-130.0980987548828,5356.25390625,True
1599561206.7713418,0.0,10,0.5,0.5,4.414280423736572,-0.1005,-0.0155,-0.37525,-0.019756090891458137,10,1,100,0.058799034170275356,-10,-1,-100,15021.565870857215,-0.005319223131783246,-0.0017629139691234651,0.9999842988765432,24.089016673367396,0.02269098152932219,39.465702952600395,-14.415497545286414,-130.0980987548828,5356.25390625,True
1599561206.8042507,0.0,10,0.5,0.5,6.391863117599487,-0.1005,-0.0155,-0.37525,-0.009411181199079858,10,1,100,0.036428527747059944,-10,-1,-100,15020.714304400724,-0.005116167812067368,-0.001669540385093455,0.9999855186260556,24.42138317593398,0.023095175261859908,41.562576886552705,-14.972592228172882,-134.15036010742188,5356.25390625,True
1599561206.8430676,0.0,10,0.5,0.5,6.040893923187255,-0.1005,-0.0155,-0.37525,-0.013185683457523346,10,1,100,0.03917316952706003,-10,-1,-100,15020.106880621752,-0.004957055826090626,-0.0016196337790204025,0.9999864020995279,24.581439407740838,0.023224368361911215,42.876960162787654,-15.34397403486241,-136.50735473632812,5356.25390625,True
1599561206.8809667,0.0,10,0.5,0.5,5.204692183685303,-0.1005,-0.0155,-0.37525,-0.018103200201953898,10,1,100,0.055008924798471116,-10,-1,-100,15020.106880621752,-0.004957055826090626,-0.0016196337790204025,0.9999864020995279,24.581439407740838,0.023224368361911215,42.876960162787654,-15.34397403486241,-136.50735473632812,5356.25390625,True
1599561206.9168704,0.0,10,0.5,0.5,6.236074292373657,-0.1005,-0.0155,-0.37525,-0.013283268514076898,10,1,100,0.036734224138560895,-10,-1,-100,15019.49262026709,-0.004791609197933377,-0.0015763891875320564,0.9999872776582829,24.70681264594073,0.023260770032251164,44.14321003152424,-15.715345987455464,-138.58868408203125,5356.25390625,True
1599561206.9547691,0.0,10,0.5,0.5,6.351900782775879,-0.1005,-0.0155,-0.37525,-0.013901610409400515,10,1,100,0.033143858251773406,-10,-1,-100,15018.823672714178,-0.00460937964835205,-0.0015432169102176318,0.9999881859806271,24.80821241561784,0.023221911019384343,45.376522739620476,-16.086709170680408,-140.3944091796875,5356.25390625,True
1599561206.990673,0.0,10,0.5,0.5,6.436632740402222,-0.1005,-0.0155,-0.37525,-0.01497778162172834,10,1,100,0.0293941579981868,-10,-1,-100,15018.15374853881,-0.004410568428158164,-0.0015233063505314436,0.9999891131526897,24.895474738493462,0.023125225515752447,46.592271653190124,-16.45806415404807,-141.92457580566406,5356.25390625,True
1599561207.0245824,0.0,10,0.5,0.5,6.742294226455689,-0.1005,-0.0155,-0.37525,-0.014782825095671762,10,1,100,0.014758237028744431,-10,-1,-100,15017.173276032321,-0.004097870160653056,-0.0015038724184612768,0.9999904728685647,25.01759522482302,0.022904345216856307,48.41337088830179,-17.01508172902389,-143.70298767089844,5356.25390625,True
1599561207.2759168,0.0,10,0.5,0.5,6.108637393188477,-0.1005,-0.0155,-0.37525,-0.01668047283268368,10,1,100,0.04588019564094201,-10,-1,-100,15017.173276032321,-0.004097870160653056,-0.0015038724184612768,0.9999904728685647,25.01759522482302,0.022904345216856307,48.41337088830179,-17.01508172902389,-143.70298767089844,5356.25390625,True
1599561207.3068352,0.0,10,0.5,0.5,6.350920754241944,-0.1005,-0.0155,-0.37525,-0.01647338267807309,10,1,100,0.0336133452897599,-10,-1,-100,15016.802181054372,-0.003987570536570082,-0.0015022917746140207,0.9999909211591073,25.05930308401718,0.022817010874476826,49.02597184857802,-17.200750104059995,-144.1580047607422,5356.25390625,True
1599561207.338749,0.0,10,0.5,0.5,6.385652256774903,-0.1005,-0.0155,-0.37525,-0.016539713970867453,10,1,100,0.03211474332145685,-10,-1,-100,15016.499445392517,-0.0038748850900511807,-0.0015016947666823817,0.9999913650519022,25.110717280387338,0.022732528590448903,49.659616662145694,-17.386416305813896,-144.54409790039062,5356.25390625,True
1599561207.3739119,0.0,10,0.5,0.5,6.67013684387207,-0.1005,-0.0155,-0.37525,-0.01840211515286616,10,1,100,-0.00919255382285316,-10,-1,-100,15015.022878727643,-0.0033982359264872995,-0.0015183204240376445,0.9999930733238496,25.356956681287382,0.02238552992158962,52.30051765077675,-18.12905761086222,-145.3995361328125,5356.25390625,True
1599561207.4418397,0.0,10,0.5,0.5,6.386358909606934,-0.1005,-0.0155,-0.37525,-0.017609486295492534,10,1,100,0.024535809251226566,-10,-1,-100,15014.654713697964,-0.0032731017438168415,-0.0015263664138036284,0.9999934784840077,25.424907882978495,0.022296614416032215,52.98079502578719,-18.31471157174394,-145.44113159179688,5356.25390625,True
1599561207.4757788,0.0,10,0.5,0.5,6.325811198425293,-0.1005,-0.0155,-0.37525,-0.018339428108593778,10,1,100,0.009063575531245333,-10,-1,-100,15013.92228972807,-0.003020217593100481,-0.0015404015731329131,0.9999942527078262,25.56953228596804,0.022121998167765968,54.368794390947954,-18.68601143442647,-145.31756591796875,5356.25390625,True
1599561207.5066621,0.0,10,0.5,0.5,6.307288673400879,-0.1005,-0.0155,-0.37525,-0.01822933695848322,10,1,100,0.019644619088376544,-10,-1,-100,15013.549242026405,-0.0028882749777258826,-0.0015522320095275191,0.9999946242072713,25.64621898384746,0.02203772550343195,55.0769171921038,-18.871657229865836,-145.1524658203125,5356.25390625,True
1599561207.537094,0.0,10,0.5,0.5,5.9470628540039066,-0.1005,-0.0155,-0.37525,-0.020580834812223038,10,1,100,-0.01169267007870392,-10,-1,-100,15012.375411113491,-0.0024851730024302503,-0.0015843861659911634,0.999995656808381,25.892413306178977,0.021804991173977568,57.2569956291039,-19.428576415706285,-144.24368286132812,5356.25390625,True
1599561207.5690086,0.0,10,0.5,0.5,6.084370422363281,-0.1005,-0.0155,-0.37525,-0.01872998104349992,10,1,100,0.013151667498625662,-10,-1,-100,15012.007246397086,-0.0023465053725426005,-0.001596753847373563,0.999995972136732,25.978908924382765,0.021736028065190992,58.000717658864374,-19.61420995072895,-143.80294799804688,5356.25390625,True
1599561207.599926,0.0,10,0.5,0.5,5.734936726379396,-0.1005,-0.0155,-0.37525,-0.019595197658047007,10,1,100,-0.0038090958893081603,-10,-1,-100,15011.205486645922,-0.00206813155371408,-0.0016157960292199525,0.9999965560116038,26.15607193827944,0.021614461993976715,59.508926112376756,-19.985467188103343,-142.71470642089844,5356.25390625,True
1599561207.6273692,0.0,10,0.5,0.5,5.833745260620117,-0.1005,-0.0155,-0.37525,-0.01892160400477082,10,1,100,0.008110792080151613,-10,-1,-100,15010.832439360092,-0.0019252722805077314,-0.0016268817762225606,0.9999968232861204,26.245673796278776,0.021562981662523257,60.27114539709617,-20.17109096433081,-142.0672607421875,5356.25390625,True
1599561207.6602805,0.0,10,0.5,0.5,6.074163874816895,-0.1005,-0.0155,-0.37525,-0.017825330240286142,10,1,100,0.022179459612771957,-10,-1,-100,15010.832439360092,-0.0019252722805077314,-0.0016268817762225606,0.9999968232861204,26.245673796278776,0.021562981662523257,60.27114539709617,-20.17109096433081,-142.0672607421875,5356.25390625,True
1599561207.6915834,0.0,10,0.5,0.5,5.356514209747314,-0.1005,-0.0155,-0.37525,-0.019801262093870352,10,1,100,-0.009679933188420711,-10,-1,-100,15009.968179989955,-0.0016375162534569456,-0.0016447315294355002,0.999997306695731,26.423520568960416,0.02148138876674282,61.8040881261616,-20.54232854827188,-140.56561279296875,5356.25390625,True
1599561207.7275426,0.0,10,0.5,0.5,4.596410683441162,-0.1005,-0.0155,-0.37525,-0.020774327227831825,10,1,100,-0.030011716401553368,-10,-1,-100,15008.730874232133,-0.0011931194440519292,-0.0016696745910625922,0.9999978943241591,26.674652018975777,0.021421125944009984,64.09492491321434,-21.09916019456214,-137.79644775390625,5356.25390625,True
1599561207.764444,0.0,10,0.5,0.5,5.623755077362061,-0.1005,-0.0155,-0.37525,-0.018295156481825114,10,1,100,0.014207452890704738,-10,-1,-100,15008.730874232133,-0.0011931194440519292,-0.0016696745910625922,0.9999978943241591,26.674652018975777,0.021421125944009984,64.09492491321434,-21.09916019456214,-137.79644775390625,5356.25390625,True
1599561207.803341,0.0,10,0.5,0.5,3.3962883552551273,-0.1005,-0.0155,-0.37525,-0.018222466826729226,10,1,100,-0.050988746110506286,-10,-1,-100,15006.999427581439,-0.000602317618858888,-0.0016688834958551214,0.9999984260194429,26.9378178057507,0.021481837900921986,67.02214684343461,-21.841559024709895,-133.13934326171875,5356.25390625,True
1599561207.8322635,0.0,10,0.5,0.5,5.124990570831299,-0.1005,-0.0155,-0.37525,-0.018314424539748526,10,1,100,0.007849646411373676,-10,-1,-100,15006.999427581439,-0.000602317618858888,-0.0016688834958551214,0.9999984260194429,26.9378178057507,0.021481837900921986,67.02214684343461,-21.841559024709895,-133.13934326171875,5356.25390625,True
1599561207.8671699,0.0,10,0.5,0.5,4.4705656654357915,-0.1005,-0.0155,-0.37525,-0.01849815131829405,10,1,100,-0.009369064359863283,-10,-1,-100,15006.56680987496,-0.00044786202762843105,-0.001670447692490692,0.9999985045109372,26.982904745552077,0.021525176119703556,67.70923425984125,-22.027151877882705,-131.80291748046875,5356.25390625,True
1599561207.899084,0.0,10,0.5,0.5,3.5827373397827156,-0.1005,-0.0155,-0.37525,-0.016522652453540874,10,1,100,-0.02664609562811399,-10,-1,-100,15005.698645774508,-0.00015223603404828368,-0.0016538323710920913,0.999998620830388,27.038425749691434,0.021645750896168308,69.00104167767113,-22.398331084521402,-128.9231719970703,5356.25390625,True
1599561207.9280121,0.0,10,0.5,0.5,2.339499282836914,-0.1005,-0.0155,-0.37525,-0.014795137043054372,10,1,100,-0.047371685969816495,-10,-1,-100,15004.330481318873,0.00030293453655051467,-0.0016229709583401057,0.9999986370970388,27.01226727062104,0.021900964114317523,70.6621658201396,-22.955087384365203,-124.08702087402344,5356.25390625,True
1599561207.9599273,0.0,10,0.5,0.5,4.125392079162598,-0.1005,-0.0155,-0.37525,-0.017881995811164952,10,1,100,-0.0020917355189631224,-10,-1,-100,15004.330481318873,0.00030293453655051467,-0.0016229709583401057,0.9999986370970388,27.01226727062104,0.021900964114317523,70.6621658201396,-22.955087384365203,-124.08702087402344,5356.25390625,True
1599561207.98885,0.0,10,0.5,0.5,1.501717577362061,-0.1005,-0.0155,-0.37525,-0.01126271097011318,10,1,100,-0.05042418713984018,-10,-1,-100,15002.905677261995,0.0007402948178157077,-0.0015627991968922555,0.9999985048100086,26.81512323049991,0.02220294457454269,71.86284877616676,-23.511838312179513,-118.63078308105469,5356.25390625,True
1599561208.022321,0.0,10,0.5,0.5,1.6184720287323,-0.1005,-0.0155,-0.37525,-0.011673437061144487,10,1,100,-0.03872181338590942,-10,-1,-100,15001.972084013396,0.001029086614749855,-0.0015118897260211583,0.9999983275836993,26.56581582306035,0.022386305547696647,72.32906337193722,-23.88300861342927,-114.64891815185547,5356.25390625,True
1599561208.051244,0.0,10,0.5,0.5,3.0724959667205813,-0.1005,-0.0155,-0.37525,-0.01675109996791277,10,1,100,-0.010109293979315375,-10,-1,-100,15001.972084013396,0.001029086614749855,-0.0015118897260211583,0.9999983275836993,26.56581582306035,0.022386305547696647,72.32906337193722,-23.88300861342927,-114.64891815185547,5356.25390625,True
1599561208.084157,0.0,10,0.5,0.5,-0.050755998992919604,-0.1005,-0.0155,-0.37525,-0.005545761967574598,10,1,100,-0.05407439615843432,-10,-1,-100,15000.538491054554,0.001426749174506571,-0.0014101664577135763,0.9999979879066531,26.020486338802527,0.022562950152563734,72.51211138756784,-24.43977806287756,-108.15943145751953,5356.25390625,True
1599561208.1180673,0.0,10,0.5,0.5,0.11643361511230488,-0.1005,-0.0155,-0.37525,-0.006992438825461349,10,1,100,-0.04366211157200425,-10,-1,-100,14999.543374981964,0.0016912217611191683,-0.0013310782835359713,0.9999976839970969,25.575989707598357,0.022583396942861583,72.3671255450852,-24.810970477573285,-103.48880004882812,5356.25390625,True
1599561208.1479855,0.0,10,0.5,0.5,0.6836519813537598,-0.1005,-0.0155,-0.37525,-0.010107884369036965,10,1,100,-0.03026012925132885,-10,-1,-100,14999.047281103209,0.0018077301465972274,-0.0012878092712363988,0.9999975368264653,25.30087649964445,0.022521140903320743,72.12992365171817,-24.996571541950196,-101.09368133544922,5356.25390625,True
1599561208.1828926,0.0,10,0.5,0.5,1.5327495025634765,-0.1005,-0.0155,-0.37525,-0.014396678176532339,10,1,100,-0.018850295480068543,-10,-1,-100,14999.047281103209,0.0018077301465972274,-0.0012878092712363988,0.9999975368264653,25.30087649964445,0.022521140903320743,72.12992365171817,-24.996571541950196,-101.09368133544922,5356.25390625,True
1599561208.2118473,0.0,10,0.5,0.5,-0.805260553359985,-0.1005,-0.0155,-0.37525,-0.004301908208271128,10,1,100,-0.044261983405614776,-10,-1,-100,14997.987711740076,0.0020366949530347153,-0.001196386488271528,0.9999972102626282,24.655395664002516,0.022228385805519894,71.3450609501327,-25.36778415283855,-96.27936553955078,5356.25390625,True
1599561208.2443395,0.0,10,0.5,0.5,-0.21134807548522938,-0.1005,-0.0155,-0.37525,-0.008043430916764592,10,1,100,-0.03399000190230665,-10,-1,-100,14997.487712424481,0.0021494731897777368,-0.001147704570092332,0.9999970312652064,24.293193276094204,0.021993839223670507,70.8170977941334,-25.553395603850717,-93.83677673339844,5356.25390625,True
1599561208.2802103,0.0,10,0.5,0.5,-1.7319977165222165,-0.1005,-0.0155,-0.37525,-0.0015718167714284456,10,1,100,-0.04634010481873674,-10,-1,-100,14996.488689830061,0.0023625938509178233,-0.0010450474853247779,0.9999966630074567,23.578249678236656,0.021405203021500042,69.743011992317,-25.92462699589552,-88.81240844726562,5356.25390625,True
1599561208.3111277,0.0,10,0.5,0.5,-2.291295706939697,-0.1005,-0.0155,-0.37525,-0.00038502899306875824,10,1,100,-0.046012040086000655,-10,-1,-100,14995.431073515909,0.002551485082279967,-0.0009414592679810181,0.9999963017823225,24.183261895869748,0.02182454659236002,72.56899002435514,-26.2958475331556,-83.78872680664062,5356.25390625,True
1599561208.3450398,0.0,10,0.5,0.5,-1.6349770645141601,-0.1005,-0.0155,-0.37525,-0.004724422172429247,10,1,100,-0.03736392749840362,-10,-1,-100,14994.866620954708,0.0026429386415724302,-0.0008873020446889784,0.999996113777658,24.754584652333662,0.022209827153373364,74.81396930909361,-26.48144326977455,-81.3193359375,5356.25390625,True
1599561208.3789458,0.0,10,0.5,0.5,-5.265424667739868,-0.1005,-0.0155,-0.37525,0.013212519335389708,10,1,100,-0.06308808841199856,-10,-1,-100,14992.745529329055,0.002958467111028421,-0.000675572907699072,0.999995395526199,26.71557617638667,0.023117918133932814,83.03145432173963,-27.223727578411765,-71.84918212890625,5356.25390625,True
1599561208.413924,0.0,10,0.5,0.5,-1.7780890419006348,-0.1005,-0.0155,-0.37525,-0.007876762681768724,10,1,100,-0.03172817951602734,-10,-1,-100,14992.745529329055,0.002958467111028421,-0.000675572907699072,0.999995395526199,26.71557617638667,0.023117918133932814,83.03145432173963,-27.223727578411765,-71.84918212890625,5356.25390625,True
