Timestamp,Input Throttle,horizon,dT,dt,Input Roll,Roll P,Roll I,Roll D,Input Pitch,Pitch P,Pitch I,Pitch D,Input Yaw,Yaw P,Yaw I,Yaw D,Altitude,Direction X,Direction Y,Direction Z,Drag X,Drag Y,Drag Z,Vertical Velocity,Roll,Mass,Has Fuel
1599559662.029482,0.0,10,0.5,0.5,-2.9540445556640624,-0.05075,-0.00825,-0.001,-0.000513906227614331,10,1,100,0.1711572097464265,-10,-1,-100,14993.410923275515,-0.01677618764479858,-7.678930330484645e-05,0.9998592669128538,28.717148172333342,0.02710925922271145,-88.32798561306774,27.19495020681312,-31.792236328125,5356.25390625,True
1599559662.0644617,0.0,10,0.5,0.5,-3.002095417785645,-0.05075,-0.00825,-0.001,-0.0005445350303914815,10,1,100,0.17326219969132628,-10,-1,-100,14993.951939481776,-0.016810939503697313,-7.468896755041492e-05,0.9998586833820873,28.644546684262625,0.027275246752670405,-87.50377303129629,27.008978710594484,-31.791656494140625,5356.25390625,True
1599559662.0834544,0.0,10,0.5,0.5,-3.048095236968994,-0.05075,-0.00825,-0.001,0.0036593197493724966,10,1,100,0.18140368554674352,-10,-1,-100,14995.561319800094,-0.016901262938196594,-3.449481071439518e-05,0.9998571628593765,28.426644164833228,0.027763927243952786,-85.0491220685842,26.451087906131793,-31.830718994140625,5356.25390625,True
1599559662.1036513,0.0,10,0.5,0.5,-3.096123956298828,-0.05075,-0.00825,-0.001,-0.0003635454153009174,10,1,100,0.1740614683906352,-10,-1,-100,14995.561319800094,-0.016901262938196594,-3.449481071439518e-05,0.9998571628593765,28.426644164833228,0.027763927243952786,-85.0491220685842,26.451087906131793,-31.830718994140625,5356.25390625,True
1599559662.1292632,0.0,10,0.5,0.5,-3.1390346336364745,-0.05075,-0.00825,-0.001,0.0033898598748775023,10,1,100,0.1778480677116478,-10,-1,-100,14996.092570176465,-0.016920321783898348,-3.4158552121463617e-07,0.9998568411080722,28.357556977463837,0.027926591904809978,-84.24753726155137,26.265132074389502,-31.928863525390625,5356.25390625,True
1599559662.163376,0.0,10,0.5,0.5,-3.17862703704834,-0.05075,-0.00825,-0.001,0.00412559550256106,10,1,100,0.17956854606123335,-10,-1,-100,14996.572063989937,-0.016937906608819903,3.739561725654657e-05,0.9998565426706367,28.29283818280386,0.028090731154799417,-83.46173442007508,26.079179996674686,-32.091461181640625,5356.25390625,True
1599559662.1983159,0.0,10,0.5,0.5,-3.180343254852295,-0.05075,-0.00825,-0.001,0.020248941046709792,10,1,100,0.18105254315654468,-10,-1,-100,14998.116009495687,-0.016951985599061584,0.00021824403780381198,0.9998562809493119,28.129425730284552,0.028589055001642813,-81.20933170486536,25.5213448734604,-32.984619140625,5356.25390625,True
1599559662.230243,0.0,10,0.5,0.5,-3.228274102020264,-0.05075,-0.00825,-0.001,0.002185923395763629,10,1,100,0.18133984269228273,-10,-1,-100,14998.116009495687,-0.016951985599061584,0.00021824403780381198,0.9998562809493119,28.129425730284552,0.028589055001642813,-81.20933170486536,25.5213448734604,-32.984619140625,5356.25390625,True
1599559662.2631888,0.0,10,0.5,0.5,-3.226775635528565,-0.05075,-0.00825,-0.001,0.022447063117968374,10,1,100,0.1798206950883468,-10,-1,-100,14999.125774080283,-0.016922764270299383,0.00040223781342585164,0.9998567188623544,28.04391429570989,0.0289157783295481,-79.7857618292631,25.149471043416842,-33.922515869140625,5356.25390625,True
1599559662.2960708,0.0,10,0.5,0.5,-3.2112230010986327,-0.05075,-0.00825,-0.001,0.029611076617670297,10,1,100,0.17695207801344,-10,-1,-100,15000.133583753835,-0.016854736757770685,0.000634266606885518,0.9998577476594848,27.973234073452637,0.02922523669056842,-78.41088111053833,24.777609333852723,-35.135162353515625,5356.25390625,True
1599559662.3319738,0.0,10,0.5,0.5,-3.1807279624938967,-0.05075,-0.00825,-0.001,0.03805305241495189,10,1,100,0.17468022621104037,-10,-1,-100,15001.131627078634,-0.016756917878397535,0.0009213705021815151,0.9998591684730477,27.912445375413064,0.029503234374146314,-77.06917657849542,24.405759143399397,-36.622528076171875,5356.25390625,True
1599559662.36392,0.0,10,0.5,0.5,-3.0360994552612306,-0.05075,-0.00825,-0.001,0.0654112895996457,10,1,100,0.1588397713486797,-10,-1,-100,15002.545681785443,-0.01652400500727903,0.0014301778724882868,0.9998624464643986,27.825405139064657,0.02982320528568775,-75.07723292873698,23.848004852446184,-39.3690185546875,5356.25390625,True
1599559662.3968313,0.0,10,0.5,0.5,-3.0325946220397952,-0.05075,-0.00825,-0.001,0.014681039252972402,10,1,100,0.18210236501088842,-10,-1,-100,15002.545681785443,-0.01652400500727903,0.0014301778724882868,0.9998624464643986,27.825405139064657,0.02982320528568775,-75.07723292873698,23.848004852446184,-39.3690185546875,5356.25390625,True
1599559662.4297478,0.0,10,0.5,0.5,-2.8522325424194337,-0.05075,-0.00825,-0.001,0.08031290846483213,10,1,100,0.1451747732201224,-10,-1,-100,15003.954849270405,-0.016188642589118354,0.0020254997083386456,0.9998669037437198,27.71961166741123,0.029966294472398458,-73.04668735228712,23.29027631112844,-42.734100341796875,5356.25390625,True
1599559662.466231,0.0,10,0.5,0.5,-2.846602334594727,-0.05075,-0.00825,-0.001,0.02098672433170156,10,1,100,0.1786397530012821,-10,-1,-100,15003.954849270405,-0.016188642589118354,0.0020254997083386456,0.9998669037437198,27.71961166741123,0.029966294472398458,-73.04668735228712,23.29027631112844,-42.734100341796875,5356.25390625,True
1599559662.4972727,0.0,10,0.5,0.5,-2.703819949340821,-0.05075,-0.00825,-0.001,0.07139083573633181,10,1,100,0.14789990081781818,-10,-1,-100,15004.891363659757,-0.015909854550354846,0.0024818772290226845,0.9998703500022424,27.62247275353796,0.029926278064544957,-71.63132960985031,22.9184731170942,-45.3209228515625,5356.25390625,True
1599559662.5312674,0.0,10,0.5,0.5,-2.4679822959899904,-0.05075,-0.00825,-0.001,0.10404125537474257,10,1,100,0.11798053082939589,-10,-1,-100,15006.229239004664,-0.015385351198910059,0.003191365624892121,0.9998765454564552,27.408222484949512,0.029607904730025777,-69.35012894024422,22.360795960792423,-49.717254638671875,5356.25390625,True
1599559662.5630956,0.0,10,0.5,0.5,-2.458574203491211,-0.05075,-0.00825,-0.001,0.03338972794650775,10,1,100,0.17027420253385947,-10,-1,-100,15006.229239004664,-0.015385351198910059,0.003191365624892121,0.9998765454564552,27.408222484949512,0.029607904730025777,-69.35012894024422,22.360795960792423,-49.717254638671875,5356.25390625,True
1599559662.5994308,0.0,10,0.5,0.5,-2.275296741485596,-0.05075,-0.00825,-0.001,0.08800157703279957,10,1,100,0.1241756483714562,-10,-1,-100,15007.101297111716,-0.014967697646888349,0.003685134142415603,0.9998811868484694,27.201161781081773,0.029196104103142474,-67.68452854063396,21.98903293348752,-52.992095947265625,5356.25390625,True
1599559662.630295,0.0,10,0.5,0.5,-1.981920760345459,-0.05075,-0.00825,-0.001,0.12220551602145445,10,1,100,0.08571808992798577,-10,-1,-100,15008.435260992846,-0.014240175765221982,0.004441975061580185,0.9998887369361293,26.75889843662258,0.02824939374795153,-64.89949902934416,21.431428653913144,-58.42047119140625,5356.25390625,True
1599559662.663449,0.0,10,0.5,0.5,-1.9681387557983399,-0.05075,-0.00825,-0.001,0.046902194950465666,10,1,100,0.1582088219953676,-10,-1,-100,15008.435260992846,-0.014240175765221982,0.004441975061580185,0.9998887369361293,26.75889843662258,0.02824939374795153,-64.89949902934416,21.431428653913144,-58.42047119140625,5356.25390625,True
1599559662.6964173,0.0,10,0.5,0.5,-1.745056911468506,-0.05075,-0.00825,-0.001,0.1016778714376029,10,1,100,0.09714950735965255,-10,-1,-100,15009.24091084383,-0.013687379034091096,0.004936735207318343,0.9998941365467997,26.35404883578245,0.027396436001379174,-62.811697971806254,21.059724316087802,-62.38372802734375,5356.25390625,True
1599559662.7334585,0.0,10,0.5,0.5,-1.622129987335205,-0.05075,-0.00825,-0.001,0.0785537614326829,10,1,100,0.11992990599005585,-10,-1,-100,15009.704771668767,-0.013394509835133218,0.005173110196731187,0.9998969077045738,26.112572404437742,0.02690620949348086,-61.68834027854491,20.873883304779994,-64.46881103515625,5356.25390625,True
1599559662.7628236,0.0,10,0.5,0.5,-1.1362668968200684,-0.05075,-0.00825,-0.001,0.15789063826695546,10,1,100,0.005109835288491016,-10,-1,-100,15011.306303759688,-0.012087291279859236,0.006105838219850574,0.9999083038604833,24.838760845467437,0.024587333261392456,-56.59511321069471,20.130606108423937,-73.49761962890625,5356.25390625,True
1599559662.796733,0.0,10,0.5,0.5,-1.1199158020019533,-0.05075,-0.00825,-0.001,0.06502586980616791,10,1,100,0.13542155568496328,-10,-1,-100,15011.306303759688,-0.012087291279859236,0.006105838219850574,0.9999083038604833,24.838760845467437,0.024587333261392456,-56.59511321069471,20.130606108423937,-73.49761962890625,5356.25390625,True
1599559662.8304045,0.0,10,0.5,0.5,-0.8395193275451661,-0.05075,-0.00825,-0.001,0.11340380160989788,10,1,100,0.054780665024176445,-10,-1,-100,15012.110976280528,-0.011357920775042319,0.006541928201237654,0.9999140967158516,23.987842498954322,0.023276218668285182,-53.65027458064169,19.75902574616768,-78.42547607421875,5356.25390625,True
1599559662.8693423,0.0,10,0.5,0.5,-0.6842580741882325,-0.05075,-0.00825,-0.001,0.09048539136787509,10,1,100,0.08768621006231606,-10,-1,-100,15012.50647574931,-0.010998136119896675,0.006726333499414597,0.999916895266573,23.501859214157697,0.02260236468728674,-52.070581963215865,19.57325113018244,-80.9931640625,5356.25390625,True
1599559662.898266,0.0,10,0.5,0.5,-0.3846025207519531,-0.05075,-0.00825,-0.001,0.115889092663786,10,1,100,0.035089178143555166,-10,-1,-100,15013.250601688283,-0.01019689270239282,0.007121703811470532,0.9999226493654584,22.41193630356259,0.021259091892265648,-48.716015962155886,19.201732548572068,-86.33462524414062,5356.25390625,True
1599559662.9321766,0.0,10,0.5,0.5,0.07883467521667481,-0.05075,-0.00825,-0.001,0.12991762018488517,10,1,100,-0.019632124126808315,-10,-1,-100,15014.383393431548,-0.008975739991746482,0.007605090401543577,0.9999307969512615,21.728097506121355,0.020514953721800462,-45.863008815240164,18.64451411149164,-94.80939483642578,5356.25390625,True
1599559662.9649937,0.0,10,0.5,0.5,0.2564258905410767,-0.05075,-0.00825,-0.001,0.09777765961203759,10,1,100,0.054892101261710576,-10,-1,-100,15014.77987008961,-0.008548541356195566,0.007748787699803069,0.9999334371496258,22.21253172897389,0.021039626443542844,-46.419806354719675,18.45877444627957,-97.73822021484375,5356.25390625,True
1599559663.0008132,0.0,10,0.5,0.5,0.43934868450164805,-0.05075,-0.00825,-0.001,0.0976962305976573,10,1,100,0.05089565625797856,-10,-1,-100,15015.114825147088,-0.008129021855123557,0.007875675150237129,0.9999359443207384,22.709773021980055,0.021620100563024484,-46.98273450269426,18.27303143554221,-100.70275115966797,5356.25390625,True
1599559663.0317287,0.0,10,0.5,0.5,0.6252532119750976,-0.05075,-0.00825,-0.001,0.09810876102765298,10,1,100,0.046880275387354356,-10,-1,-100,15015.511302515399,-0.007716692622516146,0.007991656109005638,0.9999382911398108,23.170026215568804,0.02220253489676798,-47.44899973769929,18.087284667972835,-103.67832946777344,5356.25390625,True
1599559663.0646837,0.0,10,0.5,0.5,0.9639247928619384,-0.05075,-0.00825,-0.001,0.10882638100202098,10,1,100,-0.006072732718745394,-10,-1,-100,15016.236876279,-0.006865884779555388,0.008191749052287912,0.9999428758052422,23.954400166551537,0.02331335000673995,-48.050323240281216,17.715779045787627,-109.62188720703125,5356.25390625,True
1599559663.0967546,0.0,10,0.5,0.5,1.4477082405090334,-0.05075,-0.00825,-0.001,0.11187133879069497,10,1,100,-0.06221182107490153,-10,-1,-100,15017.237837261637,-0.005588002869131078,0.008398588945300146,0.9999491176693255,24.795176127823268,0.02469881926499642,-48.17589457267435,17.15849281876439,-118.3653793334961,5356.25390625,True
1599559663.1337051,0.0,10,0.5,0.5,1.475980650138855,-0.05075,-0.00825,-0.001,0.09141662456201653,10,1,100,0.06492644112645671,-10,-1,-100,15017.237837261637,-0.005588002869131078,0.008398588945300146,0.9999491176693255,24.795176127823268,0.02469881926499642,-48.17589457267435,17.15849281876439,-118.3653793334961,5356.25390625,True
1599559663.166588,0.0,10,0.5,0.5,1.8041112274169924,-0.05075,-0.00825,-0.001,0.1007405627967288,10,1,100,-0.027235806901254135,-10,-1,-100,15017.908726158086,-0.004756072694707096,0.008481267701319848,0.9999527228177847,25.221696357527854,0.0254164445861365,-47.94572418864375,16.7869555061921,-123.99078369140625,5356.25390625,True
1599559663.1984997,0.0,10,0.5,0.5,2.2480794067382814,-0.05075,-0.00825,-0.001,0.09896511205145138,10,1,100,-0.07746751391230718,-10,-1,-100,15018.901877182536,-0.0035491223342942074,0.008538526709562436,0.9999572477322649,25.518110734513062,0.02591548152280462,-46.90185326757876,16.229645893786984,-131.95217895507812,5356.25390625,True
1599559663.2314465,0.0,10,0.5,0.5,2.5391861991882325,-0.05075,-0.00825,-0.001,0.09235225963253574,10,1,100,-0.04314892892855278,-10,-1,-100,15019.558120687027,-0.0027706537008489874,0.008528816064874512,0.999959790578902,25.510884760181945,0.025860813707803756,-45.81717495024274,15.858114751080416,-136.91888427734375,5356.25390625,True
1599559663.2673495,0.0,10,0.5,0.5,2.8187151985168457,-0.05075,-0.00825,-0.001,0.09199255352177804,10,1,100,-0.04607282286538694,-10,-1,-100,15020.157724697609,-0.002043125215565335,0.008515438957557325,0.9999616557342156,25.364454222836667,0.02552585148074151,-44.488908173125324,15.486598698897922,-141.60997009277344,5356.25390625,True
1599559663.2982347,0.0,10,0.5,0.5,2.852634587287903,-0.05075,-0.00825,-0.001,0.09342129910909806,10,1,100,0.02598676418536019,-10,-1,-100,15020.157724697609,-0.002043125215565335,0.008515438957557325,0.9999616557342156,25.364454222836667,0.02552585148074151,-44.488908173125324,15.486598698897922,-141.60997009277344,5356.25390625,True
1599559663.3311465,0.0,10,0.5,0.5,3.1173433759689337,-0.05075,-0.00825,-0.001,0.08842682240861312,10,1,100,-0.052561133849726806,-10,-1,-100,15020.75537722325,-0.0013349674299196624,0.008469337668227685,0.999963243415188,25.09952231478258,0.02495441087565032,-42.97008187142112,15.11510358195454,-146.0257110595703,5356.25390625,True
1599559663.365087,0.0,10,0.5,0.5,3.259224178695679,-0.05075,-0.00825,-0.001,0.09029679782246441,10,1,100,-0.01946875554382413,-10,-1,-100,15021.08447785431,-0.000998203840681988,0.008443887488492124,0.9999638515232309,24.92914626002398,0.024596222380393665,-42.15492111246779,14.929365268534125,-148.13015747070312,5356.25390625,True
1599559663.4009583,0.0,10,0.5,0.5,3.5009125160217285,-0.05075,-0.00825,-0.001,0.08512122106410132,10,1,100,-0.058080194551417164,-10,-1,-100,15021.677248413092,-0.0003471497583803784,0.008373289144220598,0.9999648831413794,24.559144376688653,0.023802381388826743,-40.497864318655665,14.557908561614797,-152.13247680664062,5356.25390625,True
1599559663.431876,0.0,10,0.5,0.5,3.815891017150879,-0.05075,-0.00825,-0.001,0.08101720860733691,10,1,100,-0.09241190778517996,-10,-1,-100,15022.533690874465,0.0005508979503633149,0.008271634590646868,0.9999656376959396,23.962676108514593,0.022508674883419125,-38.004859279063325,14.000774617421781,-157.61865234375,5356.25390625,True
1599559663.4658124,0.0,10,0.5,0.5,3.842788791847229,-0.05075,-0.00825,-0.001,0.09116996852924455,10,1,100,-0.0032210269927600735,-10,-1,-100,15022.533690874465,0.0005508979503633149,0.008271634590646868,0.9999656376959396,23.962676108514593,0.022508674883419125,-38.004859279063325,14.000774617421781,-157.61865234375,5356.25390625,True
1599559663.4977365,0.0,10,0.5,0.5,4.126957307052613,-0.05075,-0.00825,-0.001,0.08072263148713552,10,1,100,-0.09341076960278251,-10,-1,-100,15023.329590153648,0.0013652238824367058,0.008176774212404652,0.9999656376732302,23.269950084787993,0.021135201504511425,-35.44044813188627,13.44370213464,-162.4840545654297,5356.25390625,True
1599559663.534341,0.0,10,0.5,0.5,4.230636042785645,-0.05075,-0.00825,-0.001,0.08725724369054969,10,1,100,-0.040348903789301394,-10,-1,-100,15023.59326177137,0.001617574770947102,0.008150219882659963,0.9999654780879812,23.025471879475674,0.020681311860858413,-34.58465582225168,13.258024298496698,-163.96786499023438,5356.25390625,True
1599559663.5643435,0.0,10,0.5,0.5,4.464517169189453,-0.05075,-0.00825,-0.001,0.0815470594045825,10,1,100,-0.09309529750304091,-10,-1,-100,15024.381350288983,0.0023218003423494202,0.008074521822862273,0.9999647050473843,22.275469882434205,0.019382108499067897,-32.05499831055701,12.70102639293912,-168.00558471679688,5356.25390625,True
1599559663.5982528,0.0,10,0.5,0.5,4.548640381622314,-0.05075,-0.00825,-0.001,0.08631777468805296,10,1,100,-0.04705776263514351,-10,-1,-100,15024.644046066562,0.002538852859331371,0.008049488538570479,0.9999643793457976,22.02563426018115,0.01897890202110111,-31.232989140431144,12.515371273788066,-169.21359252929688,5356.25390625,True
1599559663.6311653,0.0,10,0.5,0.5,4.570205362319946,-0.05075,-0.00825,-0.001,0.08877450807533367,10,1,100,-0.025810708744438096,-10,-1,-100,15024.644046066562,0.002538852859331371,0.008049488538570479,0.9999643793457976,22.02563426018115,0.01897890202110111,-31.232989140431144,12.515371273788066,-169.21359252929688,5356.25390625,True
1599559663.6671584,0.0,10,0.5,0.5,4.807307021331788,-0.05075,-0.00825,-0.001,0.0842494657536298,10,1,100,-0.11160104708174744,-10,-1,-100,15025.561043202062,0.003314599591420641,0.00800877538148134,0.999962435767683,21.064064438993395,0.017557699592734066,-28.100101390991924,11.77279611842434,-173.35520935058594,5356.25390625,True
1599559663.6981506,0.0,10,0.5,0.5,4.825712240600587,-0.05075,-0.00825,-0.001,0.08827472523386898,10,1,100,-0.034491330574954494,-10,-1,-100,15025.561043202062,0.003314599591420641,0.00800877538148134,0.999962435767683,21.064064438993395,0.017557699592734066,-28.100101390991924,11.77279611842434,-173.35520935058594,5356.25390625,True
1599559663.731144,0.0,10,0.5,0.5,4.969775811386108,-0.05075,-0.00825,-0.001,0.08929966631705932,10,1,100,-0.0887699981727944,-10,-1,-100,15026.280775276944,0.003804121293735456,0.00801848858415308,0.9999606154754339,20.41616661055817,0.0167107897353172,-25.949375323245004,11.21590279648135,-175.73690795898438,5356.25390625,True
1599559663.765012,0.0,10,0.5,0.5,4.986867768478393,-0.05075,-0.00825,-0.001,0.08829286599387853,10,1,100,-0.04023295504652449,-10,-1,-100,15026.280775276944,0.003804121293735456,0.00801848858415308,0.9999606154754339,20.41616661055817,0.0167107897353172,-25.949375323245004,11.21590279648135,-175.73690795898438,5356.25390625,True
1599559663.927105,0.0,10,0.5,0.5,5.066128538894654,-0.05075,-0.00825,-0.001,0.09132924476145701,10,1,100,-0.0718002181700645,-10,-1,-100,15026.731950779213,0.004088138937273663,0.00804632216022788,0.9999592710804392,20.03366632001063,0.016249993597236327,-24.621553404351303,10.844654142145433,-176.97967529296875,5356.25390625,True
1599559663.9500515,0.0,10,0.5,0.5,5.150535075759889,-0.05075,-0.00825,-0.001,0.09830537286940064,10,1,100,-0.08340738038256387,-10,-1,-100,15027.323752658092,0.004448640777888473,0.00813524958712302,0.9999570127307396,19.54865673791865,0.015703793953413103,-22.793369045940096,10.287796095207835,-178.32608032226562,5356.25390625,True
1599559663.973988,0.0,10,0.5,0.5,5.190846553039552,-0.05075,-0.00825,-0.001,0.09938061512046363,10,1,100,-0.06933990914602306,-10,-1,-100,15027.712429239647,0.004645680515482972,0.008225905381696702,0.9999553750709077,19.290536110403366,0.015427061489670584,-21.68172324928901,9.916564212779669,-178.87850952148438,5356.25390625,True
1599559663.9989522,0.0,10,0.5,0.5,5.21153099822998,-0.05075,-0.00825,-0.001,0.09648228669645104,10,1,100,-0.059235569916108996,-10,-1,-100,15027.905791269965,0.004730197096892812,0.00828190249518263,0.9999545166288739,19.182069653895535,0.015312115855729641,-21.156712070027634,9.730949683110959,-179.05117797851562,5356.25390625,True
1599559664.0318413,0.0,10,0.5,0.5,5.220470944213867,-0.05075,-0.00825,-0.001,0.09090331341509031,10,1,100,-0.0510247514505794,-10,-1,-100,15027.905791269965,0.004730197096892812,0.00828190249518263,0.9999545166288739,19.182069653895535,0.015312115855729641,-21.156712070027634,9.730949683110959,-179.05117797851562,5356.25390625,True
1599559664.0677757,0.0,10,0.5,0.5,5.233949413299562,-0.05075,-0.00825,-0.001,0.09769609942355506,10,1,100,-0.05956032252679638,-10,-1,-100,15028.103058263077,0.0048058010664606375,0.00834344380984448,0.9999536445363362,19.087869590389488,0.01521163658713293,-20.65166947419945,9.545335797428228,-179.15480041503906,5356.25390625,True
1599559664.0988781,0.0,10,0.5,0.5,5.24206229057312,-0.05075,-0.00825,-0.001,0.10634952750629355,10,1,100,-0.06597611802708557,-10,-1,-100,15028.48489911959,0.004930796499518445,0.008477790755497172,0.9999519059983766,18.942278939165334,0.015049575221389775,-19.69790495186679,9.174109112652486,-179.15509033203125,5356.25390625,True
1599559664.1316345,0.0,10,0.5,0.5,5.220083554840088,-0.05075,-0.00825,-0.001,0.1196626191723006,10,1,100,-0.06709430429755014,-10,-1,-100,15029.008344133385,0.005053124771204223,0.008720526070896033,0.9999492078876274,18.83136201550008,0.014888278166958854,-18.39500067157075,8.617268086402673,-178.63792419433594,5356.25390625,True
1599559664.1658378,0.0,10,0.5,0.5,5.224958960723877,-0.05075,-0.00825,-0.001,0.095460262701356,10,1,100,-0.05503532964695072,-10,-1,-100,15029.008344133385,0.005053124771204223,0.008720526070896033,0.9999492078876274,18.83136201550008,0.014888278166958854,-18.39500067157075,8.617268086402673,-178.63792419433594,5356.25390625,True
1599559664.2017393,0.0,10,0.5,0.5,5.19165098991394,-0.05075,-0.00825,-0.001,0.11656685296175776,10,1,100,-0.05857659193921558,-10,-1,-100,15029.382372692111,0.005084182607063477,0.008911765948275373,0.999947364372196,18.82800116560247,0.01482337634160217,-17.60002721081387,8.246037699020913,-177.9480438232422,5356.25390625,True
1599559664.231665,0.0,10,0.5,0.5,5.17095825881958,-0.05075,-0.00825,-0.001,0.10885193015976896,10,1,100,-0.05546899364528334,-10,-1,-100,15029.511280724895,0.005083002417614935,0.00901467265008931,0.999946447947806,18.846753292438734,0.014800606660113031,-17.22128021510913,8.060421030561054,-177.49960327148438,5356.25390625,True
1599559664.2645786,0.0,10,0.5,0.5,5.080793037414551,-0.05075,-0.00825,-0.001,0.13551826156926838,10,1,100,-0.04922228773015924,-10,-1,-100,15029.965390144149,0.005024236861178459,0.009349765073197555,0.9999436678818655,18.978677819510246,0.014758100936915373,-16.144530088159982,7.50356206893743,-175.74032592773438,5356.25390625,True
1599559664.2978194,0.0,10,0.5,0.5,5.001871765136719,-0.05075,-0.00825,-0.001,0.12920860944555662,10,1,100,-0.044881162874985524,-10,-1,-100,15030.277895256644,0.004930825587477092,0.00959592996991124,0.9999418008499487,19.124248062077392,0.014742091097752909,-15.463919922205598,7.132313264370847,-174.22250366210938,5356.25390625,True
1599559664.3347206,0.0,10,0.5,0.5,4.906723557281494,-0.05075,-0.00825,-0.001,0.1332792347868334,10,1,100,-0.03878863478165472,-10,-1,-100,15030.531806345913,0.004790260405925575,0.009855476447673274,0.999939959692197,19.35121951328015,0.01476059216399779,-14.833363385531595,6.761054690158258,-172.4287872314453,5356.25390625,True
1599559664.3656385,0.0,10,0.5,0.5,4.795955401229858,-0.05075,-0.00825,-0.001,0.1371040747311525,10,1,100,-0.03225196780132571,-10,-1,-100,15030.78376411472,0.004602995028958447,0.010124768541539396,0.9999381488365888,19.61418768495247,0.014779534607012038,-14.20969204901622,6.389784747671653,-170.3592529296875,5356.25390625,True
1599559664.3995478,0.0,10,0.5,0.5,4.731952306747436,-0.05075,-0.00825,-0.001,0.12538654098843868,10,1,100,-0.038608370014527625,-10,-1,-100,15030.907789118239,0.004490654890079198,0.010261381169169057,0.9999372670698693,19.756519045541154,0.01478831331659113,-13.897153505886896,6.204145296479471,-169.22105407714844,5356.25390625,True
1599559664.432459,0.0,10,0.5,0.5,4.662427349472046,-0.05075,-0.00825,-0.001,0.12716737408105733,10,1,100,-0.036103939763888926,-10,-1,-100,15031.03376872663,0.0043660464398889666,0.010400020279347715,0.9999363865850038,19.904438799281507,0.014796377695540135,-13.58241673027163,6.018502748098761,-168.01394653320312,5356.25390625,True
1599559664.4683628,0.0,10,0.5,0.5,4.445637101364136,-0.05075,-0.00825,-0.001,0.15946641430478717,10,1,100,0.0007072232210418583,-10,-1,-100,15031.400962191401,0.003918632503543594,0.01081793599106781,0.9999338060992815,20.36982733577052,0.014817422978073966,-12.614124145988614,5.461557158452877,-163.9790496826172,5356.25390625,True
1599559664.499281,0.0,10,0.5,0.5,4.360844932937622,-0.05075,-0.00825,-0.001,0.13315776226223988,10,1,100,-0.024751395782622358,-10,-1,-100,15031.469324932317,0.0037443659089608033,0.010956783065044584,0.9999329620673604,20.527505228925254,0.014823937872552458,-12.279787197190494,5.2759029385505904,-162.49627685546875,5356.25390625,True
1599559664.532193,0.0,10,0.5,0.5,4.349010846710206,-0.05075,-0.00825,-0.001,0.11949668056397737,10,1,100,-0.04204717935467709,-10,-1,-100,15031.469324932317,0.0037443659089608033,0.010956783065044584,0.9999329620673604,20.527505228925254,0.014823937872552458,-12.279787197190494,5.2759029385505904,-162.49627685546875,5356.25390625,True
1599559664.5661738,0.0,10,0.5,0.5,4.172107552719116,-0.05075,-0.00825,-0.001,0.14879876735790523,10,1,100,0.0009584196822920443,-10,-1,-100,15031.706633793423,0.0033546239328957226,0.01122130656579232,0.9999314120364583,20.83791856323914,0.014837430114022502,-11.588401527203029,4.904587128255639,-159.32418823242188,5356.25390625,True
1599559664.6012368,0.0,10,0.5,0.5,3.88731188621521,-0.05075,-0.00825,-0.001,0.1656299806880525,10,1,100,0.03586372018228366,-10,-1,-100,15031.954685953911,0.0026845633850954703,0.011612787475004598,0.9999289656203044,21.26191880898124,0.01485502799189952,-10.481687702828344,4.347597875919968,-154.04934692382812,5356.25390625,True
1599559664.6322467,0.0,10,0.5,0.5,3.874691669845581,-0.05075,-0.00825,-0.001,0.12670819200700542,10,1,100,-0.03090836725013327,-10,-1,-100,15031.954685953911,0.0026845633850954703,0.011612787475004598,0.9999289656203044,21.26191880898124,0.01485502799189952,-10.481687702828344,4.347597875919968,-154.04934692382812,5356.25390625,True
1599559664.665309,0.0,10,0.5,0.5,3.4442446468353274,-0.05075,-0.00825,-0.001,0.17364094208088926,10,1,100,0.08624800327190804,-10,-1,-100,15032.247662557056,0.0016215475278063508,0.01203761533248982,0.9999262304793898,21.648990440097624,0.014852673524947086,-8.849715371278199,3.604925141235777,-146.05313110351562,5356.25390625,True
1599559664.6991222,0.0,10,0.5,0.5,3.3181195800781254,-0.05075,-0.00825,-0.001,0.14258475823559114,10,1,100,0.012703141961390055,-10,-1,-100,15032.362899458501,0.0013266397720737867,0.01213950976898748,0.9999254333846519,21.695107648183402,0.014839674149368263,-8.411867510817043,3.4192538015701164,-143.88189697265625,5356.25390625,True
1599559664.7351189,0.0,10,0.5,0.5,3.2984469955444338,-0.05075,-0.00825,-0.001,0.13259678870857006,10,1,100,-0.016459998086177884,-10,-1,-100,15032.362899458501,0.0013266397720737867,0.01213950976898748,0.9999254333846519,21.695107648183402,0.014839674149368263,-8.411867510817043,3.4192538015701164,-143.88189697265625,5356.25390625,True
1599559664.7660363,0.0,10,0.5,0.5,3.0421727108001715,-0.05075,-0.00825,-0.001,0.14850680938782623,10,1,100,0.05140018678510458,-10,-1,-100,15032.478137395578,0.0007126053778966784,0.012282438930980882,0.9999243140795618,21.70591877654137,0.014784594921328057,-7.502164779976525,3.0479060200714363,-139.3336944580078,5356.25390625,True
1599559664.7989452,0.0,10,0.5,0.5,2.7734513946533204,-0.05075,-0.00825,-0.001,0.146977544002972,10,1,100,0.06241654606160129,-10,-1,-100,15032.588491645874,5.756488164205736e-05,0.01239676083052018,0.9999231555510629,21.593487110498106,0.01467514587349104,-6.5540866858397,2.676549187192675,-134.51034545898438,5356.25390625,True
1599559664.8320184,0.0,10,0.5,0.5,2.623822109603882,-0.05075,-0.00825,-0.001,0.1405515077822069,10,1,100,0.035038427575370304,-10,-1,-100,15032.648062736378,-0.0002855244308764969,0.012440836023694902,0.9999225690396387,21.489820546679766,0.014596700770975152,-6.07017109390453,2.490866307941345,-131.99554443359375,5356.25390625,True
1599559664.8680136,0.0,10,0.5,0.5,2.330236466598511,-0.05075,-0.00825,-0.001,0.14050814787876417,10,1,100,0.0781354839355387,-10,-1,-100,15032.697870052303,-0.0009855516906768613,0.012479161061132761,0.9999216465439056,21.160890792682263,0.014369238585518484,-5.08615752353004,2.119489415885131,-126.76004028320312,5356.25390625,True
1599559664.8984709,0.0,10,0.5,0.5,1.8729264251708986,-0.05075,-0.00825,-0.001,0.1320463354961838,10,1,100,0.12763153221049564,-10,-1,-100,15032.798459682497,-0.0020676042588134943,0.012435692457147277,0.9999205361256165,20.333725444888294,0.013815526861692098,-3.6028033008724587,1.5623892304133813,-118.39167022705078,5356.25390625,True
1599559664.9323733,0.0,10,0.5,0.5,1.8475254678726198,-0.05075,-0.00825,-0.001,0.13651463448386777,10,1,100,0.01996849821600327,-10,-1,-100,15032.798459682497,-0.0020676042588134943,0.012435692457147277,0.9999205361256165,20.333725444888294,0.013815526861692098,-3.6028033008724587,1.5623892304133813,-118.39167022705078,5356.25390625,True
1599559664.9653819,0.0,10,0.5,0.5,1.511630717468262,-0.05075,-0.00825,-0.001,0.12541965385064724,10,1,100,0.10105170166459174,-10,-1,-100,15032.90197670227,-0.002800404137760745,0.01233408090140696,0.9999200108933627,19.534104638503543,0.013273801464778252,-2.638347176735913,1.1909620788203403,-112.46940612792969,5356.25390625,True
1599559665.0017674,0.0,10,0.5,0.5,1.1625647235870362,-0.05075,-0.00825,-0.001,0.11726452301940701,10,1,100,0.10586490761594178,-10,-1,-100,15032.882446410134,-0.0035053559295224676,0.01216691348551685,0.999919836134899,18.639064375200277,0.012645979100944747,-1.732311363125291,0.8195121905637754,-106.27259826660156,5356.25390625,True
1599559665.0323722,0.0,10,0.5,0.5,0.8010379058837891,-0.05075,-0.00825,-0.001,0.10992427549065253,10,1,100,0.11690908371241161,-10,-1,-100,15032.923462233855,-0.0042419619743125515,0.011948096040670776,0.9999196211494259,17.575474589238407,0.01188090578970763,-0.8930565458515756,0.44804297857805286,-99.80101013183594,5356.25390625,True
1599559665.0652823,0.0,10,0.5,0.5,0.5983623077392579,-0.05075,-0.00825,-0.001,0.11699952334685168,10,1,100,0.08110138465660083,-10,-1,-100,15032.917601634865,-0.004581016931117633,0.011813665538347352,0.9999197225729798,17.026398393275404,0.011490857182574199,-0.5065053363474225,0.2623047355520516,-96.4622573852539,5356.25390625,True
1599559665.0992935,0.0,10,0.5,0.5,0.20635285472869874,-0.05075,-0.00825,-0.001,0.09700257114807831,10,1,100,0.12103493938605267,-10,-1,-100,15032.949827628792,-0.0052469104287507316,0.011509961738274154,0.9999199921552404,15.757823085848312,0.010618117417225584,0.19510463415009835,-0.10917181888117211,-89.57864379882812,5356.25390625,True
1599559665.1343405,0.0,10,0.5,0.5,-0.010831590080261248,-0.05075,-0.00825,-0.001,0.10866735036661881,10,1,100,0.09028618685665782,-10,-1,-100,15032.942015545908,-0.005567316298325734,0.011340613074005895,0.9999201945577157,15.212761732255029,0.010247736683653693,0.5088142166022155,-0.2949086452947527,-86.04202270507812,5356.25390625,True
1599559665.1654103,0.0,10,0.5,0.5,-0.42169814434051517,-0.05075,-0.00825,-0.001,0.08419473341500686,10,1,100,0.1265843600558519,-10,-1,-100,15032.918576478376,-0.006183464225950257,0.01096514154125329,0.9999207620812495,16.803764766619,0.01132233362794428,1.2699836723987976,-0.6663791734025735,-78.80691528320312,5356.25390625,True
1599559665.1983473,0.0,10,0.5,0.5,-0.8390697072982788,-0.05075,-0.00825,-0.001,0.07696414693741058,10,1,100,0.12700111264851022,-10,-1,-100,15032.888301052502,-0.006742025602092105,0.010559412720302266,0.9999215188672473,18.139943418788988,0.01224078016339202,2.1352527460882205,-1.0378528631657962,-71.44989013671875,5356.25390625,True
1599559665.2322917,0.0,10,0.5,0.5,-1.2599394804000854,-0.05075,-0.00825,-0.001,0.06831096528330921,10,1,100,0.12876392360958194,-10,-1,-100,15032.804313996341,-0.007260601067402241,0.010113648275619351,0.9999224958919052,19.18725499602905,0.012946958939164817,3.0670110975571307,-1.409342216481873,-64.05673217773438,5356.25390625,True
1599559665.2692893,0.0,10,0.5,0.5,-1.4878817558288575,-0.05075,-0.00825,-0.001,0.08806819874315104,10,1,100,0.10310828254487084,-10,-1,-100,15032.788686631597,-0.007494079301815365,0.00989013003388938,0.999923009087865,19.602764446059183,0.013218100532779775,3.546454272950256,-1.5950943593234592,-60.375396728515625,5356.25390625,True
1599559665.2992325,0.0,10,0.5,0.5,-1.906153743171692,-0.05075,-0.00825,-0.001,0.05979945992584103,10,1,100,0.1276671057065258,-10,-1,-100,15032.693956657778,-0.007924661111803248,0.009432257245271367,0.999924113255362,20.209194290881147,0.013611614295910221,4.507837367349747,-1.9666114438771294,-53.1466064453125,5356.25390625,True
1599559665.332099,0.0,10,0.5,0.5,-2.309482969474793,-0.05075,-0.00825,-0.001,0.054617884101854704,10,1,100,0.12662910124556828,-10,-1,-100,15032.600203561247,-0.008302004301261672,0.008971542042360694,0.9999252912882862,20.515369292666865,0.013813693161532187,5.440792461301764,-2.338143419159011,-46.158843994140625,5356.25390625,True
1599559665.3661468,0.0,10,0.5,0.5,-2.8682213937759404,-0.05075,-0.00825,-0.001,0.024532273262479476,10,1,100,0.1406541417167321,-10,-1,-100,15032.429300487507,-0.00876818334289651,0.00828210936975954,0.9999272601670847,20.49955089404902,0.013832269549661363,6.73273515547151,-2.8954585978413045,-36.185272216796875,5356.25390625,True
1599559665.4061637,0.0,10,0.5,0.5,-3.075668137931824,-0.05075,-0.00825,-0.001,0.06909421054007528,10,1,100,0.10902010691158792,-10,-1,-100,15032.407813461381,-0.008900285590364522,0.008063793630528372,0.9999278774735177,20.36646471701578,0.01376488084369701,7.118300968111219,-3.0812323233002803,-32.998077392578125,5356.25390625,True
1599559665.4340599,0.0,10,0.5,0.5,-3.444032853698731,-0.05075,-0.00825,-0.001,0.04450290475798788,10,1,100,0.12189731714672623,-10,-1,-100,15032.255466274451,-0.009133517482328293,0.007645176425851806,0.999929062551848,19.94300629740727,0.01354541147339623,7.811042492514991,-3.4527792869167335,-26.830078125,5356.25390625,True
1599559665.4579964,0.0,10,0.5,0.5,-3.6438890510559085,-0.05075,-0.00825,-0.001,0.06434337660817184,10,1,100,0.11029602824507975,-10,-1,-100,15032.176364195067,-0.009236546933140773,0.007448496697795166,0.9999296005708076,19.663364501860958,0.013399019295938251,8.116014498004253,-3.6385519369796713,-23.849273681640625,5356.25390625,True
1599559665.5008807,0.0,10,0.5,0.5,-3.990035608673096,-0.05075,-0.00825,-0.001,0.040926359572708335,10,1,100,0.11864870186353986,-10,-1,-100,15032.012298606336,-0.009402807802561015,0.007060353259581471,0.9999308669189475,19.1447269501009,0.013145833133577544,8.709122536939294,-4.01009556116344,-18.094329833984375,5356.25390625,True
1599559665.5358207,0.0,10,0.5,0.5,-4.177942896270752,-0.05075,-0.00825,-0.001,0.06015289288500931,10,1,100,0.11063292473024422,-10,-1,-100,15031.932218177826,-0.009478156670297992,0.006885832062482368,0.9999313725766087,18.853863036188788,0.013000482015770662,8.974284330921064,-4.195867070095797,-15.3199462890625,5356.25390625,True
1599559665.5677,0.0,10,0.5,0.5,-4.361487198638916,-0.05075,-0.00825,-0.001,0.05850579589124048,10,1,100,0.11040083256291311,-10,-1,-100,15031.848233411205,-0.009542058320293865,0.006715542438501485,0.9999319229891446,18.526522308453618,0.012829599193431566,9.209067727465953,-4.381639152953552,-12.614410400390625,5356.25390625,True
1599559665.6006136,0.0,10,0.5,0.5,-4.799894620513917,-0.05075,-0.00825,-0.001,0.025075666196932127,10,1,100,0.12082373933312354,-10,-1,-100,15031.60311092902,-0.009692830375243943,0.0062599126066043495,0.9999334290508916,17.3656989603993,0.012161240072740852,9.730533091162927,-4.9389656903857855,-4.91058349609375,5356.25390625,True
1599559665.6335528,0.0,10,0.5,0.5,-5.085931701660156,-0.05075,-0.00825,-0.001,0.04176477881734045,10,1,100,0.11328262585505612,-10,-1,-100,15031.374592560227,-0.009759341438058466,0.006000723071817289,0.9999343711350814,16.590053554407383,0.011654748541026189,9.995639081752268,-5.310530980993802,-0.11865234375,5356.25390625,True
1599559665.6694584,0.0,10,0.5,0.5,-5.124887832641602,-0.05075,-0.00825,-0.001,0.06734057887870114,10,1,100,0.10681498760622937,-10,-1,-100,15031.374592560227,-0.009759341438058466,0.006000723071817289,0.9999343711350814,16.590053554407383,0.011654748541026189,9.995639081752268,-5.310530980993802,-0.11865234375,5356.25390625,True
1599559665.6995146,0.0,10,0.5,0.5,-5.616122531890869,-0.05075,-0.00825,-0.001,0.023508505642324616,10,1,100,0.11776325584006109,-10,-1,-100,15030.909745325102,-0.009857546297332575,0.005604950423277996,0.9999357045889243,17.76070099814507,0.012338657589736722,12.199493905239052,-6.053688588658563,8.63983154296875,5356.25390625,True
1599559665.733633,0.0,10,0.5,0.5,-5.644344758605958,-0.05075,-0.00825,-0.001,0.06281805460160572,10,1,100,0.10805170620809375,-10,-1,-100,15030.909745325102,-0.009857546297332575,0.005604950423277996,0.9999357045889243,17.76070099814507,0.012338657589736722,12.199493905239052,-6.053688588658563,8.63983154296875,5356.25390625,True
1599559665.766546,0.0,10,0.5,0.5,-5.7831088600158695,-0.05075,-0.00825,-0.001,0.05446511880643437,10,1,100,0.10936809185037175,-10,-1,-100,15030.769120495883,-0.009868643202528768,0.005531249955328484,0.9999360055299903,18.2112445729689,0.012578750630410878,12.893174501601965,-6.2394799433208,10.657470703125,5356.25390625,True
1599559665.8032625,0.0,10,0.5,0.5,-6.103903420257568,-0.05075,-0.00825,-0.001,0.044157416835321414,10,1,100,0.1119130005929449,-10,-1,-100,15030.383375742938,-0.00990119853607579,0.005372464899701104,0.9999365494312379,19.381771282569346,0.013097089206575738,14.948792724265942,-6.79685424171465,16.297760009765625,5356.25390625,True
1599559665.8341794,0.0,10,0.5,0.5,-6.131384433746338,-0.05075,-0.00825,-0.001,0.05982831921825003,10,1,100,0.10872393239853624,-10,-1,-100,15030.383375742938,-0.00990119853607579,0.005372464899701104,0.9999365494312379,19.381771282569346,0.013097089206575738,14.948792724265942,-6.79685424171465,16.297760009765625,5356.25390625,True
1599559665.8673632,0.0,10,0.5,0.5,-6.499103542327881,-0.05075,-0.00825,-0.001,0.052457296060925515,10,1,100,0.11104447470880194,-10,-1,-100,15029.790601552231,-0.00992184129277501,0.005306990042234409,0.9999366944572304,20.571528105980224,0.013418741040066337,17.60320382723125,-7.540009439431823,22.85516357421875,5356.25390625,True
1599559665.900513,0.0,10,0.5,0.5,-6.599978928375244,-0.05075,-0.00825,-0.001,0.06004019183510938,10,1,100,0.10913113285267251,-10,-1,-100,15029.635329302982,-0.009922810068698145,0.0053178381715938555,0.9999366272107053,20.812373052931576,0.013450438167025751,18.24865954216871,-7.7257949122974905,24.32257080078125,5356.25390625,True
1599559665.936657,0.0,10,0.5,0.5,-6.628984530639649,-0.05075,-0.00825,-0.001,0.05881560847247394,10,1,100,0.10907233043519941,-10,-1,-100,15029.635329302982,-0.009922810068698145,0.0053178381715938555,0.9999366272107053,20.812373052931576,0.013450438167025751,18.24865954216871,-7.7257949122974905,24.32257080078125,5356.25390625,True
1599559665.9667206,0.0,10,0.5,0.5,-6.921262840270997,-0.05075,-0.00825,-0.001,0.07515850455934252,10,1,100,0.11027730307823369,-10,-1,-100,15028.972245769342,-0.009933555293004407,0.005467266385506307,0.9999357146724537,21.594531472740673,0.013452511120728374,20.75832987964346,-8.468918566131343,29.504425048828125,5356.25390625,True
1599559666.0003805,0.0,10,0.5,0.5,-6.998660600280762,-0.05075,-0.00825,-0.001,0.0671941724480087,10,1,100,0.10966233541019588,-10,-1,-100,15028.819902274525,-0.009937574687341624,0.005531192157765783,0.9999353231697775,21.751965939684588,0.013432327401276421,21.36904916438003,-8.654694431071324,30.627914428710938,5356.25390625,True
1599559666.0333235,0.0,10,0.5,0.5,-7.12850979423523,-0.05075,-0.00825,-0.001,0.07868988686889805,10,1,100,0.11006311268201897,-10,-1,-100,15028.45467047079,-0.009944710081710864,0.005694239837204348,0.9999343370312208,22.03038597758366,0.013378883516905327,22.57320407353798,-9.026239599584928,32.66862487792969,5356.25390625,True
1599559666.0691934,0.0,10,0.5,0.5,-7.237662352752687,-0.05075,-0.00825,-0.001,0.08514820267899947,10,1,100,0.11058928692260031,-10,-1,-100,15028.08553327364,-0.009955900966247842,0.00590109579004585,0.9999330263094757,22.2681789787544,0.01331600175964287,23.757695368482583,-9.397776045849673,34.43421936035156,5356.25390625,True
1599559666.0996475,0.0,10,0.5,0.5,-7.257177128219605,-0.05075,-0.00825,-0.001,0.06449222193152601,10,1,100,0.10948003393579406,-10,-1,-100,15028.08553327364,-0.009955900966247842,0.00590109579004585,0.9999330263094757,22.2681789787544,0.01331600175964287,23.757695368482583,-9.397776045849673,34.43421936035156,5356.25390625,True
1599559666.1336913,0.0,10,0.5,0.5,-7.353929157257081,-0.05075,-0.00825,-0.001,0.09254168462166876,10,1,100,0.11070076887793864,-10,-1,-100,15027.717373222229,-0.00996691923139123,0.006155754681924678,0.9999313812483989,22.474281947511866,0.013251155903753635,24.92729529142141,-9.769303615807242,35.924774169921875,5356.25390625,True
1599559666.1667264,0.0,10,0.5,0.5,-7.401862197113037,-0.05075,-0.00825,-0.001,0.083148585041876,10,1,100,0.1102455049161873,-10,-1,-100,15027.497650172329,-0.009972737326691739,0.0063011588694689286,0.9999304175326974,22.56798293622009,0.013219753977149465,25.508121521663064,-9.955064042257606,36.566925048828125,5356.25390625,True
1599559666.2027986,0.0,10,0.5,0.5,-7.473724021148682,-0.05075,-0.00825,-0.001,0.10425011854137303,10,1,100,0.11156828572942525,-10,-1,-100,15027.122655951884,-0.009989986749093804,0.006624332349986614,0.9999281566120988,22.740644274632825,0.013160799275624075,26.66449975462094,-10.326577982900243,37.64483642578125,5356.25390625,True
1599559666.2331407,0.0,10,0.5,0.5,-7.541840814971923,-0.05075,-0.00825,-0.001,0.1359569739490238,10,1,100,0.11234594402156722,-10,-1,-100,15026.472275912995,-0.01001267571260941,0.007205172979337923,0.9999239130090909,22.973219284417475,0.013083720361355213,28.394123309015892,-10.883831949527163,38.74615478515625,5356.25390625,True
1599559666.2672176,0.0,10,0.5,0.5,-7.572848269653321,-0.05075,-0.00825,-0.001,0.12785783658840316,10,1,100,0.11154442840418677,-10,-1,-100,15026.031854984001,-0.010025933841425673,0.007657865634735523,0.9999204157054339,23.117012515362163,0.013038450036180598,29.54943980320564,-11.25532332258809,39.13667297363281,5356.25390625,True
1599559666.3013551,0.0,10,0.5,0.5,-7.589450404739381,-0.05075,-0.00825,-0.001,0.11031696777137123,10,1,100,0.11038486760587818,-10,-1,-100,15025.753540742211,-0.010027351475116991,0.00790781467088474,0.9999184560200522,23.186747979182396,0.013016721684342118,30.12892391501491,-11.441065718680107,39.22886657714844,5356.25390625,True
1599559666.4599319,0.0,10,0.5,0.5,-7.597380875396729,-0.05075,-0.00825,-0.001,0.08556611898498741,10,1,100,0.11025248385495762,-10,-1,-100,15025.753540742211,-0.010027351475116991,0.00790781467088474,0.9999184560200522,23.186747979182396,0.013016721684342118,30.12892391501491,-11.441065718680107,39.22886657714844,5356.25390625,True
1599559666.4828703,0.0,10,0.5,0.5,-7.5974456855773935,-0.05075,-0.00825,-0.001,0.17653828501194402,10,1,100,0.11070712429679128,-10,-1,-100,15025.08851881919,-0.010031402954781138,0.008732673796117873,0.99991155177002,23.38916624024926,0.012948571286596664,31.876123855369297,-11.998279217427374,39.09300231933594,5356.25390625,True
1599559666.5167797,0.0,10,0.5,0.5,-7.593424904632569,-0.05075,-0.00825,-0.001,0.12757429602619388,10,1,100,0.11020181597423763,-10,-1,-100,15024.812159257126,-0.010030413594386174,0.009034656342860345,0.9999088787424041,23.45456119598815,0.012922739827176321,32.461460916162515,-12.18401259503039,38.91026306152344,5356.25390625,True
1599559666.5781267,0.0,10,0.5,0.5,-7.5842847053527835,-0.05075,-0.00825,-0.001,0.1321630883264208,10,1,100,0.11037952635782261,-10,-1,-100,15024.588533306262,-0.010031061986034127,0.009348053533034823,0.999905991426482,23.51860999680043,0.012894025246460638,33.04772707197877,-12.369743806509709,38.65875244140625,5356.25390625,True
1599559666.605052,0.0,10,0.5,0.5,-7.5004122180938735,-0.05075,-0.00825,-0.001,0.256394428106849,10,1,100,0.10568507330761942,-10,-1,-100,15023.580756875104,-0.009988906258876067,0.010759202287794615,0.9998922248511994,23.758089929459405,0.012734193292694516,35.39555536933214,-13.112647483138641,36.9658203125,5356.25390625,True
1599559666.6259978,0.0,10,0.5,0.5,-7.502964013290406,-0.05075,-0.00825,-0.001,0.11573989739145676,10,1,100,0.10990284472617387,-10,-1,-100,15023.580756875104,-0.009988906258876067,0.010759202287794615,0.9998922248511994,23.758089929459405,0.012734193292694516,35.39555536933214,-13.112647483138641,36.9658203125,5356.25390625,True
1599559666.6549196,0.0,10,0.5,0.5,-7.43815471611023,-0.05075,-0.00825,-0.001,0.20324823158103167,10,1,100,0.1055611743742737,-10,-1,-100,15023.009489413118,-0.009949421829374989,0.011550679831865,0.9998837886478023,23.861576171044668,0.012614410536836922,36.56012636127883,-13.484087235372424,35.70710754394531,5356.25390625,True
1599559666.7007966,0.0,10,0.5,0.5,-7.3584644340515135,-0.05075,-0.00825,-0.001,0.21935267516814655,10,1,100,0.1011990567396435,-10,-1,-100,15022.442131845979,-0.009873908155804387,0.012412130406828323,0.9998742145672598,23.947563796070124,0.01245823216450352,37.70616288230173,-13.85551993553074,34.17376708984375,5356.25390625,True
1599559666.7346573,0.0,10,0.5,0.5,-7.311212783050537,-0.05075,-0.00825,-0.001,0.18274381710512877,10,1,100,0.10501625315591581,-10,-1,-100,15022.211677675368,-0.009840087299576139,0.012857725894924373,0.9998689171920225,23.98213377782672,0.012364444925745316,38.268570859175504,-14.041234030725061,33.303955078125,5356.25390625,True
1599559666.7708929,0.0,10,0.5,0.5,-7.258712337112427,-0.05075,-0.00825,-0.001,0.19069323782246908,10,1,100,0.1017301051749776,-10,-1,-100,15021.91969944432,-0.009779635945489066,0.013330353017660067,0.9998633208640061,24.00940331959096,0.012258914373563851,38.820708672023144,-14.226946808691993,32.365631103515625,5356.25390625,True
1599559666.8008127,0.0,10,0.5,0.5,-7.14620784072876,-0.05075,-0.00825,-0.001,0.2527333897511474,10,1,100,0.092025196763208,-10,-1,-100,15021.34551305999,-0.0096366789248753,0.014319085839183433,0.9998510380051765,24.039261854855322,0.012010339434068883,39.88771481535312,-14.59836873145103,30.282913208007812,5356.25390625,True
1599559666.8347194,0.0,10,0.5,0.5,-7.018911196136474,-0.05075,-0.00825,-0.001,0.26949360662462285,10,1,100,0.08750243900324882,-10,-1,-100,15020.716643025167,-0.009465957174272469,0.015364471038355998,0.9998371510823583,24.028439473803633,0.01170793416558908,40.888332503598605,-14.969787250876045,27.925445556640625,5356.25390625,True
1599559666.8686664,0.0,10,0.5,0.5,-6.802411706924438,-0.05075,-0.00825,-0.001,0.35160583781871513,10,1,100,0.06411773284322178,-10,-1,-100,15019.787019497133,-0.009098681386615565,0.017055267141875316,0.9998131484731255,23.93737367842327,0.011161632976845925,42.25606182287146,-15.526912637843443,23.874359130859375,5356.25390625,True
1599559666.9034855,0.0,10,0.5,0.5,-6.717071203613282,-0.05075,-0.00825,-0.001,0.24878693189684004,10,1,100,0.08313517464966982,-10,-1,-100,15019.495049607707,-0.008938527170811335,0.017650345717785818,0.9998042648579067,23.8921141782195,0.010960835117857573,42.68294844444302,-15.712621168491024,22.386688232421875,5356.25390625,True
1599559666.9338639,0.0,10,0.5,0.5,-6.705134421539307,-0.05075,-0.00825,-0.001,0.19010930352426494,10,1,100,0.0990413427485705,-10,-1,-100,15019.495049607707,-0.008938527170811335,0.017650345717785818,0.9998042648579067,23.8921141782195,0.010960835117857573,42.68294844444302,-15.712621168491024,22.386688232421875,5356.25390625,True
1599559666.9678555,0.0,10,0.5,0.5,-6.52847410736084,-0.05075,-0.00825,-0.001,0.32650834481919294,10,1,100,0.05635236642704759,-10,-1,-100,15018.849592289422,-0.008551400457968459,0.018884072326439717,0.999785109592345,23.749090474539244,0.010526417955894592,43.43522012895973,-16.084040136207655,19.20538330078125,5356.25390625,True
1599559667.001764,0.0,10,0.5,0.5,-6.33815064239502,-0.05075,-0.00825,-0.001,0.3451455265824982,10,1,100,0.04611974588554402,-10,-1,-100,15018.209023043979,-0.008107750083007546,0.020167684650301814,0.9997637365320056,23.525562226926414,0.010059406936556213,44.02509589014977,-16.455463022953122,15.749298095703125,5356.25390625,True
1599559667.0368218,0.0,10,0.5,0.5,-6.030210123062134,-0.05075,-0.00825,-0.001,0.4396267084679818,10,1,100,-0.001911165695497874,-10,-1,-100,15017.209119382198,-0.007269461156621214,0.022185691139300447,0.9997274378765264,23.013414278733137,0.00934245781883635,44.53286826483034,-17.01260879486199,10.050140380859375,5356.25390625,True
1599559667.0683513,0.0,10,0.5,0.5,-6.016007288742066,-0.05075,-0.00825,-0.001,0.23880341564136573,10,1,100,0.08165728224321699,-10,-1,-100,15017.209119382198,-0.007269461156621214,0.022185691139300447,0.9997274378765264,23.013414278733137,0.00934245781883635,44.53286826483034,-17.01260879486199,10.050140380859375,5356.25390625,True
1599559667.1012316,0.0,10,0.5,0.5,-5.782416046524048,-0.05075,-0.00825,-0.001,0.3919210389905467,10,1,100,0.003367243947918014,-10,-1,-100,15016.499228922185,-0.006560070468612091,0.02356918956497993,0.9997006845944925,22.538071439596937,0.00889286454248945,44.5708266339856,-17.384048744833535,5.907012939453125,5356.25390625,True
1599559667.1352162,0.0,10,0.5,0.5,-5.65218309211731,-0.05075,-0.00825,-0.001,0.3308351677869549,10,1,100,0.028429494961624502,-10,-1,-100,15016.149655916728,-0.006145935366434654,0.024262281271431065,0.9996867355256733,22.25596964320227,0.008687956919120774,44.48599728604329,-17.569771751423055,3.732177734375,5356.25390625,True
1599559667.1702132,0.0,10,0.5,0.5,-5.146670344543456,-0.05075,-0.00825,-0.001,0.5710683480387442,10,1,100,-0.14277589458079062,-10,-1,-100,15014.725014767959,-0.004216209680940884,0.02706726337464632,0.9996247229982528,20.9991708327436,0.008161716124015525,43.76006122300504,-18.312678716170826,-5.654937744140625,5356.25390625,True
1599559667.201097,0.0,10,0.5,0.5,-5.128353643798828,-0.05075,-0.00825,-0.001,0.29174041695084785,10,1,100,0.049671699219253275,-10,-1,-100,15014.725014767959,-0.004216209680940884,0.02706726337464632,0.9996247229982528,20.9991708327436,0.008161716124015525,43.76006122300504,-18.312678716170826,-5.654937744140625,5356.25390625,True
1599559667.2348332,0.0,10,0.5,0.5,-4.702196685791016,-0.05075,-0.00825,-0.001,0.5161256061094334,10,1,100,-0.15240019462371507,-10,-1,-100,15013.591362915002,-0.0023836310748281487,0.029098026915876395,0.9995737207092341,22.466096131614137,0.00913617554448862,48.250934891436636,-18.869817740633863,-13.419097900390625,5356.25390625,True
1599559667.2683766,0.0,10,0.5,0.5,-4.680421072387696,-0.05075,-0.00825,-0.001,0.31419402010623476,10,1,100,0.03020217637796013,-10,-1,-100,15013.591362915002,-0.0023836310748281487,0.029098026915876395,0.9995737207092341,22.466096131614137,0.00913617554448862,48.250934891436636,-18.869817740633863,-13.419097900390625,5356.25390625,True
1599559667.3044271,0.0,10,0.5,0.5,-4.365165013122558,-0.05075,-0.00825,-0.001,0.45806928661551033,10,1,100,-0.123723123156901,-10,-1,-100,15012.818020171137,-0.0009902691664166684,0.03039557690123518,0.9995374571629715,23.437163555010656,0.00998230102695213,51.33401812942102,-19.24120005150801,-18.940185546875,5356.25390625,True
1599559667.334479,0.0,10,0.5,0.5,-3.883766101074219,-0.05075,-0.00825,-0.001,0.5206391976537494,10,1,100,-0.2477397244822007,-10,-1,-100,15011.620898870286,0.0013969733702859906,0.03213352016593189,0.9994826088267611,24.669979159322803,0.01134979242047412,55.6093453331947,-19.798201219592283,-27.74114990234375,5356.25390625,True
1599559667.3683827,0.0,10,0.5,0.5,-3.856687445831299,-0.05075,-0.00825,-0.001,0.3480414547356414,10,1,100,-0.009965943157264113,-10,-1,-100,15011.620898870286,0.0013969733702859906,0.03213352016593189,0.9994826088267611,24.669979159322803,0.01134979242047412,55.6093453331947,-19.798201219592283,-27.74114990234375,5356.25390625,True
1599559667.4011257,0.0,10,0.5,0.5,-3.337752299499512,-0.05075,-0.00825,-0.001,0.5052003111330619,10,1,100,-0.30495380082652807,-10,-1,-100,15010.412061761599,0.004070802590436656,0.033553193561338776,0.9994286426594472,25.64079812638382,0.012632785581634883,59.43490977911329,-20.355118932211326,-37.166412353515625,5356.25390625,True
1599559667.437507,0.0,10,0.5,0.5,-3.3082239059448244,-0.05075,-0.00825,-0.001,0.3643697218345772,10,1,100,-0.03870490518616728,-10,-1,-100,15010.412061761599,0.004070802590436656,0.033553193561338776,0.9994286426594472,25.64079812638382,0.012632785581634883,59.43490977911329,-20.355118932211326,-37.166412353515625,5356.25390625,True
1599559667.4682364,0.0,10,0.5,0.5,-2.5720434249877933,-0.05075,-0.00825,-0.001,0.5123687680127451,10,1,100,-0.4653272778888692,-10,-1,-100,15008.7882231744,0.007939523366771175,0.03488956306841634,0.9993596361458689,26.365545906066128,0.013706456155158055,63.359971501067385,-21.097577002017303,-50.7054443359375,5356.25390625,True
1599559667.5014384,0.0,10,0.5,0.5,-2.5406714187622073,-0.05075,-0.00825,-0.001,0.3797945454846872,10,1,100,-0.07986374612873792,-10,-1,-100,15008.7882231744,0.007939523366771175,0.03488956306841634,0.9993596361458689,26.365545906066128,0.013706456155158055,63.359971501067385,-21.097577002017303,-50.7054443359375,5356.25390625,True
1599559667.535421,0.0,10,0.5,0.5,-2.3193885856628422,-0.05075,-0.00825,-0.001,0.40963317969756585,10,1,100,-0.1940568435450015,-10,-1,-100,15008.364438304794,0.008966591767784741,0.03515371219790272,0.9993416916904733,26.41151794268133,0.013798407884680196,64.0328764788211,-21.28318141448094,-54.26324462890625,5356.25390625,True
1599559667.571286,0.0,10,0.5,0.5,-1.9037261932373049,-0.05075,-0.00825,-0.001,0.41559336007653735,10,1,100,-0.3149080738537231,-10,-1,-100,15007.45827164303,0.01098695349746843,0.03544067991104166,0.9993113854351344,26.29951396161992,0.013735021926202476,64.88174609906616,-21.654388093971704,-61.589202880859375,5356.25390625,True
1599559667.6022058,0.0,10,0.5,0.5,-1.4778598876953124,-0.05075,-0.00825,-0.001,0.4062628293055088,10,1,100,-0.3450015904944933,-10,-1,-100,15006.60776415607,0.013085068326122152,0.03561097059507211,0.9992800607238082,25.89620638271133,0.013364166290987495,64.99056877782293,-22.025602052266766,-69.192138671875,5356.25390625,True
1599559667.6361158,0.0,10,0.5,0.5,-1.0315650550842288,-0.05075,-0.00825,-0.001,0.3833164939273864,10,1,100,-0.3611823316550134,-10,-1,-100,15005.697680248646,0.015125480635993036,0.03555125640104486,0.9992533852851524,25.183725377988623,0.012757349917338455,64.27659125274823,-22.396834510562478,-77.073974609375,5356.25390625,True
1599559667.6705313,0.0,10,0.5,0.5,-0.35268481826782233,-0.05075,-0.00825,-0.001,0.3438421525525046,10,1,100,-0.47920812659924766,-10,-1,-100,15004.352068583481,0.018038712008275597,0.035133426139884974,0.9992198192773978,23.52006733565457,0.011658013504531845,61.536420109218014,-22.953733626677817,-89.41796875,5356.25390625,True
1599559667.70544,0.0,10,0.5,0.5,-0.09402631912231446,-0.05075,-0.00825,-0.001,0.3620644855022169,10,1,100,-0.2908698133966997,-10,-1,-100,15003.868693795055,0.018959808827929317,0.034916510832942504,0.9992103697022271,22.807509600954152,0.01130249096478801,60.15920678531255,-23.139380945464605,-93.67147827148438,5356.25390625,True
1599559667.73536,0.0,10,0.5,0.5,0.40573069419860835,-0.05075,-0.00825,-0.001,0.32509870191979834,10,1,100,-0.3895885701165219,-10,-1,-100,15002.949788987054,0.020678646601924134,0.03438073252982099,0.9991948552736976,22.388449613342143,0.011289372778033501,60.010360703301636,-23.51068090442461,-102.35974884033203,5356.25390625,True
1599559667.769782,0.0,10,0.5,0.5,0.45082692623138426,-0.05075,-0.00825,-0.001,0.37875928612879806,10,1,100,-0.21936557711818896,-10,-1,-100,15002.949788987054,0.020678646601924134,0.03438073252982099,0.9991948552736976,22.388449613342143,0.011289372778033501,60.010360703301636,-23.51068090442461,-102.35974884033203,5356.25390625,True
1599559667.8022163,0.0,10,0.5,0.5,0.959285115814209,-0.05075,-0.00825,-0.001,0.3043141108760715,10,1,100,-0.39860003043604053,-10,-1,-100,15001.96837252262,0.02229295268298507,0.03370320590118849,0.9991832255260575,23.996420645478732,0.012548905263905586,65.34570073000806,-23.881932403986227,-111.14571380615234,5356.25390625,True
1599559667.838087,0.0,10,0.5,0.5,1.2274094179153443,-0.05075,-0.00825,-0.001,0.33225930452520736,10,1,100,-0.31766732862106795,-10,-1,-100,15001.477172430605,0.02301170325898052,0.03334239832393948,0.9991790360026216,24.67565461430343,0.013180642765897458,67.7224973876524,-24.06753738204313,-115.53309631347656,5356.25390625,True
1599559667.8693478,0.0,10,0.5,0.5,1.7270202787399294,-0.05075,-0.00825,-0.001,0.2793776645089553,10,1,100,-0.3946398688490218,-10,-1,-100,15000.551404096303,0.024351161257510318,0.03253505576696943,0.9991739043287964,25.752670898735026,0.014329676571824268,71.77860648090756,-24.438709089986045,-124.23870849609375,5356.25390625,True
1599559667.90332,0.0,10,0.5,0.5,2.2168006650924683,-0.05075,-0.00825,-0.001,0.27042874954521945,10,1,100,-0.3871516005217494,-10,-1,-100,14999.566055839416,0.02548678920820791,0.03172213481226355,0.999171721847055,26.488246440676196,0.015214168507892019,74.96045553103362,-24.809839700112278,-132.7557373046875,5356.25390625,True
1599559667.9361787,0.0,10,0.5,0.5,2.902838934135437,-0.05075,-0.00825,-0.001,0.2107486822066074,10,1,100,-0.42881029008890925,-10,-1,-100,14998.02893481101,0.026884711945170135,0.030443950191360612,0.9991748486428045,27.082366568719184,0.015891083374981827,78.37771447044558,-25.366487168250107,-145.0425567626953,5356.25390625,True
1599559667.9722216,0.0,10,0.5,0.5,3.3592370241165166,-0.05075,-0.00825,-0.001,0.24995797118349744,10,1,100,-0.3695125089228674,-10,-1,-100,14996.978139458923,0.0276039349285181,0.029643109545242137,0.9991793176567212,27.0520318125345,0.015822604367945473,79.44656625606575,-25.737576954272086,-152.8900604248047,5356.25390625,True
1599559668.002332,0.0,10,0.5,0.5,3.8056911977767944,-0.05075,-0.00825,-0.001,0.25059984317460704,10,1,100,-0.3621504126435139,-10,-1,-100,14995.984958301997,0.028179501806938012,0.028926278836740704,0.9991842603196729,26.727291308181368,0.015427436975752518,79.63639402202739,-26.10867584066611,-160.46017456054688,5356.25390625,True
1599559668.0359676,0.0,10,0.5,0.5,4.047233695793151,-0.05075,-0.00825,-0.001,0.28417618367608655,10,1,100,-0.33087720726429487,-10,-1,-100,14995.428310074494,0.028409223656782612,0.028585496876573892,0.9991875626625556,26.468323421614908,0.015146132305983216,79.43132558365602,-26.294231632357313,-164.14138793945312,5356.25390625,True
1599559668.0689054,0.0,10,0.5,0.5,4.471901331901551,-0.05075,-0.00825,-0.001,0.25207701407921257,10,1,100,-0.3488417721622083,-10,-1,-100,14994.37165141583,0.028772785551323413,0.02798963992913827,0.9991940286392101,25.784468534113806,0.014501511887396188,78.48355950890185,-26.665359353291613,-171.29522705078125,5356.25390625,True
1599559668.1049547,0.0,10,0.5,0.5,4.701333961105347,-0.05075,-0.00825,-0.001,0.28211627493131175,10,1,100,-0.3277927903526895,-10,-1,-100,14993.81890705938,0.02890458367631997,0.027726846068852864,0.9991975515630395,25.370458477712916,0.014170414120496307,77.76706571621017,-26.85093185025695,-174.76797485351562,5356.25390625,True
1599559668.1358147,0.0,10,0.5,0.5,4.7575979997634885,-0.05075,-0.00825,-0.001,0.30773027231375555,10,1,100,-0.3154355715604733,-10,-1,-100,14993.81890705938,0.02890458367631997,0.027726846068852864,0.9991975515630395,25.370458477712916,0.014170414120496307,77.76706571621017,-26.85093185025695,-174.76797485351562,5356.25390625,True
