Timestamp,Input Throttle,horizon,dT,dt,Input Roll,Roll P,Roll I,Roll D,Input Pitch,Pitch P,Pitch I,Pitch D,Input Yaw,Yaw P,Yaw I,Yaw D,Altitude,Direction X,Direction Y,Direction Z,Drag X,Drag Y,Drag Z,Vertical Velocity,Roll,Mass,Has Fuel
1599563031.796272,0.0,10,0.5,0.5,-8.746372772216796,-0.15025,-0.03,-0.5,-0.00031772827811599375,10,1,100,0.17492984494803904,-10,-1,-100,14994.547641844954,-0.016810194422162382,-7.46738221351286e-05,0.9998586959102317,28.576477288609823,0.02719956983588915,-86.69256329058575,26.823330562793195,-31.7916259765625,5356.25390625,True
1599563031.8371587,0.0,10,0.5,0.5,-8.921227081298827,-0.15025,-0.03,-0.5,-0.00021835810803377343,10,1,100,0.1777528868227616,-10,-1,-100,14995.57401227951,-0.01688264826906167,-6.980248126666474e-05,0.9998574755009019,28.431386596601627,0.02752547915791924,-85.05960650332153,26.451407409209796,-31.7904052734375,5356.25390625,True
1599563031.8750591,0.0,10,0.5,0.5,-9.005689292907714,-0.15025,-0.03,-0.5,0.007389579208132862,10,1,100,0.18045259574479072,-10,-1,-100,14997.148235862842,-0.016957710348925775,3.852533743696062e-06,0.9998562076843248,28.21737144387302,0.02800570706214772,-82.6435988626496,25.893551786912187,-31.928131103515625,5356.25390625,True
1599563031.9169455,0.0,10,0.5,0.5,-8.993811393737793,-0.15025,-0.03,-0.5,0.00963792180275649,10,1,100,0.17803641426184733,-10,-1,-100,14998.175581112388,-0.016988567216821907,9.124761412810823e-05,0.9998556797147239,28.093424679686212,0.028331276482231993,-81.10194512720469,25.521666825278714,-32.320220947265625,5356.25390625,True
1599563031.9598653,0.0,10,0.5,0.5,-9.362895652770996,-0.15025,-0.03,-0.5,0.0009075385257280834,10,1,100,0.17664958419391624,-10,-1,-100,14998.175581112388,-0.016988567216821907,9.124761412810823e-05,0.9998556797147239,28.093424679686212,0.028331276482231993,-81.10194512720469,25.521666825278714,-32.320220947265625,5356.25390625,True
1599563031.9987614,0.0,10,0.5,0.5,-8.494618194580077,-0.15025,-0.03,-0.5,0.03590246836014903,10,1,100,0.17503246971753397,-10,-1,-100,15000.169720651931,-0.01695842202411223,0.0004093003875190913,0.999856111845922,27.90461412874538,0.028982728815962578,-78.2153293142027,24.777937180851353,-33.921630859375,5356.25390625,True
1599563032.0376582,0.0,10,0.5,0.5,-8.675094413757323,-0.15025,-0.03,-0.5,0.030190702959743736,10,1,100,0.17295033852067554,-10,-1,-100,15001.13456191821,-0.016896672090746436,0.0006461420411549195,0.9998570322664737,27.834252448492226,0.029288649554854402,-76.85020343358825,24.406090765226466,-35.134185791015625,5356.25390625,True
1599563032.0763164,0.0,10,0.5,0.5,-8.478730384826658,-0.15025,-0.03,-0.5,0.037082281947872525,10,1,100,0.16879225368470901,-10,-1,-100,15002.101354837068,-0.016787374405458976,0.0009235159515876114,0.9998586556003093,27.77363080815438,0.029563331316223962,-75.51739727972054,24.034255787158248,-36.621673583984375,5356.25390625,True
1599563032.1161766,0.0,10,0.5,0.5,-8.236674606323241,-0.15025,-0.03,-0.5,0.04517892831094088,10,1,100,0.1655175514513451,-10,-1,-100,15003.065216851188,-0.01664298160361665,0.001248440368052873,0.999860716580059,27.71661866636118,0.029790114514722427,-74.19927031725092,23.6624319216508,-38.38397216796875,5356.25390625,True
1599563032.1556108,0.0,10,0.5,0.5,-9.272671981811524,-0.15025,-0.03,-0.5,0.012811330701219991,10,1,100,0.1816211297959393,-10,-1,-100,15003.065216851188,-0.01664298160361665,0.001248440368052873,0.999860716580059,27.71661866636118,0.029790114514722427,-74.19927031725092,23.6624319216508,-38.38397216796875,5356.25390625,True
1599563032.498352,0.0,10,0.5,0.5,-8.102790473937988,-0.15025,-0.03,-0.5,0.05287576887032443,10,1,100,0.1623139263771452,-10,-1,-100,15004.03005386563,-0.01645233158926069,0.0016115275874374107,0.9998633525457927,27.655610455921437,0.029949598746528597,-72.875330292251,23.290619362568744,-40.421234130859375,5356.25390625,True
1599563032.538276,0.0,10,0.5,0.5,-6.77328207397461,-0.15025,-0.03,-0.5,0.08452371981276181,10,1,100,0.14034287661896977,-10,-1,-100,15005.415782191092,-0.016079601908256313,0.0022277826123459007,0.9998682330122826,27.536972554617055,0.030015449631268516,-70.82914428747975,22.7329227233895,-43.9925537109375,5356.25390625,True
1599563032.578176,0.0,10,0.5,0.5,-6.750658172607421,-0.15025,-0.03,-0.5,0.07283209718562422,10,1,100,0.1433431388689278,-10,-1,-100,15006.318115978269,-0.01576876189721632,0.002679638261021811,0.9998720746610633,27.424391102691555,0.029910791047825732,-69.38853924243472,22.36114136857026,-46.7171630859375,5356.25390625,True
1599563032.6250446,0.0,10,0.5,0.5,-5.075556610107421,-0.15025,-0.03,-0.5,0.10577414087268229,10,1,100,0.11193705220673271,-10,-1,-100,15007.575912269065,-0.015201751052479746,0.003387456715402914,0.9998787085951675,27.175370143275497,0.029478203076571955,-67.04760281643277,21.80349879107411,-51.320068359375,5356.25390625,True
1599563032.687844,0.0,10,0.5,0.5,-7.320009704589843,-0.15025,-0.03,-0.5,0.035321916344699486,10,1,100,0.16845945506395604,-10,-1,-100,15007.575912269065,-0.015201751052479746,0.003387456715402914,0.9998787085951675,27.175370143275497,0.029478203076571955,-67.04760281643277,21.80349879107411,-51.320068359375,5356.25390625,True
1599563032.7417002,0.0,10,0.5,0.5,-5.044008224487304,-0.15025,-0.03,-0.5,0.09009291230149873,10,1,100,0.11941056073827239,-10,-1,-100,15008.4782431653,-0.014757476391486569,0.0038823783067362936,0.9998835652360918,26.936632191939502,0.028982317424057134,-65.32806824141531,21.431760390916068,-54.73260498046875,5356.25390625,True
1599563032.7805946,0.0,10,0.5,0.5,-1.712681007385254,-0.15025,-0.03,-0.5,0.1502711450536332,10,1,100,0.04729775925377164,-10,-1,-100,15010.157902681967,-0.01370002027311788,0.004876224525768573,0.9998942603490083,26.218653006262212,0.027459830189447938,-61.38628365981946,20.6883543074884,-62.383758544921875,5356.25390625,True
1599563032.8185277,0.0,10,0.5,0.5,-2.70013011932373,-0.15025,-0.03,-0.5,0.10354191278107731,10,1,100,0.08590446675027136,-10,-1,-100,15010.935231525335,-0.013092572644403276,0.005351064356515943,0.9998999703229338,25.70795490784585,0.026442859968144702,-59.11195620890857,20.316694683755323,-66.62271118164062,5356.25390625,True
1599563032.8584208,0.0,10,0.5,0.5,-1.7937944259643555,-0.15025,-0.03,-0.5,0.10452898939656322,10,1,100,0.07567849029735499,-10,-1,-100,15011.774083288037,-0.012450743015782629,0.005787685309695307,0.9999057364057428,25.07386850013901,0.02528057348897204,-56.6021179869034,19.945069758839967,-71.13760375976562,5356.25390625,True
1599563032.9003103,0.0,10,0.5,0.5,-3.9529798202514645,-0.15025,-0.03,-0.5,0.06132081857279106,10,1,100,0.13944222930063627,-10,-1,-100,15011.774083288037,-0.012450743015782629,0.005787685309695307,0.9999057364057428,25.07386850013901,0.02528057348897204,-56.6021179869034,19.945069758839967,-71.13760375976562,5356.25390625,True
1599563032.941199,0.0,10,0.5,0.5,-0.7398571166992189,-0.15025,-0.03,-0.5,0.10949699165254251,10,1,100,0.062383595009654125,-10,-1,-100,15012.550435191952,-0.01175402110276264,0.006221523933200645,0.9999115639034606,24.299675733952768,0.024007597933154497,-53.83525623189522,19.573483038329822,-75.9278564453125,5356.25390625,True
1599563032.9800708,0.0,10,0.5,0.5,3.739490333557129,-0.15025,-0.03,-0.5,0.14972862208415993,10,1,100,-0.03524010701095759,-10,-1,-100,15014.104115660186,-0.010237420536635724,0.006977473870905871,0.9999232520944479,22.297008575477992,0.021335862478430605,-47.52843036243994,18.830431462722082,-86.33609008789062,5356.25390625,True
1599563033.0199978,0.0,10,0.5,0.5,2.291822280883789,-0.15025,-0.03,-0.5,0.10842743047803316,10,1,100,0.028727337017798088,-10,-1,-100,15014.817968093557,-0.009445526041665053,0.00728491780761987,0.9999288534742522,21.112490657527072,0.0200911781120826,-44.118269355266996,18.45896323495729,-91.91766357421875,5356.25390625,True
1599563033.0618467,0.0,10,0.5,0.5,-0.3633629608154297,-0.15025,-0.03,-0.5,0.07814356476129307,10,1,100,0.10728446292931013,-10,-1,-100,15014.817968093557,-0.009445526041665053,0.00728491780761987,0.9999288534742522,21.112490657527072,0.0200911781120826,-44.118269355266996,18.45896323495729,-91.91766357421875,5356.25390625,True
1599563033.1027374,0.0,10,0.5,0.5,3.3652902545928955,-0.15025,-0.03,-0.5,0.10703113193857898,10,1,100,0.02051621531015302,-10,-1,-100,15015.531821286771,-0.00866195672240982,0.007543988908238636,0.99993402719234,22.06318636315674,0.02108120067115736,-45.17973509611838,18.087499417786802,-97.46454620361328,5356.25390625,True
1599563033.1416638,0.0,10,0.5,0.5,7.585793231964111,-0.15025,-0.03,-0.5,0.1254156172200706,10,1,100,-0.08550058837811812,-10,-1,-100,15016.959529724088,-0.006991777120766297,0.007942861109366678,0.999944011437686,23.640912502013784,0.023186120930664113,-46.42719239250321,17.34453842756259,-108.00743103027344,5356.25390625,True
1599563033.1795642,0.0,10,0.5,0.5,2.4741752967834474,-0.15025,-0.03,-0.5,0.08593444538752945,10,1,100,0.08074080185916208,-10,-1,-100,15016.959529724088,-0.006991777120766297,0.007942861109366678,0.999944011437686,23.640912502013784,0.023186120930664113,-46.42719239250321,17.34453842756259,-108.00743103027344,5356.25390625,True
1599563033.2164311,0.0,10,0.5,0.5,7.538617914199829,-0.15025,-0.03,-0.5,0.10571154308682762,10,1,100,-0.05170755543982759,-10,-1,-100,15017.966347757843,-0.005793799548186711,0.00811986505519339,0.9999502486015396,24.41857792382394,0.024526122046088436,-46.417276433339104,16.78728639211523,-115.58539581298828,5356.25390625,True
1599563033.2614589,0.0,10,0.5,0.5,6.9709630451202385,-0.15025,-0.03,-0.5,0.09541248269332367,10,1,100,-0.021374748418121182,-10,-1,-100,15018.61965818354,-0.004987117067035524,0.008184632819914295,0.9999540691696609,24.845289276432663,0.02529812662225897,-46.185428688094866,16.415773651025322,-120.31348419189453,5356.25390625,True
1599563033.3033447,0.0,10,0.5,0.5,4.7544464969635,-0.15025,-0.03,-0.5,0.08917540097225507,10,1,100,0.05854713710212281,-10,-1,-100,15018.61965818354,-0.004987117067035524,0.008184632819914295,0.9999540691696609,24.845289276432663,0.02529812662225897,-46.185428688094866,16.415773651025322,-120.31348419189453,5356.25390625,True
1599563033.3432386,0.0,10,0.5,0.5,9.179399919509887,-0.15025,-0.03,-0.5,0.094361310268263,10,1,100,-0.0662324061863444,-10,-1,-100,15019.625505973236,-0.003859542697093774,0.008229598406686895,0.999958687966775,25.216872273661853,0.02603641172532098,-45.287923680437615,15.858498678776614,-126.89160919189453,5356.25390625,True
1599563033.3831341,0.0,10,0.5,0.5,8.671241397857667,-0.15025,-0.03,-0.5,0.08770092435591192,10,1,100,-0.0355190554004935,-10,-1,-100,15020.21338966221,-0.003120864166477799,0.008208101727755625,0.9999614428931153,25.31202394105901,0.02624368468023828,-44.395799046600125,15.486985176737921,-130.9331512451172,5356.25390625,True
1599563033.4260502,0.0,10,0.5,0.5,10.390263729095459,-0.15025,-0.03,-0.5,0.08282443777970354,10,1,100,-0.07574209775314578,-10,-1,-100,15021.157716158079,-0.0020901438048665814,0.008143108843619077,0.9999646599141572,25.272015230288496,0.0261621150333133,-42.733458864011745,14.929731076984728,-136.4787139892578,5356.25390625,True
1599563033.4679053,0.0,10,0.5,0.5,7.7511655082702635,-0.15025,-0.03,-0.5,0.08940954529695831,10,1,100,0.026594400184296152,-10,-1,-100,15021.157716158079,-0.0020901438048665814,0.008143108843619077,0.9999646599141572,25.272015230288496,0.0261621150333133,-42.733458864011745,14.929731076984728,-136.4787139892578,5356.25390625,True
1599563033.5087955,0.0,10,0.5,0.5,12.065653736114502,-0.15025,-0.03,-0.5,0.07318832552664248,10,1,100,-0.11374985907743151,-10,-1,-100,15022.27196570835,-0.0008209736136116012,0.007994863035674388,0.9999677035621535,24.96388450077434,0.02545208521045343,-40.11526834313621,14.18677615069463,-142.9082489013672,5356.25390625,True
1599563033.548236,0.0,10,0.5,0.5,10.80902071762085,-0.15025,-0.03,-0.5,0.07497480633714189,10,1,100,-0.053298988406646444,-10,-1,-100,15022.856923956773,-0.00022386406684948195,0.007875924968431543,0.999968959363625,24.735281343464642,0.024911751465415095,-38.70890995834987,13.815325530140738,-145.70994567871094,5356.25390625,True
1599563033.593812,0.0,10,0.5,0.5,10.364642295837402,-0.15025,-0.03,-0.5,0.08319366977077439,10,1,100,-0.023904650957981725,-10,-1,-100,15023.089345856453,4.558889607920468e-05,0.007842577244099192,0.9999692454789912,24.631788218167674,0.024632975081276955,-38.029614101217504,13.629607337016495,-147.00692749023438,5356.25390625,True
1599563033.6362545,0.0,10,0.5,0.5,12.094707393646239,-0.15025,-0.03,-0.5,0.07067810069322669,10,1,100,-0.08330110304146042,-10,-1,-100,15023.909655216732,0.0008241162758488666,0.007698574397515047,0.9999700259430828,24.29265495923676,0.02371197252703811,-35.975346917006505,13.072481358816606,-150.4849090576172,5356.25390625,True
1599563033.677103,0.0,10,0.5,0.5,10.46041514968872,-0.15025,-0.03,-0.5,0.08503625628587341,10,1,100,-0.006110156646897786,-10,-1,-100,15023.909655216732,0.0008241162758488666,0.007698574397515047,0.9999700259430828,24.29265495923676,0.02371197252703811,-35.975346917006505,13.072481358816606,-150.4849090576172,5356.25390625,True
1599563033.717994,0.0,10,0.5,0.5,11.834591743469238,-0.15025,-0.03,-0.5,0.07302202777027395,10,1,100,-0.05915498530185333,-10,-1,-100,15024.432115399162,0.0013010590514912948,0.0075897960095754145,0.9999703506813977,24.049967280425207,0.023052293882023744,-34.605660445089676,12.701087409988979,-152.45901489257812,5356.25390625,True
1599563033.7608798,0.0,10,0.5,0.5,12.048029193878174,-0.15025,-0.03,-0.5,0.07485801957364066,10,1,100,-0.059957996602930046,-10,-1,-100,15024.895982490387,0.0017362269719773571,0.0075081381613066635,0.9999703062477668,23.806046596001888,0.022381569049827965,-33.25460259545547,12.329711106244122,-154.1569061279297,5356.25390625,True
1599563033.8017704,0.0,10,0.5,0.5,12.951401641845703,-0.15025,-0.03,-0.5,0.06096780829984491,10,1,100,-0.10280775150741728,-10,-1,-100,15025.880357790971,0.002516290335488142,0.007308284978796365,0.9999701281806453,23.348400446155402,0.021071413877143865,-30.653452470417594,11.587005712840119,-156.7259521484375,5356.25390625,True
1599563033.8462386,0.0,10,0.5,0.5,12.04975626373291,-0.15025,-0.03,-0.5,0.07595555373822349,10,1,100,-0.04438279718377221,-10,-1,-100,15026.114734277013,0.0026891782134630224,0.00726367051390768,0.9999700032556985,23.245201387403743,0.02075874747168012,-30.029625887163554,11.401338049169048,-157.19577026367188,5356.25390625,True
1599563033.8871284,0.0,10,0.5,0.5,12.35337476348877,-0.15025,-0.03,-0.5,0.07204481712829851,10,1,100,-0.0627567308969216,-10,-1,-100,15026.511219323962,0.003009039934452154,0.00718835924785475,0.9999696361240159,23.05713535461804,0.020158168750329393,-28.817835308115367,11.030011422423962,-157.92837524414062,5356.25390625,True
1599563033.930018,0.0,10,0.5,0.5,12.429728324890137,-0.15025,-0.03,-0.5,0.06809180944954812,10,1,100,-0.07729085117746343,-10,-1,-100,15027.20457976556,0.0034273160617750912,0.007084825981268686,0.999969028893109,22.827274778650963,0.01932630586813591,-27.091621585097723,10.473039616009034,-158.51016235351562,5356.25390625,True
1599563033.9719017,0.0,10,0.5,0.5,12.213511486053466,-0.15025,-0.03,-0.5,0.07304986951379953,10,1,100,-0.06173659557738447,-10,-1,-100,15027.603018859867,0.003662302681453965,0.007036605409551283,0.9999685363667097,22.712435889067116,0.018820548817239005,-26.000758406901372,10.10173458081541,-158.5530242919922,5356.25390625,True
1599563034.0117953,0.0,10,0.5,0.5,12.079030937194823,-0.15025,-0.03,-0.5,0.07413590943970522,10,1,100,-0.060816273635859446,-10,-1,-100,15028.001457266975,0.003864027439195165,0.007003404634188132,0.999968010296069,22.629497898814837,0.018354073609109643,-24.954630071878043,9.730435091970657,-158.31991577148438,5356.25390625,True
1599563034.051688,0.0,10,0.5,0.5,11.898624542236327,-0.15025,-0.03,-0.5,0.07430035548634914,10,1,100,-0.05952643373140575,-10,-1,-100,15028.337396118324,0.004032216457516571,0.0069754799593819495,0.9999675414281087,22.57780916925595,0.017925865059431452,-23.94852116504185,9.359139737298875,-157.81103515625,5356.25390625,True
1599563034.092579,0.0,10,0.5,0.5,11.664733505249023,-0.15025,-0.03,-0.5,0.07537474456024224,10,1,100,-0.05776629369277115,-10,-1,-100,15028.735834889463,0.004166197837292383,0.006960518423355478,0.9999670964481076,22.555507491028276,0.017534459820616452,-22.97659212810145,8.987846732530272,-157.0262451171875,5356.25390625,True
1599563034.1360333,0.0,10,0.5,0.5,12.076752532958984,-0.15025,-0.03,-0.5,0.07679709256547342,10,1,100,-0.04470236387133435,-10,-1,-100,15028.735834889463,0.004166197837292383,0.006960518423355478,0.9999670964481076,22.555507491028276,0.017534459820616452,-22.97659212810145,8.987846732530272,-157.0262451171875,5356.25390625,True
1599563034.185899,0.0,10,0.5,0.5,10.531743377685547,-0.15025,-0.03,-0.5,0.07645219898706912,10,1,100,-0.06330950949801774,-10,-1,-100,15029.407711997977,0.004332749035002413,0.006957955097721093,0.9999664065090675,22.58524959561382,0.01685556061905175,-21.10753604101113,8.245262656743943,-154.629150390625,5356.25390625,True
1599563034.2277946,0.0,10,0.5,0.5,10.68338572692871,-0.15025,-0.03,-0.5,0.07723058106556553,10,1,100,-0.05065207637712878,-10,-1,-100,15029.745603033341,0.00436673116630979,0.00696320116882488,0.9999662221737311,22.627055933666192,0.01656474277193829,-20.195022625873637,7.873969676281137,-153.0169677734375,5356.25390625,True
1599563034.2746694,0.0,10,0.5,0.5,11.47835008239746,-0.15025,-0.03,-0.5,0.07667146557418975,10,1,100,-0.0474389073294732,-10,-1,-100,15029.745603033341,0.00436673116630979,0.00696320116882488,0.9999662221737311,22.627055933666192,0.01656474277193829,-20.195022625873637,7.873969676281137,-153.0169677734375,5356.25390625,True
1599563034.3220596,0.0,10,0.5,0.5,10.238121513366698,-0.15025,-0.03,-0.5,0.07846080418550425,10,1,100,-0.04722327431997026,-10,-1,-100,15030.0170876052,0.004363245818084448,0.006979741037423269,0.9999661220766339,22.677908519686405,0.01630522479971887,-19.286590745533626,7.502675203256545,-151.12893676757812,5356.25390625,True
1599563034.3749197,0.0,10,0.5,0.5,8.984131462097167,-0.15025,-0.03,-0.5,0.07928735581371685,10,1,100,-0.04058031505964433,-10,-1,-100,15030.45849437965,0.0042984556847096905,0.00700248104023322,0.9999662436992599,22.75217205433828,0.015974388626485127,-17.914166591158637,6.945730281248924,-147.78005981445312,5356.25390625,True
1599563034.4207966,0.0,10,0.5,0.5,8.045471736907958,-0.15025,-0.03,-0.5,0.07959187199646027,10,1,100,-0.03155619840089492,-10,-1,-100,15030.836422300432,0.004156726194177703,0.007025996958031785,0.9999666779418663,22.792088384566206,0.015710401605009743,-16.507308571017155,6.388781991506572,-143.8109588623047,5356.25390625,True
1599563034.469664,0.0,10,0.5,0.5,9.985796016693113,-0.15025,-0.03,-0.5,0.07723921937145185,10,1,100,-0.04577858980536606,-10,-1,-100,15030.836422300432,0.004156726194177703,0.007025996958031785,0.9999666779418663,22.792088384566206,0.015710401605009743,-16.507308571017155,6.388781991506572,-143.8109588623047,5356.25390625,True
1599563034.5195317,0.0,10,0.5,0.5,6.958209426879883,-0.15025,-0.03,-0.5,0.07842508946479018,10,1,100,-0.022426940742556137,-10,-1,-100,15031.214350655908,0.0039441723856476285,0.00703675705676773,0.999967463247838,22.752755760873004,0.01549886375879776,-15.04284905306877,5.831831046448338,-139.22186279296875,5356.25390625,True
1599563034.5684023,0.0,10,0.5,0.5,5.809828010559082,-0.15025,-0.03,-0.5,0.07678672345843851,10,1,100,-0.012357869422815738,-10,-1,-100,15031.529776817653,0.0036594846786879836,0.00703158902183595,0.9999685819703108,22.580921821561553,0.015306425312188569,-13.50395589694,5.274876210482536,-134.01284790039062,5356.25390625,True
1599563034.6172707,0.0,10,0.5,0.5,7.126721446990967,-0.15025,-0.03,-0.5,0.0761469740567111,10,1,100,-0.029066892257178917,-10,-1,-100,15031.635245197685,0.0035530385282721575,0.0070210102949745555,0.9999690401865722,22.484064731229978,0.015237534420977573,-12.97293991936113,5.089222974353051,-132.1388397216797,5356.25390625,True
1599563034.6691318,0.0,10,0.5,0.5,5.417601196289063,-0.15025,-0.03,-0.5,0.07372793277856049,10,1,100,-0.014032298938749424,-10,-1,-100,15031.845203124336,0.0033201485970984295,0.006989346993597719,0.9999700623728172,22.218445053192,0.01507942741171244,-11.884619568821678,4.717912810770156,-128.18426513671875,5356.25390625,True
1599563034.7199957,0.0,10,0.5,0.5,4.5650586433410645,-0.15025,-0.03,-0.5,0.07174264838205774,10,1,100,-0.008694771553034893,-10,-1,-100,15031.992661119672,0.0030608280474684574,0.0069424855961088645,0.9999712161984522,21.839645529799554,0.014875405898891724,-10.762804844296232,4.346595298327487,-123.95436096191406,5356.25390625,True
1599563034.769862,0.0,10,0.5,0.5,3.663304576873779,-0.15025,-0.03,-0.5,0.06896807784973016,10,1,100,-0.00372735941618808,-10,-1,-100,15032.202618720476,0.002781110985759731,0.006874679789527579,0.9999725017216604,21.326104006320605,0.01460055858490115,-9.612066145872461,3.9752669785932664,-119.44914245605469,5356.25390625,True
1599563034.817734,0.0,10,0.5,0.5,1.0853847637176512,-0.15025,-0.03,-0.5,0.05983664996116703,10,1,100,0.017806869400498613,-10,-1,-100,15032.392065635766,0.0023324985042187827,0.006730105640357015,0.9999746322426372,20.276658968698825,0.014005513694867112,-7.858678139886584,3.418245575344402,-112.17528533935547,5356.25390625,True
1599563034.8676023,0.0,10,0.5,0.5,1.2285398883819578,-0.15025,-0.03,-0.5,0.06031798064155108,10,1,100,0.007692642663473987,-10,-1,-100,15032.537569297478,0.0020184626252580224,0.0066032772703845995,0.999976160984811,19.530483684250637,0.013560402194377591,-6.747195704590121,3.046871731336363,-106.9820327758789,5356.25390625,True
1599563034.914476,0.0,10,0.5,0.5,3.702772089004516,-0.15025,-0.03,-0.5,0.07296089726180775,10,1,100,-0.023482945926656885,-10,-1,-100,15032.537569297478,0.0020184626252580224,0.0066032772703845995,0.999976160984811,19.530483684250637,0.013560402194377591,-6.747195704590121,3.046871731336363,-106.9820327758789,5356.25390625,True
1599563034.962348,0.0,10,0.5,0.5,-1.8086414203643804,-0.15025,-0.03,-0.5,0.04704322137253987,10,1,100,0.028801760300574453,-10,-1,-100,15032.665493524051,0.001545090990073119,0.006368046325652753,0.9999785301094352,18.106887659435763,0.012631165120460341,-5.111696576846507,2.4897580208772188,-98.67610931396484,5356.25390625,True
1599563035.0152068,0.0,10,0.5,0.5,0.3191415824890136,-0.15025,-0.03,-0.5,0.06045063511531299,10,1,100,-0.0007180828536708823,-10,-1,-100,15032.706506307935,0.0013854895642200777,0.0062766837286784465,0.9999793416166344,17.529729910855448,0.012235839502106381,-4.579638000823005,2.3040373839418162,-95.76988220214844,5356.25390625,True
1599563035.0700603,0.0,10,0.5,0.5,-6.181669166564942,-0.15025,-0.03,-0.5,0.022637409446273994,10,1,100,0.05350327687918382,-10,-1,-100,15032.87446610129,0.0007498019820744771,0.005850561201099713,0.9999826042140032,16.407189418432292,0.01144313823834057,-2.904303152788963,1.561108275887547,-83.73825073242188,5356.25390625,True
1599563035.1179314,0.0,10,0.5,0.5,-0.31667722320556635,-0.15025,-0.03,-0.5,0.06513155942207371,10,1,100,-0.009774513065714897,-10,-1,-100,15032.87446610129,0.0007498019820744771,0.005850561201099713,0.9999826042140032,16.407189418432292,0.01144313823834057,-2.904303152788963,1.561108275887547,-83.73825073242188,5356.25390625,True
1599563035.1697936,0.0,10,0.5,0.5,-8.142461013793945,-0.15025,-0.03,-0.5,0.009659490424462465,10,1,100,0.05672318134855164,-10,-1,-100,15032.978950426215,0.00014782588425950647,0.005347333709388588,0.9999856919824945,18.468679116361756,0.012895563869258234,-1.7134280563661062,0.8181723811267618,-71.926513671875,5356.25390625,True
1599563035.2276404,0.0,10,0.5,0.5,-4.264555267333984,-0.15025,-0.03,-0.5,0.04377840547108032,10,1,100,0.013323181516801685,-10,-1,-100,15032.959417462116,-1.9957309992500506e-06,0.0052015188657879175,0.9999864720072494,18.86452370096864,0.013183023190599073,-1.3528659050397922,0.6324418902326436,-69.06732177734375,5356.25390625,True
1599563035.2824924,0.0,10,0.5,0.5,-8.415559196472168,-0.15025,-0.03,-0.5,0.011901953239653033,10,1,100,0.042922904029061924,-10,-1,-100,15032.959411165328,-0.00040450120063824206,0.004780756684710988,0.9999884903059136,19.726293684983606,0.013797600324998062,-0.16831592386842326,0.075245650130638,-60.738311767578125,5356.25390625,True
1599563035.3353505,0.0,10,0.5,0.5,-4.427186683654785,-0.15025,-0.03,-0.5,0.05376877903686431,10,1,100,0.002990918283802521,-10,-1,-100,15032.959411165328,-0.00040450120063824206,0.004780756684710988,0.9999884903059136,19.726293684983606,0.013797600324998062,-0.16831592386842326,0.075245650130638,-60.738311767578125,5356.25390625,True
1599563035.3912017,0.0,10,0.5,0.5,-11.210543144226074,-0.15025,-0.03,-0.5,-0.012136299957832719,10,1,100,0.056944769785888895,-10,-1,-100,15032.939873745665,-0.0008925025781982482,0.004183391738355239,0.9999908512945063,20.33529737612331,0.014236131707038222,1.5397862839942673,-0.6677229019258835,-50.543701171875,5356.25390625,True
1599563035.4380765,0.0,10,0.5,0.5,-9.328833595275878,-0.15025,-0.03,-0.5,0.012091730540413834,10,1,100,0.032524210350008395,-10,-1,-100,15032.89592576481,-0.0011114887763780162,0.0038627874148631893,0.9999919217004144,20.446954243145672,0.01432567512501803,2.4096872874949047,-1.0392255929437777,-45.858917236328125,5356.25390625,True
1599563035.4899733,0.0,10,0.5,0.5,-7.169810974121093,-0.15025,-0.03,-0.5,0.043878113904066644,10,1,100,0.010938585672195198,-10,-1,-100,15032.89592576481,-0.0011114887763780162,0.0038627874148631893,0.9999919217004144,20.446954243145672,0.01432567512501803,2.4096872874949047,-1.0392255929437777,-45.858917236328125,5356.25390625,True
1599563035.5368123,0.0,10,0.5,0.5,-10.195649147033691,-0.15025,-0.03,-0.5,0.012322862130387802,10,1,100,0.0338795112855756,-10,-1,-100,15032.85490783304,-0.0013176275730756098,0.003578198997748645,0.9999927301483302,20.434640229385643,0.014333306361431614,3.2692284712336876,-1.4107395041853665,-41.449249267578125,5356.25390625,True
1599563035.5816925,0.0,10,0.5,0.5,-13.350319946289062,-0.15025,-0.03,-0.5,-0.02657900554376902,10,1,100,0.05373311958234782,-10,-1,-100,15032.709396294435,-0.0016830564481010825,0.002968282080362115,0.9999941782942958,20.161139814665454,0.014193606890033182,4.924600184771392,-2.153793312375187,-33.4576416015625,5356.25390625,True
1599563035.6256242,0.0,10,0.5,0.5,-11.834851577758789,-0.15025,-0.03,-0.5,0.002477899296666749,10,1,100,0.03571974306103044,-10,-1,-100,15032.603926263051,-0.0018492948584484675,0.0026805860895789927,0.9999946972693119,19.927207806453364,0.01407117834747779,5.707254965023558,-2.5253277902689573,-29.87518310546875,5356.25390625,True
1599563035.672458,0.0,10,0.5,0.5,-10.205211532592774,-0.15025,-0.03,-0.5,0.030930500863826912,10,1,100,0.019355811710344242,-10,-1,-100,15032.603926263051,-0.0018492948584484675,0.0026805860895789927,0.9999946972693119,19.927207806453364,0.01407117834747779,5.707254965023558,-2.5253277902689573,-29.87518310546875,5356.25390625,True
1599563035.7163405,0.0,10,0.5,0.5,-14.452856719970702,-0.15025,-0.03,-0.5,-0.029510054763296725,10,1,100,0.05385947165742429,-10,-1,-100,15032.3939632494,-0.0021611489300194606,0.0021335508089867865,0.9999953886874917,19.337502104154662,0.013784102685880264,7.168417427410926,-3.268402494267541,-23.536865234375,5356.25390625,True
1599563035.7617307,0.0,10,0.5,0.5,-13.212147804260253,-0.15025,-0.03,-0.5,-0.004748703330425496,10,1,100,0.037820256226454525,-10,-1,-100,15032.225993870059,-0.00229687871553062,0.0018641382651625204,0.9999956246587753,19.050505887252065,0.013667077181551256,7.865052787982525,-3.6399430232922683,-20.781219482421875,5356.25390625,True
1599563036.0972462,0.0,10,0.5,0.5,-11.95419620513916,-0.15025,-0.03,-0.5,0.02190088921004627,10,1,100,0.024436515426827822,-10,-1,-100,15032.225993870059,-0.00229687871553062,0.0018641382651625204,0.9999956246587753,19.050505887252065,0.013667077181551256,7.865052787982525,-3.6399430232922683,-20.781219482421875,5356.25390625,True
1599563036.1371372,0.0,10,0.5,0.5,-12.902933822631836,-0.15025,-0.03,-0.5,0.008561781932802048,10,1,100,0.0328886369926098,-10,-1,-100,15032.143963206909,-0.0023719958411150995,0.0017455251248417079,0.999995663379481,18.917119868496975,0.013620007500888754,8.208711150785728,-3.825714493587415,-19.50653076171875,5356.25390625,True
1599563036.176,0.0,10,0.5,0.5,-14.576293983459472,-0.15025,-0.03,-0.5,-0.019503946692723238,10,1,100,0.04759193434777789,-10,-1,-100,15031.89298599679,-0.002572605482818048,0.001384768252148479,0.999995732049851,18.577561753361806,0.01353505431872411,9.236190531174492,-4.383035344832743,-16.096160888671875,5356.25390625,True
1599563036.2178886,0.0,10,0.5,0.5,-12.960397315979003,-0.15025,-0.03,-0.5,0.016323938660328184,10,1,100,0.02767708184812703,-10,-1,-100,15031.89298599679,-0.002572605482818048,0.001384768252148479,0.999995732049851,18.577561753361806,0.01353505431872411,9.236190531174492,-4.383035344832743,-16.096160888671875,5356.25390625,True
1599563036.2732568,0.0,10,0.5,0.5,-15.37947688293457,-0.15025,-0.03,-0.5,-0.03131432679665813,10,1,100,0.05652750391397125,-10,-1,-100,15031.49454875174,-0.00283355375913805,0.0009539458563237985,0.9999955304702104,18.205381600197985,0.013497570066742496,10.586505953765814,-5.12615085131074,-12.51324462890625,5356.25390625,True
1599563036.3121903,0.0,10,0.5,0.5,-14.57090492248535,-0.15025,-0.03,-0.5,-0.01104236655533521,10,1,100,0.04346452860869884,-10,-1,-100,15031.326580521767,-0.0029506470292118823,0.0007489653651692291,0.9999953663557601,18.080598212034765,0.013524944355836557,11.276506378623509,-5.497719684617112,-11.13519287109375,5356.25390625,True
1599563036.3530757,0.0,10,0.5,0.5,-13.948846389770509,-0.15025,-0.03,-0.5,0.009233750888602442,10,1,100,0.0318819606594267,-10,-1,-100,15031.326580521767,-0.0029506470292118823,0.0007489653651692291,0.9999953663557601,18.080598212034765,0.013524944355836557,11.276506378623509,-5.497719684617112,-11.13519287109375,5356.25390625,True
1599563036.3909853,0.0,10,0.5,0.5,-14.722151138305662,-0.15025,-0.03,-0.5,-0.01014707680547958,10,1,100,0.046765709812147116,-10,-1,-100,15031.09513579728,-0.0030849526104450103,0.0005745320413361287,0.9999950764780418,18.015600033891133,0.013595276093819157,11.995898880449056,-5.869296139916761,-10.03240966796875,5356.25390625,True
1599563036.4308348,0.0,10,0.5,0.5,-14.96987579345703,-0.15025,-0.03,-0.5,-0.020287828905624406,10,1,100,0.05394170154838283,-10,-1,-100,15030.719161282992,-0.0032711615566663635,0.0003256822315303962,0.9999945967019793,17.9906250632995,0.013751941713086455,13.117804920519946,-6.426674254095409,-8.89501953125,5356.25390625,True
1599563036.468732,0.0,10,0.5,0.5,-14.781701126098632,-0.15025,-0.03,-0.5,-0.018626559045319763,10,1,100,0.05656386191713165,-10,-1,-100,15030.28166221676,-0.003463271136013813,0.00011620110187109642,0.9999939961071478,18.062548541680727,0.013981786944272736,14.313619157614806,-6.984065976426047,-8.37738037109375,5356.25390625,True
1599563036.5086265,0.0,10,0.5,0.5,-14.560609008789063,-0.15025,-0.03,-0.5,-0.010684438081800002,10,1,100,0.052093868271663284,-10,-1,-100,15029.986741681234,-0.00359621954553407,-4.4615527509515423e-07,0.9999935335814834,18.166665224188947,0.014182079916067014,15.162934785437399,-7.355665957254871,-8.3765869140625,5356.25390625,True
1599563036.5465252,0.0,10,0.5,0.5,-14.41884952545166,-0.15025,-0.03,-0.5,-0.010067053185604066,10,1,100,0.05372759936404541,-10,-1,-100,15029.69182079588,-0.003730752617910502,-9.918144960581751e-05,0.999993035799722,18.315940355509305,0.014424691247019089,16.060777971472938,-7.7272686647459885,-8.651214599609375,5356.25390625,True
1599563036.584424,0.0,10,0.5,0.5,-14.231040222167968,-0.15025,-0.03,-0.5,-0.009235914633207486,10,1,100,0.0553937150653789,-10,-1,-100,15029.397877108888,-0.0038669666839222937,-0.0001797079970897348,0.999992507108779,18.509530490221323,0.014713494836387285,17.01210060240834,-8.098872670599922,-9.2012939453125,5356.25390625,True
1599563036.626312,0.0,10,0.5,0.5,-13.990022491455077,-0.15025,-0.03,-0.5,-0.007942173556591232,10,1,100,0.05719667381625131,-10,-1,-100,15029.043386114296,-0.004006011495121759,-0.00023973041569747713,0.9999919471681903,18.745464084610635,0.015051852307459868,18.02062948615595,-8.470476423207764,-10.0267333984375,5356.25390625,True
1599563036.6662085,0.0,10,0.5,0.5,-13.705155586242675,-0.15025,-0.03,-0.5,-0.006426462360069482,10,1,100,0.058895558760538896,-10,-1,-100,15028.6859657584,-0.004146557181149066,-0.00027904024112900336,0.9999913640627539,19.02068889648916,0.015442414994630477,19.088675479511792,-8.842078283261861,-11.127532958984375,5356.25390625,True
1599563036.7060988,0.0,10,0.5,0.5,-13.364844833374022,-0.15025,-0.03,-0.5,-0.004710372732006042,10,1,100,0.06044210080516271,-10,-1,-100,15028.329522275017,-0.004287191820286824,-0.00029805473481394793,0.999990765532198,19.331546272827012,0.015887066239746887,20.217400853838644,-9.213676578979024,-12.50372314453125,5356.25390625,True
1599563036.7449949,0.0,10,0.5,0.5,-12.974913757324218,-0.15025,-0.03,-0.5,-0.002680925517998565,10,1,100,0.061864115939613024,-10,-1,-100,15027.97405467229,-0.004426753861824266,-0.0002959392815820267,0.9999901580866627,19.696238044753546,0.016405096340293943,21.431136105245546,-9.58526949888164,-14.1552734375,5356.25390625,True
1599563036.784888,0.0,10,0.5,0.5,-13.791628662109375,-0.15025,-0.03,-0.5,-0.0029969613058658147,10,1,100,0.04805552246913006,-10,-1,-100,15027.97405467229,-0.004426753861824266,-0.0002959392815820267,0.9999901580866627,19.696238044753546,0.016405096340293943,21.431136105245546,-9.58526949888164,-14.1552734375,5356.25390625,True
1599563036.8307648,0.0,10,0.5,0.5,-11.832677322387694,-0.15025,-0.03,-0.5,0.0017611837488505852,10,1,100,0.0706740979908829,-10,-1,-100,15027.344175731763,-0.004631157456338947,-0.000251892079881952,0.9999892444076559,20.328374664205448,0.017313362216428357,23.407838292931068,-10.142643104215754,-17.14886474609375,5356.25390625,True
1599563036.8716562,0.0,10,0.5,0.5,-12.566314147949218,-0.15025,-0.03,-0.5,5.8979205547935246e-05,10,1,100,0.057647096487095414,-10,-1,-100,15027.135191105073,-0.004697315259590887,-0.00022679868844698787,0.999988941834712,20.548911493280574,0.017640622040427927,24.096157085085107,-10.328429053903848,-18.284423828125,5356.25390625,True
1599563036.9105518,0.0,10,0.5,0.5,-9.70326025390625,-0.15025,-0.03,-0.5,0.01431629772203174,10,1,100,0.07879073276070139,-10,-1,-100,15026.295350567438,-0.004948551734013089,-7.406270991051492e-05,0.999987753100232,21.50325568073133,0.019083359102581455,27.03385805387985,-11.071539132815655,-23.514892578125,5356.25390625,True
1599563036.951443,0.0,10,0.5,0.5,-11.310881164550782,-0.15025,-0.03,-0.5,0.004519844997684121,10,1,100,0.06031764288076257,-10,-1,-100,15026.023867859505,-0.00500778195531703,-2.420355732175838e-05,0.9999874606884206,21.750253687853423,0.019465002644078536,27.80436334757819,-11.25730695284611,-24.99462890625,5356.25390625,True
1599563036.9923337,0.0,10,0.5,0.5,-8.846673065185547,-0.15025,-0.03,-0.5,0.020109160655830495,10,1,100,0.07135207365967977,-10,-1,-100,15025.332462820224,-0.005160779682367672,0.00016277583474909272,0.9999866698397023,22.464480001000766,0.020594382893491175,30.142887022502997,-11.814583268194141,-29.8466796875,5356.25390625,True
1599563037.034224,0.0,10,0.5,0.5,-8.88359041595459,-0.15025,-0.03,-0.5,0.0176220205132127,10,1,100,0.06623403512160564,-10,-1,-100,15024.850042330916,-0.005252164708432631,0.00030983538639712394,0.9999861592881718,22.898471125374993,0.02129394142083753,31.694103263623386,-12.186076929635455,-33.425567626953125,5356.25390625,True
1599563037.075112,0.0,10,0.5,0.5,-10.602837882995605,-0.15025,-0.03,-0.5,0.002971021928619039,10,1,100,0.057220147836440784,-10,-1,-100,15024.850042330916,-0.005252164708432631,0.00030983538639712394,0.9999861592881718,22.898471125374993,0.02129394142083753,31.694103263623386,-12.186076929635455,-33.425567626953125,5356.25390625,True
1599563037.116003,0.0,10,0.5,0.5,-5.3445801925659175,-0.15025,-0.03,-0.5,0.0415313934743226,10,1,100,0.07026994215600146,-10,-1,-100,15023.884224368841,-0.005369794104494743,0.0006598488771512235,0.9999853648482736,23.582913761736638,0.022384948267819803,34.63762101948568,-12.929007224165089,-41.409210205078125,5356.25390625,True
1599563037.157476,0.0,10,0.5,0.5,-9.249685020446776,-0.15025,-0.03,-0.5,0.0066258347601091646,10,1,100,0.05861526277821105,-10,-1,-100,15023.884224368841,-0.005369794104494743,0.0006598488771512235,0.9999853648482736,23.582913761736638,0.022384948267819803,34.63762101948568,-12.929007224165089,-41.409210205078125,5356.25390625,True
1599563037.1983666,0.0,10,0.5,0.5,-3.260387672424317,-0.15025,-0.03,-0.5,0.05106071843215697,10,1,100,0.06307510041313832,-10,-1,-100,15022.794382012915,-0.005409480773682564,0.0010629334667528096,0.999984803729639,23.88685804680865,0.022775687277048914,37.10666602118239,-13.671875289754803,-50.494232177734375,5356.25390625,True
1599563037.2392926,0.0,10,0.5,0.5,-6.105107192993164,-0.15025,-0.03,-0.5,0.022987388350520506,10,1,100,0.05927083394448908,-10,-1,-100,15022.522898641764,-0.005410081935127536,0.0011729265722408885,0.9999846775109664,23.883308536306792,0.02272956098108772,37.6068730523833,-13.857586430345094,-52.93756103515625,5356.25390625,True
1599563037.2791934,0.0,10,0.5,0.5,-2.184353569030762,-0.15025,-0.03,-0.5,0.04770096821271549,10,1,100,0.05374843116163275,-10,-1,-100,15021.643015966634,-0.005359716670707191,0.0014962939226571665,0.9999845171509941,23.68828973189378,0.022257599296279285,38.804997190966006,-14.414717722855134,-60.680816650390625,5356.25390625,True
1599563037.3254695,0.0,10,0.5,0.5,-2.3482896347045896,-0.15025,-0.03,-0.5,0.040139935527462665,10,1,100,0.05231359234991708,-10,-1,-100,15021.099070157274,-0.005300283894390265,0.001719961132614117,0.9999844742416459,23.353204691957792,0.021642029916462135,39.24576750238944,-14.786144285498452,-66.18716430664062,5356.25390625,True
1599563037.3654041,0.0,10,0.5,0.5,-1.2137125778198241,-0.15025,-0.03,-0.5,0.04094978496662547,10,1,100,0.048564838238226056,-10,-1,-100,15020.489695323515,-0.005211854758395526,0.0019290262967105298,0.999984557594528,22.88707089881534,0.020861545621799905,39.432738491722446,-15.157582260381352,-71.96914672851562,5356.25390625,True
1599563037.4112809,0.0,10,0.5,0.5,-3.963780235290527,-0.15025,-0.03,-0.5,0.020238591542387427,10,1,100,0.05742815911800781,-10,-1,-100,15020.489695323515,-0.005211854758395526,0.0019290262967105298,0.999984557594528,22.88707089881534,0.020861545621799905,39.432738491722446,-15.157582260381352,-71.96914672851562,5356.25390625,True
1599563037.4561868,0.0,10,0.5,0.5,2.1380290603637695,-0.15025,-0.03,-0.5,0.05386830863989339,10,1,100,0.038388738462605,-10,-1,-100,15019.546335960622,-0.0050387226841863844,0.002233145315358801,0.9999848120525193,21.815549742627514,0.019399950203241638,38.97469767667709,-15.714770513441026,-81.15859985351562,5356.25390625,True
1599563037.501042,0.0,10,0.5,0.5,-0.23209514617919913,-0.15025,-0.03,-0.5,0.034045115837081225,10,1,100,0.04813604063497485,-10,-1,-100,15019.212350444635,-0.004970135765585296,0.0023276578432598807,0.999984939766313,21.347782235776755,0.018862402940303148,38.59199234062972,-15.900509399902155,-84.35952758789062,5356.25390625,True
1599563037.540934,0.0,10,0.5,0.5,6.910863338470459,-0.15025,-0.03,-0.5,0.06290912656722102,10,1,100,0.019784375746691715,-10,-1,-100,15017.933051432366,-0.0046502980032752305,0.002674144036664985,0.9999856117375648,20.631165164192158,0.018177534379886194,39.04846752554432,-16.6434899344495,-97.57078552246094,5356.25390625,True
1599563037.5808284,0.0,10,0.5,0.5,2.599320028305054,-0.15025,-0.03,-0.5,0.03722399202501044,10,1,100,0.04162103841857394,-10,-1,-100,15017.597114660428,-0.004558705603738845,0.002753799084686335,0.9999858172963353,21.34217160767517,0.018909793341275124,40.84741896465085,-16.829221890199285,-100.83968353271484,5356.25390625,True
1599563037.624712,0.0,10,0.5,0.5,5.376732862472535,-0.15025,-0.03,-0.5,0.04455825598068726,10,1,100,0.03035235751045007,-10,-1,-100,15016.864691702183,-0.004373734585450783,0.0028909843004777743,0.9999862562333296,22.611936003623953,0.020354301892652235,44.23815853077102,-17.200656159619495,-107.3503646850586,5356.25390625,True
1599563037.6651108,0.0,10,0.5,0.5,8.366369842529297,-0.15025,-0.03,-0.5,0.049619914140232875,10,1,100,0.016274262925160106,-10,-1,-100,15015.856876084581,-0.004078538023675574,0.003060051342798838,0.9999870007221938,24.055124394693536,0.02225675221291507,48.5944864770893,-17.75773211307377,-116.6920166015625,5356.25390625,True
1599563037.706002,0.0,10,0.5,0.5,3.8868072509765623,-0.15025,-0.03,-0.5,0.03290192238518228,10,1,100,0.04566076471153581,-10,-1,-100,15015.856876084581,-0.004078538023675574,0.003060051342798838,0.9999870007221938,24.055124394693536,0.02225675221291507,48.5944864770893,-17.75773211307377,-116.6920166015625,5356.25390625,True
1599563037.7465208,0.0,10,0.5,0.5,11.537200607299805,-0.15025,-0.03,-0.5,0.04988427885218196,10,1,100,0.0023815498151163184,-10,-1,-100,15014.390076961601,-0.003686255323387244,0.00321301480393507,0.9999880439573069,25.387530736926276,0.02414286843528585,53.44348341886583,-18.50037832379546,-128.19891357421875,5356.25390625,True
1599563037.7864146,0.0,10,0.5,0.5,5.969787368774414,-0.15025,-0.03,-0.5,0.03473723810569086,10,1,100,0.04144841698684904,-10,-1,-100,15014.390076961601,-0.003686255323387244,0.00321301480393507,0.9999880439573069,25.387530736926276,0.02414286843528585,53.44348341886583,-18.50037832379546,-128.19891357421875,5356.25390625,True
1599563037.8273065,0.0,10,0.5,0.5,9.611156558990478,-0.15025,-0.03,-0.5,0.03968975960536833,10,1,100,0.01865652093712828,-10,-1,-100,15013.595153372502,-0.0034804431769670627,0.0032568704643801158,0.9999886395905055,25.77114182865048,0.024652999307225056,55.34628048386562,-18.871664059963777,-133.53944396972656,5356.25390625,True
1599563037.867709,0.0,10,0.5,0.5,10.419010948181151,-0.15025,-0.03,-0.5,0.03898585688897822,10,1,100,0.019004266834911184,-10,-1,-100,15012.861753406934,-0.003298076562548041,0.00328913299993782,0.9999891520887094,25.979841650366968,0.024855743048206664,56.89890307237712,-19.242935299746023,-138.60427856445312,5356.25390625,True
1599563037.908599,0.0,10,0.5,0.5,14.108162700653075,-0.15025,-0.03,-0.5,0.03592619835490572,10,1,100,-0.003743428416667957,-10,-1,-100,15011.265070561669,-0.002927073907263337,0.0032896875113309115,0.9999903050502136,26.092331435181062,0.02457047565001406,59.364853512060755,-19.98545770332518,-147.90721130371094,5356.25390625,True
1599563037.9494915,0.0,10,0.5,0.5,9.64733938217163,-0.15025,-0.03,-0.5,0.035966950182403694,10,1,100,0.03315253092597026,-10,-1,-100,15011.265070561669,-0.002927073907263337,0.0032896875113309115,0.9999903050502136,26.092331435181062,0.02457047565001406,59.364853512060755,-19.98545770332518,-147.90721130371094,5356.25390625,True
1599563037.99038,0.0,10,0.5,0.5,13.864693225860595,-0.15025,-0.03,-0.5,0.03224891549642246,10,1,100,0.005556045561139644,-10,-1,-100,15010.069757111138,-0.0026777633349430695,0.0032553276110268404,0.9999911161733722,25.905045272866346,0.023833410375478214,60.59275690780778,-20.542349890230124,-154.1607208251953,5356.25390625,True
1599563038.0312712,0.0,10,0.5,0.5,12.163704246520995,-0.15025,-0.03,-0.5,0.034004203586510476,10,1,100,0.021843687864712212,-10,-1,-100,15009.673271132866,-0.002600896783110573,0.003239592567454539,0.999991370150723,25.805081787979116,0.02352301172421214,60.9084214220291,-20.727982738190057,-156.10736083984375,5356.25390625,True
1599563038.0712047,0.0,10,0.5,0.5,13.733906391143798,-0.15025,-0.03,-0.5,0.02969217758453299,10,1,100,0.012858027747307507,-10,-1,-100,15008.81389484217,-0.002450941951106752,0.0031857708294008545,0.9999919218412591,25.564472212916034,0.022845428761632074,61.42964511249167,-21.099252719503944,-159.7940216064453,5356.25390625,True
1599563038.1150472,0.0,10,0.5,0.5,15.279456604003906,-0.15025,-0.03,-0.5,0.025753922699863672,10,1,100,0.0060065718451784225,-10,-1,-100,15007.492604353582,-0.00225381304660444,0.003100925369049055,0.9999926522673088,25.13527554579513,0.021775417221778913,62.00565667241109,-21.65616940085862,-164.80682373046875,5356.25390625,True
1599563038.1559389,0.0,10,0.5,0.5,15.773594512939454,-0.15025,-0.03,-0.5,0.022109955749469824,10,1,100,0.006740200798575895,-10,-1,-100,15006.171312843682,-0.0020829331466123797,0.0029906290018836107,0.9999933587417869,24.67196483594869,0.020756518849984803,62.44167199333704,-22.21309811148064,-169.19927978515625,5356.25390625,True
1599563038.1958313,0.0,10,0.5,0.5,13.700367584228516,-0.15025,-0.03,-0.5,0.03311735388580908,10,1,100,0.023667858580104423,-10,-1,-100,15006.171312843682,-0.0020829331466123797,0.0029906290018836107,0.9999933587417869,24.67196483594869,0.020756518849984803,62.44167199333704,-22.21309811148064,-169.19927978515625,5356.25390625,True
1599563038.2367218,0.0,10,0.5,0.5,17.004013534545898,-0.15025,-0.03,-0.5,0.01468139227120107,10,1,100,0.002833875957016816,-10,-1,-100,15004.390060165664,-0.0018949908701995605,0.0028232315197526756,0.999994219169985,24.079394774824422,0.01962908142208794,62.99843914114076,-22.955681852401256,-174.0906982421875,5356.25390625,True
1599563038.276651,0.0,10,0.5,0.5,14.679958068847656,-0.15025,-0.03,-0.5,0.03137777658983184,10,1,100,0.02146955836762199,-10,-1,-100,15004.390060165664,-0.0018949908701995605,0.0028232315197526756,0.999994219169985,24.079394774824422,0.01962908142208794,62.99843914114076,-22.955681852401256,-174.0906982421875,5356.25390625,True
1599563038.3175406,0.0,10,0.5,0.5,16.107862728118896,-0.15025,-0.03,-0.5,0.02045076266073987,10,1,100,0.01333785127404227,-10,-1,-100,15003.466231299099,-0.0018223417927055161,0.0027243185762883715,0.9999946285649166,23.818346667477545,0.019196786969641152,63.33327824429924,-23.32697510347088,-176.12290954589844,5356.25390625,True
1599563038.357436,0.0,10,0.5,0.5,17.281302791595458,-0.15025,-0.03,-0.5,0.007846068344549942,10,1,100,0.0076366298682901505,-10,-1,-100,15001.559979174403,-0.0017054721932173273,0.002520323560205498,0.9999953696561549,23.408919945987037,0.01861872613023814,64.24657343888964,-24.069556441193637,-179.35997009277344,5356.25390625,True
1599563038.396294,0.0,10,0.5,0.5,-217.54931676483153,-0.15025,-0.03,-0.5,0.016098208026097127,10,1,100,0.014517024836307945,-10,-1,-100,15000.572673651157,-0.0016628866949500865,0.002410592419008883,0.9999957119168208,23.273442288124773,0.018470167404258872,64.87057834807383,-24.440841465148125,179.43502807617188,5356.25390625,True
1599563038.4381833,0.0,10,0.5,0.5,-38.82807524871826,-0.15025,-0.03,-0.5,0.02079425785355271,10,1,100,0.01657278244769196,-10,-1,-100,15000.11075980158,-0.0016437839263015342,0.0023542961392543004,0.9999958776235491,23.322082079649277,0.018505821762433716,65.50526478911031,-24.626480929745572,178.93594360351562,5356.25390625,True
1599563038.4790735,0.0,10,0.5,0.5,-39.803015674591066,-0.15025,-0.03,-0.5,0.020001816241727283,10,1,100,0.016613187798768102,-10,-1,-100,14999.588297751383,-0.001627655196955187,0.0022967185033955398,0.999996037903489,23.489367303551308,0.01864547568652263,66.47791972790297,-24.812116714635454,178.50575256347656,5356.25390625,True
1599563038.5199647,0.0,10,0.5,0.5,-39.665923789978024,-0.15025,-0.03,-0.5,-0.0015091714494271241,10,1,100,0.014343865731742705,-10,-1,-100,14997.554116602289,-0.0015931109576256873,0.002049628993900722,0.9999966305035553,24.13441234529619,0.019277802790121742,70.3709817728436,-25.55462295358364,176.40335083007812,5356.25390625,True
1599563038.5608563,0.0,10,0.5,0.5,-41.74075518035889,-0.15025,-0.03,-0.5,0.02309464986253981,10,1,100,0.017732219455794798,-10,-1,-100,14997.554116602289,-0.0015931109576256873,0.002049628993900722,0.9999966305035553,24.13441234529619,0.019277802790121742,70.3709817728436,-25.55462295358364,176.40335083007812,5356.25390625,True
1599563038.6017468,0.0,10,0.5,0.5,-41.84369191360473,-0.15025,-0.03,-0.5,0.008687766821759523,10,1,100,0.01743918652534609,-10,-1,-100,14996.506264277617,-0.0015908923147934142,0.0019195127844463403,0.9999968922613277,24.509240392701514,0.019706700178274684,72.51436424390634,-25.925851642662828,174.96717834472656,5356.25390625,True
1599563038.6491807,0.0,10,0.5,0.5,-42.48184956359863,-0.15025,-0.03,-0.5,0.006725464019320289,10,1,100,0.01752388110445846,-10,-1,-100,14995.457435599877,-0.0015900926273303866,0.001784359946936034,0.9999971438284293,24.92154615467986,0.020226640646292156,74.80279838011735,-26.29706196090496,173.25640869140625,5356.25390625,True
1599563038.6930633,0.0,10,0.5,0.5,-43.0876856918335,-0.15025,-0.03,-0.5,0.0047422415822062445,10,1,100,0.019762011315268148,-10,-1,-100,14994.408607216435,-0.0016099894572285125,0.0016444088648372795,0.9999973519232103,25.3658745131162,0.02084237502891543,77.2245027648782,-26.66825273163517,171.27011108398438,5356.25390625,True
1599563038.7439272,0.0,10,0.5,0.5,-43.64612516403198,-0.15025,-0.03,-0.5,0.0026347625837560614,10,1,100,0.020076833059232916,-10,-1,-100,14993.358801883645,-0.001631198592456462,0.0014990933653569695,0.9999975459521058,25.835363609493246,0.0215550619386412,79.76240788940638,-27.039421695656912,169.0082244873047,5356.25390625,True
1599563038.7868128,0.0,10,0.5,0.5,-44.16241875457764,-0.15025,-0.03,-0.5,0.0005017714480809593,10,1,100,0.021394070622313188,-10,-1,-100,14992.252356044366,-0.0016626282779646452,0.0013487113784241243,0.9999977083197875,26.348483457929564,0.02238370297139648,82.47755619274015,-27.410566830653604,166.47067260742188,5356.25390625,True
1599563038.8306954,0.0,10,0.5,0.5,-43.65760753250122,-0.15025,-0.03,-0.5,-0.010501554445454555,10,1,100,0.025105525497811226,-10,-1,-100,14990.551184717915,-0.0017249801672177508,0.0011130353478001071,0.9999978927956487,27.19488601587925,0.023835078696928313,86.87861132828155,-27.967234101471355,162.14759826660156,5356.25390625,True
1599563038.8721685,0.0,10,0.5,0.5,-42.55302173233032,-0.15025,-0.03,-0.5,-0.01437150125223845,10,1,100,0.027665952873555742,-10,-1,-100,14988.852941239602,-0.0018048838667980081,0.0008647826735995186,0.9999979972705719,28.03355988913156,0.02541501503101847,91.36415388420392,-28.523836169484074,157.20448303222656,5356.25390625,True
1599563038.9130957,0.0,10,0.5,0.5,-42.59255474090576,-0.15025,-0.03,-0.5,-0.008984426866121022,10,1,100,0.026238005883241038,-10,-1,-100,14987.740636919742,-0.0018643958029222025,0.00068942593098701,0.9999980243581363,28.626624266221878,0.02653774639027583,94.52694970397947,-28.894865573905005,153.56460571289062,5356.25390625,True
1599563038.9544585,0.0,10,0.5,0.5,-41.79167768096924,-0.15025,-0.03,-0.5,-0.011867424162085694,10,1,100,0.027569779584467997,-10,-1,-100,14986.566808529315,-0.001930389377949927,0.0005052628191690585,0.9999980091511848,29.181837864054533,0.02761770247355172,97.61430049043905,-29.26586335779239,149.64920043945312,5356.25390625,True
1599563038.996346,0.0,10,0.5,0.5,-43.66911786651612,-0.15025,-0.03,-0.5,0.006394450402236301,10,1,100,0.02100414992372797,-10,-1,-100,14986.566808529315,-0.001930389377949927,0.0005052628191690585,0.9999980091511848,29.181837864054533,0.02761770247355172,97.61430049043905,-29.26586335779239,149.64920043945312,5356.25390625,True
1599563039.0372727,0.0,10,0.5,0.5,-40.86374077224731,-0.15025,-0.03,-0.5,-0.014703089785096763,10,1,100,0.02919424624613906,-10,-1,-100,14985.392980801756,-0.002004538182317006,0.0003148709685339685,0.9999979413393554,29.68058320548339,0.02859365641084546,100.5582623855362,-29.63683107375469,145.4583282470703,5356.25390625,True
1599563039.078128,0.0,10,0.5,0.5,-39.96640338897705,-0.15025,-0.03,-0.5,-0.017857533191877474,10,1,100,0.03061738426986403,-10,-1,-100,14984.154699727194,-0.0020845077629868284,0.00011456947500034606,0.9999978208482363,30.102728600489268,0.029398376689977773,103.28252491472608,-30.007771173908083,140.99197387695312,5356.25390625,True
1599563039.3961961,0.0,10,0.5,0.5,-39.01954696273804,-0.15025,-0.03,-0.5,-0.020102930701911596,10,1,100,0.03281001370709635,-10,-1,-100,14982.982825394487,-0.0021766909083563643,-8.641750514695211e-05,0.9999976272715373,30.426808945717823,0.02996438827311069,105.70272433585738,-30.37868766553187,136.25035095214844,5356.25390625,True
1599563039.4321163,0.0,10,0.5,0.5,-39.676491981506345,-0.15025,-0.03,-0.5,-0.01202165464063084,10,1,100,0.028845698993578996,-10,-1,-100,14982.33145916101,-0.0022239393599774865,-0.0001940933171146852,0.9999975082076491,30.545211864602784,0.030138818310293008,106.77089788842052,-30.564138865329028,133.77621459960938,5356.25390625,True
1599563039.4700532,0.0,10,0.5,0.5,-35.7129525718689,-0.15025,-0.03,-0.5,-0.037980919670751505,10,1,100,0.04171280267187311,-10,-1,-100,14980.507241036743,-0.002383327312374343,-0.0005264344767387471,0.9999970213043956,30.690487213018827,0.03015869793953539,109.25947086237754,-31.120474042236964,125.94090270996094,5356.25390625,True
1599563039.5059178,0.0,10,0.5,0.5,-39.50901920700073,-0.15025,-0.03,-0.5,-0.004934318293861603,10,1,100,0.025846077335628416,-10,-1,-100,14980.507241036743,-0.002383327312374343,-0.0005264344767387471,0.9999970213043956,30.690487213018827,0.03015869793953539,109.25947086237754,-31.120474042236964,125.94090270996094,5356.25390625,True
1599563039.5637631,0.0,10,0.5,0.5,-33.90276238632202,-0.15025,-0.03,-0.5,-0.04396941274984162,10,1,100,0.046287729484838155,-10,-1,-100,14978.621501812711,-0.0025685620163261075,-0.0008798085446798938,0.999996314206254,30.46110789323569,0.02938334781799565,110.41062196943874,-31.676802999767634,117.48625183105469,5356.25390625,True
1599563039.6216085,0.0,10,0.5,0.5,-36.088957012176515,-0.15025,-0.03,-0.5,-0.021822437335720188,10,1,100,0.03534137844979567,-10,-1,-100,14977.97111083183,-0.002636750666736845,-0.0009981355652086692,0.9999960256277597,30.288270396357543,0.028958895310885392,110.4368568866616,-31.862249710926005,114.53050231933594,5356.25390625,True
1599563039.6620483,0.0,10,0.5,0.5,-31.41526142120361,-0.15025,-0.03,-0.5,-0.052783076005579375,10,1,100,0.0535838914586832,-10,-1,-100,14976.022872208734,-0.002863879235496662,-0.0013856317886006434,0.9999949390973292,29.44603722232517,0.027302965128859415,109.27137254424918,-32.418616168645286,105.25027465820312,5356.25390625,True
1599563039.7019076,0.0,10,0.5,0.5,-31.675659809112545,-0.15025,-0.03,-0.5,-0.043250035340963375,10,1,100,0.049784237919723195,-10,-1,-100,14974.720139970304,-0.00303496882050818,-0.001649518081453411,0.9999940340093822,28.593127289968276,0.026004959398861514,107.34134843930747,-32.789558274000974,98.71968078613281,5356.25390625,True
1599563039.743792,0.0,10,0.5,0.5,-30.362646221160887,-0.15025,-0.03,-0.5,-0.0489510043917912,10,1,100,0.0543904739260418,-10,-1,-100,14973.422291602474,-0.0032313755165374034,-0.001939282810962887,0.9999928986720107,27.49204937523134,0.02468487778535888,104.39638443874816,-33.16053175768657,91.91380310058594,5356.25390625,True
1599563039.782689,0.0,10,0.5,0.5,-31.325157287597655,-0.15025,-0.03,-0.5,-0.03626488516699556,10,1,100,0.046492570208772774,-10,-1,-100,14972.769948519766,-0.0033370126270122332,-0.002085327705037453,0.9999922578475743,26.845794572023948,0.024049405673460537,102.52299954278737,-33.34603099832749,88.40777587890625,5356.25390625,True
1599563039.8225853,0.0,10,0.5,0.5,-25.812783763885495,-0.15025,-0.03,-0.5,-0.07217932147684003,10,1,100,0.0755006933532823,-10,-1,-100,14970.694760133978,-0.0036956179334266875,-0.0025425907595765193,0.9999899387695456,28.533803791475265,0.02587707893959716,110.82173479953735,-33.902473148963495,77.47715759277344,5356.25390625,True
1599563039.8614795,0.0,10,0.5,0.5,-31.101773326873776,-0.15025,-0.03,-0.5,-0.02669863334837636,10,1,100,0.039792055414343906,-10,-1,-100,14970.694760133978,-0.0036956179334266875,-0.0025425907595765193,0.9999899387695456,28.533803791475265,0.02587707893959716,110.82173479953735,-33.902473148963495,77.47715759277344,5356.25390625,True
1599563039.899377,0.0,10,0.5,0.5,-20.830406574249267,-0.15025,-0.03,-0.5,-0.09693359262879284,10,1,100,0.10480378548448904,-10,-1,-100,14967.96918558015,-0.004285295771724871,-0.003178955391723522,0.9999857651400674,31.043895179687418,0.02925410772242408,123.25772925803672,-34.64418480920021,61.94087219238281,5356.25390625,True
1599563039.9382722,0.0,10,0.5,0.5,-23.087409725189207,-0.15025,-0.03,-0.5,-0.06825741602015911,10,1,100,0.08227050596941785,-10,-1,-100,14966.605911032762,-0.0046147894759868,-0.0034943647964014134,0.9999832464260398,31.9586229784305,0.030586473911676838,128.27243686241582,-35.01495898029738,53.76072692871094,5356.25390625,True
1599563039.9791646,0.0,10,0.5,0.5,-21.46324556350708,-0.15025,-0.03,-0.5,-0.07211739682494292,10,1,100,0.0943908922700345,-10,-1,-100,14965.179161131615,-0.005022485935172693,-0.0038134932349523833,0.9999801157544973,32.61368785625802,0.03141632624399538,132.31293658045817,-35.38569204432472,45.30598449707031,5356.25390625,True
1599563040.0200558,0.0,10,0.5,0.5,-25.474075977325437,-0.15025,-0.03,-0.5,-0.04049792143887318,10,1,100,0.05386663874332984,-10,-1,-100,14965.179161131615,-0.005022485935172693,-0.0038134932349523833,0.9999801157544973,32.61368785625802,0.03141632624399538,132.31293658045817,-35.38569204432472,45.30598449707031,5356.25390625,True
1599563040.0629416,0.0,10,0.5,0.5,-13.736063774108885,-0.15025,-0.03,-0.5,-0.10591326791591865,10,1,100,0.15443519623067783,-10,-1,-100,14962.327618475189,-0.005934576698450006,-0.004405618786862121,0.9999726852882107,32.703272958151516,0.030826928714908948,135.50917069262584,-36.12711571041903,27.573822021484375,5356.25390625,True
1599563040.1048281,0.0,10,0.5,0.5,-16.33656256866455,-0.15025,-0.03,-0.5,-0.07731093900087135,10,1,100,0.11943682805173794,-10,-1,-100,14960.8403253078,-0.006442791593018152,-0.004681148128463032,0.9999682881415232,32.06268737333224,0.029506631149294315,134.2459735366836,-36.49785173075783,18.296539306640625,5356.25390625,True
1599563040.1467159,0.0,10,0.5,0.5,-14.523677902221678,-0.15025,-0.03,-0.5,-0.0734294441496598,10,1,100,0.1333667922211247,-10,-1,-100,14959.351080457098,-0.007028343150735882,-0.0048935870039555655,0.999963326926938,30.934315182950655,0.027799797003186688,130.86573752049708,-36.868630202898295,8.7459716796875,5356.25390625,True
1599563040.186647,0.0,10,0.5,0.5,-12.661160758972166,-0.15025,-0.03,-0.5,-0.07292186341526631,10,1,100,0.14132720924814562,-10,-1,-100,14957.863789887284,-0.007629578387421102,-0.005079413153006116,0.9999579936655595,29.315939847128643,0.026009076372611295,125.29495395885594,-37.239463008912786,-1.078399658203125,5356.25390625,True
1599563040.2265406,0.0,10,0.5,0.5,-17.304887901306152,-0.15025,-0.03,-0.5,-0.054638657055008116,10,1,100,0.08163294215566458,-10,-1,-100,14957.863789887284,-0.007629578387421102,-0.005079413153006116,0.9999579936655595,29.315939847128643,0.026009076372611295,125.29495395885594,-37.239463008912786,-1.078399658203125,5356.25390625,True
1599563040.2767215,0.0,10,0.5,0.5,-10.50327978515625,-0.15025,-0.03,-0.5,-0.06856368345718836,10,1,100,0.1523441978570661,-10,-1,-100,14956.372594323475,-0.00826883165702112,-0.0052036980999410004,0.9999522728356152,30.401657901483226,0.027146113253406462,131.25910553525924,-37.61028585657686,-11.17596435546875,5356.25390625,True
1599563040.3196046,0.0,10,0.5,0.5,-1.6211093368530278,-0.15025,-0.03,-0.5,-0.06571219175910648,10,1,100,0.23650262228559532,-10,-1,-100,14953.334541252,-0.00961089011171359,-0.005288342575044365,0.9999398303018384,33.52827551784794,0.031190546076817382,147.6772204452716,-38.35168581899644,-32.190948486328125,5356.25390625,True
1599563040.360527,0.0,10,0.5,0.5,-4.747550834655762,-0.15025,-0.03,-0.5,-0.05009019250169923,10,1,100,0.17655806008988417,-10,-1,-100,14951.780847502756,-0.010281151237527562,-0.005221356298086157,0.9999335154737237,34.36186820059795,0.0323740527383134,152.84355520783288,-38.72228879929624,-43.107757568359375,5356.25390625,True
