Timestamp,Input Throttle,horizon,dT,dt,Input Roll,Roll P,Roll I,Roll D,Input Pitch,Pitch P,Pitch I,Pitch D,Input Yaw,Yaw P,Yaw I,Yaw D,Altitude,Direction X,Direction Y,Direction Z,Drag X,Drag Y,Drag Z,Vertical Velocity,Roll,Mass,Has Fuel
1599559103.579751,0.0,10,0.5,0.5,-0.058691238403320314,-0.001,-0.02275,-0.37525,-0.000241054691528071,10,1,100,0.17553644164207213,-10,-1,-100,14994.46756561345,-0.01684777669118483,-7.110590224932994e-05,0.999858063609288,28.571717655841642,0.02743953223050167,-86.6819118661281,26.82301197645766,-31.78973388671875,5356.25390625,True
1599559103.6066446,0.0,10,0.5,0.5,-0.19089123077392578,-0.001,-0.02275,-0.37525,-0.00044289229146652416,10,1,100,0.17418851350336043,-10,-1,-100,14995.010535415495,-0.016884376408661136,-6.860338114704168e-05,0.9998574464026694,28.499137995766404,0.02760248610516649,-85.86386406303001,26.63704846289527,-31.7890625,5356.25390625,True
1599559103.6376548,0.0,10,0.5,0.5,-0.3235858764648437,-0.001,-0.02275,-0.37525,-0.00013306318815913389,10,1,100,0.18061778308421877,-10,-1,-100,14996.026163796429,-0.01696074735127589,-6.344936704112423e-05,0.9998561541659201,28.3540449349164,0.027923842181012258,-84.2371017326159,26.265133023890943,-31.787689208984375,5356.25390625,True
1599559103.6719542,0.0,10,0.5,0.5,-0.4512436454772949,-0.001,-0.02275,-0.37525,0.007138374114066187,10,1,100,0.17905824935676745,-10,-1,-100,14997.093549241778,-0.017000579040356765,7.397757045431946e-06,0.9998554796857222,28.209840894269142,0.028239767250646506,-82.6251152388643,25.893233355977507,-31.79901123046875,5356.25390625,True
1599559103.7098536,0.0,10,0.5,0.5,-0.5878994834899902,-0.001,-0.02275,-0.37525,5.4401481115113064e-05,10,1,100,0.1767751383527155,-10,-1,-100,14997.093549241778,-0.017000579040356765,7.397757045431946e-06,0.9998554796857222,28.209840894269142,0.028239767250646506,-82.6251152388643,25.893233355977507,-31.79901123046875,5356.25390625,True
1599559103.7387443,0.0,10,0.5,0.5,-0.6974800422668457,-0.001,-0.02275,-0.37525,0.009743191548473302,10,1,100,0.18218531295668,-10,-1,-100,14998.110152735258,-0.01703430737399248,9.547094151501053e-05,0.9998549011019487,28.069856118844545,0.028552656680485806,-81.03740509819676,25.52134894009239,-31.85968017578125,5356.25390625,True
1599559103.7726858,0.0,10,0.5,0.5,-0.7928306144714355,-0.001,-0.02275,-0.37525,0.015659943748591153,10,1,100,0.1810041370612676,-10,-1,-100,14999.126754234196,-0.017038745798817572,0.00022923933745068516,0.99985480375449,27.937519697285165,0.02886424739983205,-79.48318910917716,25.14947969114344,-32.018310546875,5356.25390625,True
1599559103.8056653,0.0,10,0.5,0.5,-0.9355917945861816,-0.001,-0.02275,-0.37525,0.011926956152198546,10,1,100,0.18147633643522237,-10,-1,-100,14999.59941111342,-0.017031583683150137,0.0003167023198455014,0.9998549019017131,27.875165872051717,0.029019715095051996,-78.72101061699766,24.96355060601025,-32.147674560546875,5356.25390625,True
1599559103.84245,0.0,10,0.5,0.5,-0.9728532196044921,-0.001,-0.02275,-0.37525,0.026708604865574432,10,1,100,0.17944700194633167,-10,-1,-100,15000.615034508752,-0.01699114091565969,0.000530304835489801,0.9998554995133876,27.75979719228411,0.02932975014117705,-77.23046455807767,24.59170310823691,-32.5274658203125,5356.25390625,True
1599559103.8713477,0.0,10,0.5,0.5,-0.8879085021972656,-0.001,-0.02275,-0.37525,0.05115650568658621,10,1,100,0.17126995517661434,-10,-1,-100,15002.035927774501,-0.016864591482838524,0.0009462604891433716,0.9998573348959359,27.61264777216247,0.0297873060953498,-75.0831656515671,24.033957362966998,-33.479522705078125,5356.25390625,True
1599559103.9054058,0.0,10,0.5,0.5,-1.0203056602478027,-0.001,-0.02275,-0.37525,0.04700682769474491,10,1,100,0.1712853855369732,-10,-1,-100,15003.03494643874,-0.016734355373110875,0.0012858174102761118,0.9998591440917234,27.532582863253154,0.030080071570859398,-73.71014485460476,23.662142643858125,-34.418914794921875,5356.25390625,True
1599559103.9392889,0.0,10,0.5,0.5,-1.366831155395508,-0.001,-0.02275,-0.37525,0.013186827912723435,10,1,100,0.18429765437793075,-10,-1,-100,15003.03494643874,-0.016734355373110875,0.0012858174102761118,0.9998591440917234,27.532582863253154,0.030080071570859398,-73.71014485460476,23.662142643858125,-34.418914794921875,5356.25390625,True
1599559103.9741912,0.0,10,0.5,0.5,-0.652015195465088,-0.001,-0.02275,-0.37525,0.0777085007209645,10,1,100,0.15351281645280546,-10,-1,-100,15004.397241949802,-0.01645462959291478,0.0018711467805406458,0.9998628625840075,27.43417676701144,0.030476903121058375,-71.71980491240222,23.104442773756723,-36.3028564453125,5356.25390625,True
1599559104.0071328,0.0,10,0.5,0.5,-1.062715655517578,-0.001,-0.02275,-0.37525,0.04325637355715807,10,1,100,0.16884337031349123,-10,-1,-100,15004.857198846643,-0.016340162207613987,0.0020883045100669076,0.9998643098357407,27.404853376725864,0.030591199214583427,-71.06809907681092,22.918548499054605,-37.06292724609375,5356.25390625,True
1599559104.0411477,0.0,10,0.5,0.5,-0.34189347534179704,-0.001,-0.02275,-0.37525,0.09863477343812128,10,1,100,0.13422250331072783,-10,-1,-100,15006.205819076276,-0.01592196617261791,0.0027872688933240643,0.9998693525282762,27.31693218038162,0.03085134566450219,-69.1203905547446,22.360882498072893,-39.7049560546875,5356.25390625,True
1599559104.0730627,0.0,10,0.5,0.5,-1.315328761291504,-0.001,-0.02275,-0.37525,0.029016322226033467,10,1,100,0.17593424552356177,-10,-1,-100,15006.205819076276,-0.01592196617261791,0.0027872688933240643,0.9998693525282762,27.31693218038162,0.03085134566450219,-69.1203905547446,22.360882498072893,-39.7049560546875,5356.25390625,True
1599559104.1099644,0.0,10,0.5,0.5,-0.9243539276123046,-0.001,-0.02275,-0.37525,0.05732195991431931,10,1,100,0.158053534300658,-10,-1,-100,15006.67944629793,-0.01576042547168367,0.003042145783261382,0.9998711688702625,27.284183582301985,0.03090274008901721,-68.46494721337878,22.174999646437634,-40.6966552734375,5356.25390625,True
1599559104.1390963,0.0,10,0.5,0.5,-0.4659504989624025,-0.001,-0.02275,-0.37525,0.08879625783712974,10,1,100,0.1336970544736552,-10,-1,-100,15007.541740410263,-0.01539330985452264,0.0035574248402792104,0.9998751875810443,27.207880107708572,0.03093902298429297,-67.13148107873364,21.803242961310154,-42.851593017578125,5356.25390625,True
1599559104.1730058,0.0,10,0.5,0.5,0.12564275207519526,-0.001,-0.02275,-0.37525,0.13057827394362262,10,1,100,0.09950171693644179,-10,-1,-100,15008.818091657246,-0.014750191019336696,0.004402750745335868,0.99988151680625,27.051508395226552,0.030794974110381762,-65.04243474514458,21.245632385822713,-46.5084228515625,5356.25390625,True
1599559104.2059183,0.0,10,0.5,0.5,-0.1846009857177735,-0.001,-0.02275,-0.37525,0.10979519515801446,10,1,100,0.1087889667563022,-10,-1,-100,15009.696009661071,-0.01425200430379941,0.004978771355600168,0.9998860396110715,26.905506866461756,0.030540409116133666,-63.56201457047037,20.873910552503723,-49.246429443359375,5356.25390625,True
1599559104.256292,0.0,10,0.5,0.5,-0.11964152832031227,-0.001,-0.02275,-0.37525,0.11472319330114056,10,1,100,0.09760214349889634,-10,-1,-100,15010.5026381606,-0.013699783975679131,0.005543560519990263,0.9998907864640924,26.718733318602283,0.030148063785105556,-61.99924911565311,20.502205539774042,-52.054473876953125,5356.25390625,True
1599559104.306162,0.0,10,0.5,0.5,-0.06715936431884773,-0.001,-0.02275,-0.37525,0.1219658959461406,10,1,100,0.08596150907602652,-10,-1,-100,15011.307313254569,-0.013094700247541363,0.006118977290654246,0.9998955380150185,26.489845284329824,0.029623975460666526,-60.35623420573926,20.130519352948568,-54.887908935546875,5356.25390625,True
1599559104.3395863,0.0,10,0.5,0.5,-0.5453219100952147,-0.001,-0.02275,-0.37525,0.0956791000819997,10,1,100,0.11071939729556626,-10,-1,-100,15011.695001428598,-0.01277300461952609,0.006398718792601696,0.9998979481681133,26.358321165596678,0.029314215011828782,-59.50339019366713,19.944684057780094,-56.319183349609375,5356.25390625,True
1599559104.3724983,0.0,10,0.5,0.5,-0.49509253616332993,-0.001,-0.02275,-0.37525,0.09848427263482243,10,1,100,0.10563582808697487,-10,-1,-100,15012.09929234162,-0.012437686714864454,0.006674414843023166,0.999900373105084,26.21529276688485,0.028974488799020325,-58.630351766616414,19.758854258913605,-57.759124755859375,5356.25390625,True
1599559104.4093997,0.0,10,0.5,0.5,0.1038438522338867,-0.001,-0.02275,-0.37525,0.13030578132789877,10,1,100,0.06089611188514611,-10,-1,-100,15012.850256371195,-0.01172967526833066,0.007210164867586145,0.9999052096277335,25.894244398087782,0.028211780350739304,-56.82554383649834,19.38721222385289,-60.661956787109375,5356.25390625,True
1599559104.440314,0.0,10,0.5,0.5,-0.381107755279541,-0.001,-0.02275,-0.37525,0.10644859412985745,10,1,100,0.09014679611802665,-10,-1,-100,15013.238920986769,-0.01135575498351184,0.00747630600995733,0.9999075715670923,25.716061961291768,0.02779277697097859,-55.894893070282635,19.201400447244232,-62.141448974609375,5356.25390625,True
1599559104.4742274,0.0,10,0.5,0.5,0.2651842895507811,-0.001,-0.02275,-0.37525,0.13666175105837347,10,1,100,0.040784547059028495,-10,-1,-100,15014.042619786575,-0.010571230834221209,0.007988654804993433,0.9999122113831076,25.315903321579324,0.02688152799230263,-53.96273845600662,18.82979693718124,-65.19906616210938,5356.25390625,True
1599559104.5091302,0.0,10,0.5,0.5,0.3433439460754395,-0.001,-0.02275,-0.37525,0.13746663422450345,10,1,100,0.028596137716071862,-10,-1,-100,15014.76428810414,-0.00975194079050963,0.008457246730153132,0.9999166838434909,24.856128867345838,0.025889350107000168,-51.9396848402713,18.45822146933413,-68.30813598632812,5356.25390625,True
1599559104.548026,0.0,10,0.5,0.5,-0.1748319190979004,-0.001,-0.02275,-0.37525,0.1166614821253227,10,1,100,0.06259207934252838,-10,-1,-100,15015.112915727776,-0.00932131419197963,0.008689647259496785,0.9999187982692596,24.607305915120158,0.025374176699753358,-50.90348981385562,18.272444686425867,-69.8778076171875,5356.25390625,True
1599559104.6098645,0.0,10,0.5,0.5,1.6637952003479002,-0.001,-0.02275,-0.37525,0.18273724822336754,10,1,100,-0.09166706751670224,-10,-1,-100,15016.569926833385,-0.007532414928075132,0.009497712072051277,0.9999265253961152,23.511204139840018,0.023284576820275096,-46.663222324669505,17.529413230001218,-76.188720703125,5356.25390625,True
1599559104.642774,0.0,10,0.5,0.5,1.1199017181396482,-0.001,-0.02275,-0.37525,0.1579386038738428,10,1,100,-0.07065184627296366,-10,-1,-100,15017.570889992174,-0.0061032990534465965,0.010002766097817452,0.9999313448487634,22.604541905584483,0.02178787496422064,-43.44131679817831,16.97221802735841,-80.8743896484375,5356.25390625,True
1599559104.6806715,0.0,10,0.5,0.5,0.02252383499145505,-0.001,-0.02275,-0.37525,0.12377745101208144,10,1,100,0.0178340555727678,-10,-1,-100,15017.903894507908,-0.005615425988674789,0.010147296362881756,0.9999327474222901,22.274616594418728,0.021304768323544863,-42.34005516429649,16.786500857382674,-82.45672607421875,5356.25390625,True
1599559104.7415116,0.0,10,0.5,0.5,0.07309247283935538,-0.001,-0.02275,-0.37525,0.1223843304262069,10,1,100,0.015025126897841391,-10,-1,-100,15018.2368982872,-0.005153168645709148,0.010262360672093875,0.9999340622292775,21.9304504740366,0.02083311442116352,-41.225863483043625,16.600790687768395,-84.0025634765625,5356.25390625,True
1599559104.7963622,0.0,10,0.5,0.5,2.2226231975555417,-0.001,-0.02275,-0.37525,0.15972415323250871,10,1,100,-0.20392781311443095,-10,-1,-100,15019.818917489727,-0.0027493805483322867,0.010702905122453553,0.9999389425002609,20.605387927243612,0.019241600923918672,-36.57381677027967,15.672330724230651,-91.0899429321289,5356.25390625,True
1599559104.8342645,0.0,10,0.5,0.5,0.1574151243209838,-0.001,-0.02275,-0.37525,0.12135108186753324,10,1,100,-0.0172145529597815,-10,-1,-100,15020.151922784862,-0.00227031946681971,0.010750891710117637,0.9999396301662196,20.8201251544487,0.019447644321611803,-36.51818412723769,15.486648867824764,-92.46802520751953,5356.25390625,True
1599559104.887121,0.0,10,0.5,0.5,1.2080235694885253,-0.001,-0.02275,-0.37525,0.12405185116717889,10,1,100,-0.11761315635955583,-10,-1,-100,15021.067935470724,-0.0009306942307207924,0.010815849486315827,0.9999410738679246,21.400251100108054,0.020137028295934355,-36.188690630467306,14.92960856939878,-96.44244384765625,5356.25390625,True
1599559104.917044,0.0,10,0.5,0.5,0.24867694129943846,-0.001,-0.02275,-0.37525,0.11762621205962308,10,1,100,-0.03151983073816437,-10,-1,-100,15021.345277759712,-0.0005049970315096908,0.010813451160539712,0.9999414054093354,21.561362481379252,0.020374945390757977,-36.00868535651656,14.743929749883442,-97.64913940429688,5356.25390625,True
1599559104.9778802,0.0,10,0.5,0.5,1.162301379776001,-0.001,-0.02275,-0.37525,0.11026213676050532,10,1,100,-0.13069282641965693,-10,-1,-100,15022.190003313124,0.0007744219886933236,0.010741756728609858,0.999942005784819,21.955358951920445,0.02109293304228691,-35.28432030465704,14.186896840779031,-101.08465576171875,5356.25390625,True
1599559105.0078,0.0,10,0.5,0.5,0.7212144283294678,-0.001,-0.02275,-0.37525,0.10633362747188085,10,1,100,-0.09012959990043327,-10,-1,-100,15022.787659131456,0.0015592041634493008,0.01063878942423299,0.9999421908500328,22.192361993407633,0.021605464125396472,-34.733507273816286,13.815543906681913,-103.14053344726562,5356.25390625,True
1599559105.0407138,0.0,10,0.5,0.5,0.3966570308685302,-0.001,-0.02275,-0.37525,0.10934844667559437,10,1,100,-0.05524730165551208,-10,-1,-100,15023.051330261515,0.0019456393215868792,0.010570818283774382,0.9999422344757929,22.292857199553943,0.021857122112297143,-34.422781658387954,13.629868308611302,-104.12721252441406,5356.25390625,True
1599559105.1125207,0.0,10,0.5,0.5,1.0792496334075927,-0.001,-0.02275,-0.37525,0.08991367582344525,10,1,100,-0.13288813310803235,-10,-1,-100,15023.823791949078,0.0029941533383260784,0.010331371051781816,0.9999421472355173,22.526831043130823,0.022581200328703026,-33.365083071707154,13.072844636607446,-106.75653839111328,5356.25390625,True
1599559105.1753545,0.0,10,0.5,0.5,0.9790191617965698,-0.001,-0.02275,-0.37525,0.07881569011125361,10,1,100,-0.13670926424028712,-10,-1,-100,15024.61480734474,0.0039738150434806005,0.010012502238992319,0.9999419776131585,22.696725314464878,0.023271103979129872,-32.18673456946775,12.515828050134198,-108.95598602294922,5356.25390625,True
1599559105.2476764,0.0,10,0.5,0.5,1.0925630710601806,-0.001,-0.02275,-0.37525,0.05582753249361201,10,1,100,-0.16342862252890278,-10,-1,-100,15025.584534292459,0.005098602358942894,0.009513760789135933,0.9999417446079709,22.83434223400125,0.024109264737569188,-30.46325154401691,11.773152120301123,-111.2911376953125,5356.25390625,True
1599559105.3085155,0.0,10,0.5,0.5,0.6794707359313965,-0.001,-0.02275,-0.37525,0.06008860806155388,10,1,100,-0.13009965987417876,-10,-1,-100,15026.23394925741,0.005808825920679623,0.009099777067050471,0.9999417241013364,22.83056656555882,0.02461511897008255,-29.01917355409765,11.216157940962793,-112.35716247558594,5356.25390625,True
1599559105.3409503,0.0,10,0.5,0.5,0.4995074251174927,-0.001,-0.02275,-0.37525,0.05476891993649858,10,1,100,-0.12321911902042103,-10,-1,-100,15026.924377607997,0.00638415314497975,0.008676524816795369,0.9999419785696193,22.73948126232595,0.025010546126126305,-27.469866277122794,10.659177095346998,-112.8134536743164,5356.25390625,True
1599559105.373863,0.0,10,0.5,0.5,0.3647211122512817,-0.001,-0.02275,-0.37525,0.06532051436397474,10,1,100,-0.1011737797121407,-10,-1,-100,15027.312072013854,0.006698898016439317,0.008389559417625352,0.9999423683683691,22.632483792203452,0.025212978210832786,-26.389299198225196,10.287864530771504,-112.78727722167969,5356.25390625,True
1599559105.4107645,0.0,10,0.5,0.5,0.41172832202911375,-0.001,-0.02275,-0.37525,0.09377442527410734,10,1,100,-0.07046225179089997,-10,-1,-100,15027.312072013854,0.006698898016439317,0.008389559417625352,0.9999423683683691,22.632483792203452,0.025212978210832786,-26.389299198225196,10.287864530771504,-112.78727722167969,5356.25390625,True
1599559105.4406972,0.0,10,0.5,0.5,0.3688662836074829,-0.001,-0.02275,-0.37525,0.06194127656627649,10,1,100,-0.10016229891281818,-10,-1,-100,15027.698789252318,0.006962349449322256,0.008102370694593176,0.999942937011544,22.495538620006137,0.025373232502612954,-25.2839753039027,9.916558764401797,-112.58182525634766,5356.25390625,True
1599559105.473941,0.0,10,0.5,0.5,0.4149969268798827,-0.001,-0.02275,-0.37525,0.07419680066222076,10,1,100,-0.08700343462374054,-10,-1,-100,15027.892148410785,0.007076599324350923,0.007955103334557978,0.9999433174300126,22.418853054639158,0.025440602930042258,-24.72653863961225,9.730908282705249,-112.43000793457031,5356.25390625,True
1599559105.5088158,0.0,10,0.5,0.5,0.16278175697326658,-0.001,-0.02275,-0.37525,0.022007032432873636,10,1,100,-0.11384540718653882,-10,-1,-100,15028.650931850192,0.007419464965710694,0.00734921119252253,0.9999454688304109,22.069709637317192,0.025635982095790964,-22.485608403480576,8.988320533396553,-111.55208587646484,5356.25390625,True
1599559105.5467482,0.0,10,0.5,0.5,0.5091135961532594,-0.001,-0.02275,-0.37525,0.08227408592729332,10,1,100,-0.08010622561497409,-10,-1,-100,15028.650931850192,0.007419464965710694,0.00734921119252253,0.9999454688304109,22.069709637317192,0.025635982095790964,-22.485608403480576,8.988320533396553,-111.55208587646484,5356.25390625,True
1599559105.575669,0.0,10,0.5,0.5,0.168773171043396,-0.001,-0.02275,-0.37525,0.02993396914821997,10,1,100,-0.09696585996780704,-10,-1,-100,15029.161667066975,0.007568711358347917,0.006876103003493917,0.9999477155410973,21.761894030314853,0.025698708640293427,-20.79929008547767,8.43139194248268,-110.6185302734375,5356.25390625,True
1599559105.6085808,0.0,10,0.5,0.5,0.23934127731323251,-0.001,-0.02275,-0.37525,0.03934963434878297,10,1,100,-0.08810396286764154,-10,-1,-100,15029.521037490573,0.007620559108639463,0.006534452878232567,0.9999496127327886,21.53462319199037,0.025697652012965644,-19.67638629340857,8.060110134158986,-109.86495971679688,5356.25390625,True
1599559105.6411555,0.0,10,0.5,0.5,0.36347058372497554,-0.001,-0.02275,-0.37525,0.05553889851568444,10,1,100,-0.08443934485442195,-10,-1,-100,15029.6558012194,0.007632086029920966,0.006373745445794902,0.9999505620938586,21.412293172671934,0.025681153828432446,-19.114309246069464,7.874469944828528,-109.4519271850586,5356.25390625,True
1599559105.6768417,0.0,10,0.5,0.5,0.5118516309738159,-0.001,-0.02275,-0.37525,0.07133703859732539,10,1,100,-0.08346897873719579,-10,-1,-100,15029.6558012194,0.007632086029920966,0.006373745445794902,0.9999505620938586,21.412293172671934,0.025681153828432446,-19.114309246069464,7.874469944828528,-109.4519271850586,5356.25390625,True
1599559105.7067642,0.0,10,0.5,0.5,0.17624845447540288,-0.001,-0.02275,-0.37525,0.03432353935972248,10,1,100,-0.08313273966053271,-10,-1,-100,15029.960482925177,0.007627894826601355,0.00603935252488124,0.999952669600714,21.155133860527982,0.025620912353605106,-17.994894072543364,7.5031900002694165,-108.58028411865234,5356.25390625,True
1599559105.7409506,0.0,10,0.5,0.5,0.13496173820495605,-0.001,-0.02275,-0.37525,0.02902186297896535,10,1,100,-0.07919799429240222,-10,-1,-100,15030.263211190351,0.007587469686773102,0.005689298454128067,0.9999550300822794,20.8810350942938,0.025522977947918572,-16.88333219645163,7.131909828627117,-107.62666320800781,5356.25390625,True
1599559105.7748835,0.0,10,0.5,0.5,-0.13779063491821286,-0.001,-0.02275,-0.37525,0.00455109300320862,10,1,100,-0.06951718377780168,-10,-1,-100,15030.633317401516,0.0074619043989143825,0.005151060718176029,0.9999588924331937,20.42647353014132,0.025287757148438332,-15.226712860923662,6.574985829285501,-105.98185729980469,5356.25390625,True
1599559105.809887,0.0,10,0.5,0.5,0.4644078550338745,-0.001,-0.02275,-0.37525,0.05807973560077075,10,1,100,-0.08212366805863286,-10,-1,-100,15030.633317401516,0.0074619043989143825,0.005151060718176029,0.9999588924331937,20.42647353014132,0.025287757148438332,-15.226712860923662,6.574985829285501,-105.98185729980469,5356.25390625,True
1599559105.9716473,0.0,10,0.5,0.5,0.0038542753219604764,-0.001,-0.02275,-0.37525,0.017851012478727467,10,1,100,-0.068735822065444,-10,-1,-100,15030.935068350402,0.007339846430726699,0.004787894183081437,0.9999616006245765,20.119220332279895,0.02510024801921734,-14.151110294611023,6.203698079120828,-104.79678344726562,5356.25390625,True
1599559105.997572,0.0,10,0.5,0.5,-0.24207118377685538,-0.001,-0.02275,-0.37525,-0.00711482759230235,10,1,100,-0.05469906490552569,-10,-1,-100,15031.236815390293,0.0071013501386795325,0.004233109075085575,0.9999658252229254,19.62433878150619,0.024735748392061063,-12.564269177613212,5.646753893337993,-103.00208282470703,5356.25390625,True
1599559106.055576,0.0,10,0.5,0.5,-0.06845780830383297,-0.001,-0.02275,-0.37525,0.006560627736982988,10,1,100,-0.05710886370495043,-10,-1,-100,15031.470206458354,0.006906731784837816,0.0038559141181896,0.9999687140017759,19.281327516395507,0.02444795883266473,-11.533156730596836,5.275446163990858,-101.72528076171875,5356.25390625,True
1599559106.097465,0.0,10,0.5,0.5,-0.0941204528808594,-0.001,-0.02275,-0.37525,0.002919304816107769,10,1,100,-0.05276461080189555,-10,-1,-100,15031.70359723072,0.006690914600020767,0.003482652302535579,0.9999715509927045,18.934583143229847,0.02413235323858775,-10.528765019594626,4.904126741537125,-100.43743896484375,5356.25390625,True
1599559106.14035,0.0,10,0.5,0.5,0.13199004478454593,-0.001,-0.02275,-0.37525,0.01936788236803172,10,1,100,-0.06144216473206328,-10,-1,-100,15031.755350693362,0.006574449144560081,0.0032956302665727755,0.9999729573541436,18.756529973395537,0.023960054146600587,-10.034983021254073,4.718462078881583,-99.81098175048828,5356.25390625,True
1599559106.1744206,0.0,10,0.5,0.5,-0.5713113121032715,-0.001,-0.02275,-0.37525,-0.045320764287413565,10,1,100,-0.01564791355108642,-10,-1,-100,15032.095179894939,0.006053221571482724,0.0025403299144472896,0.9999784523841163,18.025689232507894,0.02319377630637689,-8.12623397897183,3.9757660861968263,-97.375244140625,5356.25390625,True
1599559106.2103217,0.0,10,0.5,0.5,-0.13205435695648188,-0.001,-0.02275,-0.37525,-0.011899196732076539,10,1,100,-0.035609839984927755,-10,-1,-100,15032.260212015826,0.005762285713045901,0.0021610105862284097,0.9999810628689962,17.640650847059938,0.02275436625385676,-7.209889473076802,3.6043910353262874,-96.18646240234375,5356.25390625,True
1599559106.2412407,0.0,10,0.5,0.5,-0.1334626083374023,-0.001,-0.02275,-0.37525,-0.013492088456122472,10,1,100,-0.032658009561901805,-10,-1,-100,15032.365674666711,0.005472659755269967,0.0018052197648459674,0.9999833954505463,17.259680254875217,0.02230046644669376,-6.327390320982562,3.2329939224388484,-95.07203674316406,5356.25390625,True
1599559106.2748253,0.0,10,0.5,0.5,0.05964245796203613,-0.001,-0.02275,-0.37525,0.0013449468706733178,10,1,100,-0.04419071517418659,-10,-1,-100,15032.474070614437,0.0053161287627958,0.001620186683550329,0.9999845567657972,17.087307025443327,0.022090546982396462,-5.904406246545997,3.047286958079929,-94.54972076416016,5356.25390625,True
1599559106.307791,0.0,10,0.5,0.5,0.22963341846466062,-0.001,-0.02275,-0.37525,0.01949516759677459,10,1,100,-0.059629236857991375,-10,-1,-100,15032.474070614437,0.0053161287627958,0.001620186683550329,0.9999845567657972,17.087307025443327,0.022090546982396462,-5.904406246545997,3.047286958079929,-94.54972076416016,5356.25390625,True
1599559106.3434021,0.0,10,0.5,0.5,-0.550459241104126,-0.001,-0.02275,-0.37525,-0.06018103956984534,10,1,100,0.012181580880860646,-10,-1,-100,15032.675231742556,0.004665253852111799,0.0008990674129761711,0.9999887134784482,16.418171478393475,0.021246122859625044,-4.2902431323689445,2.304409078401888,-92.5455093383789,5356.25390625,True
1599559106.3749714,0.0,10,0.5,0.5,0.1737494478225708,-0.001,-0.02275,-0.37525,0.011542004810559912,10,1,100,-0.05263845092967801,-10,-1,-100,15032.675231742556,0.004665253852111799,0.0008990674129761711,0.9999887134784482,16.418171478393475,0.021246122859625044,-4.2902431323689445,2.304409078401888,-92.5455093383789,5356.25390625,True
1599559106.4077427,0.0,10,0.5,0.5,-0.04153716449737549,-0.001,-0.02275,-0.37525,-0.008875431991444688,10,1,100,-0.03321789226576119,-10,-1,-100,15032.72991597245,0.004490917951791253,0.0007164852981053196,0.9999896590989168,16.254231054355515,0.021033824180645474,-3.9050906432871653,2.1186790397902575,-92.03654479980469,5356.25390625,True
1599559106.44154,0.0,10,0.5,0.5,-0.6424799463272095,-0.001,-0.02275,-0.37525,-0.06928492431832517,10,1,100,0.02854239386062895,-10,-1,-100,15032.858813924482,0.003773169817471798,4.1783805420723515e-06,0.9999928815606988,15.604729665253076,0.020181489748813473,-2.4344328624581335,1.375732421173733,-89.99032592773438,5356.25390625,True
1599559106.4764464,0.0,10,0.5,0.5,0.10159650325775146,-0.001,-0.02275,-0.37525,0.0015979200458002066,10,1,100,-0.04294064509306167,-10,-1,-100,15032.858813924482,0.003773169817471798,4.1783805420723515e-06,0.9999928815606988,15.604729665253076,0.020181489748813473,-2.4344328624581335,1.375732421173733,-89.99032592773438,5356.25390625,True
1599559106.5073998,0.0,10,0.5,0.5,-0.48993154678344725,-0.001,-0.02275,-0.37525,-0.055361059778511225,10,1,100,0.018542738087102405,-10,-1,-100,15032.86759873305,0.0032167765879494775,-0.0005106382979643674,0.9999946957843885,15.547871320989827,0.020093447475805663,-1.4431399903534161,0.8185087332024912,-88.4775390625,5356.25390625,True
1599559106.5407374,0.0,10,0.5,0.5,-0.12276022109985349,-0.001,-0.02275,-0.37525,-0.023928482198723757,10,1,100,-0.014862663789557258,-10,-1,-100,15032.905682612327,0.003017228619065668,-0.0006901291475063249,0.999995210015138,15.609352512084207,0.020168268616683537,-1.120070585811941,0.6327670868431889,-87.99844360351562,5356.25390625,True
1599559106.5736809,0.0,10,0.5,0.5,-0.3159952102661132,-0.001,-0.02275,-0.37525,-0.0434630879108483,10,1,100,0.00824588758798489,-10,-1,-100,15032.9427899,0.002628239141279076,-0.0010282980265331142,0.9999960174731621,15.732128130944396,0.020319125126764197,-0.4661478635818167,0.2612849749905122,-87.05654907226562,5356.25390625,True
1599559106.6096268,0.0,10,0.5,0.5,0.019215478134155275,-0.001,-0.02275,-0.37525,-0.009929551787307277,10,1,100,-0.030368618129275188,-10,-1,-100,15032.9427899,0.002628239141279076,-0.0010282980265331142,0.9999960174731621,15.732128130944396,0.020319125126764197,-0.4661478635818167,0.2612849749905122,-87.05654907226562,5356.25390625,True
1599559106.6413658,0.0,10,0.5,0.5,-0.3176118371963501,-0.001,-0.02275,-0.37525,-0.046133012138306805,10,1,100,0.012969810431931544,-10,-1,-100,15032.911538046785,0.0022366969631058484,-0.0013550126799875795,0.9999965805578199,15.8400952121166,0.0204533150285073,0.19794544592504218,-0.11019460098754497,-86.20663452148438,5356.25390625,True
1599559106.6747217,0.0,10,0.5,0.5,-0.30877112274169916,-0.001,-0.02275,-0.37525,-0.04816382916184875,10,1,100,0.017073052199166838,-10,-1,-100,15032.919349937118,0.0018462468139732204,-0.0016677832475569857,0.9999969049310808,16.04719403810732,0.020716587742016034,0.8765615315988448,-0.4816702055624311,-85.43292236328125,5356.25390625,True
1599559106.7077713,0.0,10,0.5,0.5,-0.44401599407196046,-0.001,-0.02275,-0.37525,-0.06773716024855586,10,1,100,0.044422341752087244,-10,-1,-100,15032.856850503013,0.0012452249615880445,-0.0021277260000805713,0.9999969610938143,16.356704588408782,0.02110994267395979,1.9270940660832911,-1.0388754276868009,-84.34481811523438,5356.25390625,True
1599559106.7436733,0.0,10,0.5,0.5,-0.054361447525024406,-0.001,-0.02275,-0.37525,-0.02204556433750297,10,1,100,-0.015337840597377972,-10,-1,-100,15032.856850503013,0.0012452249615880445,-0.0021277260000805713,0.9999969610938143,16.356704588408782,0.02110994267395979,1.9270940660832911,-1.0388754276868009,-84.34481811523438,5356.25390625,True
1599559106.7748296,0.0,10,0.5,0.5,-0.42429596252441404,-0.001,-0.02275,-0.37525,-0.06814892116836571,10,1,100,0.04949185202056039,-10,-1,-100,15032.79532763292,0.0006588147495978805,-0.0025442617791809727,0.9999965463415984,16.62978122824013,0.02144999421082836,3.0101983247057924,-1.5960763374917484,-83.40811157226562,5356.25390625,True
1599559106.8076885,0.0,10,0.5,0.5,-0.277538330078125,-0.001,-0.02275,-0.37525,-0.05592687279265211,10,1,100,0.03452708488124409,-10,-1,-100,15032.691813078127,0.00026458912638958307,-0.002809504374802375,0.9999960183309542,16.785210036616068,0.021634722690046,3.745542322752607,-1.967545512876068,-82.90374755859375,5356.25390625,True
1599559106.8416889,0.0,10,0.5,0.5,-0.10439769973754882,-0.001,-0.02275,-0.37525,-0.029683981506046345,10,1,100,-0.004544619370477423,-10,-1,-100,15032.691813078127,0.00026458912638958307,-0.002809504374802375,0.9999960183309542,16.785210036616068,0.021634722690046,3.745542322752607,-1.967545512876068,-82.90374755859375,5356.25390625,True
1599559106.8776257,0.0,10,0.5,0.5,-0.33969572067260745,-0.001,-0.02275,-0.37525,-0.06762992221228364,10,1,100,0.05725496982727587,-10,-1,-100,15032.559003761504,-0.0002945415140794833,-0.003152377593880134,0.9999949878678402,16.973516720581884,0.02183661899409804,4.860362191713618,-2.524759981486708,-82.31207275390625,5356.25390625,True
1599559106.9086623,0.0,10,0.5,0.5,-0.2412490966796875,-0.001,-0.02275,-0.37525,-0.05716039097811595,10,1,100,0.042879156579516714,-10,-1,-100,15032.441818919615,-0.000669142184859783,-0.003366664555961687,0.9999941088918993,17.07054015399355,0.02192028433180066,5.607504308404751,-2.8962475197620066,-82.01800537109375,5356.25390625,True
1599559106.9415755,0.0,10,0.5,0.5,-0.2260340721130371,-0.001,-0.02275,-0.37525,-0.0556401909953647,10,1,100,0.04406621950502398,-10,-1,-100,15032.325610459433,-0.0010174821109590862,-0.003545525097529516,0.9999931969678277,17.15332861238213,0.02197279934448494,6.3576159325112425,-3.267746619786836,-81.79562377929688,5356.25390625,True
1599559106.9745367,0.0,10,0.5,0.5,-0.15455398483276367,-0.001,-0.02275,-0.37525,-0.038005859545681434,10,1,100,0.009596799020317476,-10,-1,-100,15032.325610459433,-0.0010174821109590862,-0.003545525097529516,0.9999931969678277,17.15332861238213,0.02197279934448494,6.3576159325112425,-3.267746619786836,-81.79562377929688,5356.25390625,True
1599559107.0115,0.0,10,0.5,0.5,-0.23774237747192384,-0.001,-0.02275,-0.37525,-0.06471213669247898,10,1,100,0.06666107858041626,-10,-1,-100,15032.122488499619,-0.0015332899441653797,-0.0037863180603026373,0.9999916563739385,17.26599568237654,0.02201208522780988,7.491017097991001,-3.8250192032551107,-81.6011962890625,5356.25390625,True
1599559107.0414202,0.0,10,0.5,0.5,-0.17350063858032228,-0.001,-0.02275,-0.37525,-0.04084469389644141,10,1,100,0.015418248935600766,-10,-1,-100,15032.122488499619,-0.0015332899441653797,-0.0037863180603026373,0.9999916563739385,17.26599568237654,0.02201208522780988,7.491017097991001,-3.8250192032551107,-81.6011962890625,5356.25390625,True
1599559107.075329,0.0,10,0.5,0.5,-0.20558889770507813,-0.001,-0.02275,-0.37525,-0.06262514266269206,10,1,100,0.0703527464418055,-10,-1,-100,15031.851986172958,-0.002030168544307465,-0.003982814329031987,0.9999900077529287,17.375075805976113,0.02201963856848755,8.637074258077474,-4.382319287328692,-81.53250122070312,5356.25390625,True
1599559107.1092412,0.0,10,0.5,0.5,-0.17663290710449217,-0.001,-0.02275,-0.37525,-0.05479649685121475,10,1,100,0.05598752997786328,-10,-1,-100,15031.663512389408,-0.0023483058552136176,-0.004088591349291646,0.9999888843784158,17.44704479816869,0.022011505594228438,9.408482538555218,-4.753864920683448,-81.55795288085938,5356.25390625,True
1599559107.1441739,0.0,10,0.5,0.5,-0.19039275360107422,-0.001,-0.02275,-0.37525,-0.04437322778225991,10,1,100,0.024474510947729185,-10,-1,-100,15031.663512389408,-0.0023483058552136176,-0.004088591349291646,0.9999888843784158,17.44704479816869,0.022011505594228438,9.408482538555218,-4.753864920683448,-81.55795288085938,5356.25390625,True
1599559107.1750612,0.0,10,0.5,0.5,-0.16325614852905274,-0.001,-0.02275,-0.37525,-0.053048739166048464,10,1,100,0.056997951545358735,-10,-1,-100,15031.476991861127,-0.002641598137936065,-0.00416629682825837,0.9999878318909767,17.51378608919776,0.021988169965834515,10.1830144509834,-5.1254191223433665,-81.63821411132812,5356.25390625,True
1599559107.2089708,0.0,10,0.5,0.5,-0.17367918243408204,-0.001,-0.02275,-0.37525,-0.04912934345060274,10,1,100,0.0439205259235545,-10,-1,-100,15031.33636733808,-0.002786699809972501,-0.004200073854948198,0.9999872967612048,17.545291575094407,0.021971166185395085,10.571304864800613,-5.3111994006687215,-81.69821166992188,5356.25390625,True
1599559107.2415757,0.0,10,0.5,0.5,-0.13830700149536132,-0.001,-0.02275,-0.37525,-0.051621221052312975,10,1,100,0.06086898366636868,-10,-1,-100,15031.13422162598,-0.0030704217110349417,-0.004252481224444436,0.9999862443623673,17.604956614597143,0.021927545058036013,11.349792466395282,-5.6827655856984665,-81.85577392578125,5356.25390625,True
1599559107.277883,0.0,10,0.5,0.5,-0.07534323806762698,-0.001,-0.02275,-0.37525,-0.05024003720438365,10,1,100,0.07540074865347532,-10,-1,-100,15030.735788784921,-0.003458274685041607,-0.004286762782943038,0.999984831885487,17.686029122557457,0.021840047644547948,12.521202573256119,-6.240127794946286,-82.18124389648438,5356.25390625,True
1599559107.3097575,0.0,10,0.5,0.5,-0.09338471450805665,-0.001,-0.02275,-0.37525,-0.04676166470341067,10,1,100,0.06340997146729198,-10,-1,-100,15030.48090770864,-0.0036996423301059247,-0.004285632415491637,0.9999839728722798,17.7344825248561,0.021768818280328943,13.303791462934385,-6.611710077042337,-82.45556640625,5356.25390625,True
1599559107.3427622,0.0,10,0.5,0.5,-0.19482286682128905,-0.001,-0.02275,-0.37525,-0.046948712180347,10,1,100,0.039541422982774896,-10,-1,-100,15030.48090770864,-0.0036996423301059247,-0.004285632415491637,0.9999839728722798,17.7344825248561,0.021768818280328943,13.303791462934385,-6.611710077042337,-82.45556640625,5356.25390625,True
1599559107.3766737,0.0,10,0.5,0.5,-0.01724685058593753,-0.001,-0.02275,-0.37525,-0.04258904056553561,10,1,100,0.07520299377223179,-10,-1,-100,15030.066847861046,-0.004021869016931951,-0.004245545115034089,0.9999828998119353,17.8010554978209,0.021648686076181735,14.48060667328042,-7.169092927560138,-82.92236328125,5356.25390625,True
1599559107.4135747,0.0,10,0.5,0.5,-0.18940672302246092,-0.001,-0.02275,-0.37525,-0.04664369331676356,10,1,100,0.04322918299690587,-10,-1,-100,15030.066847861046,-0.004021869016931951,-0.004245545115034089,0.9999828998119353,17.8010554978209,0.021648686076181735,14.48060667328042,-7.169092927560138,-82.92236328125,5356.25390625,True
1599559107.441533,0.0,10,0.5,0.5,0.08318594589233397,-0.001,-0.02275,-0.37525,-0.033611542460133,10,1,100,0.08372142555172461,-10,-1,-100,15029.483842868125,-0.004388169676091553,-0.004126832170168355,0.9999818564469724,17.881797213557036,0.02147429416075338,16.056065186688024,-7.912282765480061,-83.63845825195312,5356.25390625,True
1599559107.4764993,0.0,10,0.5,0.5,-0.18079554214477536,-0.001,-0.02275,-0.37525,-0.0454866610287941,10,1,100,0.04729534601785214,-10,-1,-100,15029.483842868125,-0.004388169676091553,-0.004126832170168355,0.9999818564469724,17.881797213557036,0.02147429416075338,16.056065186688024,-7.912282765480061,-83.63845825195312,5356.25390625,True
1599559107.5085866,0.0,10,0.5,0.5,-0.10273681564331055,-0.001,-0.02275,-0.37525,-0.040940232909921756,10,1,100,0.05679862591384674,-10,-1,-100,15029.331499932916,-0.004472708708036161,-0.004085466241068718,0.999981651752874,17.90083528423721,0.021429565474140377,16.451093238161803,-8.098081994511519,-83.83334350585938,5356.25390625,True
1599559107.5445633,0.0,10,0.5,0.5,-0.015277770233154297,-0.001,-0.02275,-0.37525,-0.03469628659363287,10,1,100,0.06434959043563343,-10,-1,-100,15029.003375871573,-0.004616542859483774,-0.003991171185000231,0.999981378868926,17.95627106296287,0.02136220498570137,17.260356678933164,-8.469681506227905,-84.24688720703125,5356.25390625,True
1599559107.6100073,0.0,10,0.5,0.5,0.001199131774902329,-0.001,-0.02275,-0.37525,-0.03161266315514068,10,1,100,0.06491537028706934,-10,-1,-100,15028.606891523581,-0.004750781138495102,-0.0038776053779243577,0.9999811969507763,18.009231241186683,0.021294538291949678,18.07196976674181,-8.841282384250084,-84.68771362304688,5356.25390625,True
1599559107.660874,0.0,10,0.5,0.5,0.11360439529418942,-0.001,-0.02275,-0.37525,-0.02124678815724483,10,1,100,0.06901046979645081,-10,-1,-100,15028.054156931932,-0.004908516515474813,-0.0036804693040986196,0.9999811801285656,18.07678781693135,0.021187072490488304,19.285396560346996,-9.398684690837518,-85.40899658203125,5356.25390625,True
1599559107.6957781,0.0,10,0.5,0.5,-0.05686851501464843,-0.001,-0.02275,-0.37525,-0.032899523416982004,10,1,100,0.05810711321191908,-10,-1,-100,15027.884235250414,-0.004951472487569323,-0.003607739824326327,0.9999812333906895,18.097388178732942,0.0211518660384094,19.689769134998112,-9.584485379964477,-85.65576171875,5356.25390625,True
1599559107.7276921,0.0,10,0.5,0.5,0.13099873657226557,-0.001,-0.02275,-0.37525,-0.014297611847839405,10,1,100,0.06460234873077592,-10,-1,-100,15027.276812160155,-0.0050484329395017,-0.0033731300944421874,0.999981567489232,18.15957591747771,0.02105711316727133,20.90881028913065,-10.14188639557152,-86.3818359375,5356.25390625,True
1599559107.7765615,0.0,10,0.5,0.5,0.039406692504882795,-0.001,-0.02275,-0.37525,-0.01865044970834436,10,1,100,0.0593777232046252,-10,-1,-100,15026.864701825427,-0.005087856035921222,-0.0032002493226621505,0.9999819358994595,18.206458542224844,0.02100953715485154,21.73257689039063,-10.51348493366018,-86.83880615234375,5356.25390625,True
1599559107.8105052,0.0,10,0.5,0.5,-0.03653946380615235,-0.001,-0.02275,-0.37525,-0.025819215663826466,10,1,100,0.05688935414355004,-10,-1,-100,15026.641068814672,-0.005100104598457386,-0.003109205853177747,0.9999821607269038,18.230689883914398,0.020989593994007148,22.14697378484814,-10.699283486949977,-87.06903076171875,5356.25390625,True
1599559107.8434145,0.0,10,0.5,0.5,-0.02857494201660156,-0.001,-0.02275,-0.37525,-0.02498038204513405,10,1,100,0.05633670862200241,-10,-1,-100,15026.414505067049,-0.005105235390947534,-0.003019846338260046,0.999982408395116,18.254381994294754,0.020971135609438127,22.561773988394915,-10.885081273344618,-87.29473876953125,5356.25390625,True
1599559107.8794076,0.0,10,0.5,0.5,0.05766911392211911,-0.001,-0.02275,-0.37525,-0.013112298081445813,10,1,100,0.05551687162532813,-10,-1,-100,15026.018995750812,-0.005101794806228034,-0.002831725093966705,0.9999829763664715,18.305029173757514,0.02094438754006875,23.398690055155583,-11.25667464817338,-87.72695922851562,5356.25390625,True
1599559107.9103367,0.0,10,0.5,0.5,0.06592146530151366,-0.001,-0.02275,-0.37525,-0.009820104551418178,10,1,100,0.05347502563657599,-10,-1,-100,15025.552197052864,-0.00507945601555789,-0.0026319541189508723,0.999983635838158,18.358678561000335,0.02092979604611891,24.244044101741963,-11.628264513201831,-88.15524291992188,5356.25390625,True
1599559107.9435234,0.0,10,0.5,0.5,-0.0034931846618652257,-0.001,-0.02275,-0.37525,-0.018344654455376273,10,1,100,0.05371249845476758,-10,-1,-100,15025.313915538252,-0.005060755279379935,-0.0025291614245380235,0.9999839959211801,18.384999787642155,0.020925390503612848,24.667820216688423,-11.814057997682037,-88.37176513671875,5356.25390625,True
1599559107.9765048,0.0,10,0.5,0.5,0.24732630691528318,-0.001,-0.02275,-0.37525,0.018016257550455213,10,1,100,0.04224406398564773,-10,-1,-100,15024.325629869243,-0.0049390922854807996,-0.002106488874801022,0.9999855839320966,18.48746173808087,0.020929827628292,26.37053267906467,-12.55722098933682,-89.22940063476562,5356.25390625,True
1599559108.0117683,0.0,10,0.5,0.5,0.013967559051513659,-0.001,-0.02275,-0.37525,-0.011866364465984696,10,1,100,0.04980348166771339,-10,-1,-100,15024.028753294842,-0.004897040350730377,-0.001995511408374223,0.9999860183672683,18.514115624107248,0.02093866822547728,26.800550911522148,-12.743008662744504,-89.43707275390625,5356.25390625,True
1599559108.0424592,0.0,10,0.5,0.5,-0.05479753036499023,-0.001,-0.02275,-0.37525,-0.02279561531909216,10,1,100,0.05400752752628119,-10,-1,-100,15024.028753294842,-0.004897040350730377,-0.001995511408374223,0.9999860183672683,18.514115624107248,0.02093866822547728,26.800550911522148,-12.743008662744504,-89.43707275390625,5356.25390625,True
1599559108.0753927,0.0,10,0.5,0.5,0.1058412757873535,-0.001,-0.02275,-0.37525,0.0012491983580841907,10,1,100,0.04353378001159715,-10,-1,-100,15023.548282163567,-0.004801873947994012,-0.0017783878553234854,0.9999868895856704,18.567591454052817,0.02096471096522633,27.66437922503933,-13.114580011672954,-89.84115600585938,5356.25390625,True
1599559108.1090415,0.0,10,0.5,0.5,0.10564429054260252,-0.001,-0.02275,-0.37525,0.004724843200145549,10,1,100,0.0404901916642349,-10,-1,-100,15023.029725234024,-0.004687914195977212,-0.0015508558014760013,0.9999878090790778,18.702238420507467,0.02109303133846167,28.657324780605386,-13.486145093336466,-90.22272491455078,5356.25390625,True
1599559108.1460094,0.0,10,0.5,0.5,0.04194018840789794,-0.001,-0.02275,-0.37525,-0.005058422027482176,10,1,100,0.044792510256566206,-10,-1,-100,15022.731873285025,-0.004623789992110355,-0.0014344467032487097,0.9999882813957193,18.80834631153943,0.021204817655300235,29.218407087800898,-13.671924713845268,-90.41350555419922,5356.25390625,True
1599559108.1769915,0.0,10,0.5,0.5,0.25880825271606445,-0.001,-0.02275,-0.37525,0.03374196066386344,10,1,100,0.01930932727665422,-10,-1,-100,15021.591243232368,-0.004334262974783419,-0.00097741200689342,0.9999901293664025,19.229328453906366,0.02167482746751239,31.50260505126403,-14.415022014712711,-91.15995025634766,5356.25390625,True
1599559108.2118983,0.0,10,0.5,0.5,0.052791985130310054,-0.001,-0.02275,-0.37525,0.001062906427609707,10,1,100,0.039069802973617375,-10,-1,-100,15021.296319349785,-0.0042513981675642,-0.000860864989019433,0.9999905922182925,19.331437015947998,0.02179543942335511,32.079744225050845,-14.600790846889838,-91.33348846435547,5356.25390625,True
1599559108.244808,0.0,10,0.5,0.5,0.11933652839660644,-0.001,-0.02275,-0.37525,0.01433587962253664,10,1,100,0.028577467874651853,-10,-1,-100,15020.688895354746,-0.0040814547479549185,-0.0006360414529118793,0.9999914685528125,19.532247953409207,0.02204059314715727,33.24138995657324,-14.972321772764484,-91.66162109375,5356.25390625,True
1599559108.2797182,0.0,10,0.5,0.5,0.004181769561767578,-0.001,-0.02275,-0.37525,-0.007946882721614834,10,1,100,0.04547200970881975,-10,-1,-100,15020.688895354746,-0.0040814547479549185,-0.0006360414529118793,0.9999914685528125,19.532247953409207,0.02204059314715727,33.24138995657324,-14.972321772764484,-91.66162109375,5356.25390625,True
1599559108.3096373,0.0,10,0.5,0.5,0.17570432548522946,-0.001,-0.02275,-0.37525,0.029669450851644727,10,1,100,0.014301409814768757,-10,-1,-100,15019.77287688246,-0.0037989759312193868,-0.0002957958022200888,0.9999927401170057,19.819750969709677,0.022411032320388945,34.99203504319938,-15.529600305939951,-92.09760284423828,5356.25390625,True
1599559108.3435466,0.0,10,0.5,0.5,0.06806411266326903,-0.001,-0.02275,-0.37525,0.007831890341760826,10,1,100,0.03163690954449483,-10,-1,-100,15019.477953342954,-0.0037008089284157417,-0.0001866509362924793,0.9999931345637847,19.91260077174257,0.02253571156999291,35.57850505280862,-15.71535502347454,-92.22899627685547,5356.25390625,True
1599559108.3774557,0.0,10,0.5,0.5,0.0732926975250244,-0.001,-0.02275,-0.37525,0.009637723597317592,10,1,100,0.02980232883000614,-10,-1,-100,15019.165453025955,-0.0035959756752100896,-7.265608355511979e-05,0.9999935318190998,20.003730049946814,0.022660600834897175,36.1658670674734,-15.901107383822971,-92.3570556640625,5356.25390625,True
1599559108.412726,0.0,10,0.5,0.5,0.11788621253967285,-0.001,-0.02275,-0.37525,0.021306426342951556,10,1,100,0.0178459053168561,-10,-1,-100,15018.50627166743,-0.0033931607446086058,0.00013530666632568023,0.9999942340595107,20.18232402006053,0.02291251951356959,37.34560223362254,-16.27260437363461,-92.58563995361328,5356.25390625,True
1599559108.4426467,0.0,10,0.5,0.5,0.07665553684234619,-0.001,-0.02275,-0.37525,0.01247713709806418,10,1,100,0.025953484791961287,-10,-1,-100,15018.195723293931,-0.003283769451293109,0.00024235772351684123,0.999994579045769,20.26844563994024,0.023037772745455876,37.93530908664225,-16.458349155043525,-92.68743896484375,5356.25390625,True
1599559108.4757302,0.0,10,0.5,0.5,0.14605366821289062,-0.001,-0.02275,-0.37525,0.03580376292147035,10,1,100,2.228034468742396e-05,-10,-1,-100,15017.155682377052,-0.0029498610939807895,0.0005501069070625047,0.9999954978408239,20.518473442236523,0.02341456385491204,39.71063152355128,-17.015568521634563,-92.95851135253906,5356.25390625,True
1599559108.509633,0.0,10,0.5,0.5,0.10520968341827391,-0.001,-0.02275,-0.37525,0.02690333535711643,10,1,100,0.00783049140075651,-10,-1,-100,15016.480876112008,-0.0027188135322957904,0.0007471617746005166,0.9999960248932287,20.678025654369534,0.02366561283936934,40.898106354046874,-17.38703525905514,-93.10491943359375,5356.25390625,True
1599559108.5466392,0.0,10,0.5,0.5,0.07893960304260253,-0.001,-0.02275,-0.37525,0.018023090999842437,10,1,100,0.017690637996419237,-10,-1,-100,15016.11466391629,-0.0025998765811268048,0.0008440052747675876,0.9999962641414513,20.75559805859931,0.02379073579410833,41.49262559569961,-17.572764845699165,-93.16935729980469,5356.25390625,True
1599559108.5870676,0.0,10,0.5,0.5,0.08009192028045653,-0.001,-0.02275,-0.37525,0.018500612717066676,10,1,100,0.0168315512815571,-10,-1,-100,15015.733804708812,-0.0024854435840984688,0.0009348360448362479,0.9999964743196645,20.83196937057334,0.023915789828584357,42.08808379683044,-17.758491781779973,-93.2255859375,5356.25390625,True
1599559108.6110036,0.0,10,0.5,0.5,0.12044072132110595,-0.001,-0.02275,-0.37525,0.048603400284035994,10,1,100,-0.024762889282148554,-10,-1,-100,15014.31192801951,-0.0020047332281879814,0.0012896431068731618,0.9999971589286345,21.121510641102137,0.024408422626676005,44.469524234050844,-18.50137414118769,-93.37944793701172,5356.25390625,True
1599559108.643659,0.0,10,0.5,0.5,0.07552802047729493,-0.001,-0.02275,-0.37525,0.022501008382996478,10,1,100,0.009624322404893405,-10,-1,-100,15013.948645892786,-0.0018822227577149806,0.0013731498872974653,0.9999972858447553,21.190542446262416,0.024529910278103674,45.065629637119926,-18.687088427335496,-93.40314483642578,5356.25390625,True
1599559108.6806514,0.0,10,0.5,0.5,0.08062881622314452,-0.001,-0.02275,-0.37525,0.03142493528362558,10,1,100,-0.004430005130034723,-10,-1,-100,15013.186926252209,-0.0016448254916706373,0.0015286745270620807,0.999997478848468,21.32513335019559,0.024770870526037277,46.259341592109905,-19.058509488004056,-93.43244171142578,5356.25390625,True
1599559108.7105672,0.0,10,0.5,0.5,0.072373002243042,-0.001,-0.02275,-0.37525,0.0160440038534995,10,1,100,0.019104123130725098,-10,-1,-100,15013.186926252209,-0.0016448254916706373,0.0015286745270620807,0.999997478848468,21.32513335019559,0.024770870526037277,46.259341592109905,-19.058509488004056,-93.43244171142578,5356.25390625,True
1599559108.7445865,0.0,10,0.5,0.5,0.07433438091278076,-0.001,-0.02275,-0.37525,0.040783850233662225,10,1,100,-0.02141435732685207,-10,-1,-100,15012.0072393351,-0.0012782494422231535,0.0017521264663266352,0.9999976480628389,21.51751912466459,0.025124849876391703,48.05074485856038,-19.615622295215122,-93.43115234375,5356.25390625,True
1599559108.7766254,0.0,10,0.5,0.5,0.0767417568206787,-0.001,-0.02275,-0.37525,0.018600338287206867,10,1,100,0.015031756487657769,-10,-1,-100,15012.0072393351,-0.0012782494422231535,0.0017521264663266352,0.9999976480628389,21.51751912466459,0.025124849876391703,48.05074485856038,-19.615622295215122,-93.43115234375,5356.25390625,True
1599559108.8125298,0.0,10,0.5,0.5,0.06788726844787597,-0.001,-0.02275,-0.37525,0.033821553702332266,10,1,100,-0.011948452987253477,-10,-1,-100,15011.205481367884,-0.0010347980106412966,0.0018891286348797663,0.9999976801903483,21.640213838787446,0.025355616954712046,49.246399877201526,-19.98701885810026,-93.40312194824219,5356.25390625,True
1599559108.8424501,0.0,10,0.5,0.5,0.07126477394104004,-0.001,-0.02275,-0.37525,0.02694866159166185,10,1,100,-0.0003709863639256069,-10,-1,-100,15010.825597699499,-0.0009204691904001706,0.0019499779309875933,0.9999976751585667,21.699912214815736,0.02546917355463629,49.84447888456163,-20.172713419458237,-93.38145446777344,5356.25390625,True
1599559108.8998094,0.0,10,0.5,0.5,0.04405075912475587,-0.001,-0.02275,-0.37525,0.04020454300678527,10,1,100,-0.027729213299298373,-10,-1,-100,15009.575598864816,-0.0005694576038065723,0.002124710016535479,0.999997580659765,21.873232897820817,0.02580241369022567,51.64083239185123,-20.72978258296558,-93.28584289550781,5356.25390625,True
1599559108.9586542,0.0,10,0.5,0.5,0.02784647979736328,-0.001,-0.02275,-0.37525,0.03943846276350023,10,1,100,-0.030369391363270562,-10,-1,-100,15008.30997357727,-0.00022820037811929972,0.00227542872414754,0.9999973851709356,22.037988811026036,0.026122645719377797,53.43933351804338,-21.28683017685715,-93.14671325683594,5356.25390625,True
1599559108.9905658,0.0,10,0.5,0.5,0.01427454071044923,-0.001,-0.02275,-0.37525,0.037791606002918615,10,1,100,-0.031195667964252546,-10,-1,-100,15006.987709635054,8.749302959989422e-05,0.0023962555853538434,0.9999971251479371,22.21571965173778,0.02645308987032777,55.29197906510033,-21.843855614630403,-92.97235870361328,5356.25390625,True
1599559109.044511,0.0,10,0.5,0.5,0.05482874984741211,-0.001,-0.02275,-0.37525,0.029642874998593173,10,1,100,-0.01093109144375284,-10,-1,-100,15006.552162514767,0.0001883615898329933,0.0024310128023398146,0.9999970273439148,22.27573449830097,0.02656269622034878,55.916696193961585,-22.029526009864046,-92.9087142944336,5356.25390625,True
1599559109.0769346,0.0,10,0.5,0.5,0.0019644603729248034,-0.001,-0.02275,-0.37525,0.035548009804821465,10,1,100,-0.03231139147912461,-10,-1,-100,15005.21817925328,0.00047254429550505584,0.002515331622460916,0.9999967248989958,22.45402044208585,0.02688433450008962,57.802229139257115,-22.586522114967927,-92.70772552490234,5356.25390625,True
1599559109.1138363,0.0,10,0.5,0.5,0.07573676681518554,-0.001,-0.02275,-0.37525,0.02721479350225119,10,1,100,-0.004104857890635924,-10,-1,-100,15005.21817925328,0.00047254429550505584,0.002515331622460916,0.9999967248989958,22.45402044208585,0.02688433450008962,57.802229139257115,-22.586522114967927,-92.70772552490234,5356.25390625,True
1599559109.1447484,0.0,10,0.5,0.5,0.021025741577148448,-0.001,-0.02275,-0.37525,0.03185470408697674,10,1,100,-0.02382146634590317,-10,-1,-100,15004.334390826058,0.0006498613089282347,0.002556615666780786,0.9999965206922529,22.572052416004965,0.027093130887467946,59.07023798900387,-22.9578405012939,-92.56669616699219,5356.25390625,True
1599559109.176826,0.0,10,0.5,0.5,0.016923035430908208,-0.001,-0.02275,-0.37525,0.030881799897941375,10,1,100,-0.02376122527256446,-10,-1,-100,15003.3783365743,0.0008087581197815442,0.0025845706788072058,0.9999963329456314,22.688988672448502,0.02729647826227369,60.345791242853544,-23.329148875206506,-92.42036437988281,5356.25390625,True
1599559109.2106285,0.0,10,0.5,0.5,0.04066527709960936,-0.001,-0.02275,-0.37525,0.029376782553586382,10,1,100,-0.01709081510676708,-10,-1,-100,15002.929117394844,0.0008906723939936632,0.002595545582780287,0.9999962349158193,22.7473347820617,0.02739636901852529,60.98713065827599,-23.514799320617346,-92.34363555908203,5356.25390625,True
1599559109.2465258,0.0,10,0.5,0.5,-0.027144239616394034,-0.001,-0.02275,-0.37525,0.029997315853879453,10,1,100,-0.033220352812139475,-10,-1,-100,15001.46915753407,0.0011100216493220342,0.002610521782805843,0.9999959765058855,22.918855342113527,0.02768434584037649,62.9170384208205,-24.071735825447085,-92.09329223632812,5356.25390625,True
1599559109.2770824,0.0,10,0.5,0.5,-0.0022797838211059546,-0.001,-0.02275,-0.37525,0.02818470389371402,10,1,100,-0.02637779992508286,-10,-1,-100,15000.512126905029,0.0012453791362475638,0.0026070577251441004,0.9999958261317018,23.031377425470602,0.02786724262335108,64.21127336096234,-24.44301436683223,-91.91748809814453,5356.25390625,True
1599559109.310894,0.0,10,0.5,0.5,0.06057771186828613,-0.001,-0.02275,-0.37525,0.02857934443074913,10,1,100,-0.013023534906535312,-10,-1,-100,15000.512126905029,0.0012453791362475638,0.0026070577251441004,0.9999958261317018,23.031377425470602,0.02786724262335108,64.21127336096234,-24.44301436683223,-91.91748809814453,5356.25390625,True
1599559109.3435268,0.0,10,0.5,0.5,-0.008505739784240712,-0.001,-0.02275,-0.37525,0.02712340931662794,10,1,100,-0.026303580809802725,-10,-1,-100,14999.488689910504,0.001364767208536934,0.0025935204704693655,0.9999957055217966,23.14321120628983,0.028043339664565,65.51359033407896,-24.81428287997197,-91.7413101196289,5356.25390625,True
1599559109.3794377,0.0,10,0.5,0.5,0.02213457126617431,-0.001,-0.02275,-0.37525,0.02731097367150916,10,1,100,-0.020790447791018893,-10,-1,-100,14999.038493710686,0.0014220212702847476,0.0025827396740956943,0.999995653646196,23.199470219703084,0.028129528846302144,66.16946705101115,-24.999913397346074,-91.65447998046875,5356.25390625,True
1599559109.4113522,0.0,10,0.5,0.5,-0.014066817092895513,-0.001,-0.02275,-0.37525,0.025237082165693425,10,1,100,-0.026981055613720065,-10,-1,-100,14998.013103590114,0.0015292271614614507,0.002553947457456072,0.9999955693985215,23.31269126857122,0.028298174938377493,67.49079111124402,-25.371166731820193,-91.479248046875,5356.25390625,True
1599559109.4442642,0.0,10,0.5,0.5,-0.05211794528961181,-0.001,-0.02275,-0.37525,0.021415816234457832,10,1,100,-0.03123685511458739,-10,-1,-100,14996.483807566576,0.001664415528115469,0.0024929988285588237,0.9999955073288032,23.48196612912809,0.02853839176039488,69.49010157684737,-25.92802783009978,-91.21077728271484,5356.25390625,True
1599559109.4773464,0.0,10,0.5,0.5,-0.023357519340515137,-0.001,-0.02275,-0.37525,0.02177566608478928,10,1,100,-0.026275026543307614,-10,-1,-100,14995.388104801183,0.0017411229914869326,0.002440882648922431,0.9999955052812101,23.594735739827716,0.028690001013798087,70.8353573446235,-26.299255784798937,-91.02851104736328,5356.25390625,True
1599559109.5133426,0.0,10,0.5,0.5,-0.02416285591125488,-0.001,-0.02275,-0.37525,0.02038157231473201,10,1,100,-0.025605748028711045,-10,-1,-100,14994.364666843321,0.0018037806428896047,0.002380935935905061,0.9999955387497793,23.7082224282012,0.028835487840337754,72.1929030683775,-26.670473526916002,-90.85388946533203,5356.25390625,True
1599559109.5442257,0.0,10,0.5,0.5,-0.02435893726348877,-0.001,-0.02275,-0.37525,0.018798767595801565,10,1,100,-0.02520888493233547,-10,-1,-100,14993.269940200611,0.0018562297319039758,0.0023122349127561773,0.9999956039807828,23.824187515226555,0.028977184952886672,73.56828011384872,-27.041680961831634,-90.68868255615234,5356.25390625,True
1599559109.577314,0.0,10,0.5,0.5,0.033869937324523924,-0.001,-0.02275,-0.37525,0.02564053884368754,10,1,100,-0.020060531764689384,-10,-1,-100,14993.269940200611,0.0018562297319039758,0.0023122349127561773,0.9999956039807828,23.824187515226555,0.028977184952886672,73.56828011384872,-27.041680961831634,-90.68868255615234,5356.25390625,True
1599559109.6102781,0.0,10,0.5,0.5,0.0006225608825683633,-0.001,-0.02275,-0.37525,0.02148137600912034,10,1,100,-0.022512377046547277,-10,-1,-100,14992.74943161523,0.001877840863482155,0.0022746955114147024,0.9999956497275485,23.882917586741478,0.029046444656712564,74.26219262585755,-27.22728080248297,-90.60881042480469,5356.25390625,True
1599559109.646651,0.0,10,0.5,0.5,-0.059547208595275875,-0.001,-0.02275,-0.37525,0.011628177614927416,10,1,100,-0.02555208440241743,-10,-1,-100,14991.077556654112,0.0019245460847636512,0.00215129639953318,0.9999958340144067,24.06203918414511,0.029248000432637745,76.36904235324458,-27.78406437788274,-90.37714385986328,5356.25390625,True
1599559109.677592,0.0,10,0.5,0.5,0.023881386756896973,-0.001,-0.02275,-0.37525,0.023922512670518568,10,1,100,-0.020949478969119403,-10,-1,-100,14991.077556654112,0.0019245460847636512,0.00215129639953318,0.9999958340144067,24.06203918414511,0.029248000432637745,76.36904235324458,-27.78406437788274,-90.37714385986328,5356.25390625,True
1599559109.7105286,0.0,10,0.5,0.5,-0.06777024631500243,-0.001,-0.02275,-0.37525,0.00856078647561206,10,1,100,-0.023275421399018052,-10,-1,-100,14989.395914862398,0.0019451821260570692,0.0020120463650985174,0.9999960839602929,24.277698956483043,0.029478984622778773,78.6183343622462,-28.34082360795937,-90.14179992675781,5356.25390625,True
1599559109.7443442,0.0,10,0.5,0.5,-0.010677188682556151,-0.001,-0.02275,-0.37525,0.017108158706349415,10,1,100,-0.021377461562221343,-10,-1,-100,14988.819743534434,0.0019462123824840498,0.001963677620718252,0.9999961781064787,24.36753983341989,0.029574330798421665,79.43303855323347,-28.526403988764642,-90.0679702758789,5356.25390625,True
1599559109.7793827,0.0,10,0.5,0.5,-0.013795182800292967,-0.001,-0.02275,-0.37525,0.015984377201278197,10,1,100,-0.021212594865824986,-10,-1,-100,14988.22794565442,0.0019452711136131355,0.0019100264483598523,0.9999962838527257,24.45659248066015,0.02966704890120841,80.24913861031324,-28.711981411210267,-89.99458312988281,5356.25390625,True
1599559109.8102999,0.0,10,0.5,0.5,-0.09641113605499267,-0.001,-0.02275,-0.37525,-0.0031721720563954135,10,1,100,-0.017750116400660366,-10,-1,-100,14985.900795998168,0.0019126830144239918,0.0016876321824008187,0.9999967467653598,24.811568153353075,0.03001952605204854,83.54889006660575,-29.454260266818217,-89.70916748046875,5356.25390625,True
1599559109.8435278,0.0,10,0.5,0.5,0.00768957977294922,-0.001,-0.02275,-0.37525,0.018991929492855778,10,1,100,-0.021026082321868447,-10,-1,-100,14985.900795998168,0.0019126830144239918,0.0016876321824008187,0.9999967467653598,24.811568153353075,0.03001952605204854,83.54889006660575,-29.454260266818217,-89.70916748046875,5356.25390625,True
1599559109.8775122,0.0,10,0.5,0.5,-0.02056598415374756,-0.001,-0.02275,-0.37525,0.01239195678465355,10,1,100,-0.01938805864637812,-10,-1,-100,14985.309976154822,0.0018976928879454122,0.0016282627066476205,0.9999968737562439,24.899619558137015,0.03010262972012017,84.38133496491365,-29.639822121536046,-89.6409912109375,5356.25390625,True
1599559109.9134169,0.0,10,0.5,0.5,-0.06935997390747069,-0.001,-0.02275,-0.37525,-0.0019719053792236,10,1,100,-0.014234379755779954,-10,-1,-100,14983.501380606904,0.0018371761801812278,0.001444331683751383,0.999997269341107,25.161692566343184,0.030339592078652795,86.8949864234273,-30.196489480613096,-89.44964599609375,5356.25390625,True
1599559109.9443557,0.0,10,0.5,0.5,-0.06804132328033448,-0.001,-0.02275,-0.37525,-0.005301512134396048,10,1,100,-0.011008891008051034,-10,-1,-100,14981.677161297994,0.0017528556877359999,0.0012476415135523312,0.9999976854411173,25.42060574458336,0.030558619357047054,89.432547245456,-30.753128862471357,-89.26980590820312,5356.25390625,True
1599559109.978401,0.0,10,0.5,0.5,-0.003602565574645996,-0.001,-0.02275,-0.37525,0.014264799485722908,10,1,100,-0.019428441734999215,-10,-1,-100,14981.677161297994,0.0017528556877359999,0.0012476415135523312,0.9999976854411173,25.42060574458336,0.030558619357047054,89.432547245456,-30.753128862471357,-89.26980590820312,5356.25390625,True
1599559110.0113142,0.0,10,0.5,0.5,-0.06377408027648926,-0.001,-0.02275,-0.37525,-0.007482795417843201,10,1,100,-0.008033356535161709,-10,-1,-100,14979.797276788857,0.0016494200862802295,0.0010507576097798946,0.9999980876590837,25.676033200231405,0.030759758853038714,91.99228788964913,-31.309740049644702,-89.1165771484375,5356.25390625,True
1599559110.047327,0.0,10,0.5,0.5,-0.009142777442932128,-0.001,-0.02275,-0.37525,0.012095541080425128,10,1,100,-0.018349404080890405,-10,-1,-100,14979.797276788857,0.0016494200862802295,0.0010507576097798946,0.9999980876590837,25.676033200231405,0.030759758853038714,91.99228788964913,-31.309740049644702,-89.1165771484375,5356.25390625,True
