Timestamp,Input Throttle,horizon,dT,dt,Input Roll,Roll P,Roll I,Roll D,Input Pitch,Pitch P,Pitch I,Pitch D,Input Yaw,Yaw P,Yaw I,Yaw D,Altitude,Direction X,Direction Y,Direction Z,Drag X,Drag Y,Drag Z,Vertical Velocity,Roll,Mass,Has Fuel
1599561586.1181264,0.0,10,0.5,0.5,-5.850012268066407,-0.1005,-0.03,-0.12575,-0.00024081882386293595,10,1,100,0.17498369789271664,-10,-1,-100,14994.565219815238,-0.016810356478049186,-7.369019489326575e-05,0.9998586932586205,28.57653977367091,0.027199504201811626,-86.69275125178082,26.82332929008437,-31.79229736328125,5356.25390625,True
1599561586.1460516,0.0,10,0.5,0.5,-6.024628410339355,-0.1005,-0.03,-0.12575,-0.0005083188237084217,10,1,100,0.17368653762193093,-10,-1,-100,14995.102330927737,-0.01684582863435495,-7.154517539586972e-05,0.9998580964011393,28.503890256297787,0.0273631188746173,-85.87443608280105,26.637365780274312,-31.791717529296875,5356.25390625,True
1599561586.1769688,0.0,10,0.5,0.5,-6.199311531066895,-0.1005,-0.03,-0.12575,-0.0004464972018670821,10,1,100,0.17583250613508639,-10,-1,-100,14995.63846507098,-0.016882270464175828,-6.896810185841037e-05,0.9998574819379885,28.431434302786272,0.027525380286900002,-85.05974770868674,26.45140621404808,-31.7911376953125,5356.25390625,True
1599561586.204894,0.0,10,0.5,0.5,-6.342684020996094,-0.1005,-0.03,-0.12575,0.00734508383259833,10,1,100,0.18220680456372734,-10,-1,-100,14997.185344696161,-0.016958000049305928,4.269945399745885e-06,0.9998562027692258,28.21744535423712,0.028005604004640458,-82.64381413149643,25.893550611569044,-31.928955078125,5356.25390625,True
1599561586.236374,0.0,10,0.5,0.5,-6.534227691650391,-0.1005,-0.03,-0.12575,2.1706101322678856e-05,10,1,100,0.17632964605564785,-10,-1,-100,14997.185344696161,-0.016958000049305928,4.269945399745885e-06,0.9998562027692258,28.21744535423712,0.028005604004640458,-82.64381413149643,25.893550611569044,-31.928955078125,5356.25390625,True
1599561586.2652667,0.0,10,0.5,0.5,-6.619716690063477,-0.1005,-0.03,-0.12575,0.00951101854919049,10,1,100,0.18146295751394037,-10,-1,-100,14998.252729118802,-0.0169892501534274,9.053254042999895e-05,0.999855668175704,28.093482952894416,0.02833114473144667,-81.10211193684897,25.521665667893977,-32.32110595703125,5356.25390625,True
1599561586.2971792,0.0,10,0.5,0.5,-6.774732666015625,-0.1005,-0.03,-0.12575,0.007550324241360271,10,1,100,0.18048254467372624,-10,-1,-100,14998.72440880991,-0.016993301722123676,0.00015104628534956337,0.999855592013967,28.039217546618804,0.028495503594227707,-80.35726242698621,25.335728454735722,-32.61871337890625,5356.25390625,True
1599561586.3251047,0.0,10,0.5,0.5,-6.689294631958009,-0.1005,-0.03,-0.12575,0.029967891002086425,10,1,100,0.1782601896257388,-10,-1,-100,15000.209759079386,-0.01696133328257302,0.0004097175273872692,0.9998560622933811,27.90459502337442,0.028982422444746577,-78.21527381330193,24.77793594400016,-33.922607421875,5356.25390625,True
1599561586.3580163,0.0,10,0.5,0.5,-7.021491485595703,-0.1005,-0.03,-0.12575,0.004141738551054569,10,1,100,0.18315316690906178,-10,-1,-100,15000.209759079386,-0.01696133328257302,0.0004097175273872692,0.9998560622933811,27.90459502337442,0.028982422444746577,-78.21527381330193,24.77793594400016,-33.922607421875,5356.25390625,True
1599561586.3879733,0.0,10,0.5,0.5,-6.754871826171875,-0.1005,-0.03,-0.12575,0.04494338321467485,10,1,100,0.17237247608990744,-10,-1,-100,15001.685340963188,-0.01684790760850564,0.0007802690993043742,0.999857759478491,27.80308364211039,0.02943055512413911,-76.1808202061193,24.22017056098185,-35.8446044921875,5356.25390625,True
1599561586.424839,0.0,10,0.5,0.5,-7.159029144287109,-0.1005,-0.03,-0.12575,0.007966252932894784,10,1,100,0.18539983425749587,-10,-1,-100,15001.685340963188,-0.01684790760850564,0.0007802690993043742,0.999857759478491,27.80308364211039,0.02943055512413911,-76.1808202061193,24.22017056098185,-35.8446044921875,5356.25390625,True
1599561586.6911488,0.0,10,0.5,0.5,-6.572105529785157,-0.1005,-0.03,-0.12575,0.060389708224961244,10,1,100,0.16309274296676995,-10,-1,-100,15003.103301867959,-0.016645081732107717,0.0012560696389647987,0.9998606720654601,27.716598174066277,0.02978967862288981,-74.1992130385256,23.662430611171253,-38.385009765625,5356.25390625,True
1599561586.721069,0.0,10,0.5,0.5,-6.64908748626709,-0.1005,-0.03,-0.12575,0.03247374477725015,10,1,100,0.17328823559524248,-10,-1,-100,15003.576931165648,-0.016553563365552307,0.0014336271756638468,0.9998619525979694,27.687159568446145,0.029879130918440355,-73.53944139815611,23.476522864446686,-39.369293212890625,5356.25390625,True
1599561586.756014,0.0,10,0.5,0.5,-5.988804527282714,-0.1005,-0.03,-0.12575,0.08142441069874871,10,1,100,0.14556056535661133,-10,-1,-100,15004.98805293208,-0.016218593945694946,0.0020386831762424936,0.9998663915650589,27.58172285017206,0.030019436791214316,-71.52305066676264,22.918817126843763,-42.7342529296875,5356.25390625,True
1599561586.7918806,0.0,10,0.5,0.5,-6.379532318115235,-0.1005,-0.03,-0.12575,0.02112225196396831,10,1,100,0.17898356673198637,-10,-1,-100,15004.98805293208,-0.016218593945694946,0.0020386831762424936,0.9998663915650589,27.58172285017206,0.030019436791214316,-71.52305066676264,22.918817126843763,-42.7342529296875,5356.25390625,True
1599561586.8377569,0.0,10,0.5,0.5,-5.114196159362793,-0.1005,-0.03,-0.12575,0.12026269733102696,10,1,100,0.10968617017360116,-10,-1,-100,15006.750727906008,-0.015589289800712908,0.0029381104857331697,0.9998741628576484,27.353549108252505,0.029803914645346402,-68.63526087639765,22.17525483414807,-48.183624267578125,5356.25390625,True
1599561586.8706696,0.0,10,0.5,0.5,-5.751867050170898,-0.1005,-0.03,-0.12575,0.030604724176489663,10,1,100,0.17247658863653345,-10,-1,-100,15006.750727906008,-0.015589289800712908,0.0029381104857331697,0.9998741628576484,27.353549108252505,0.029803914645346402,-68.63526087639765,22.17525483414807,-48.183624267578125,5356.25390625,True
1599561586.8985949,0.0,10,0.5,0.5,-4.9954275588989265,-0.1005,-0.03,-0.12575,0.08669343078478245,10,1,100,0.12937345480889667,-10,-1,-100,15007.63059910317,-0.015198719504026584,0.00344547412380821,0.9998785564424811,27.175395785352727,0.029476208331681457,-67.04766285408903,21.80349732868493,-51.32061767578125,5356.25390625,True
1599561586.9305093,0.0,10,0.5,0.5,-4.959407302856445,-0.1005,-0.03,-0.12575,0.06177664740911761,10,1,100,0.1442008084563176,-10,-1,-100,15008.10031928611,-0.014980052098177885,0.003677437803555456,0.9998810301682579,27.06454521304808,0.029249850745862838,-66.20622098946382,21.617625598287997,-52.99267578125,5356.25390625,True
1599561586.958434,0.0,10,0.5,0.5,-4.309239143371582,-0.1005,-0.03,-0.12575,0.09442377546061724,10,1,100,0.11348816259418498,-10,-1,-100,15008.917688806658,-0.014503858840645494,0.004182135294451887,0.9998860674212385,26.790124112460294,0.02866552685947749,-64.41058934234007,21.245897911094556,-56.542816162109375,5356.25390625,True
1599561586.9913466,0.0,10,0.5,0.5,-4.268596405029297,-0.1005,-0.03,-0.12575,0.07165017899027071,10,1,100,0.13240324829196395,-10,-1,-100,15009.387408660608,-0.014245042157203002,0.004430825894449904,0.9998887170859728,26.6227771003278,0.02830645573051359,-63.4496203489304,21.060042827537462,-58.421173095703125,5356.25390625,True
1599561587.0222635,0.0,10,0.5,0.5,-3.068653907775879,-0.1005,-0.03,-0.12575,0.1289551339072025,10,1,100,0.06370107363678258,-10,-1,-100,15010.6149255028,-0.013387555280345726,0.005174543705697349,0.9998969934253493,25.97742716996406,0.02696705065217599,-60.2765112604134,20.502519015410964,-64.46942138671875,5356.25390625,True
1599561587.056173,0.0,10,0.5,0.5,-3.750967895507813,-0.1005,-0.03,-0.12575,0.05497520018913128,10,1,100,0.1491240086773339,-10,-1,-100,15010.6149255028,-0.013387555280345726,0.005174543705697349,0.9998969934253493,25.97742716996406,0.02696705065217599,-60.2765112604134,20.502519015410964,-64.46942138671875,5356.25390625,True
1599561587.0920777,0.0,10,0.5,0.5,-2.685478530883789,-0.1005,-0.03,-0.12575,0.1087236260009886,10,1,100,0.07853278039125772,-10,-1,-100,15011.427410629112,-0.012748695030549767,0.005659764925323294,0.9999027141857393,25.40687239000159,0.025873145409167166,-57.88672793690355,20.13087628915559,-68.845947265625,5356.25390625,True
1599561587.127982,0.0,10,0.5,0.5,-1.5552165298461917,-0.1005,-0.03,-0.12575,0.13454931927409486,10,1,100,0.02764825075744967,-10,-1,-100,15012.589497606154,-0.011708480805805317,0.006332362262239591,0.9999114024079332,24.298852641959108,0.024002021928414826,-53.8334334502773,19.573481760548884,-75.92782592773438,5356.25390625,True
1599561587.1628885,0.0,10,0.5,0.5,-1.1999766845703124,-0.1005,-0.03,-0.12575,0.11215653038442093,10,1,100,0.04974548763447703,-10,-1,-100,15013.34045860474,-0.010967815585046874,0.006736340233997374,0.9999171609396172,23.36807433200419,0.022661539882105057,-50.791365249928596,19.201935895927708,-80.99392700195312,5356.25390625,True
1599561587.197794,0.0,10,0.5,0.5,-0.5299573974609375,-0.1005,-0.03,-0.12575,0.11150733650701779,10,1,100,0.03982847024702782,-10,-1,-100,15014.151967541547,-0.010208530202849357,0.007094238236938726,0.9999227258618214,22.29555542812744,0.021329160867456173,-47.525336247106495,18.83043069937363,-86.33602905273438,5356.25390625,True
1599561587.2297099,0.0,10,0.5,0.5,-0.45955142974853513,-0.1005,-0.03,-0.12575,0.0946556547091993,10,1,100,0.07173367240173095,-10,-1,-100,15014.498640025267,-0.009813209656437883,0.007262624652585963,0.9999254748226963,21.700313664650626,0.02067731070078553,-45.80157710961657,18.644692433574356,-89.1104736328125,5356.25390625,True
1599561587.2631302,0.0,10,0.5,0.5,-0.6950682678222656,-0.1005,-0.03,-0.12575,0.07819872819735332,10,1,100,0.11072717605811953,-10,-1,-100,15014.498640025267,-0.009813209656437883,0.007262624652585963,0.9999254748226963,21.700313664650626,0.02067731070078553,-45.80157710961657,18.644692433574356,-89.1104736328125,5356.25390625,True
1599561587.296042,0.0,10,0.5,0.5,2.045723346710205,-0.1005,-0.03,-0.12575,0.13878648612749278,10,1,100,-0.06850212520145436,-10,-1,-100,15015.94001845899,-0.00818854950175243,0.007810163191179022,0.999935972454229,22.591792872855564,0.02169296176192578,-45.78844626377801,17.90176172356564,-100.74555969238281,5356.25390625,True
1599561587.3259623,0.0,10,0.5,0.5,0.7152195053100586,-0.1005,-0.03,-0.12575,0.08439543505785967,10,1,100,0.09333235933320169,-10,-1,-100,15015.94001845899,-0.00818854950175243,0.007810163191179022,0.999935972454229,22.591792872855564,0.02169296176192578,-45.78844626377801,17.90176172356564,-100.74555969238281,5356.25390625,True
1599561587.360869,0.0,10,0.5,0.5,1.5230313072204589,-0.1005,-0.03,-0.12575,0.09661796290313197,10,1,100,0.04591968314125441,-10,-1,-100,15016.280832505669,-0.007763031075148773,0.007918204955866289,0.9999385167993096,23.05105874388238,0.022277634001451635,-46.235839208602656,17.716021458965002,-103.75479125976562,5356.25390625,True
1599561587.3947775,0.0,10,0.5,0.5,2.6397064476013186,-0.1005,-0.03,-0.12575,0.10556564489371018,10,1,100,-0.002192798617165606,-10,-1,-100,15017.031796529773,-0.006943923147891809,0.00809527306799618,0.9999431226251174,23.851390860057638,0.023408723842601214,-46.84048617984307,17.34452863020837,-109.84199523925781,5356.25390625,True
1599561587.4246984,0.0,10,0.5,0.5,3.3547257156372075,-0.1005,-0.03,-0.12575,0.10254907472054217,10,1,100,-0.016727928129402228,-10,-1,-100,15017.658737990307,-0.006072999884031013,0.008226165505301555,0.9999477230703052,24.445294587961644,0.02437280627105016,-46.980932300815944,16.973020067895987,-115.78395080566406,5356.25390625,True
1599561587.4586072,0.0,10,0.5,0.5,4.664752540588379,-0.1005,-0.03,-0.12575,0.10219635103194448,10,1,100,-0.06872893073200445,-10,-1,-100,15018.687042352161,-0.004814583888812559,0.008339618959701027,0.9999536341938984,25.11922949559779,0.025509216459235092,-46.694368350040655,16.415735963996195,-124.25428771972656,5356.25390625,True
1599561587.4935136,0.0,10,0.5,0.5,4.945680561065674,-0.1005,-0.03,-0.12575,0.09437665357750924,10,1,100,-0.033717947224300326,-10,-1,-100,15019.312033116468,-0.003995118194972177,0.00836984552620799,0.9999569914333694,25.3510403402779,0.02590821634559549,-46.06076696376044,16.044207989942063,-129.56298828125,5356.25390625,True
1599561587.523434,0.0,10,0.5,0.5,4.423818649291992,-0.1005,-0.03,-0.12575,0.09151734745603407,10,1,100,0.0475313524207304,-10,-1,-100,15019.312033116468,-0.003995118194972177,0.00836984552620799,0.9999569914333694,25.3510403402779,0.02590821634559549,-46.06076696376044,16.044207989942063,-129.56298828125,5356.25390625,True
1599561587.5583465,0.0,10,0.5,0.5,6.238426113128662,-0.1005,-0.03,-0.12575,0.09149152663273599,10,1,100,-0.08144845473724206,-10,-1,-100,15020.276866092463,-0.002828223049906861,0.00836845114846049,0.9999609843287666,25.391058689671574,0.025930247364702258,-44.53396055577974,15.486926732652156,-137.0101776123047,5356.25390625,True
1599561587.5932477,0.0,10,0.5,0.5,5.445641166687012,-0.1005,-0.03,-0.12575,0.09174154705707345,10,1,100,0.03454256110863642,-10,-1,-100,15020.276866092463,-0.002828223049906861,0.00836845114846049,0.9999609843287666,25.391058689671574,0.025930247364702258,-44.53396055577974,15.486926732652156,-137.0101776123047,5356.25390625,True
1599561587.6261618,0.0,10,0.5,0.5,6.6348144073486335,-0.1005,-0.03,-0.12575,0.08532579716574071,10,1,100,-0.05001071388840559,-10,-1,-100,15020.899907675805,-0.0020659069013942346,0.008309120852633942,0.9999633445978564,25.24412738994754,0.025595692291015843,-43.216025312111476,15.115423212393784,-141.6310577392578,5356.25390625,True
1599561587.6610665,0.0,10,0.5,0.5,6.67567045211792,-0.1005,-0.03,-0.12575,0.08966970875693983,10,1,100,-0.012816783274088188,-10,-1,-100,15021.178225375828,-0.001716584901604149,0.008294220727564841,0.9999641289760338,25.12669474429005,0.02533929108315793,-42.48734263778127,14.929679086719908,-143.83779907226562,5356.25390625,True
1599561587.6969697,0.0,10,0.5,0.5,7.479338600158692,-0.1005,-0.03,-0.12575,0.08326200873089858,10,1,100,-0.05524225010917061,-10,-1,-100,15021.738768159412,-0.0010192169892943657,0.008221983288595842,0.9999656795048172,24.816146034745394,0.02467923730173445,-40.919995649277205,14.558208371469396,-148.0450439453125,5356.25390625,True
1599561587.7288852,0.0,10,0.5,0.5,8.39400082397461,-0.1005,-0.03,-0.12575,0.07712796123552346,10,1,100,-0.09338561316058516,-10,-1,-100,15022.639155230136,-4.461905407793443e-05,0.008100272659272678,0.9999671912577859,24.27863900983728,0.023498340874964694,-38.504259817989904,14.001050103176237,-153.8388671875,5356.25390625,True
1599561587.7647893,0.0,10,0.5,0.5,8.203201629638672,-0.1005,-0.03,-0.12575,0.08375292482849812,10,1,100,-0.030601749692874974,-10,-1,-100,15022.91942715249,0.0002643445790543524,0.008049849029286594,0.9999675645002436,24.075196675072174,0.023064434913452947,-37.676093320694676,13.815344042353193,-155.63238525390625,5356.25390625,True
1599561587.799696,0.0,10,0.5,0.5,8.487363479614258,-0.1005,-0.03,-0.12575,0.0840864799025984,10,1,100,-0.03307210124643128,-10,-1,-100,15023.136223374167,0.000561917128331411,0.008007201972223805,0.9999677839639219,23.870790450500667,0.022627342992269348,-36.85498836200426,13.629644705978837,-157.3568115234375,5356.25390625,True
1599561587.8346026,0.0,10,0.5,0.5,9.103286514282226,-0.1005,-0.03,-0.12575,0.08012243857323342,10,1,100,-0.06614196252541471,-10,-1,-100,15023.693840392749,0.001128185002013001,0.007932697378252022,0.9999678992402238,23.431406210609325,0.021730231305082365,-35.19262267103135,13.258265716891588,-160.5986328125,5356.25390625,True
1599561587.864522,0.0,10,0.5,0.5,9.459875549316406,-0.1005,-0.03,-0.12575,0.07685193297315787,10,1,100,-0.06896778751516004,-10,-1,-100,15024.188957611448,0.001664005747814872,0.007835631467502402,0.9999679164675117,22.9640354535718,0.02083350697327212,-33.52629835404418,12.886912175762465,-163.56500244140625,5356.25390625,True
1599561587.900426,0.0,10,0.5,0.5,9.501010765075685,-0.1005,-0.03,-0.12575,0.08185979946551555,10,1,100,-0.04382576479501582,-10,-1,-100,15024.469231022289,0.0019174070156854554,0.007793401438623004,0.9999677927035213,22.724292927696187,0.02039504760507896,-32.699133013097715,12.701244378103846,-164.94467163085938,5356.25390625,True
1599561587.934336,0.0,10,0.5,0.5,9.988780334472656,-0.1005,-0.03,-0.12575,0.07786237584847361,10,1,100,-0.07172802471840466,-10,-1,-100,15024.964349443442,0.0023971145039026185,0.007719193061041204,0.9999673334167178,22.241052603301817,0.019553254196135544,-31.069732918702417,12.329925233312707,-167.49697875976562,5356.25390625,True
1599561587.9657624,0.0,10,0.5,0.5,10.274309288024902,-0.1005,-0.03,-0.12575,0.07845191402944844,10,1,100,-0.07342618984204036,-10,-1,-100,15025.45751560526,0.002843899778356901,0.007657680572236993,0.999966635524558,21.76300545652275,0.01877307780028419,-29.48790590575774,11.958625778377934,-169.7733154296875,5356.25390625,True
1599561587.9996707,0.0,10,0.5,0.5,10.306607971191406,-0.1005,-0.03,-0.12575,0.08098442942469676,10,1,100,-0.0523748726045881,-10,-1,-100,15025.672360821394,0.0030542291378114544,0.007625375213535783,0.9999662620994904,21.52931605812714,0.01840994945057337,-28.71914126456795,11.772982646228066,-170.80810546875,5356.25390625,True
1599561588.0355756,0.0,10,0.5,0.5,10.678768096923829,-0.1005,-0.03,-0.12575,0.07911903128507036,10,1,100,-0.07536268802971131,-10,-1,-100,15026.165526902187,0.0034500806829626997,0.0075796565820962876,0.9999653222734168,21.07900502763085,0.0177423479727807,-27.233051098096322,11.401707994105134,-172.6705322265625,5356.25390625,True
1599561588.0660043,0.0,10,0.5,0.5,10.877359420776369,-0.1005,-0.03,-0.12575,0.08082688005607348,10,1,100,-0.07612606008706942,-10,-1,-100,15026.597170570982,0.003812822472101399,0.00755420402116632,0.9999641975522938,20.6584299300192,0.017155283508940175,-25.821874433245895,11.030446516252102,-174.25689697265625,5356.25390625,True
1599561588.1009119,0.0,10,0.5,0.5,10.895185958862307,-0.1005,-0.03,-0.12575,0.0820979398625005,10,1,100,-0.058852566505898915,-10,-1,-100,15026.811039225897,0.00398204921010214,0.007543116844595782,0.9999636216744873,20.461711275939955,0.01689203854329164,-25.14617776908697,10.844819906053832,-174.9466552734375,5356.25390625,True
1599561588.1358175,0.0,10,0.5,0.5,11.13163195037842,-0.1005,-0.03,-0.12575,0.0830902110217101,10,1,100,-0.0768677073249051,-10,-1,-100,15027.23975322931,0.004296285975156463,0.0075425189056923725,0.9999623254580029,20.09927267118656,0.016424438983695056,-23.856299503256317,10.473573608381255,-176.11898803710938,5356.25390625,True
1599561588.4152775,0.0,10,0.5,0.5,11.24327198791504,-0.1005,-0.03,-0.12575,0.08565385723396574,10,1,100,-0.07689421856686983,-10,-1,-100,15027.606944175554,0.004578801892090231,0.0075657036386793525,0.9999608965863038,19.782726657993795,0.01603179344927407,-22.6493219568104,10.102334658701666,-177.01522827148438,5356.25390625,True
1599561588.447193,0.0,10,0.5,0.5,11.366885948181153,-0.1005,-0.03,-0.12575,0.09095633783712527,10,1,100,-0.0889450998895864,-10,-1,-100,15028.189958542003,0.004942051085972828,0.007635318668459487,0.9999586381645468,19.402876658522693,0.0155704675747991,-20.99129288060508,9.545485377501514,-177.842041015625,5356.25390625,True
1599561588.4830978,0.0,10,0.5,0.5,11.305745361328125,-0.1005,-0.03,-0.12575,0.08397480357920753,10,1,100,-0.0529479850351425,-10,-1,-100,15028.189958542003,0.004942051085972828,0.007635318668459487,0.9999586381645468,19.402876658522693,0.0155704675747991,-20.99129288060508,9.545485377501514,-177.842041015625,5356.25390625,True
1599561588.5160086,0.0,10,0.5,0.5,11.375176757812499,-0.1005,-0.03,-0.12575,0.10457874005798941,10,1,100,-0.09369470228818219,-10,-1,-100,15028.921412391122,0.005309726111845655,0.007822770893512198,0.99995530453324,19.086302716596077,0.01515578209525161,-19.04421185477913,8.803026509635993,-177.9779052734375,5356.25390625,True
1599561588.5459292,0.0,10,0.5,0.5,11.358201522827148,-0.1005,-0.03,-0.12575,0.09199377889848825,10,1,100,-0.06519894557806952,-10,-1,-100,15029.137234732974,0.005382275972903616,0.007878679107716951,0.9999544777242957,19.04186798055942,0.015081371130454577,-18.599598695498223,8.617411443402887,-177.83941650390625,5356.25390625,True
1599561588.5783525,0.0,10,0.5,0.5,11.399814788818361,-0.1005,-0.03,-0.12575,0.08642505733156092,10,1,100,-0.05819779709172809,-10,-1,-100,15029.137234732974,0.005382275972903616,0.007878679107716951,0.9999544777242957,19.04186798055942,0.015081371130454577,-18.599598695498223,8.617411443402887,-177.83941650390625,5356.25390625,True
1599561588.611264,0.0,10,0.5,0.5,11.233151878356935,-0.1005,-0.03,-0.12575,0.11065341289739164,10,1,100,-0.07603149542559863,-10,-1,-100,15029.590367206954,0.00554228409699781,0.008098706609320702,0.9999518458597115,18.99101226846079,0.01491251889475226,-17.352153990195546,8.06056215584792,-177.00955200195312,5356.25390625,True
1599561588.6391902,0.0,10,0.5,0.5,11.147287437438965,-0.1005,-0.03,-0.12575,0.10750638763519932,10,1,100,-0.06746860621915926,-10,-1,-100,15029.954629335669,0.005607999577557596,0.00826965042655216,0.9999500803652954,19.023239882188868,0.01483515556270368,-16.581609429320622,7.689323600183228,-176.11126708984375,5356.25390625,True
1599561588.677089,0.0,10,0.5,0.5,11.265809875488282,-0.1005,-0.03,-0.12575,0.09048355055259213,10,1,100,-0.06107657587372624,-10,-1,-100,15029.954629335669,0.005607999577557596,0.00826965042655216,0.9999500803652954,19.023239882188868,0.01483515556270368,-16.581609429320622,7.689323600183228,-176.11126708984375,5356.25390625,True
1599561588.710001,0.0,10,0.5,0.5,11.003611171722413,-0.1005,-0.03,-0.12575,0.11202835011415832,10,1,100,-0.06394845933672519,-10,-1,-100,15030.192915351712,0.005632629472341718,0.00846485175567371,0.9999483085489879,19.10461177656764,0.014776871651936625,-15.849026876035847,7.318078384728427,-174.9369354248047,5356.25390625,True
1599561588.7389238,0.0,10,0.5,0.5,10.819599460601808,-0.1005,-0.03,-0.12575,0.11609540829562193,10,1,100,-0.0599979918972469,-10,-1,-100,15030.492724800482,0.005617892087698221,0.008678442281206624,0.9999465605361432,19.25226502459031,0.01474721922591284,-15.161701238421447,6.946824635406463,-173.48660278320312,5356.25390625,True
1599561588.771835,0.0,10,0.5,0.5,10.80390880203247,-0.1005,-0.03,-0.12575,0.10731484909344344,10,1,100,-0.0595610957793156,-10,-1,-100,15030.642141086166,0.005599578054954205,0.00879178064017808,0.9999456731836892,19.35030358259636,0.014741995199964948,-14.831902664201433,6.761194017977012,-172.65794372558594,5356.25390625,True
1599561588.8007586,0.0,10,0.5,0.5,10.470772056579591,-0.1005,-0.03,-0.12575,0.12251583552607517,10,1,100,-0.05340289253346314,-10,-1,-100,15030.881403509295,0.005526347516616458,0.009031954968656311,0.9999439400649267,19.57510533564991,0.014735916111986174,-14.18067046739172,6.389924397036231,-170.79368591308594,5356.25390625,True
1599561588.8336704,0.0,10,0.5,0.5,10.449753192901612,-0.1005,-0.03,-0.12575,0.11242961728611009,10,1,100,-0.054835612687048854,-10,-1,-100,15031.031796466443,0.005472267850041427,0.009157332704818479,0.9999430971521884,19.699920278246505,0.014734270242727915,-13.856658060364406,6.204285117566078,-169.75808715820312,5356.25390625,True
1599561588.8635907,0.0,10,0.5,0.5,10.039898643493654,-0.1005,-0.03,-0.12575,0.12873267756099055,10,1,100,-0.04512463567773096,-10,-1,-100,15031.270082181087,0.0053346751423992405,0.009418308865818174,0.9999414166336111,19.96914455872998,0.01473273809983284,-13.205769276585826,5.832997481897834,-167.47998046875,5356.25390625,True
1599561588.8974993,0.0,10,0.5,0.5,9.717473724365236,-0.1005,-0.03,-0.12575,0.13237506240260274,10,1,100,-0.03831477265505901,-10,-1,-100,15031.505438162363,0.005147726290546148,0.00968727284732519,0.9999398270190156,20.256760942683382,0.014733538717908204,-12.543526662209095,5.461697644745857,-164.92608642578125,5356.25390625,True
1599561588.9314108,0.0,10,0.5,0.5,9.016187255859377,-0.1005,-0.03,-0.12575,0.15112222708231896,10,1,100,-0.016577270541314616,-10,-1,-100,15031.766185797635,0.004780372360265985,0.010100570151474798,0.9999375613120614,20.69978229714767,0.014741005230867158,-11.511076853476538,4.904726839899155,-160.5782470703125,5356.25390625,True
1599561588.9603317,0.0,10,0.5,0.5,9.513634140014648,-0.1005,-0.03,-0.12575,0.10999268302157354,10,1,100,-0.053236472395657715,-10,-1,-100,15031.766185797635,0.004780372360265985,0.010100570151474798,0.9999375613120614,20.69978229714767,0.014741005230867158,-11.511076853476538,4.904726839899155,-160.5782470703125,5356.25390625,True
1599561588.993244,0.0,10,0.5,0.5,8.733289924621582,-0.1005,-0.03,-0.12575,0.14011259270182636,10,1,100,-0.019291646387850296,-10,-1,-100,15032.000564659364,0.004472535421301637,0.010372723039727166,0.9999361994865704,20.985047312606167,0.014750173046509182,-10.786432961212746,4.533401049609145,-157.33517456054688,5356.25390625,True
1599561589.0272493,0.0,10,0.5,0.5,8.288694660186767,-0.1005,-0.03,-0.12575,0.14234274443367068,10,1,100,-0.01082974233283266,-10,-1,-100,15032.115802010172,0.004116789498248666,0.010638496978779563,0.999934935096409,21.243743989288475,0.014759171251977827,-10.025177828433437,4.162067888188121,-153.8165740966797,5356.25390625,True
1599561589.061159,0.0,10,0.5,0.5,7.809396743774414,-0.1005,-0.03,-0.12575,0.14401506093269206,10,1,100,-0.0016881242344193373,-10,-1,-100,15032.284750737716,0.003711656530918656,0.010893336486797295,0.9999337772202628,21.45706415297044,0.014764053438360746,-9.222586974081416,3.7907287014444755,-150.0225372314453,5356.25390625,True
1599561589.0950687,0.0,10,0.5,0.5,8.216104682922364,-0.1005,-0.03,-0.12575,0.11875259955147793,10,1,100,-0.04201079741174241,-10,-1,-100,15032.284750737716,0.003711656530918656,0.010893336486797295,0.9999337772202628,21.45706415297044,0.014764053438360746,-9.222586974081416,3.7907287014444755,-150.0225372314453,5356.25390625,True
1599561589.1249886,0.0,10,0.5,0.5,7.227535373687744,-0.1005,-0.03,-0.12575,0.1441888095039603,10,1,100,0.00786939747415314,-10,-1,-100,15032.45662840677,0.003259916506068729,0.01112266425377748,0.9999328273860555,21.603430122330643,0.014755931287362144,-8.376027358725352,3.419384332893316,-145.95330810546875,5356.25390625,True
1599561589.1608925,0.0,10,0.5,0.5,7.1810317153930665,-0.1005,-0.03,-0.12575,0.1330799204712621,10,1,100,-0.010433684027261615,-10,-1,-100,15032.480067294207,0.003017695798045791,0.011228253496839374,0.9999324076333767,21.644057786373253,0.014742633306547655,-7.936170762684054,3.233710091655509,-143.81546020507812,5356.25390625,True
1599561589.1987913,0.0,10,0.5,0.5,5.82759610748291,-0.1005,-0.03,-0.12575,0.15335351913391065,10,1,100,0.05275351738200551,-10,-1,-100,15032.672452560044,0.002225297479806142,0.011506666504926972,0.9999313199800628,21.60338900734732,0.014639088426535015,-6.556919298399525,2.6766753337323994,-136.98919677734375,5356.25390625,True
1599561589.2336981,0.0,10,0.5,0.5,6.048617473602294,-0.1005,-0.03,-0.12575,0.13353313792636892,10,1,100,0.004945419061739606,-10,-1,-100,15032.697844172479,0.001942381154920327,0.011577685448902492,0.9999310898032402,21.53451411255739,0.014579770314248631,-6.082655337123057,2.4909919212417613,-134.5763397216797,5356.25390625,True
1599561589.263618,0.0,10,0.5,0.5,5.122461009979248,-0.1005,-0.03,-0.12575,0.1403365006817877,10,1,100,0.04251899609456496,-10,-1,-100,15032.8033145027,0.0013465204730308334,0.011702378320655338,0.9999306182052113,21.285144902344477,0.01439855449724421,-5.115950189278033,2.1196148723360424,-129.544189453125,5356.25390625,True
1599561589.30052,0.0,10,0.5,0.5,5.069612594604492,-0.1005,-0.03,-0.12575,0.13174656194615067,10,1,100,0.016526298716189085,-10,-1,-100,15032.82772836287,0.001044247876468561,0.011736188935407425,0.9999305832984833,21.100819803895284,0.014272422929133017,-4.6273678616101,1.9339203979833428,-126.92523193359375,5356.25390625,True
1599561589.3394156,0.0,10,0.5,0.5,4.066228891372681,-0.1005,-0.03,-0.12575,0.13355465793322624,10,1,100,0.05619270051038967,-10,-1,-100,15032.93612681306,0.0004122474309953967,0.011781876167988252,0.9999305063083223,20.60297876192625,0.013937182511266803,-3.6505434236381413,1.562517416972831,-121.48099517822266,5356.25390625,True
1599561589.3743222,0.0,10,0.5,0.5,2.679097635269165,-0.1005,-0.03,-0.12575,0.12544638154722393,10,1,100,0.10075017468872673,-10,-1,-100,15033.00155628915,-0.0005636752047011749,0.011748417363981472,0.9999308260873376,19.498230117527488,0.013187541801010925,-2.222975332545105,1.0053735327680884,-112.79953002929688,5356.25390625,True
1599561589.4052393,0.0,10,0.5,0.5,2.26059928894043,-0.1005,-0.03,-0.12575,0.11879974213259062,10,1,100,0.0762625194548009,-10,-1,-100,15033.04354709119,-0.0012240075852960508,0.011656567256219368,0.9999313107635107,18.61754924558342,0.012568258959563261,-1.338362028882213,0.6339179410528795,-106.66851806640625,5356.25390625,True
1599561589.4451673,0.0,10,0.5,0.5,2.901511985778809,-0.1005,-0.03,-0.12575,0.12806107598574323,10,1,100,0.010722847806934787,-10,-1,-100,15033.04354709119,-0.0012240075852960508,0.011656567256219368,0.9999313107635107,18.61754924558342,0.012568258959563261,-1.338362028882213,0.6339179410528795,-106.66851806640625,5356.25390625,True
1599561589.4810362,0.0,10,0.5,0.5,-0.18930039405822763,-0.1005,-0.03,-0.12575,0.09007437620737825,10,1,100,0.15212397589777332,-10,-1,-100,15033.005456960294,-0.0025049854187434786,0.011310539775716576,0.9999328961175514,16.44932358959294,0.011028251792413247,0.20338876259482547,-0.10903073207405667,-93.58232879638672,5356.25390625,True
1599561589.5169413,0.0,10,0.5,0.5,-0.2744235401153564,-0.1005,-0.03,-0.12575,0.09655333763336602,10,1,100,0.09482317149408923,-10,-1,-100,15032.985922852065,-0.003143353498276001,0.011054698192293981,0.9999339543073144,15.240645114488286,0.010209467842868209,0.8304926260639113,-0.48050345990545074,-86.627197265625,5356.25390625,True
1599561589.548855,0.0,10,0.5,0.5,0.42861946105957033,-0.1005,-0.03,-0.12575,0.12212014044517093,10,1,100,0.03160246847046916,-10,-1,-100,15032.985922852065,-0.003143353498276001,0.011054698192293981,0.9999339543073144,15.240645114488286,0.010209467842868209,0.8304926260639113,-0.48050345990545074,-86.627197265625,5356.25390625,True
1599561589.591741,0.0,10,0.5,0.5,-2.1168513412475587,-0.1005,-0.03,-0.12575,0.0733957334573051,10,1,100,0.12390009979043878,-10,-1,-100,15032.984940972761,-0.003977542282113832,0.010612159918143049,0.9999357785474353,17.388900069761252,0.011653990362322123,2.0464119365608404,-1.0377069213653107,-76.04428100585938,5356.25390625,True
1599561589.6266477,0.0,10,0.5,0.5,-0.9616457977294923,-0.1005,-0.03,-0.12575,0.11755300831932237,10,1,100,0.0410732137503591,-10,-1,-100,15032.984940972761,-0.003977542282113832,0.010612159918143049,0.9999357785474353,17.388900069761252,0.011653990362322123,2.0464119365608404,-1.0377069213653107,-76.04428100585938,5356.25390625,True
1599561589.6614327,0.0,10,0.5,0.5,-4.308080810546874,-0.1005,-0.03,-0.12575,0.038036491989157734,10,1,100,0.15276263029165066,-10,-1,-100,15032.819893984706,-0.00498806055725726,0.009890273604598382,0.9999386489879782,19.46272642880546,0.013033674066220581,3.930566873156794,-1.7806882450465722,-61.962799072265625,5356.25390625,True
1599561589.6963663,0.0,10,0.5,0.5,-2.7322217559814455,-0.1005,-0.03,-0.12575,0.11004053181054356,10,1,100,0.052314033620680434,-10,-1,-100,15032.819893984706,-0.00498806055725726,0.009890273604598382,0.9999386489879782,19.46272642880546,0.013033674066220581,3.930566873156794,-1.7806882450465722,-61.962799072265625,5356.25390625,True
1599561589.7282903,0.0,10,0.5,0.5,-4.438095031738282,-0.1005,-0.03,-0.12575,0.06376924278225934,10,1,100,0.10229230367691465,-10,-1,-100,15032.73590542667,-0.005437499095960978,0.009471345161217061,0.9999403618338538,20.094146066050957,0.01343325916427982,4.904872550698209,-2.1522079748585368,-55.21221923828125,5356.25390625,True
1599561589.7631874,0.0,10,0.5,0.5,-4.5032565307617185,-0.1005,-0.03,-0.12575,0.08508112330849685,10,1,100,0.07924593879291116,-10,-1,-100,15032.69293486292,-0.005632136428663181,0.009286315555838715,0.9999410199520001,20.307227271665894,0.013567535442758048,5.384802232906101,-2.337973805381096,-51.935821533203125,5356.25390625,True
1599561589.7980666,0.0,10,0.5,0.5,-5.691501266479492,-0.1005,-0.03,-0.12575,0.058127044811274564,10,1,100,0.10076840883447553,-10,-1,-100,15032.609922414762,-0.006000730887094526,0.00887522452070218,0.9999426091624098,20.565304454529016,0.013735888043423048,6.32001249458844,-2.709514371004974,-45.588623046875,5356.25390625,True
1599561589.828986,0.0,10,0.5,0.5,-7.11393547821045,-0.1005,-0.03,-0.12575,0.03226400760424753,10,1,100,0.11560610788846856,-10,-1,-100,15032.419486619881,-0.006466362455884959,0.008268915371182827,0.9999449040798064,20.541770695432326,0.013755114053981693,7.611611046736375,-3.2668401750602514,-36.583740234375,5356.25390625,True
1599561590.0844202,0.0,10,0.5,0.5,-6.1525672302246095,-0.1005,-0.03,-0.12575,0.09259076011572943,10,1,100,0.06943908871313938,-10,-1,-100,15032.419486619881,-0.006466362455884959,0.008268915371182827,0.9999449040798064,20.541770695432326,0.013755114053981693,7.611611046736375,-3.2668401750602514,-36.583740234375,5356.25390625,True
1599561590.1134236,0.0,10,0.5,0.5,-6.950639266967773,-0.1005,-0.03,-0.12575,0.06996035310415229,10,1,100,0.08431589486113814,-10,-1,-100,15032.373586367,-0.006598585230905303,0.008065716928187682,0.9999456999674456,20.430493744277115,0.013706423360179238,8.001013747813559,-3.4526172422070815,-33.71990966796875,5356.25390625,True
1599561590.1473525,0.0,10,0.5,0.5,-7.381613128662109,-0.1005,-0.03,-0.12575,0.06879565181241548,10,1,100,0.0850501010998701,-10,-1,-100,15032.272021791083,-0.006722321236064426,0.007873120133052766,0.999946410752381,20.275253655175316,0.013636310330322771,8.367598864509235,-3.6383943283152984,-30.92486572265625,5356.25390625,True
1599561590.1823716,0.0,10,0.5,0.5,-9.539137977600099,-0.1005,-0.03,-0.12575,0.00507812685489703,10,1,100,0.11635389454995011,-10,-1,-100,15031.972209318308,-0.007116893200342582,0.007121271946757302,0.9999493173741534,19.393031853364242,0.013246950656108473,9.638806978265215,-4.381500942677938,-20.433624267578125,5356.25390625,True
1599561590.212695,0.0,10,0.5,0.5,-8.941163497924805,-0.1005,-0.03,-0.12575,0.06043945869249075,10,1,100,0.08550837482484312,-10,-1,-100,15031.866738798795,-0.007192327214986998,0.006944231964986265,0.9999500227869637,19.172066259311343,0.013159199105550756,9.933193286866166,-4.567277729950186,-17.982940673828125,5356.25390625,True
1599561590.3014967,0.0,10,0.5,0.5,-9.827154304504395,-0.1005,-0.03,-0.12575,0.041647292953134574,10,1,100,0.09320694754278847,-10,-1,-100,15031.6557975607,-0.007328886737865307,0.006615126876327186,0.9999512625701282,18.650399529298834,0.012929718788428182,10.449401085890475,-4.938833815944257,-13.28802490234375,5356.25390625,True
1599561590.3344123,0.0,10,0.5,0.5,-10.38269672393799,-0.1005,-0.03,-0.12575,0.03953674819623543,10,1,100,0.0903982227676436,-10,-1,-100,15031.44388013333,-0.0074253698732709905,0.006299731067691005,0.9999525875113879,18.04589373275275,0.012630129189267928,10.871796043757213,-5.310396480134688,-8.868560791015625,5356.25390625,True
1599561590.3676436,0.0,10,0.5,0.5,-10.903618141174316,-0.1005,-0.03,-0.12575,0.04002249412716448,10,1,100,0.08997830580424747,-10,-1,-100,15031.228056959691,-0.00750745723235682,0.006020306762933401,0.9999536959241586,17.414281260903557,0.012278524919690411,11.225828549781944,-5.681969233029601,-4.72430419921875,5356.25390625,True
1599561590.3965309,0.0,10,0.5,0.5,-10.524112426757814,-0.1005,-0.03,-0.12575,0.06763832372363435,10,1,100,0.0819571019760339,-10,-1,-100,15031.228056959691,-0.00750745723235682,0.006020306762933401,0.9999536959241586,17.414281260903557,0.012278524919690411,11.225828549781944,-5.681969233029601,-4.72430419921875,5356.25390625,True
1599561590.4304693,0.0,10,0.5,0.5,-11.936374572753907,-0.1005,-0.03,-0.12575,0.02710273748914656,10,1,100,0.09150951569471209,-10,-1,-100,15030.84719331155,-0.007592927605849111,0.005654396813308756,0.9999551866194054,16.54025069505445,0.011703293211564197,11.70912442210833,-6.239350454213307,0.97589111328125,5356.25390625,True
1599561590.4598083,0.0,10,0.5,0.5,-11.73100157928467,-0.1005,-0.03,-0.12575,0.05156838730896772,10,1,100,0.0846749462547356,-10,-1,-100,15030.739770463551,-0.007607471345796894,0.0055465432379737025,0.999955680136791,16.685669157601307,0.011788437132183789,12.164101771740325,-6.425148711969156,2.738311767578125,5356.25390625,True
1599561590.492718,0.0,10,0.5,0.5,-12.378135955810547,-0.1005,-0.03,-0.12575,0.04119915436582918,10,1,100,0.08643394794077978,-10,-1,-100,15030.462424457888,-0.007635646480268088,0.0053567036628525844,0.9999565003682395,17.527169132599983,0.012299529546741354,13.517234395798987,-6.796746619917667,6.056732177734375,5356.25390625,True
1599561590.52563,0.0,10,0.5,0.5,-12.080174514770508,-0.1005,-0.03,-0.12575,0.059912210551407476,10,1,100,0.08372014061859669,-10,-1,-100,15030.462424457888,-0.007635646480268088,0.0053567036628525844,0.9999565003682395,17.527169132599983,0.012299529546741354,13.517234395798987,-6.796746619917667,6.056732177734375,5356.25390625,True
1599561590.5625358,0.0,10,0.5,0.5,-13.200530700683593,-0.1005,-0.03,-0.12575,0.03472966432315004,10,1,100,0.08505024212563086,-10,-1,-100,15030.08156191383,-0.007646908016473668,0.005130059075750426,0.9999576027470699,18.614577125300595,0.012835145522722446,15.534442372642983,-7.354142506783279,10.518218994140625,5356.25390625,True
1599561590.59744,0.0,10,0.5,0.5,-12.732354263305664,-0.1005,-0.03,-0.12575,0.05719500174626519,10,1,100,0.08397708998668596,-10,-1,-100,15030.08156191383,-0.007646908016473668,0.005130059075750426,0.9999576027470699,18.614577125300595,0.012835145522722446,15.534442372642983,-7.354142506783279,10.518218994140625,5356.25390625,True
1599561590.6313145,0.0,10,0.5,0.5,-13.412951583862306,-0.1005,-0.03,-0.12575,0.04487759676948534,10,1,100,0.0827437754329345,-10,-1,-100,15029.741716356366,-0.0076352828107109395,0.005019731914951733,0.9999582515024827,19.227578199188034,0.013054875723753676,16.8577770711973,-7.725736069901916,13.148468017578125,5356.25390625,True
1599561590.6612344,0.0,10,0.5,0.5,-13.694318126678468,-0.1005,-0.03,-0.12575,0.04704718411585734,10,1,100,0.08277653672260228,-10,-1,-100,15029.400895079598,-0.0076247337298573975,0.00494060837643028,0.9999587260604407,19.761542780699724,0.013182836848498662,18.160381735107848,-8.097324806164986,15.503433227539062,5356.25390625,True
1599561590.6961772,0.0,10,0.5,0.5,-14.153751552581788,-0.1005,-0.03,-0.12575,0.048719680140129736,10,1,100,0.07910940112851889,-10,-1,-100,15028.889174520853,-0.0075816248201747045,0.004885117962259855,0.9999593264666223,20.43349843779137,0.013233965687207591,20.072410105253457,-8.654696432969864,18.519805908203125,5356.25390625,True
1599561590.7300856,0.0,10,0.5,0.5,-13.844175018310548,-0.1005,-0.03,-0.12575,0.05415520267710493,10,1,100,0.08342770885556998,-10,-1,-100,15028.889174520853,-0.0075816248201747045,0.004885117962259855,0.9999593264666223,20.43349843779137,0.013233965687207591,20.072410105253457,-8.654696432969864,18.519805908203125,5356.25390625,True
1599561590.760007,0.0,10,0.5,0.5,-14.291036712646486,-0.1005,-0.03,-0.12575,0.0544252690782774,10,1,100,0.07973289443945396,-10,-1,-100,15028.546400474734,-0.007547968173130179,0.004888605101180217,0.9999595640407778,20.80792186464763,0.013192823478815075,21.319235915009127,-9.026268690433442,20.186676025390625,5356.25390625,True
1599561590.7959075,0.0,10,0.5,0.5,-14.304266563415528,-0.1005,-0.03,-0.12575,0.05550472552188572,10,1,100,0.08093935243408179,-10,-1,-100,15028.374525167164,-0.007528379893434244,0.004902284642151648,0.99995964473646,20.975878292766467,0.013153781552369417,21.934436293798512,-9.212051926273288,20.9168701171875,5356.25390625,True
1599561590.8308167,0.0,10,0.5,0.5,-14.5506904296875,-0.1005,-0.03,-0.12575,0.059911007804074344,10,1,100,0.07812476318066691,-10,-1,-100,15027.973157618311,-0.007485057092727225,0.004955363389778138,0.9999597083352877,21.277444058894407,0.013044253942420852,23.14888082656658,-9.583612366299743,22.17083740234375,5356.25390625,True
1599561590.8607345,0.0,10,0.5,0.5,-14.750147781372071,-0.1005,-0.03,-0.12575,0.07004626826499695,10,1,100,0.07417337593473926,-10,-1,-100,15027.39698643668,-0.00740988792565563,0.005096120382967947,0.999959560741319,21.654381211674377,0.012814111180496236,24.931830987925746,-10.14093748869255,23.53570556640625,5356.25390625,True
1599561590.8946114,0.0,10,0.5,0.5,-14.630952529907228,-0.1005,-0.03,-0.12575,0.05594451061802753,10,1,100,0.08166771678643753,-10,-1,-100,15027.39698643668,-0.00740988792565563,0.005096120382967947,0.999959560741319,21.654381211674377,0.012814111180496236,24.931830987925746,-10.14093748869255,23.53570556640625,5356.25390625,True
1599561590.9269457,0.0,10,0.5,0.5,-14.798033573150635,-0.1005,-0.03,-0.12575,0.0708505548965641,10,1,100,0.07525290721902227,-10,-1,-100,15026.991714025731,-0.007351786947852598,0.005231660729766264,0.9999592896486746,21.861852207257996,0.012623773561778922,26.094936272209992,-10.512477205107896,24.101577758789062,5356.25390625,True
1599561590.9628491,0.0,10,0.5,0.5,-14.842913002014162,-0.1005,-0.03,-0.12575,0.08660114741961539,10,1,100,0.06976121147736593,-10,-1,-100,15026.349137274781,-0.007249311662260804,0.00549797406647064,0.9999586090241875,22.115145442044216,0.012289744928863484,27.800044672051527,-11.069772252016387,24.434341430664062,5356.25390625,True
1599561591.0007474,0.0,10,0.5,0.5,-14.828887516021728,-0.1005,-0.03,-0.12575,0.07168827779327881,10,1,100,0.07560084534663206,-10,-1,-100,15026.115739927161,-0.0072095907752147284,0.005604070792188359,0.9999583072265614,22.18497100712587,0.012166088708880776,28.356985138446497,-11.255533405083387,24.40765380859375,5356.25390625,True
1599561591.0336616,0.0,10,0.5,0.5,-14.74746063232422,-0.1005,-0.03,-0.12575,0.10168367740092057,10,1,100,0.06413229192493751,-10,-1,-100,15025.4135945593,-0.007069598704025294,0.005972604664350522,0.9999571734667878,22.351207111524086,0.011758492912701443,29.98782959541603,-11.812806745111025,23.91485595703125,5356.25390625,True
1599561591.065541,0.0,10,0.5,0.5,-14.825615112304687,-0.1005,-0.03,-0.12575,0.06493903885491337,10,1,100,0.07808029643226605,-10,-1,-100,15025.4135945593,-0.007069598704025294,0.005972604664350522,0.9999571734667878,22.351207111524086,0.011758492912701443,29.98782959541603,-11.812806745111025,23.91485595703125,5356.25390625,True
1599561591.1034741,0.0,10,0.5,0.5,-14.773499938964843,-0.1005,-0.03,-0.12575,0.08038017063852712,10,1,100,0.07257360699675729,-10,-1,-100,15025.176290857373,-0.007020003369262623,0.0061119899653814735,0.9999566806273953,22.39187695220607,0.01161023771902202,30.516151877884514,-11.998561454172963,23.61297607421875,5356.25390625,True
1599561591.1393824,0.0,10,0.5,0.5,-14.52346142578125,-0.1005,-0.03,-0.12575,0.11828807435685294,10,1,100,0.05782010271613568,-10,-1,-100,15024.413600163301,-0.006841273903112605,0.006582209013881481,0.9999549347325009,22.465455891513493,0.01112698764658743,32.042716743513544,-12.55581711714574,22.29461669921875,5356.25390625,True
1599561591.174287,0.0,10,0.5,0.5,-14.255025886535647,-0.1005,-0.03,-0.12575,0.13144234643066935,10,1,100,0.052315066739630225,-10,-1,-100,15023.642121859477,-0.006629371430453741,0.007127737963760065,0.999952622270654,22.45719242757636,0.010586012145291304,33.45725454915882,-13.11306343977266,20.357147216796875,5356.25390625,True
1599561591.2111557,0.0,10,0.5,0.5,-14.493221603393556,-0.1005,-0.03,-0.12575,0.07710668890020918,10,1,100,0.0734197454392893,-10,-1,-100,15023.642121859477,-0.006629371430453741,0.007127737963760065,0.999952622270654,22.45719242757636,0.010586012145291304,33.45725454915882,-13.11306343977266,20.357147216796875,5356.25390625,True
1599561591.24809,0.0,10,0.5,0.5,-14.113640686035158,-0.1005,-0.03,-0.12575,0.12177260813131677,10,1,100,0.05346515856601666,-10,-1,-100,15023.10697061161,-0.006448675655692355,0.007531944849878505,0.9999508409862287,22.42364734921436,0.010207036654297915,34.35707509959064,-13.48455766165233,18.721588134765625,5356.25390625,True
1599561591.2829976,0.0,10,0.5,0.5,-13.633069370269776,-0.1005,-0.03,-0.12575,0.1547328784392515,10,1,100,0.03689787920837227,-10,-1,-100,15022.276900285971,-0.0061346689683579305,0.008196830090542938,0.9999475875330245,22.298978905241906,0.009610451783254294,35.58337155695131,-14.041796527735693,15.752304077148438,5356.25390625,True
1599561591.319866,0.0,10,0.5,0.5,-13.45572369003296,-0.1005,-0.03,-0.12575,0.14118600319353797,10,1,100,0.03971021002377472,-10,-1,-100,15021.681204327964,-0.00587588145817529,0.00867542219858523,0.999945104026599,22.145441643629365,0.009198911379333524,36.27711151589748,-14.413289281044161,13.4288330078125,5356.25390625,True
1599561591.3617566,0.0,10,0.5,0.5,-13.714883651733398,-0.1005,-0.03,-0.12575,0.09364453720252022,10,1,100,0.06545161802163026,-10,-1,-100,15021.681204327964,-0.00587588145817529,0.00867542219858523,0.999945104026599,22.145441643629365,0.009198911379333524,36.27711151589748,-14.413289281044161,13.4288330078125,5356.25390625,True
1599561591.4026446,0.0,10,0.5,0.5,-13.093985801696777,-0.1005,-0.03,-0.12575,0.149163799541541,10,1,100,0.03148342673569629,-10,-1,-100,15021.143125570263,-0.005568292182227744,0.009177350627661422,0.9999423835189857,21.926334005290784,0.008788303337315765,36.84795842634522,-14.784783821459019,10.830108642578125,5356.25390625,True
1599561591.438583,0.0,10,0.5,0.5,-12.018828887939453,-0.1005,-0.03,-0.12575,0.21779926899963314,10,1,100,-0.01663248296259351,-10,-1,-100,15019.890213028528,-0.004852613030947157,0.01025469460738306,0.9999356446218333,21.255384161024974,0.008028375957695144,37.52400312081005,-15.527781480086075,4.807159423828125,5356.25390625,True
1599561591.4794383,0.0,10,0.5,0.5,-12.718891662597656,-0.1005,-0.03,-0.12575,0.11049308002177255,10,1,100,0.05471373359815741,-10,-1,-100,15019.890213028528,-0.004852613030947157,0.01025469460738306,0.9999356446218333,21.255384161024974,0.008028375957695144,37.52400312081005,-15.527781480086075,4.807159423828125,5356.25390625,True
1599561591.5163727,0.0,10,0.5,0.5,-11.887674293518067,-0.1005,-0.03,-0.12575,0.1722330641872383,10,1,100,0.0057668262490387645,-10,-1,-100,15019.286707925377,-0.004409611500808183,0.010812201095576384,0.9999318234929223,20.785282552291864,0.007714884349011248,37.57641483013681,-15.899285565407897,1.38262939453125,5356.25390625,True
1599561591.550249,0.0,10,0.5,0.5,-10.976536880493164,-0.1005,-0.03,-0.12575,0.2097052681460063,10,1,100,-0.03478665677254994,-10,-1,-100,15018.266216778196,-0.0036404254117604045,0.011655836128030301,0.9999254416140125,20.398174552648285,0.007568052866158906,38.1759583544265,-16.456542804958087,-4.27056884765625,5356.25390625,True
1599561591.587153,0.0,10,0.5,0.5,-10.682961860656738,-0.1005,-0.03,-0.12575,0.1883592965650436,10,1,100,-0.021687083763154022,-10,-1,-100,15017.60509695718,-0.003062969581819381,0.0122246063266485,0.9999205854554147,21.214605903223184,0.008024754482539977,40.60518129107195,-16.82802682292566,-8.383636474609375,5356.25390625,True
1599561591.8494945,0.0,10,0.5,0.5,-11.113957763671875,-0.1005,-0.03,-0.12575,0.13199196353951248,10,1,100,0.035701859046084895,-10,-1,-100,15017.60509695718,-0.003062969581819381,0.0122246063266485,0.9999205854554147,21.214605903223184,0.008024754482539977,40.60518129107195,-16.82802682292566,-8.383636474609375,5356.25390625,True
1599561591.8794053,0.0,10,0.5,0.5,-10.039601509094238,-0.1005,-0.03,-0.12575,0.19103943869833534,10,1,100,-0.03679541146911659,-10,-1,-100,15016.943977883551,-0.002406981400839252,0.0127571354994771,0.9999157274162578,22.044951731029563,0.008614395938157476,43.131209973860045,-17.199484705332306,-12.77276611328125,5356.25390625,True
1599561591.9113207,0.0,10,0.5,0.5,-10.505959350585938,-0.1005,-0.03,-0.12575,0.13824255195636886,10,1,100,0.02843063787214444,-10,-1,-100,15016.943977883551,-0.002406981400839252,0.0127571354994771,0.9999157274162578,22.044951731029563,0.008614395938157476,43.131209973860045,-17.199484705332306,-12.77276611328125,5356.25390625,True
1599561591.948061,0.0,10,0.5,0.5,-9.372020652770997,-0.1005,-0.03,-0.12575,0.19803875804874974,10,1,100,-0.04869194255650415,-10,-1,-100,15016.217429720797,-0.001709020578812752,0.013297026724588842,0.9999101301261762,22.8875407575771,0.009323941867899062,45.7524506600568,-17.570911615284473,-17.437225341796875,5356.25390625,True
1599561591.976023,0.0,10,0.5,0.5,-8.16585115814209,-0.1005,-0.03,-0.12575,0.22506347667604565,10,1,100,-0.10829070477800484,-10,-1,-100,15015.191085125785,-0.0005364918666653479,0.014029314730824022,0.9999014403953324,24.00676078714556,0.010479021666588973,49.520429600346375,-18.127989114016316,-24.95159912109375,5356.25390625,True
1599561592.0547764,0.0,10,0.5,0.5,-9.003438537597656,-0.1005,-0.03,-0.12575,0.1523198724628439,10,1,100,0.008458986405179307,-10,-1,-100,15015.191085125785,-0.0005364918666653479,0.014029314730824022,0.9999014403953324,24.00676078714556,0.010479021666588973,49.520429600346375,-18.127989114016316,-24.95159912109375,5356.25390625,True
1599561592.0866902,0.0,10,0.5,0.5,-6.428629806518555,-0.1005,-0.03,-0.12575,0.241434356035312,10,1,100,-0.1841233914603153,-10,-1,-100,15013.676470192382,0.0012103332765079832,0.01483601492682515,0.9998892077397629,25.24721517511583,0.011941858760781385,54.22585772421837,-18.870641252549923,-35.9373779296875,5356.25390625,True
1599561592.1206021,0.0,10,0.5,0.5,-7.687857879638672,-0.1005,-0.03,-0.12575,0.1612224684671435,10,1,100,-0.0100471717737277,-10,-1,-100,15013.676470192382,0.0012103332765079832,0.01483601492682515,0.9998892077397629,25.24721517511583,0.011941858760781385,54.22585772421837,-18.870641252549923,-35.9373779296875,5356.25390625,True
1599561592.1495225,0.0,10,0.5,0.5,-5.547719337463379,-0.1005,-0.03,-0.12575,0.21311310801525474,10,1,100,-0.16707810598199807,-10,-1,-100,15012.52512916224,0.0026327781831492446,0.015304090001052298,0.9998794193842966,25.806366324667227,0.01264700370647257,57.07279908269414,-19.427556739061604,-44.901702880859375,5356.25390625,True
1599561592.182946,0.0,10,0.5,0.5,-6.553089797973634,-0.1005,-0.03,-0.12575,0.16667042597984205,10,1,100,-0.025460935677362895,-10,-1,-100,15012.52512916224,0.0026327781831492446,0.015304090001052298,0.9998794193842966,25.806366324667227,0.01264700370647257,57.07279908269414,-19.427556739061604,-44.901702880859375,5356.25390625,True
1599561592.2118697,0.0,10,0.5,0.5,-5.013185142517091,-0.1005,-0.03,-0.12575,0.19011768134160764,10,1,100,-0.13455637467667184,-10,-1,-100,15011.734130443656,0.0036193769488111725,0.015514447337364345,0.9998730929644615,25.958579229014212,0.01282312177037281,58.51353974993791,-19.798812482727435,-51.22369384765625,5356.25390625,True
1599561592.247777,0.0,10,0.5,0.5,-4.18661109161377,-0.1005,-0.03,-0.12575,0.1797801140830919,10,1,100,-0.14439962402129158,-10,-1,-100,15010.945082998136,0.0045996941420634405,0.015608712630742686,0.9998675966865864,25.922130447637688,0.01273634592048933,59.534302735328446,-20.170061024908925,-57.822784423828125,5356.25390625,True
1599561592.2821958,0.0,10,0.5,0.5,-4.1113990249633785,-0.1005,-0.03,-0.12575,0.17501790263280845,10,1,100,-0.10351332520619125,-10,-1,-100,15010.519309158088,0.00511282825984377,0.015648523177782904,0.999864482172229,25.812346937513116,0.012587911175972959,59.831467336650896,-20.35568582225406,-61.22564697265625,5356.25390625,True
1599561592.3121161,0.0,10,0.5,0.5,-1.9901545715332032,-0.1005,-0.03,-0.12575,0.16342812479372038,10,1,100,-0.21461965516018128,-10,-1,-100,15009.301555999322,0.006582535175897903,0.015576724433211115,0.9998570077198988,25.085157938783254,0.011785618964869043,59.7482263338996,-20.912578414427855,-71.85015869140625,5356.25390625,True
1599561592.3480186,0.0,10,0.5,0.5,-1.4822298889160157,-0.1005,-0.03,-0.12575,0.15450238030586977,10,1,100,-0.17412709430885964,-10,-1,-100,15008.44609886955,0.0075429804047944535,0.015428237263066644,0.9998525255964339,24.249978779308286,0.011059867766202464,58.79245179059315,-21.28386626179257,-79.27874755859375,5356.25390625,True
1599561592.3813639,0.0,10,0.5,0.5,-0.5101195678710937,-0.1005,-0.03,-0.12575,0.14405880848770064,10,1,100,-0.1757764775204698,-10,-1,-100,15007.5935694949,0.008423761849104629,0.015197035616831731,0.999849033776985,23.125659438839897,0.01031117878379799,57.05280162804495,-21.655181144145203,-86.98382568359375,5356.25390625,True
1599561592.4123163,0.0,10,0.5,0.5,-0.39787391090393065,-0.1005,-0.03,-0.12575,0.1519100951087392,10,1,100,-0.13603317400965242,-10,-1,-100,15007.10529190884,0.008855023808637567,0.015057166070549426,0.9998474235118437,22.454630695986136,0.009962902353268603,55.876310804199,-21.840848688337918,-90.93990325927734,5356.25390625,True
1599561592.447188,0.0,10,0.5,0.5,1.1020640697479247,-0.1005,-0.03,-0.12575,0.1297516515296485,10,1,100,-0.182307919806814,-10,-1,-100,15006.251783032785,0.009660809924067043,0.014728370494897666,0.9998448598928616,22.151742763159927,0.009923387485723552,56.06793648802251,-22.212188815796555,-99.0389404296875,5356.25390625,True
1599561592.4760158,0.0,10,0.5,0.5,1.2027921142578126,-0.1005,-0.03,-0.12575,0.14193038034729955,10,1,100,-0.1445591214374468,-10,-1,-100,15005.821121429792,0.010042489610510902,0.014540279001221918,0.9998438521534198,22.98932391744742,0.01044182704366431,58.67854444606574,-22.39784312101946,-103.14889526367188,5356.25390625,True
1599561592.5109224,0.0,10,0.5,0.5,2.727847631454468,-0.1005,-0.03,-0.12575,0.11617039525975978,10,1,100,-0.1835468725388993,-10,-1,-100,15004.90413319401,0.010737169143266377,0.014135799425266177,0.9998424337731409,24.45763826146928,0.011533793127923372,63.470250729347626,-22.769112254593907,-111.40145111083984,5356.25390625,True
1599561592.5462697,0.0,10,0.5,0.5,1.8895879783630372,-0.1005,-0.03,-0.12575,0.15650152379775523,10,1,100,-0.1148893583593635,-10,-1,-100,15004.90413319401,0.010737169143266377,0.014135799425266177,0.9998424337731409,24.45763826146928,0.011533793127923372,63.470250729347626,-22.769112254593907,-111.40145111083984,5356.25390625,True
1599561592.575192,0.0,10,0.5,0.5,3.8926617336273197,-0.1005,-0.03,-0.12575,0.10738223151996304,10,1,100,-0.18442144411557473,-10,-1,-100,15003.987142492784,0.011362808293600611,0.013690513720842701,0.9998417156839088,25.583479019261272,0.012555719360386512,67.48389436464119,-23.14033075254979,-119.45687866210938,5356.25390625,True
1599561592.6091018,0.0,10,0.5,0.5,3.9537444877624512,-0.1005,-0.03,-0.12575,0.12721400780007674,10,1,100,-0.15311877988258407,-10,-1,-100,15003.493978721322,0.011640853197103148,0.013467741227467757,0.9998415426871768,26.01082118658028,0.012991777897100433,69.16622804987446,-23.3259234833776,-123.38682556152344,5356.25390625,True
1599561592.6430106,0.0,10,0.5,0.5,5.378170551300049,-0.1005,-0.03,-0.12575,0.09710943251894028,10,1,100,-0.18153188709231433,-10,-1,-100,15002.574056013138,0.012145987697705493,0.01299352535088958,0.9998418091287256,26.740971133809314,0.013712249233096246,72.24919938317117,-23.697081574767772,-131.04266357421875,5356.25390625,True
1599561592.677918,0.0,10,0.5,0.5,7.074319465637208,-0.1005,-0.03,-0.12575,0.06826985576627129,10,1,100,-0.1979379578659722,-10,-1,-100,15001.103349250741,0.012749289293902871,0.012302590400869085,0.9998430386275281,27.293951499078805,0.014154294151483528,75.49125097865978,-24.253774410074957,-142.00970458984375,5356.25390625,True
1599561592.7128215,0.0,10,0.5,0.5,7.4594997253417965,-0.1005,-0.03,-0.12575,0.08789682829441536,10,1,100,-0.17215738795856272,-10,-1,-100,15000.120923160692,0.013058643465024848,0.011855736239162851,0.9998444445757954,27.30429542142108,0.01400034538984529,76.68626241571867,-24.624893168430006,-148.97586059570312,5356.25390625,True
1599561592.7517211,0.0,10,0.5,0.5,6.7694817123413085,-0.1005,-0.03,-0.12575,0.13224811452727184,10,1,100,-0.141685459007957,-10,-1,-100,15000.120923160692,0.013058643465024848,0.011855736239162851,0.9998444445757954,27.30429542142108,0.01400034538984529,76.68626241571867,-24.624893168430006,-148.97586059570312,5356.25390625,True
1599561592.7876258,0.0,10,0.5,0.5,9.90796654891968,-0.1005,-0.03,-0.12575,0.04604824179298625,10,1,100,-0.1893142547092356,-10,-1,-100,14998.15411683952,0.013487811044439756,0.011075011423243334,0.9998476999399482,26.624520813972378,0.012934828718937792,77.05399553905067,-25.367155683046793,-162.0780792236328,5356.25390625,True
1599561592.823529,0.0,10,0.5,0.5,8.449479972839356,-0.1005,-0.03,-0.12575,0.12375538747777258,10,1,100,-0.14678019687978208,-10,-1,-100,14998.15411683952,0.013487811044439756,0.011075011423243334,0.9998476999399482,26.624520813972378,0.012934828718937792,77.05399553905067,-25.367155683046793,-162.0780792236328,5356.25390625,True
1599561592.8554432,0.0,10,0.5,0.5,10.685192237854004,-0.1005,-0.03,-0.12575,0.07037049483114405,10,1,100,-0.1650916162471528,-10,-1,-100,14996.553522621747,0.013651146382839555,0.0105928444606176,0.9998507077802503,25.64666753868239,0.011893677298805704,75.87110350660407,-25.92389790262419,-171.1782989501953,5356.25390625,True
1599561592.8953364,0.0,10,0.5,0.5,9.720170150756836,-0.1005,-0.03,-0.12575,0.11823289559725253,10,1,100,-0.14904948013113029,-10,-1,-100,14996.553522621747,0.013651146382839555,0.0105928444606176,0.9998507077802503,25.64666753868239,0.011893677298805704,75.87110350660407,-25.92389790262419,-171.1782989501953,5356.25390625,True
1599561592.9312415,0.0,10,0.5,0.5,-69.02457838058473,-0.1005,-0.03,-0.12575,0.06757438378628489,10,1,100,-0.1570747485342093,-10,-1,-100,14994.458785656258,0.013721454298104297,0.01013553340321303,0.9998544857400887,23.94124325755969,0.010791223301067472,72.87841748309981,-26.666288040007835,177.65740966796875,5356.25390625,True
1599561592.9671428,0.0,10,0.5,0.5,-24.880861045837406,-0.1005,-0.03,-0.12575,0.09683776653703766,10,1,100,-0.1464977074331424,-10,-1,-100,14993.40799904638,0.013687071441967543,0.009989058630868108,0.9998564310854892,24.24055421169991,0.011049622498733787,74.82937435484033,-27.037488336067216,172.49069213867188,5356.25390625,True
1599561593.0030484,0.0,10,0.5,0.5,-25.83850484466553,-0.1005,-0.03,-0.12575,0.10563989414786876,10,1,100,-0.14844408276860677,-10,-1,-100,14992.851356413332,0.01367164842285211,0.009939081527559008,0.9998571401394254,24.71721606377767,0.01139775566656946,76.83107539363805,-27.22307558400056,169.928466796875,5356.25390625,True
1599561593.0329685,0.0,10,0.5,0.5,-25.86965357208252,-0.1005,-0.03,-0.12575,0.1040939460491249,10,1,100,-0.14337453148824247,-10,-1,-100,14991.741977942293,0.013610153702266455,0.009882370490765182,0.99985854122955,25.709435247678226,0.012239838884785087,81.01858898310033,-27.594221034806413,164.65127563476562,5356.25390625,True
1599561593.0678751,0.0,10,0.5,0.5,-26.20116967010498,-0.1005,-0.03,-0.12575,0.11015753400019407,10,1,100,-0.13996223237097927,-10,-1,-100,14990.631623362424,0.013522445905751317,0.009888138729516972,0.9998596742389363,26.61761533283947,0.01318080179742159,85.02297641089343,-27.965326182447015,159.11724853515625,5356.25390625,True
1599561593.1027808,0.0,10,0.5,0.5,-27.82135290527344,-0.1005,-0.03,-0.12575,0.10938395037405042,10,1,100,-0.1487793922665657,-10,-1,-100,14990.631623362424,0.013522445905751317,0.009888138729516972,0.9998596742389363,26.61761533283947,0.01318080179742159,85.02297641089343,-27.965326182447015,159.11724853515625,5356.25390625,True
1599561593.1336982,0.0,10,0.5,0.5,-26.752187313079837,-0.1005,-0.03,-0.12575,0.12293156078604928,10,1,100,-0.1312847891071853,-10,-1,-100,14988.903105037753,0.01336298242026538,0.010013087549180276,0.9998605746695728,27.76886784513238,0.014617740540207225,90.48821519159702,-28.52190861894445,150.3064422607422,5356.25390625,True
