Timestamp,Input Throttle,horizon,dT,dt,Input Roll,Roll P,Roll I,Roll D,Input Pitch,Pitch P,Pitch I,Pitch D,Input Yaw,Yaw P,Yaw I,Yaw D,Altitude,Direction X,Direction Y,Direction Z,Drag X,Drag Y,Drag Z,Vertical Velocity,Roll,Mass,Has Fuel
1599558928.3697844,0.0,10,0.5,0.5,-0.05881988525390625,-0.001,-0.0155,-0.5,-0.0002696606757953828,10,1,100,0.17501374724380903,-10,-1,-100,14993.923618655535,-0.016812029910092008,-7.389160862029075e-05,0.9998586651073903,28.64440802028153,0.02727514938881577,-87.5033444749508,27.008978766573186,-31.79046630859375,5356.25390625,True
1599558928.3966775,0.0,10,0.5,0.5,-0.14877067565917967,-0.001,-0.0155,-0.5,-0.00043413533763666265,10,1,100,0.17372777455695385,-10,-1,-100,14994.4675664854,-0.016847723296137686,-7.105370035276099e-05,0.9998580645127131,28.571709185156656,0.02743952140398011,-86.68188681752082,26.823011324288395,-31.789794921875,5356.25390625,True
1599558928.4325793,0.0,10,0.5,0.5,-0.23933352966308596,-0.001,-0.0155,-0.5,-0.0001654537987882959,10,1,100,0.18001532478151688,-10,-1,-100,14995.53690552048,-0.016922015264315114,-6.596663002879172e-05,0.9998568102722499,28.42652872809612,0.027763871300276764,-85.04877359260196,26.45108797918101,-31.7884521484375,5356.25390625,True
1599558928.4664915,0.0,10,0.5,0.5,-0.315389584350586,-0.001,-0.0155,-0.5,0.0112741481387034,10,1,100,0.18053980975213618,-10,-1,-100,14997.093549408833,-0.016978937812150846,4.271433027022192e-05,0.9998558465330175,28.211424634870177,0.028240986576494286,-82.62975381864165,25.893232345419886,-31.815399169921875,5356.25390625,True
1599558928.5033927,0.0,10,0.5,0.5,-0.4037140518188477,-0.001,-0.0155,-0.5,0.005804706563366357,10,1,100,0.17795340827503076,-10,-1,-100,14997.58280818595,-0.016991737444198598,9.175417592056101e-05,0.9998556257979442,28.141735199197882,0.02839835043440618,-81.83527888434045,25.707288261775336,-31.84600830078125,5356.25390625,True
1599558928.5408094,0.0,10,0.5,0.5,-0.5091573043823242,-0.001,-0.0155,-0.5,0.000909897415924504,10,1,100,0.17837261881467542,-10,-1,-100,14997.58280818595,-0.016991737444198598,9.175417592056101e-05,0.9998556257979442,28.141735199197882,0.02839835043440618,-81.83527888434045,25.707288261775336,-31.84600830078125,5356.25390625,True
1599558928.6016464,0.0,10,0.5,0.5,-0.44181613311767587,-0.001,-0.0155,-0.5,0.03627772527214643,10,1,100,0.1776065406753392,-10,-1,-100,14999.599409530638,-0.01696932606343718,0.0004131964708171961,0.9998559252420467,27.88092526685022,0.02902216148046976,-78.73727317614973,24.963549343215526,-32.16033935546875,5356.25390625,True
1599558928.6355553,0.0,10,0.5,0.5,-0.617415544128418,-0.001,-0.0155,-0.5,0.016583137478243033,10,1,100,0.17881596837866837,-10,-1,-100,15000.142376543605,-0.01694452021817212,0.0005259993985324543,0.9998562929537469,27.82130553163514,0.02917649092298583,-77.98524813698143,24.777623716159304,-32.302490234375,5356.25390625,True
1599558928.6644783,0.0,10,0.5,0.5,-0.586851658630371,-0.001,-0.0155,-0.5,0.03469613413350407,10,1,100,0.1750857272616178,-10,-1,-100,15001.088662471506,-0.016872654057577815,0.0007927329393227599,0.9998573323827455,27.7093650229535,0.029481515831713177,-76.50883534622824,24.405783271949538,-32.683868408203125,5356.25390625,True
1599558928.6973958,0.0,10,0.5,0.5,-0.4572083251953125,-0.001,-0.0155,-0.5,0.06167924922220198,10,1,100,0.16365068554748274,-10,-1,-100,15002.561312989565,-0.01668802748322033,0.0012797983563572707,0.999859926117097,27.56033975635656,0.029924664460976105,-74.3627203827401,23.848047973183707,-33.500579833984375,5356.25390625,True
1599558928.7310145,0.0,10,0.5,0.5,-0.7787330184936524,-0.001,-0.0155,-0.5,0.03387606347621461,10,1,100,0.1752778268812158,-10,-1,-100,15003.034942243947,-0.016610715493671806,0.0014686654120102524,0.9998609539094404,27.51545657989518,0.030066566549263894,-73.66432519264274,23.662142802275714,-33.84869384765625,5356.25390625,True
1599558928.7669184,0.0,10,0.5,0.5,-0.3141761886596679,-0.001,-0.0155,-0.5,0.08303271600016943,10,1,100,0.14914047887139892,-10,-1,-100,15004.397237559431,-0.01630300262528065,0.0020858390700756154,0.9998649215672953,27.39399330206031,0.030465673187711987,-71.6148387445561,23.1044460034168,-35.11700439453125,5356.25390625,True
1599558928.7978363,0.0,10,0.5,0.5,-0.9431742874145508,-0.001,-0.0155,-0.5,0.021531039470675962,10,1,100,0.17985729364342878,-10,-1,-100,15004.397237559431,-0.01630300262528065,0.0020858390700756154,0.9998649215672953,27.39399330206031,0.030465673187711987,-71.6148387445561,23.1044460034168,-35.11700439453125,5356.25390625,True
1599558928.8307478,0.0,10,0.5,0.5,-0.41047279510498047,-0.001,-0.0155,-0.5,0.07380684606093943,10,1,100,0.15194130207184836,-10,-1,-100,15005.330823167227,-0.016049783622483587,0.002559117488441552,0.9998679189589751,27.320743366450326,0.030700301519832853,-70.27681619279728,22.73266364640941,-36.16998291015625,5356.25390625,True
1599558928.864657,0.0,10,0.5,0.5,0.03053700256347658,-0.001,-0.0155,-0.5,0.11180295313613131,10,1,100,0.12544497526781573,-10,-1,-100,15006.679441646556,-0.015579553516440203,0.003332502112041265,0.9998730779163433,27.218211296311786,0.03098555039388899,-68.29962876737936,22.175012439399744,-38.087646484375,5356.25390625,True
1599558928.900561,0.0,10,0.5,0.5,-0.918620245361328,-0.001,-0.0155,-0.5,0.034788565569772105,10,1,100,0.17232676747937833,-10,-1,-100,15006.679441646556,-0.015579553516440203,0.003332502112041265,0.9998730779163433,27.218211296311786,0.03098555039388899,-68.29962876737936,22.175012439399744,-38.087646484375,5356.25390625,True
1599558928.9364667,0.0,10,0.5,0.5,-0.539586636352539,-0.001,-0.0155,-0.5,0.06454114522946487,10,1,100,0.15193544043947915,-10,-1,-100,15007.081781027373,-0.015395461619648172,0.0036000339744601804,0.9998750019461935,27.184500871806886,0.03105767494382612,-67.64456883290559,21.989134637171166,-38.82489013671875,5356.25390625,True
1599558928.9644272,0.0,10,0.5,0.5,0.7342550750732423,-0.001,-0.0155,-0.5,0.16637919607000654,10,1,100,0.07658085429206017,-10,-1,-100,15008.818088770728,-0.014544494443445962,0.004766148095660807,0.9998828638964241,27.034145444614886,0.03119017976653899,-65.00104400887366,21.24565395425169,-42.0826416015625,5356.25390625,True
1599558928.9973378,0.0,10,0.5,0.5,-0.8794614227294921,-0.001,-0.0155,-0.5,0.05019179881965673,10,1,100,0.16143756933480857,-10,-1,-100,15008.818088770728,-0.014544494443445962,0.004766148095660807,0.9998828638964241,27.034145444614886,0.03119017976653899,-65.00104400887366,21.24565395425169,-42.0826416015625,5356.25390625,True
1599558929.0338573,0.0,10,0.5,0.5,0.5882176681518555,-0.001,-0.0155,-0.5,0.15111166998564146,10,1,100,0.07572628158748138,-10,-1,-100,15010.098345136852,-0.01376741742721038,0.005679989274300361,0.9998890918193021,26.889432364423833,0.03108705437743868,-62.96005210271216,20.68807721647928,-44.983062744140625,5356.25390625,True
1599558929.064775,0.0,10,0.5,0.5,0.18787901153564446,-0.001,-0.0155,-0.5,0.1331576578152659,10,1,100,0.08941721492751221,-10,-1,-100,15010.904975682264,-0.01318810190650196,0.006343535516134775,0.9998929110286057,26.77030708618262,0.03090485026954329,-61.55739560559877,20.31637670442868,-47.0430908203125,5356.25390625,True
1599558929.0976877,0.0,10,0.5,0.5,-0.8216837112426758,-0.001,-0.0155,-0.5,0.06729052064223696,10,1,100,0.14700650563963735,-10,-1,-100,15010.904975682264,-0.01318810190650196,0.006343535516134775,0.9998929110286057,26.77030708618262,0.03090485026954329,-61.55739560559877,20.31637670442868,-47.0430908203125,5356.25390625,True
1599558929.131085,0.0,10,0.5,0.5,-0.2770932357788086,-0.001,-0.0155,-0.5,0.1010935272989677,10,1,100,0.11237548917912735,-10,-1,-100,15011.307314958889,-0.012876106212059849,0.0066469649435177275,0.9998950063610956,26.701134921008705,0.030775687787543988,-60.8379160203823,20.13053224029479,-48.09320068359375,5356.25390625,True
1599558929.166986,0.0,10,0.5,0.5,0.7515741287231446,-0.001,-0.0155,-0.5,0.17569381999264133,10,1,100,0.031560965538735,-10,-1,-100,15012.501634858549,-0.011860911635302746,0.007596847878468861,0.9999007984182684,26.464357532191983,0.030253224985348187,-58.63205819393639,19.573022483830364,-51.154296875,5356.25390625,True
1599558929.1979039,0.0,10,0.5,0.5,-0.21640269927978517,-0.001,-0.0155,-0.5,0.11677818564376026,10,1,100,0.09237410101023594,-10,-1,-100,15012.850263347733,-0.011494662226161917,0.007920201388534585,0.9999025668285242,26.372587457097357,0.030032881076612346,-57.875210373829574,19.387194274265124,-52.2308349609375,5356.25390625,True
1599558929.2313914,0.0,10,0.5,0.5,0.9419338241577149,-0.001,-0.0155,-0.5,0.18440218129536196,10,1,100,-0.00016323680158558673,-10,-1,-100,15014.044585675816,-0.010324173229826674,0.00882475208608481,0.9999077633450697,26.05098167971133,0.02922733181539461,-55.52912098483273,18.829737599174713,-55.573516845703125,5356.25390625,True
1599558929.265262,0.0,10,0.5,0.5,0.41201122741699225,-0.001,-0.0155,-0.5,0.16074133741563232,10,1,100,0.023300871688507876,-10,-1,-100,15014.76625751669,-0.009478180019692407,0.009426979366792886,0.9999106440895269,25.804915055362578,0.02858622116872805,-53.921428410774354,18.458124504293682,-57.797698974609375,5356.25390625,True
1599558929.301165,0.0,10,0.5,0.5,-0.12875779876708981,-0.001,-0.0155,-0.5,0.1304478038733495,10,1,100,0.059841804011628856,-10,-1,-100,15015.112934456789,-0.009046664923962314,0.009693765730331901,0.9999120905158208,25.670832617380533,0.02823599570002263,-53.102483979117714,18.272325781827632,-58.879364013671875,5356.25390625,True
1599558929.3330812,0.0,10,0.5,0.5,0.36796983947753903,-0.001,-0.0155,-0.5,0.16150808143665343,10,1,100,0.003630204024568179,-10,-1,-100,15015.833630850306,-0.008148361954797572,0.010214185295365885,0.999914633664397,25.395280191322765,0.02750038368396313,-51.466530326478775,17.90074467238354,-60.89837646484375,5356.25390625,True
1599558929.3989062,0.0,10,0.5,0.5,0.3707457092285157,-0.001,-0.0155,-0.5,0.16493186739239324,10,1,100,-0.011116169670824558,-10,-1,-100,15016.569953214494,-0.007203479615133917,0.010713466556631046,0.9999166622852999,25.107757148810084,0.02672580058730938,-49.829977086556184,17.529185173027425,-62.860687255859375,5356.25390625,True
1599558929.4378018,0.0,10,0.5,0.5,0.838686312866211,-0.001,-0.0155,-0.5,0.18445332333186348,10,1,100,-0.07753110603939052,-10,-1,-100,15017.570922663785,-0.005746690737372792,0.011340250505156076,0.999919183866401,24.64388602306613,0.025501436720433868,-47.357821657505845,16.971887529733635,-65.69778442382812,5356.25390625,True
1599558929.501629,0.0,10,0.5,0.5,-0.5509474960327149,-0.001,-0.0155,-0.5,0.12227459997826262,10,1,100,0.06740364061980914,-10,-1,-100,15017.570922663785,-0.005746690737372792,0.011340250505156076,0.999919183866401,24.64388602306613,0.025501436720433868,-47.357821657505845,16.971887529733635,-65.69778442382812,5356.25390625,True
1599558929.5804188,0.0,10,0.5,0.5,1.5310918212890625,-0.001,-0.0155,-0.5,0.2059010431592114,10,1,100,-0.20884467374312327,-10,-1,-100,15019.22228465043,-0.00324210734422716,0.012095948429538319,0.9999215853113477,23.91944282317604,0.02350894041832029,-43.45583455020337,16.043167342176364,-69.79583740234375,5356.25390625,True
1599558929.8307502,0.0,10,0.5,0.5,1.0464392211914062,-0.001,-0.0155,-0.5,0.17462971706475514,10,1,100,-0.19301645692902036,-10,-1,-100,15020.4849796989,-0.001117864411375551,0.012493708138585281,0.9999213257232318,23.34540222939708,0.02197725920379838,-40.45320292477505,15.300283747380552,-72.8511962890625,5356.25390625,True
1599558930.0062842,0.0,10,0.5,0.5,2.2197624084472656,-0.001,-0.0155,-0.5,0.12803842449456,10,1,100,-0.41874877531602167,-10,-1,-100,15022.787722684792,0.0028556111063496267,0.012427298977753368,0.9999187005578638,22.101240931808515,0.01914538551715446,-34.58632035503634,13.81475441812343,-78.17529296875,5356.25390625,True
1599558930.14491,0.0,10,0.5,0.5,0.17827947998046878,-0.001,-0.0155,-0.5,0.01928317884133697,10,1,100,-0.3264763398405635,-10,-1,-100,15024.613892016816,0.005615975551475158,0.011374145600523038,0.9999195415784529,21.49067947400873,0.01741982122421907,-30.47253404169614,12.515113645472248,-79.33367919921875,5356.25390625,True
1599558930.277556,0.0,10,0.5,0.5,-1.207764613342285,-0.001,-0.0155,-0.5,-0.04923669509223805,10,1,100,-0.19984771484258892,-10,-1,-100,15026.041605447768,0.006959737411806506,0.009791507864086203,0.9999278416110364,21.41131755644122,0.016372186560347907,-27.661875610555494,11.401217060658942,-77.64968872070312,5356.25390625,True
1599558930.4276721,0.0,10,0.5,0.5,-2.074570231628418,-0.001,-0.0155,-0.5,-0.11264637669220436,10,1,100,-0.09726147952233394,-10,-1,-100,15027.325742634479,0.007233793402440415,0.007775963245055484,0.9999436017239285,21.644532771269148,0.015509293094585964,-25.234585959102454,10.28734634602551,-74.177490234375,5356.25390625,True
1599558930.7167494,0.0,10,0.5,0.5,-1.5960639465332032,-0.001,-0.0155,-0.5,-0.15035028075218382,10,1,100,-0.010211719545403258,-10,-1,-100,15028.458505606395,0.006676773341111505,0.005602630647650723,0.9999620148923546,21.816711386219023,0.014585933835210702,-22.68398133153073,9.173479263613707,-71.6199951171875,5356.25390625,True
1599558930.7865622,0.0,10,0.5,0.5,-0.43452518005371094,-0.001,-0.0155,-0.5,-0.12376643507168009,10,1,100,0.029041220332845903,-10,-1,-100,15029.340305642108,0.005800069163468495,0.0038727373876943512,0.9999756802556875,21.648896191940885,0.013667675883540195,-20.233656452947336,8.245263755031234,-71.35287475585938,5356.25390625,True
1599558930.8663502,0.0,10,0.5,0.5,0.04535188293457032,-0.001,-0.0155,-0.5,-0.053609737769185865,10,1,100,0.010349694478040648,-10,-1,-100,15029.837357430835,0.005161166919947078,0.0029441141533648124,0.9999823471181263,21.419531660991623,0.013076662288436142,-18.667981467769817,7.688337758667838,-72.01785278320312,5356.25390625,True
1599558930.9713094,0.0,10,0.5,0.5,0.4973681427001953,-0.001,-0.0155,-0.5,-0.08128636599133672,10,1,100,0.043699780615367424,-10,-1,-100,15030.386167748598,0.004267247863081618,0.0018559383531836706,0.99998917298564,20.983785914357945,0.01226718330825276,-16.52283351155684,6.945769545204534,-73.56417846679688,5356.25390625,True
1599558931.0331454,0.0,10,0.5,0.5,0.6297523986816407,-0.001,-0.0155,-0.5,-0.08053390341201692,10,1,100,0.055066228763380486,-10,-1,-100,15030.934983185725,0.0033421592476761235,0.0008821502966055146,0.9999940258733636,20.466653097364198,0.011484823228299764,-14.393447247354613,6.203192326759856,-75.34732055664062,5356.25390625,True
1599558931.0740352,0.0,10,0.5,0.5,0.37312788848876954,-0.001,-0.0155,-0.5,-0.05519322563387799,10,1,100,0.03788229576686446,-10,-1,-100,15031.292399353813,0.0026514014731013618,0.0002374525869111203,0.9999964568369718,20.06201355392658,0.010942072812903334,-12.842565916011015,5.6462449092130615,-76.59750366210938,5356.25390625,True
1599558931.1548197,0.0,10,0.5,0.5,0.09250125427246095,-0.001,-0.0155,-0.5,-0.03548700184279157,10,1,100,0.01841476748762888,-10,-1,-100,15031.468177562812,0.0021969907843132864,-0.00015834670057238522,0.9999975740759655,19.803373966569087,0.01061208484073181,-11.843576792398007,5.274935807908509,-77.27346801757812,5356.25390625,True
1599558931.2405899,0.0,10,0.5,0.5,0.21742691192626953,-0.001,-0.0155,-0.5,-0.07597923269325378,10,1,100,0.07063041347815029,-10,-1,-100,15031.86563586304,0.0013098012130666927,-0.0008748339281267505,0.9999987595424209,19.341696724073362,0.010039853933729147,-9.939257958958262,4.532284217044,-78.20022583007812,5356.25390625,True
1599558931.4231026,0.0,10,0.5,0.5,0.04413343811035156,-0.001,-0.0155,-0.5,-0.07527247129326757,10,1,100,0.07721595941817931,-10,-1,-100,15032.205479038064,0.00044731134369535146,-0.001508625413604799,0.9999987619801953,18.92996187559494,0.009564793793084577,-8.133851372832765,3.7895788288154817,-78.78274536132812,5356.25390625,True
1599558931.4799497,0.0,10,0.5,0.5,0.058688351440429665,-0.001,-0.0155,-0.5,-0.11932366643590556,10,1,100,0.16425268503743495,-10,-1,-100,15032.675212408882,-0.0011220929285735456,-0.0024749920532654694,0.9999963076540813,18.16045736913886,0.0088659114831229,-4.744378530406054,2.303963457997906,-79.3896484375,5356.25390625,True
1599558931.5687118,0.0,10,0.5,0.5,-0.25183604431152345,-0.001,-0.0155,-0.5,-0.057345896136784716,10,1,100,0.08212056000123016,-10,-1,-100,15032.8050998447,-0.0017945721427333956,-0.002780753854511961,0.9999945234444163,17.863274062795238,0.008671097220241992,-3.162040183424516,1.5610597796126653,-79.35940551757812,5356.25390625,True
1599558931.6415195,0.0,10,0.5,0.5,-0.3035348739624023,-0.001,-0.0155,-0.5,-0.044066765265699095,10,1,100,0.08683755874302249,-10,-1,-100,15032.904713914497,-0.0024410974664551485,-0.0029303784981787547,0.9999927269360596,17.585302890653878,0.008548382212962214,-1.2610436354108046,0.6323830185777339,-79.20208740234375,5356.25390625,True
1599558931.7113314,0.0,10,0.5,0.5,-0.23760052795410155,-0.001,-0.0155,-0.5,-0.029532579498812717,10,1,100,0.05670639617962612,-10,-1,-100,15032.913505145232,-0.0027474361314168447,-0.0029280872891897154,0.9999919389172748,17.44346778454094,0.008510197038880285,-0.14868660573413103,0.07516748909802828,-79.15240478515625,5356.25390625,True
1599558931.7751603,0.0,10,0.5,0.5,-0.06372996063232422,-0.001,-0.0155,-0.5,-0.013081094253869233,10,1,100,0.0649294419186151,-10,-1,-100,15032.874443626963,-0.003093491148962501,-0.002771107050206962,0.9999913756019237,17.405591811396743,0.008536629139865944,1.6847304572193473,-0.8535241256028998,-79.42779541015625,5356.25390625,True
1599558931.8689108,0.0,10,0.5,0.5,-0.06953295593261719,-0.001,-0.0155,-0.5,-0.018978993635049367,10,1,100,0.04246872891556681,-10,-1,-100,15032.840263971942,-0.0031972067385108004,-0.0026778086042302867,0.9999913035672611,17.409583440816583,0.008547381745110074,2.418560817702072,-1.2249976900933741,-79.67291259765625,5356.25390625,True
1599558931.9506922,0.0,10,0.5,0.5,0.13331871490478517,-0.001,-0.0155,-0.5,-0.0034775168580872505,10,1,100,0.04738742908464001,-10,-1,-100,15032.691826149356,-0.0033302642160133863,-0.002448832992732894,0.9999914562421147,17.383434721050094,0.008523839966872351,3.879703565932885,-1.9679453917395373,-80.30905151367188,5356.25390625,True
1599558932.023498,0.0,10,0.5,0.5,0.18198268585205077,-0.001,-0.0155,-0.5,0.003150719100820692,10,1,100,0.04267195426518625,-10,-1,-100,15032.528739333968,-0.003402919728394235,-0.002177974577581879,0.9999918382487237,17.336086118619125,0.008442531413900839,5.330092235993037,-2.7109087482035217,-81.02957153320312,5356.25390625,True
1599558932.1152515,0.0,10,0.5,0.5,0.1090360610961914,-0.001,-0.0155,-0.5,-3.4448019076149805e-06,10,1,100,0.03715145596020769,-10,-1,-100,15032.325613753055,-0.0034136930182291038,-0.0019585778466721143,0.9999922553064079,17.28300549775497,0.008339955102165404,6.406290130913076,-3.2681540447395165,-81.5914306640625,5356.25390625,True
1599558932.1661162,0.0,10,0.5,0.5,0.20894468078613282,-0.001,-0.0155,-0.5,0.020191415926155948,10,1,100,0.03056148604504031,-10,-1,-100,15031.936938748695,-0.0033592840150035576,-0.0015745514083912546,0.9999931179757033,17.248853808626585,0.008139601411393105,8.211276967936248,-4.196955317417564,-82.34109497070312,5356.25390625,True
1599558932.221969,0.0,10,0.5,0.5,-0.04808736267089844,-0.001,-0.0155,-0.5,-0.0008581278170931537,10,1,100,0.03139732945826833,-10,-1,-100,15031.765062564053,-0.0033139593200472257,-0.0014167360203520226,0.999993505245246,17.26612575863129,0.008058975548498335,8.947435958236827,-4.56849608172348,-82.56521606445312,5356.25390625,True
1599558932.3181965,0.0,10,0.5,0.5,-0.02326377410888672,-0.001,-0.0155,-0.5,0.008634348588953405,10,1,100,0.026068056348149654,-10,-1,-100,15031.476975686732,-0.00322231450872996,-0.0011879342966549461,0.9999941027332679,17.318389460485346,0.007938319469429527,10.069901490573058,-5.125824498241565,-82.82861328125,5356.25390625,True
1599558932.3690603,0.0,10,0.5,0.5,0.0005100128173828045,-0.001,-0.0155,-0.5,0.027861919194802423,10,1,100,0.012329628760655059,-10,-1,-100,15030.892988029867,-0.00301280830004068,-0.0008065846510206646,0.9999951361918458,17.469066159699867,0.0077355571374966015,11.99954593980288,-6.054746836084609,-83.12820434570312,5356.25390625,True
1599558932.4563465,0.0,10,0.5,0.5,-0.07698205108642578,-0.001,-0.0155,-0.5,0.00624386132734385,10,1,100,0.02231100162976371,-10,-1,-100,15030.635174081079,-0.002912568126557244,-0.0006583616754638122,0.9999955417434682,17.5380155917402,0.0076486734564417316,12.78682401285941,-6.426327917861107,-83.2603759765625,5356.25390625,True
1599558932.517266,0.0,10,0.5,0.5,0.0023098648071288863,-0.001,-0.0155,-0.5,0.022291854862619597,10,1,100,0.007958518967828166,-10,-1,-100,15030.06583663344,-0.00269081346101367,-0.00037978605246755397,0.9999963076359194,17.685407581707,0.0074656539878229025,14.386922265156386,-7.169505769360393,-83.537841796875,5356.25390625,True
1599558932.5890744,0.0,10,0.5,0.5,-0.019770704650878906,-0.001,-0.0155,-0.5,0.01662477935221965,10,1,100,0.009690412607241738,-10,-1,-100,15029.642007360235,-0.0025053288687759525,-0.0001802282825634455,0.9999968454175371,17.80428549367111,0.007322338313155127,15.610972952380596,-7.7268993561448855,-83.75796508789062,5356.25390625,True
1599558932.6389415,0.0,10,0.5,0.5,0.045369873046874995,-0.001,-0.0155,-0.5,0.023188447944776976,10,1,100,-0.0006544671014250374,-10,-1,-100,15029.003333699075,-0.0022432911310899064,5.8587058807477144e-05,0.9999974821030588,17.982995634468633,0.0071305528769925386,17.28637237529061,-8.47009783703421,-84.09503173828125,5356.25390625,True
1599558932.7127442,0.0,10,0.5,0.5,-0.030406053161621094,-0.001,-0.0155,-0.5,0.011967593377007535,10,1,100,0.010273421001890519,-10,-1,-100,15028.620520718396,-0.0021054076005735728,0.00017140467302719336,0.999997768937148,18.082462964683753,0.007035921160506939,18.14576212801437,-8.841698146752806,-84.26846313476562,5356.25390625,True
1599558932.7695925,0.0,10,0.5,0.5,0.0597044692993164,-0.001,-0.0155,-0.5,0.022945090184413788,10,1,100,-0.006719217987740573,-10,-1,-100,15027.897862946615,-0.0018267599566782783,0.00037162576670280215,0.9999982624196656,18.284369081134535,0.006843894244210724,19.89346017804066,-9.584897960353276,-84.61138916015625,5356.25390625,True
1599558932.8015442,0.0,10,0.5,0.5,-0.06746301422119141,-0.001,-0.0155,-0.5,0.008425422364744455,10,1,100,0.01300872933118043,-10,-1,-100,15027.673252647743,-0.0017542315588196114,0.0004195295956714754,0.9999983733319552,18.33651557109652,0.006795890467448487,20.33767115383426,-9.770696921678741,-84.69046020507812,5356.25390625,True
1599558932.8385472,0.0,10,0.5,0.5,-0.023409236145019538,-0.001,-0.0155,-0.5,0.013763114690794342,10,1,100,0.004103662785474697,-10,-1,-100,15027.27872122568,-0.001608800639856393,0.0005097902058761203,0.9999985759362096,18.44269139566451,0.006699955571014435,21.23500060267113,-10.142293141063798,-84.85003662109375,5356.25390625,True
1599558932.868468,0.0,10,0.5,0.5,0.01588531799316406,-0.001,-0.0155,-0.5,0.01816166214405907,10,1,100,-0.005203097408515201,-10,-1,-100,15026.640049026813,-0.0013935339469264597,0.0006300807136134512,0.9999988305300328,18.60372430235153,0.006555668103228903,22.60030469006162,-10.699682124501226,-85.08065795898438,5356.25390625,True
1599558932.9014504,0.0,10,0.5,0.5,-0.09593468170166015,-0.001,-0.0155,-0.5,0.0063144128713528164,10,1,100,0.016140693828297775,-10,-1,-100,15026.640049026813,-0.0013935339469264597,0.0006300807136134512,0.9999988305300328,18.60372430235153,0.006555668103228903,22.60030469006162,-10.699682124501226,-85.08065795898438,5356.25390625,True
1599558932.935632,0.0,10,0.5,0.5,-0.013572166442871084,-0.001,-0.0155,-0.5,0.014630834847277403,10,1,100,-3.029699854787543e-05,-10,-1,-100,15026.188876832835,-0.0012479970070034213,0.0007043784903358255,0.9999989731766792,18.71167135324073,0.006459315887003063,23.522827172440767,-11.071270264697123,-85.239013671875,5356.25390625,True
1599558932.9715319,0.0,10,0.5,0.5,-0.04959457244873046,-0.001,-0.0155,-0.5,0.011024993331048729,10,1,100,0.006531328680673694,-10,-1,-100,15025.964266945492,-0.0011768550869931769,0.00073790269160336,0.9999990352553957,18.765283987574048,0.0064110462677139995,23.987121631412702,-11.25706282691592,-85.31903076171875,5356.25390625,True
1599558933.0024173,0.0,10,0.5,0.5,-0.00548787384033203,-0.001,-0.0155,-0.5,0.015120301611840355,10,1,100,-0.0027644184774602946,-10,-1,-100,15025.552157221828,-0.0010290501477044824,0.0008045932328137053,0.9999991468423977,18.872576836223786,0.006314760547231822,24.922746781416773,-11.628644429885734,-85.48141479492188,5356.25390625,True
1599558933.0344286,0.0,10,0.5,0.5,0.04663858184814454,-0.001,-0.0155,-0.5,0.01833171784843269,10,1,100,-0.012171538700442365,-10,-1,-100,15024.79043881467,-0.0008105048178886245,0.0008935203983236067,0.9999992723513541,19.030260575301167,0.006170615003480384,26.33907164794029,-12.186007253622963,-85.7421875,5356.25390625,True
1599558933.0693545,0.0,10,0.5,0.5,-0.08119467926025391,-0.001,-0.0155,-0.5,0.009522494631394166,10,1,100,0.009539715649823295,-10,-1,-100,15024.79043881467,-0.0008105048178886245,0.0008935203983236067,0.9999992723513541,19.030260575301167,0.006170615003480384,26.33907164794029,-12.186007253622963,-85.7421875,5356.25390625,True
1599558933.1052647,0.0,10,0.5,0.5,0.014262628173828132,-0.001,-0.0155,-0.5,0.015445605759215771,10,1,100,-0.006736953847053178,-10,-1,-100,15024.324618058978,-0.0006637122795376429,0.0009467103942808064,0.9999993316124963,19.132769254000475,0.006075274802490289,27.290937244373353,-12.557575659540955,-85.92816162109375,5356.25390625,True
1599558933.1351817,0.0,10,0.5,0.5,0.014685461425781254,-0.001,-0.0155,-0.5,0.015259697019640415,10,1,100,-0.007714312081646171,-10,-1,-100,15023.803133710404,-0.0005224367586105785,0.0009928520524025047,0.9999993706521196,19.234128777759594,0.0059813930227727245,28.250003664028338,-12.929138142338735,-86.11053466796875,5356.25390625,True
1599558933.1681793,0.0,10,0.5,0.5,0.06937366790771485,-0.001,-0.0155,-0.5,0.017695429903188783,10,1,100,-0.017794250957864483,-10,-1,-100,15022.971101588104,-0.00030348847234781617,0.0010564208383120055,0.9999993959346973,19.38551357778709,0.005844300811125015,29.704099092461792,-13.486469451637195,-86.39730834960938,5356.25390625,True
1599558933.2020812,0.0,10,0.5,0.5,-0.07161490173339843,-0.001,-0.0155,-0.5,0.011393214375482288,10,1,100,0.003970046451660891,-10,-1,-100,15022.971101588104,-0.00030348847234781617,0.0010564208383120055,0.9999993959346973,19.38551357778709,0.005844300811125015,29.704099092461792,-13.486469451637195,-86.39730834960938,5356.25390625,True
1599558933.2380722,0.0,10,0.5,0.5,0.07503216857910157,-0.001,-0.0155,-0.5,0.016796651702915028,10,1,100,-0.018950690719803487,-10,-1,-100,15022.195712015498,-9.610908485684786e-05,0.0011051554139025772,0.9999993846970882,19.53334056678415,0.005712181227512917,31.172253972065608,-14.043785433097758,-86.68594360351562,5356.25390625,True
1599558933.2679822,0.0,10,0.5,0.5,-0.06679726562499999,-0.001,-0.0155,-0.5,0.011970701613886772,10,1,100,0.001657505543086382,-10,-1,-100,15022.195712015498,-9.610908485684786e-05,0.0011051554139025772,0.9999993846970882,19.53334056678415,0.005712181227512917,31.172253972065608,-14.043785433097758,-86.68594360351562,5356.25390625,True
1599558933.3038878,0.0,10,0.5,0.5,0.026080485534667963,-0.001,-0.0155,-0.5,0.014919021452183458,10,1,100,-0.013528673712652511,-10,-1,-100,15021.58926648926,4.089991935700883e-05,0.0011315939788656682,0.9999993589109264,19.633598063043138,0.005628199274719504,32.16454332297913,-14.415320065972473,-86.86685180664062,5356.25390625,True
1599558933.336799,0.0,10,0.5,0.5,0.02474645385742187,-0.001,-0.0155,-0.5,0.014381481099219325,10,1,100,-0.013853696911665728,-10,-1,-100,15020.998446359066,0.0001673012659003167,0.001150384406271293,0.9999993243127738,19.73424800696485,0.0055472427548924315,33.16622525488456,-14.78684703922017,-87.03994750976562,5356.25390625,True
1599558933.372702,0.0,10,0.5,0.5,0.0726069122314453,-0.001,-0.0155,-0.5,0.01473715699184254,10,1,100,-0.02235914980449271,-10,-1,-100,15020.082430427894,0.0003584462877712012,0.0011703856745971107,0.9999992508565352,19.88648410679657,0.005431649255747572,34.687397791260096,-15.344122131697329,-87.30340576171875,5356.25390625,True
1599558933.4115992,0.0,10,0.5,0.5,-0.05670232543945313,-0.001,-0.0155,-0.5,0.012764716686888122,10,1,100,-0.003361542727970247,-10,-1,-100,15020.082430427894,0.0003584462877712012,0.0011703856745971107,0.9999992508565352,19.88648410679657,0.005431649255747572,34.687397791260096,-15.344122131697329,-87.30340576171875,5356.25390625,True
1599558933.4744306,0.0,10,0.5,0.5,0.07498865051269532,-0.001,-0.0155,-0.5,0.013591481831090662,10,1,100,-0.022698351942819033,-10,-1,-100,15019.168368742918,0.0005331727796283176,0.0011776500256568852,0.999999164433253,20.03666729511631,0.005322883418362963,36.22478297185362,-15.90137873293099,-87.56143188476562,5356.25390625,True
1599558933.5242963,0.0,10,0.5,0.5,0.0277516342163086,-0.001,-0.0155,-0.5,0.012700061449645549,10,1,100,-0.017656953624918,-10,-1,-100,15018.506259491434,0.000645096073827354,0.0011759402143968372,0.9999991005074294,20.13908864656037,0.005255060394646795,37.2648965791749,-16.27287245043919,-87.7196044921875,5356.25390625,True
1599558933.5761583,0.0,10,0.5,0.5,0.11691076202392578,-0.001,-0.0155,-0.5,0.010792090203894038,10,1,100,-0.02901440695016152,-10,-1,-100,15017.155673968606,0.0008490327052992028,0.0011568742035972396,0.9999989703922412,20.34129504452634,0.005128788994188819,39.36688371375364,-17.01583340606127,-88.05044555664062,5356.25390625,True
1599558933.6409874,0.0,10,0.5,0.5,0.06300419158935547,-0.001,-0.0155,-0.5,0.00964398571324696,10,1,100,-0.02368895148846067,-10,-1,-100,15016.114658025908,0.0009849686650057422,0.0011290128317141908,0.9999988775827474,20.49600602669608,0.00504396318571951,40.9727233097115,-17.573030347922153,-88.26791381835938,5356.25390625,True
1599558933.6818757,0.0,10,0.5,0.5,0.049975590515136725,-0.001,-0.0155,-0.5,0.008261701427736065,10,1,100,-0.02269368460592959,-10,-1,-100,15015.05801816599,0.0010983276047729013,0.0010910520983218636,0.9999988016401776,20.655631994523045,0.004967203033132665,42.609040895204615,-18.13020663916603,-88.45315551757812,5356.25390625,True
1599558933.7177799,0.0,10,0.5,0.5,0.0075060592651367206,-0.001,-0.0155,-0.5,0.00868468026870664,10,1,100,-0.018671910314255174,-10,-1,-100,15014.311924701906,0.0011637337503736152,0.0010604004240790993,0.9999987606365813,20.76760560224845,0.004920377579842119,43.723281181497,-18.501646056963967,-88.54779052734375,5356.25390625,True
1599558933.755678,0.0,10,0.5,0.5,0.001664627075195317,-0.001,-0.0155,-0.5,0.007965951674026691,10,1,100,-0.01832598952707391,-10,-1,-100,15013.567783911596,0.0012189038366405885,0.001026042055715699,0.999998730754763,20.88348272534823,0.004876163618840767,44.85571928817565,-18.873075883550346,-88.62481689453125,5356.25390625,True
1599558933.8035502,0.0,10,0.5,0.5,-0.001955009460449221,-0.001,-0.0155,-0.5,0.007211873295627778,10,1,100,-0.018030562826583395,-10,-1,-100,15012.767979543889,0.0012653018505903928,0.0009880478736936631,0.9999987113854828,21.00250696693051,0.004833881944599702,46.005208606713325,-19.244496423687853,-88.68902587890625,5356.25390625,True
1599558933.8385174,0.0,10,0.5,0.5,-0.0014293640136718785,-0.001,-0.0155,-0.5,0.006415347942602114,10,1,100,-0.01767757052884223,-10,-1,-100,15012.020909165498,0.0013032746600337587,0.0009464141473121042,0.9999987028868698,21.12306881387067,0.004792854851711029,47.16856542079957,-19.615907595471683,-88.74905395507812,5356.25390625,True
1599558933.8714652,0.0,10,0.5,0.5,0.0003821609497070312,-0.001,-0.0155,-0.5,0.005680335175461859,10,1,100,-0.01720474345056827,-10,-1,-100,15011.206456144108,0.0013326380330231802,0.000902086981379671,0.9999987051566371,21.243942737265208,0.004752721733782942,48.34320773488436,-19.987309322338042,-88.80810546875,5356.25390625,True
1599558933.9029465,0.0,10,0.5,0.5,-0.02681131134033203,-0.001,-0.0155,-0.5,0.010086221899383435,10,1,100,-0.014365825326151308,-10,-1,-100,15011.206456144108,0.0013326380330231802,0.000902086981379671,0.9999987051566371,21.243942737265208,0.004752721733782942,48.34320773488436,-19.987309322338042,-88.80810546875,5356.25390625,True
1599558933.9388497,0.0,10,0.5,0.5,0.01970465087890625,-0.001,-0.0155,-0.5,0.0021511176117469536,10,1,100,-0.017674910952372478,-10,-1,-100,15010.009189660777,0.0013619938430311956,0.0008302001815323186,0.9999987278694059,21.425038772126943,0.004694028731312999,50.12456919163984,-20.544393902987657,-88.8970947265625,5356.25390625,True
1599558933.968744,0.0,10,0.5,0.5,-0.0229648681640625,-0.001,-0.0155,-0.5,0.009305223593195737,10,1,100,-0.014811019728491331,-10,-1,-100,15010.009189660777,0.0013619938430311956,0.0008302001815323186,0.9999987278694059,21.425038772126943,0.004694028731312999,50.12456919163984,-20.544393902987657,-88.8970947265625,5356.25390625,True
1599558934.0035331,0.0,10,0.5,0.5,0.023940150451660154,-0.001,-0.0155,-0.5,0.0007609935688166333,10,1,100,-0.016197054954973415,-10,-1,-100,15008.759190357057,0.0013741278349649127,0.0007528223395125676,0.9999987725148559,21.6139920575568,0.004638967233566474,51.94869997624012,-21.101457149309216,-88.98809814453125,5356.25390625,True
1599558934.0365372,0.0,10,0.5,0.5,0.009430032348632815,-0.001,-0.0155,-0.5,0.0024152455943871037,10,1,100,-0.014853833003579953,-10,-1,-100,15007.874424257316,0.0013725938470102066,0.0006978594929017997,0.9999988144884269,21.75063738716701,0.00460564486191856,53.20474919365557,-21.472820274564267,-89.0477294921875,5356.25390625,True
1599558934.0735323,0.0,10,0.5,0.5,-0.019464051818847652,-0.001,-0.0155,-0.5,0.007872210994921887,10,1,100,-0.01503465842327429,-10,-1,-100,15007.874424257316,0.0013725938470102066,0.0006978594929017997,0.9999988144884269,21.75063738716701,0.00460564486191856,53.20474919365557,-21.472820274564267,-89.0477294921875,5356.25390625,True
1599558934.1041665,0.0,10,0.5,0.5,0.036872193908691404,-0.001,-0.0155,-0.5,-0.004486967263186767,10,1,100,-0.01228094578636568,-10,-1,-100,15006.10391645995,0.0013473702229504587,0.0005858329095837003,0.9999989206960598,22.024940057284788,0.004541701258158962,55.75542182610949,-22.215517135092263,-89.15863037109375,5356.25390625,True
1599558934.1370776,0.0,10,0.5,0.5,-0.004250376892089843,-0.001,-0.0155,-0.5,0.0033257958003590896,10,1,100,-0.01362198337681044,-10,-1,-100,15005.66739217972,0.0013365141188217222,0.000555415870005056,0.9999989526210622,22.093963530043137,0.004526271036819219,56.40177171520921,-22.401185116169923,-89.18557739257812,5356.25390625,True
1599558934.1689925,0.0,10,0.5,0.5,0.010474783325195313,-0.001,-0.0155,-0.5,-0.00010029660905503442,10,1,100,-0.011748190250190265,-10,-1,-100,15004.767978084157,0.0013095457118552044,0.0004970110230331497,0.9999990190345547,22.23162207631197,0.004495931459481182,57.70257393288712,-22.77251342215949,-89.24032592773438,5356.25390625,True
1599558934.204896,0.0,10,0.5,0.5,-0.0028210266113281243,-0.001,-0.0155,-0.5,0.0023919981292332268,10,1,100,-0.012664895461337075,-10,-1,-100,15004.334384771879,0.001293356961030776,0.00046698148079247267,0.999999054577587,22.300617236447867,0.0044811021460204265,58.35795668913243,-22.958173892281632,-89.26690673828125,5356.25390625,True
1599558934.235855,0.0,10,0.5,0.5,0.011096078491210937,-0.001,-0.0155,-0.5,-0.0014087241478964686,10,1,100,-0.01019338011031723,-10,-1,-100,15003.380283231614,0.0012562073035192903,0.00040552542669121194,0.99999912874579,22.438682779588248,0.004452060794025199,59.678043938823635,-23.329487146219016,-89.31979370117188,5356.25390625,True
1599558934.268767,0.0,10,0.5,0.5,-0.014554286193847656,-0.001,-0.0155,-0.5,0.004687225106760759,10,1,100,-0.013900702788515419,-10,-1,-100,15003.380283231614,0.0012562073035192903,0.00040552542669121194,0.99999912874579,22.438682779588248,0.004452060794025199,59.678043938823635,-23.329487146219016,-89.31979370117188,5356.25390625,True
1599558934.3027222,0.0,10,0.5,0.5,0.012398504638671875,-0.001,-0.0155,-0.5,-0.0022256269043919715,10,1,100,-0.00902348053595324,-10,-1,-100,15002.423251532717,0.0012119650889864631,0.00034306738545786085,0.9999992067223814,22.576936183299264,0.004423876287695361,61.010816830548904,-23.700790020967784,-89.37228393554688,5356.25390625,True
1599558934.3384125,0.0,10,0.5,0.5,0.025388404846191405,-0.001,-0.0155,-0.5,-0.0063787779930650195,10,1,100,-0.004855638375271141,-10,-1,-100,15001.01895385771,0.0011339918095450055,0.00024897427698149075,0.9999993260369656,22.78465379616668,0.004383253515033758,63.03380548567076,-24.257725506961247,-89.44912719726562,5356.25390625,True
1599558934.3693643,0.0,10,0.5,0.5,0.00034091491699218823,-0.001,-0.0155,-0.5,-0.00039029542164737644,10,1,100,-0.00947861199065054,-10,-1,-100,15000.513095119153,0.0011053523483975111,0.0002183338817999793,0.9999993652630494,22.8540117395317,0.0043701625184843496,63.71458584654975,-24.443365351951183,-89.47439575195312,5356.25390625,True
1599558934.402245,0.0,10,0.5,0.5,0.01235689239501953,-0.001,-0.0155,-0.5,-0.004078628809467159,10,1,100,-0.005581188142495609,-10,-1,-100,14999.488680998795,0.0010441282955516648,0.0001573846059376089,0.9999994425129386,22.993018649860336,0.004344672631530494,65.08617669590943,-24.81463756820847,-89.52227783203125,5356.25390625,True
1599558934.4362204,0.0,10,0.5,0.5,-0.010848597717285156,-0.001,-0.0155,-0.5,0.001962251288073463,10,1,100,-0.011670746871934387,-10,-1,-100,14999.488680998795,0.0010441282955516648,0.0001573846059376089,0.9999994425129386,22.993018649860336,0.004344672631530494,65.08617669590943,-24.81463756820847,-89.52227783203125,5356.25390625,True
1599558934.4751163,0.0,10,0.5,0.5,0.021348631286621095,-0.001,-0.0155,-0.5,-0.008229642479420343,10,1,100,-0.00038024466854854645,-10,-1,-100,14998.013093986083,0.0009417630409094288,6.512052469097983e-05,0.9999995544207466,23.203656656708866,0.004308172628611807,67.1728037366578,-25.371526022092464,-89.58541870117188,5356.25390625,True
1599558934.5050356,0.0,10,0.5,0.5,0.02010507354736328,-0.001,-0.0155,-0.5,-0.009065249366746762,10,1,100,0.002149255923504201,-10,-1,-100,14996.469149104785,0.0008260671231959277,-2.5906616013183052e-05,0.9999996584709193,23.416048458265486,0.004273279764839084,69.29262925070988,-25.92839073093964,-89.64471435546875,5356.25390625,True
1599558934.5369503,0.0,10,0.5,0.5,0.0008080474853515637,-0.001,-0.0155,-0.5,-0.0031545739395044425,10,1,100,-0.005081003881905671,-10,-1,-100,14995.964265343966,0.0007870581767679795,-5.444976946108611e-05,0.9999996887872761,23.486806652104015,0.004261924827238026,70.00540347178556,-26.114006975528696,-89.66412353515625,5356.25390625,True
1599558934.5708618,0.0,10,0.5,0.5,0.009408871459960938,-0.001,-0.0155,-0.5,-0.006548316613656275,10,1,100,9.631184410611483e-05,-10,-1,-100,14994.868562204763,0.0007049892632190674,-0.00011077626849669322,0.999999745359346,23.62901480476851,0.004239739966104689,71.4424725005464,-26.485231487062823,-89.69943237304688,5356.25390625,True
1599558934.6074271,0.0,10,0.5,0.5,-0.007657107543945312,-0.001,-0.0155,-0.5,-0.0009672968796143543,10,1,100,-0.008055457706755073,-10,-1,-100,14994.868562204763,0.0007049892632190674,-0.00011077626849669322,0.999999745359346,23.62901480476851,0.004239739966104689,71.4424725005464,-26.485231487062823,-89.69943237304688,5356.25390625,True
1599558934.6363487,0.0,10,0.5,0.5,0.01716488342285156,-0.001,-0.0155,-0.5,-0.010267270123659366,10,1,100,0.0066645192403297455,-10,-1,-100,14993.268953272374,0.0005716723982822056,-0.00019485211462874977,0.9999998176116446,23.8442069020121,0.0042075409049206,73.62758457125797,-27.042047852201485,-89.747802734375,5356.25390625,True
1599558934.6752455,0.0,10,0.5,0.5,-0.006438243103027344,-0.001,-0.0155,-0.5,-0.0019134774604623714,10,1,100,-0.006603137984286008,-10,-1,-100,14993.268953272374,0.0005716723982822056,-0.00019485211462874977,0.9999998176116446,23.8442069020121,0.0042075409049206,73.62758457125797,-27.042047852201485,-89.747802734375,5356.25390625,True
1599558934.7061634,0.0,10,0.5,0.5,0.02330372619628906,-0.001,-0.0155,-0.5,-0.013409184554255564,10,1,100,0.0139749307248444,-10,-1,-100,14991.065828066785,0.0003851102458458044,-0.00029895506421631494,0.9999998811579768,24.132846626245968,0.004166069135472337,76.59121362680388,-27.784431679670092,-89.80624389648438,5356.25390625,True
1599558934.7450619,0.0,10,0.5,0.5,-0.005402490234375,-0.001,-0.0155,-0.5,-0.003050618490100677,10,1,100,-0.004609260308540546,-10,-1,-100,14991.065828066785,0.0003851102458458044,-0.00029895506421631494,0.9999998811579768,24.132846626245968,0.004166069135472337,76.59121362680388,-27.784431679670092,-89.80624389648438,5356.25390625,True
1599558934.776973,0.0,10,0.5,0.5,0.013079039001464843,-0.001,-0.0155,-0.5,-0.011022247930433661,10,1,100,0.011482067809757895,-10,-1,-100,14989.394929114613,0.00023942455208827846,-0.00037100956851920215,0.999999902513887,24.3513157420342,0.004135888141137577,78.85414832988171,-28.34119034848501,-89.84225463867188,5356.25390625,True
1599558934.8044174,0.0,10,0.5,0.5,0.001119650268554687,-0.001,-0.0155,-0.5,-0.006461095285797718,10,1,100,0.0026544417425868705,-10,-1,-100,14988.805085799308,0.00018796570723159453,-0.0003945682809574485,0.9999999044923777,24.424582106922916,0.004125943684736096,79.61640317227078,-28.526770958426326,-89.85333251953125,5356.25390625,True
1599558934.837331,0.0,10,0.5,0.5,0.001622441101074219,-0.001,-0.0155,-0.5,-0.00669717623573444,10,1,100,0.003297127664028917,-10,-1,-100,14988.230866397498,0.0001360276101975704,-0.0004177135838046895,0.9999999035059208,24.497895818140325,0.004116020055591233,80.38208489063933,-28.712348853226956,-89.86456298828125,5356.25390625,True
1599558934.8742323,0.0,10,0.5,0.5,0.007646769714355468,-0.001,-0.0155,-0.5,-0.009152764936807885,10,1,100,0.009416974483167185,-10,-1,-100,14987.063874441665,3.380349591356269e-05,-0.0004607221137048567,0.9999998932962231,24.64457966161116,0.004096245389083141,81.92346177517162,-29.083496119120987,-89.88711547851562,5356.25390625,True
1599558934.9081397,0.0,10,0.5,0.5,0.01283109130859375,-0.001,-0.0155,-0.5,-0.011631812377673328,10,1,100,0.016914038165808158,-10,-1,-100,14985.311922088033,-0.00012659786447694914,-0.0005219882336726548,0.999999855750622,24.86533069567865,0.004066844403454583,84.26258410331255,-29.640195609968025,-89.91928100585938,5356.25390625,True
1599558934.937063,0.0,10,0.5,0.5,-0.0029109069824218748,-0.001,-0.0155,-0.5,-0.005546321577411115,10,1,100,0.000957060839526577,-10,-1,-100,14985.311922088033,-0.00012659786447694914,-0.0005219882336726548,0.999999855750622,24.86533069567865,0.004066844403454583,84.26258410331255,-29.640195609968025,-89.91928100585938,5356.25390625,True
1599558934.9701405,0.0,10,0.5,0.5,0.007444354248046875,-0.001,-0.0155,-0.5,-0.009718018343838715,10,1,100,0.012742547721202646,-10,-1,-100,14984.146883009817,-0.00023298266601246248,-0.0005595389206718367,0.9999998163176199,25.01758322337485,0.004048132453632563,85.85592081138253,-30.011313916791426,-89.93927001953125,5356.25390625,True
1599558935.0070374,0.0,10,0.5,0.5,0.006736734008789063,-0.001,-0.0155,-0.5,-0.009826821266260059,10,1,100,0.014100557149614064,-10,-1,-100,14982.911531592486,-0.0003413101576082196,-0.0005943334928694296,0.9999997651375101,25.176302697451728,0.00403043381490208,87.4853609768641,-30.38242047149755,-89.95721435546875,5356.25390625,True
1599558935.0379581,0.0,10,0.5,0.5,0.006895794677734375,-0.001,-0.0155,-0.5,-0.009927823101161446,10,1,100,0.015336979233024788,-10,-1,-100,14981.677156794583,-0.000450199912039105,-0.0006265199557497624,0.9999997023963478,25.33528068658883,0.004012679640124056,89.12991388849306,-30.753514988150133,-89.97479248046875,5356.25390625,True
1599558935.0699046,0.0,10,0.5,0.5,0.006425447082519531,-0.001,-0.0155,-0.5,-0.00994764017008725,10,1,100,0.016342335952908165,-10,-1,-100,14980.443758629612,-0.0005575708315589544,-0.0006556627454570873,0.9999996296104974,25.49411592367858,0.003994791529973192,90.78819884510072,-31.12459753927719,-89.99087524414062,5356.25390625,True
1599558935.103813,0.0,10,0.5,0.5,0.002362611389160156,-0.001,-0.0155,-0.5,-0.008513938605258684,10,1,100,0.011603319883820106,-10,-1,-100,14979.7826255291,-0.0006112418113331035,-0.000668798260345995,0.9999995895460833,25.57337959019333,0.003985762878161025,91.62212992381902,-31.310134232987068,-89.99824523925781,5356.25390625,True
1599558935.142747,0.0,10,0.5,0.5,0.005616115570068359,-0.001,-0.0155,-0.5,-0.009931870721808666,10,1,100,0.017970663909665237,-10,-1,-100,14978.547273950768,-0.0007171452237596298,-0.0006933592124937957,0.9999995024777416,25.731637622384014,0.003967504751739847,93.29968268509026,-31.681198333543723,-90.01161193847656,5356.25390625,True
1599558935.1717064,0.0,10,0.5,0.5,-0.0008219009399414061,-0.001,-0.0155,-0.5,-0.007505654600182233,10,1,100,0.007470833760111722,-10,-1,-100,14978.547273950768,-0.0007171452237596298,-0.0006933592124937957,0.9999995024777416,25.731637622384014,0.003967504751739847,93.29968268509026,-31.681198333543723,-90.01161193847656,5356.25390625,True
1599558935.2045836,0.0,10,0.5,0.5,0.005498813629150391,-0.001,-0.0155,-0.5,-0.009948869091674974,10,1,100,0.01924086775069486,-10,-1,-100,14977.243563252385,-0.0008233699210976973,-0.000715319666390376,0.999999405189697,25.889501575458002,0.0039489120015667525,94.99000626288282,-32.052250389471865,-90.02377319335938,5356.25390625,True
1599558935.238629,0.0,10,0.5,0.5,0.005115044403076172,-0.001,-0.0155,-0.5,-0.009737507432596137,10,1,100,0.019931024241560007,-10,-1,-100,14975.99356355681,-0.0009254327291247042,-0.0007331307934386545,0.999999303046509,26.047136398746215,0.003929973421996552,96.69367275962435,-32.42328986436727,-90.03472137451172,5356.25390625,True
1599558935.2745323,0.0,10,0.5,0.5,0.0075218746185302734,-0.001,-0.0155,-0.5,-0.010450132224598726,10,1,100,0.026847789118800286,-10,-1,-100,14973.975009877351,-0.0010803705672472151,-0.0007556091865373258,0.9999991309267195,26.28316725019254,0.0039008335105669895,99.27419527079354,-32.97982613291805,-90.05009460449219,5356.25390625,True
1599558935.307478,0.0,10,0.5,0.5,3.802070617675781e-05,-0.001,-0.0155,-0.5,-0.008225655010018065,10,1,100,0.011449382576826223,-10,-1,-100,14973.975009877351,-0.0010803705672472151,-0.0007556091865373258,0.9999991309267195,26.28316725019254,0.0039008335105669895,99.27419527079354,-32.97982613291805,-90.05009460449219,5356.25390625,True
1599558935.3393593,0.0,10,0.5,0.5,0.004727788925170898,-0.001,-0.0155,-0.5,-0.00940045544164713,10,1,100,0.022415238468677018,-10,-1,-100,14972.67129935557,-0.0011792898136265544,-0.0007661109447649851,0.999999011174289,26.44027416022653,0.003880896015203023,101.01133170095986,-33.35083445818802,-90.05911254882812,5356.25390625,True
1599558935.3742661,0.0,10,0.5,0.5,0.005663036727905273,-0.001,-0.0155,-0.5,-0.009566921728694661,10,1,100,0.028403886418526574,-10,-1,-100,14970.639072650229,-0.0013228968556463876,-0.000777015166261566,0.9999988230949778,26.675013511427696,0.003850012327934487,103.64005870686913,-33.90732337944686,-90.06966400146484,5356.25390625,True
1599558935.4161856,0.0,10,0.5,0.5,0.0033552383422851564,-0.001,-0.0155,-0.5,-0.008798072556822,10,1,100,0.024043969622199103,-10,-1,-100,14969.263096579001,-0.0014130197439308886,-0.0007798017431409682,0.9999986976413744,26.830991376310756,0.0038286966129107594,105.40820789284727,-34.27830008016723,-90.0752944946289,5356.25390625,True
1599558935.4450772,0.0,10,0.5,0.5,0.0006708415985107422,-0.001,-0.0155,-0.5,-0.00853182876865016,10,1,100,0.015117225684986189,-10,-1,-100,14969.263096579001,-0.0014130197439308886,-0.0007798017431409682,0.9999986976413744,26.830991376310756,0.0038286966129107594,105.40820789284727,-34.27830008016723,-90.0752944946289,5356.25390625,True
1599558935.4799852,0.0,10,0.5,0.5,0.003744926452636719,-0.001,-0.0155,-0.5,-0.008392152921019214,10,1,100,0.02915566647629362,-10,-1,-100,14967.230870862724,-0.00153991304391314,-0.0007784310504508733,0.9999985113553503,27.064110438492936,0.00379549731577147,108.08353159452943,-34.8347411802397,-90.08119201660156,5356.25390625,True
1599558935.5089104,0.0,10,0.5,0.5,0.0016149673461914064,-0.001,-0.0155,-0.5,-0.008374212237261282,10,1,100,0.020998166101154892,-10,-1,-100,14966.514073677361,-0.0015803635242865133,-0.0007769445310275721,0.9999984494029612,27.14149362459686,0.003784061891165701,108.98105590619222,-35.02021513746986,-90.08261108398438,5356.25390625,True
1599558935.5448103,0.0,10,0.5,0.5,0.0022806724548339844,-0.001,-0.0155,-0.5,-0.007895667930493813,10,1,100,0.025973532273583934,-10,-1,-100,14965.069738223101,-0.001661582545920274,-0.0007711667602916542,0.999998322221228,27.29606376906764,0.00376064701093765,110.78584462494203,-35.391153254819926,-90.08513641357422,5356.25390625,True
1599558935.605651,0.0,10,0.5,0.5,0.001113120651245117,-0.001,-0.0155,-0.5,-0.00847902971347573,10,1,100,0.017935451372690116,-10,-1,-100,14965.069738223101,-0.001661582545920274,-0.0007711667602916542,0.999998322221228,27.29606376906764,0.00376064701093765,110.78584462494203,-35.391153254819926,-90.08513641357422,5356.25390625,True
1599558935.642546,0.0,10,0.5,0.5,0.002869265365600586,-0.001,-0.0155,-0.5,-0.0063102192625357715,10,1,100,0.03380109096142397,-10,-1,-100,14962.23673116637,-0.001805146405984404,-0.0007514157234950609,0.9999980884086047,27.604301694003365,0.003711559499352713,114.43384273517628,-36.13299054545242,-90.08848571777344,5356.25390625,True
1599558935.676459,0.0,10,0.5,0.5,0.0015063930511474608,-0.001,-0.0155,-0.5,-0.0075649201307303755,10,1,100,0.023221852976763088,-10,-1,-100,14961.509192682337,-0.0018388252281469348,-0.0007448704192663291,0.9999980319429828,27.681187359442468,0.0036988003014839215,115.35388629304546,-36.318441535007665,-90.0889892578125,5356.25390625,True
1599558935.704384,0.0,10,0.5,0.5,0.0016589191436767578,-0.001,-0.0155,-0.5,-0.006508785299884077,10,1,100,0.027362573013217276,-10,-1,-100,14960.00919302972,-0.0019063957443889103,-0.0007293286794754893,0.9999979168653018,27.834577548430747,0.0036726548977864975,117.2028828559478,-36.6893337029371,-90.08967590332031,5356.25390625,True
1599558935.7432802,0.0,10,0.5,0.5,0.0013973705291748047,-0.001,-0.0155,-0.5,-0.005148606737445136,10,1,100,0.030129642597944976,-10,-1,-100,14957.822669540183,-0.0019923176590784467,-0.0007028680038846351,0.999997768320967,28.063980971459017,0.003631868352851667,119.99971910013444,-37.24564709174544,-90.0897445678711,5356.25390625,True
1599558935.7781868,0.0,10,0.5,0.5,0.0013941631317138672,-0.001,-0.0155,-0.5,-0.0077872595802928705,10,1,100,0.021604393209334535,-10,-1,-100,14957.822669540183,-0.0019923176590784467,-0.0007028680038846351,0.999997768320967,28.063980971459017,0.003631868352851667,119.99971910013444,-37.24564709174544,-90.0897445678711,5356.25390625,True
1599558935.8130932,0.0,10,0.5,0.5,0.0007056079864501952,-0.001,-0.0155,-0.5,-0.003035107560836456,10,1,100,0.032660305472530494,-10,-1,-100,14954.792396285571,-0.0020922993179119122,-0.000659736561652537,0.999997593512721,28.368482145517838,0.0035744205735711507,123.77180660139172,-37.98735142894376,-90.08832550048828,5356.25390625,True
1599558935.8729324,0.0,10,0.5,0.5,0.0011524875640869141,-0.001,-0.0155,-0.5,-0.006024928410767447,10,1,100,0.025088898920061345,-10,-1,-100,14954.007240841165,-0.0021137432394889967,-0.0006478154993331737,0.999997556209312,28.444369330459736,0.003559498684933008,124.72250374119372,-38.172769154057605,-90.08776092529297,5356.25390625,True
1599558935.904848,0.0,10,0.5,0.5,0.0007760498046875,-0.001,-0.0155,-0.5,-0.004404353364133139,10,1,100,0.027423204554982306,-10,-1,-100,14952.493569095852,-0.002153937010153286,-0.000622364410938093,0.9999974866057895,28.595830683882973,0.0035289606140216042,126.63295184804097,-38.54359442608754,-90.08642578125,5356.25390625,True
1599558935.940751,0.0,10,0.5,0.5,0.0010940582275390624,-0.001,-0.0155,-0.5,-0.00555552520551924,10,1,100,0.025283197740491314,-10,-1,-100,14951.69474080985,-0.002170500763820116,-0.0006098327837916111,0.9999974585119756,28.671370051827854,0.00351333990283333,127.59253947783499,-38.729001934085,-90.0857162475586,5356.25390625,True
1599558935.9716692,0.0,10,0.5,0.5,0.00023422393798828121,-0.001,-0.0155,-0.5,-0.0022074947748347883,10,1,100,0.028622260087775984,-10,-1,-100,14949.383217761992,-0.002215451181021731,-0.0005681504224490416,0.9999973844871605,28.897572013353482,0.003465104001280713,130.49026107499927,-39.285203948212995,-90.08329010009766,5356.25390625,True
1599558936.005575,0.0,10,0.5,0.5,0.0005423667907714846,-0.001,-0.0155,-0.5,-0.0031505131951925307,10,1,100,0.026783061263712247,-10,-1,-100,14947.798257258488,-0.002239091690408891,-0.0005390148217207239,0.9999973479621952,29.047850681209756,0.0034317681453106303,132.43704348311965,-39.65598811749812,-90.08148956298828,5356.25390625,True
1599558936.039495,0.0,10,0.5,0.5,0.0009425334930419922,-0.001,-0.0155,-0.5,-0.004387314654093254,10,1,100,0.02557493521097983,-10,-1,-100,14946.998451952124,-0.002249205602750174,-0.0005239646533229638,0.9999973332640436,29.122854092304074,0.0034147474717302517,133.41500568757982,-39.84137502140927,-90.08051300048828,5356.25390625,True
1599558936.075402,0.0,10,0.5,0.5,0.000924596405029297,-0.001,-0.0155,-0.5,-0.0042077536143432966,10,1,100,0.025514793430179428,-10,-1,-100,14946.215249518747,-0.002257480251985334,-0.0005088511323872217,0.9999973224231339,29.1978128287947,0.003397493874449259,134.3962236546318,-40.02675848830928,-90.07952880859375,5356.25390625,True
1599558936.1053221,0.0,10,0.5,0.5,-0.0006860260009765628,-0.001,-0.0155,-0.5,0.0013655797824272953,10,1,100,0.02739876434046663,-10,-1,-100,14942.962320060702,-0.0022818105009220937,-0.000444645334790531,0.9999972978120312,29.496737189623413,0.0033260985826663553,138.35143625359748,-40.768257137555935,-90.07536315917969,5356.25390625,True
1599558936.1379151,0.0,10,0.5,0.5,0.0008049808502197267,-0.001,-0.0155,-0.5,-0.003242530932617494,10,1,100,0.025365337876477295,-10,-1,-100,14942.106850614888,-0.002285180038608478,-0.00042840309135675945,0.9999972972078387,29.571236506939385,0.003307651674430924,139.3477847801267,-40.95362288819459,-90.07422637939453,5356.25390625,True
1599558936.1707954,0.0,10,0.5,0.5,0.0007759685516357422,-0.001,-0.0155,-0.5,-0.002943238118393495,10,1,100,0.025316956935225583,-10,-1,-100,14941.307046473958,-0.0022875371894215115,-0.00041116608529904704,0.9999972990543811,29.645696114096268,0.003288973913754336,140.34739748537518,-41.13898545311344,-90.07308197021484,5356.25390625,True
1599558936.206557,0.0,10,0.5,0.5,0.00019313697814941412,-0.001,-0.0155,-0.5,-0.0009565072977398507,10,1,100,0.02525560651712741,-10,-1,-100,14939.654702627216,-0.0022889448337492773,-0.0003776608636736876,0.9999973090482894,29.794350426249697,0.003250889457585789,142.355707017465,-41.50969965404741,-90.0708236694336,5356.25390625,True
1599558936.238555,0.0,10,0.5,0.5,0.0012960346221923828,-0.001,-0.0155,-0.5,-0.004280013996709844,10,1,100,0.02513236224377686,-10,-1,-100,14939.654702627216,-0.0022889448337492773,-0.0003776608636736876,0.9999973090482894,29.794350426249697,0.003250889457585789,142.355707017465,-41.50969965404741,-90.0708236694336,5356.25390625,True
1599558936.272464,0.0,10,0.5,0.5,-0.0010597679138183592,-0.001,-0.0155,-0.5,0.003419698730436511,10,1,100,0.024235903321862765,-10,-1,-100,14936.27677294775,-0.0022806724728013346,-0.00030788593301532476,0.9999973518661557,30.090824369615845,0.003171869527363257,146.40966424949997,-42.25108559399996,-90.06616973876953,5356.25390625,True
1599558936.3063579,0.0,10,0.5,0.5,0.0012369003295898437,-0.001,-0.0155,-0.5,-0.003527599650322146,10,1,100,0.025074156587555154,-10,-1,-100,14936.27677294775,-0.0022806724728013346,-0.00030788593301532476,0.9999973518661557,30.090824369615845,0.003171869527363257,146.40966424949997,-42.25108559399996,-90.06616973876953,5356.25390625,True
1599558936.341245,0.0,10,0.5,0.5,-1.278076171874992e-05,-0.001,-0.0155,-0.5,0.000567588360764397,10,1,100,0.024018794519138305,-10,-1,-100,14934.607827643282,-0.0022710189800959272,-0.00027089355517765956,0.9999973845413167,30.238639311123105,0.003130926744649586,148.45524248136186,-42.62175706501695,-90.06372833251953,5356.25390625,True
1599558936.3711662,0.0,10,0.5,0.5,-0.000661968994140625,-0.001,-0.0155,-0.5,0.002841542884115707,10,1,100,0.022657007582953633,-10,-1,-100,14932.016030058847,-0.002249834171589617,-0.00021683555353708208,0.9999974456110091,30.45978794203559,0.0030677057429114034,151.54657723022396,-43.17773709147941,-90.06005096435547,5356.25390625,True
1599558936.4050756,0.0,10,0.5,0.5,0.0011449989318847657,-0.001,-0.0155,-0.5,-0.0025335443699634535,10,1,100,0.02477555129046859,-10,-1,-100,14932.016030058847,-0.002249834171589617,-0.00021683555353708208,0.9999974456110091,30.45978794203559,0.0030677057429114034,151.54657723022396,-43.17773709147941,-90.06005096435547,5356.25390625,True
1599558936.4389818,0.0,10,0.5,0.5,0.0004917690277099608,-0.001,-0.0155,-0.5,-0.0005353240246198255,10,1,100,0.023826013862107892,-10,-1,-100,14931.159585634246,-0.0022412089641321523,-0.00019893538274200377,0.9999974687003426,30.53341237462686,0.0030461564911702984,152.58343832111763,-43.36305658030086,-90.05880737304688,5356.25390625,True
1599558936.474852,0.0,10,0.5,0.5,-0.00010084037780761727,-0.001,-0.0155,-0.5,0.0015880641135407754,10,1,100,0.02253164703327075,-10,-1,-100,14929.423256985727,-0.002221637805760292,-0.00016358234435597124,0.9999975187800602,30.680444603339097,0.0030023345201577343,154.6663862739205,-43.733684465114024,-90.05643463134766,5356.25390625,True
1599558936.5047722,0.0,10,0.5,0.5,-0.00013461265563964836,-0.001,-0.0155,-0.5,0.002154164531951181,10,1,100,0.021936939514554346,-10,-1,-100,14927.628335064393,-0.00219849717728195,-0.0001265375972440296,0.9999975752962593,30.82728355849775,0.002957571142609652,156.76209929871604,-44.10429776119585,-90.0540542602539,5356.25390625,True
1599558936.5375657,0.0,10,0.5,0.5,-0.00018177528381347653,-0.001,-0.0155,-0.5,0.002418204831252888,10,1,100,0.021408952260484546,-10,-1,-100,14925.835365976789,-0.0021727413036393135,-9.07189412286626e-05,0.9999976354798552,30.97385969575155,0.0029118599990223715,158.87021207693317,-44.474896573840645,-90.05164337158203,5356.25390625,True
1599558936.6622608,0.0,10,0.5,0.5,0.00040147895812988276,-0.001,-0.0155,-0.5,0.0007762682271563145,10,1,100,0.022428867584886533,-10,-1,-100,14924.968177749543,-0.002158704470122489,-7.334407936324785e-05,0.9999976673051076,31.047019071937417,0.0028886420253343066,159.92875959960583,-44.660190506728576,-90.05046081542969,5356.25390625,True
1599558936.6881804,0.0,10,0.5,0.5,-0.00015874710083007822,-0.001,-0.0155,-0.5,0.002939625776852419,10,1,100,0.02059066749635361,-10,-1,-100,14923.173256041133,-0.0021293512028147375,-3.8158515201370243e-05,0.99999773220112,31.19330187936674,0.002841508042014386,162.05596215436978,-45.03076720412681,-90.04822540283203,5356.25390625,True
1599558936.743274,0.0,10,0.5,0.5,-0.00010852737426757806,-0.001,-0.0155,-0.5,0.00324224614321197,10,1,100,0.01999764886972419,-10,-1,-100,14921.380286968662,-0.002097412900720138,-3.6657511944073728e-06,0.999997800420424,31.339498308664158,0.0027934476456027897,164.19645118835936,-45.401328775911836,-90.04615020751953,5356.25390625,True
1599558936.7871568,0.0,10,0.5,0.5,-0.0005467994689941406,-0.001,-0.0155,-0.5,0.005296861125896804,10,1,100,0.017496970388804302,-10,-1,-100,14918.648841903894,-0.0020458112395094863,4.60930612164929e-05,0.9999979062637092,31.558613397045015,0.0027196396323499222,167.43202064501514,-45.957143407904,-90.04326629638672,5356.25390625,True
1599558936.822079,0.0,10,0.5,0.5,0.0008634399414062501,-0.001,-0.0155,-0.5,0.0003526785464461926,10,1,100,0.022634615735810843,-10,-1,-100,14918.648841903894,-0.0020458112395094863,4.60930612164929e-05,0.9999979062637092,31.558613397045015,0.0027196396323499222,167.43202064501514,-45.957143407904,-90.04326629638672,5356.25390625,True
