Timestamp,Input Throttle,horizon,dT,dt,Input Roll,Roll P,Roll I,Roll D,Input Pitch,Pitch P,Pitch I,Pitch D,Input Yaw,Yaw P,Yaw I,Yaw D,Altitude,Direction X,Direction Y,Direction Z,Drag X,Drag Y,Drag Z,Vertical Velocity,Roll,Mass,Has Fuel
1599559567.8060458,0.0,10,0.5,0.5,-2.9544801101684572,-0.05075,-0.001,-0.37525,-0.0003221082972648539,10,1,100,0.17491930264984323,-10,-1,-100,14994.488072333392,-0.016808938595903298,-7.481518815902187e-05,0.999858717012542,28.576580176287255,0.027199672715777758,-86.69287384975962,26.823330299029724,-31.7919921875,5356.25390625,True
1599559567.8359098,0.0,10,0.5,0.5,-2.960124206542969,-0.05075,-0.001,-0.37525,-0.00045002997408958786,10,1,100,0.17370483970707012,-10,-1,-100,14995.026160737383,-0.016844707322161905,-7.203697519250794e-05,0.9998581152573125,28.503906466976698,0.02736327304458247,-85.87448469567407,26.637366657842342,-31.791412353515625,5356.25390625,True
1599559567.8700423,0.0,10,0.5,0.5,-2.9662475021362305,-0.05075,-0.001,-0.37525,-0.0002041556078257449,10,1,100,0.17995407713053746,-10,-1,-100,14996.092570056207,-0.01691872222504474,-6.721061737037623e-05,0.9998568659168195,28.35890857947676,0.02768618673193556,-84.24789170325022,26.265451211293765,-31.790191650390625,5356.25390625,True
1599559567.9029186,0.0,10,0.5,0.5,-2.843399598693848,-0.05075,-0.001,-0.37525,0.011272884368723372,10,1,100,0.18042466669860652,-10,-1,-100,14997.641401356203,-0.016974905930806996,4.1574808270526706e-05,0.9998559150398499,28.1530426207418,0.028167919177232933,-81.86462437028658,25.707606955086362,-32.091156005859375,5356.25390625,True
1599559567.939885,0.0,10,0.5,0.5,-2.864337684631348,-0.05075,-0.001,-0.37525,0.0057994199348621,10,1,100,0.17786344596313525,-10,-1,-100,14998.116011986043,-0.01698726646942221,9.067408690145372e-05,0.9998557018670777,28.093518772992606,0.02833136725229914,-81.10221488422262,25.521666234269546,-32.320709228515625,5356.25390625,True
1599559567.9688082,0.0,10,0.5,0.5,-2.6735498428344733,-0.05075,-0.001,-0.37525,0.01563030267539127,10,1,100,0.1785260468920355,-10,-1,-100,14999.125777879264,-0.016989083997999296,0.00022459902503719668,0.9998556498716136,27.98983196122371,0.02865980828503027,-79.62856077003288,25.149795010266583,-32.98431396484375,5356.25390625,True
1599559568.0024781,0.0,10,0.5,0.5,-2.9282690887451177,-0.05075,-0.001,-0.37525,0.002260268764320694,10,1,100,0.1800432024341268,-10,-1,-100,14999.125777879264,-0.016989083997999296,0.00022459902503719668,0.9998556498716136,27.98983196122371,0.02865980828503027,-79.62856077003288,25.149795010266583,-32.98431396484375,5356.25390625,True
1599559568.035459,0.0,10,0.5,0.5,-2.534439651489258,-0.05075,-0.001,-0.37525,0.022610541821279376,10,1,100,0.17859570247291626,-10,-1,-100,15000.133589177509,-0.016960480285626474,0.00040939732644133266,0.9998560768942248,27.90463142358811,0.028982717866602826,-78.21537514398052,24.777936539976654,-33.92218017578125,5356.25390625,True
1599559568.072355,0.0,10,0.5,0.5,-2.375407327270508,-0.05075,-0.001,-0.37525,0.02989394307898692,10,1,100,0.17583462249011553,-10,-1,-100,15001.131633570185,-0.01689395756518424,0.0006432363415820328,0.9998570800093354,27.834222440498596,0.029288582857410046,-76.85011820367642,24.406090093213543,-35.134796142578125,5356.25390625,True
1599559568.1032724,0.0,10,0.5,0.5,-2.533757640075684,-0.05075,-0.001,-0.37525,0.021728272654357523,10,1,100,0.1793184112526161,-10,-1,-100,15001.603310888167,-0.016849795028472957,0.0007809991366300547,0.9998577271031349,27.80312737958109,0.029430924613784017,-76.18094007224133,24.22017117596314,-35.8441162109375,5356.25390625,True
1599559568.1373074,0.0,10,0.5,0.5,-2.1131475860595708,-0.05075,-0.001,-0.37525,0.04167568670833731,10,1,100,0.17178492061984982,-10,-1,-100,15002.545689034392,-0.016725842993866213,0.0010868681697675,0.9998595225799103,27.745133163041455,0.029683855973535404,-74.85776494617885,23.848341746648263,-37.468994140625,5356.25390625,True
1599559568.1691837,0.0,10,0.5,0.5,-1.4644920867919926,-0.05075,-0.001,-0.37525,0.07093399156019319,10,1,100,0.15518523907725212,-10,-1,-100,15003.954860019265,-0.0164623286716565,0.0016298594409475703,0.9998631582836269,27.655381615035715,0.029949080124432145,-72.87472384515861,23.290618477976572,-40.421630859375,5356.25390625,True
1599559568.2059295,0.0,10,0.5,0.5,-2.571605993652344,-0.05075,-0.001,-0.37525,0.01680505408380015,10,1,100,0.1814984334331729,-10,-1,-100,15003.954860019265,-0.0164623286716565,0.0016298594409475703,0.9998631582836269,27.655381615035715,0.029949080124432145,-72.87472384515861,23.290618477976572,-40.421630859375,5356.25390625,True
1599559568.2369177,0.0,10,0.5,0.5,-1.0493347076416015,-0.05075,-0.001,-0.37525,0.08503900284223304,10,1,100,0.14035318600524793,-10,-1,-100,15005.353283952922,-0.016088695870996626,0.0022486252750621256,0.9998680400680597,27.536482363378237,0.03001413190608622,-70.82787897250557,22.7329217498043,-43.993011474609375,5356.25390625,True
1599559568.269838,0.0,10,0.5,0.5,-2.3883050979614255,-0.05075,-0.001,-0.37525,0.023383124477456663,10,1,100,0.17762784506525428,-10,-1,-100,15005.353283952922,-0.016088695870996626,0.0022486252750621256,0.9998680400680597,27.536482363378237,0.03001413190608622,-70.82787897250557,22.7329217498043,-43.993011474609375,5356.25390625,True
1599559568.3035085,0.0,10,0.5,0.5,-1.2264802749633792,-0.05075,-0.001,-0.37525,0.0741166610618329,10,1,100,0.14354631150616323,-10,-1,-100,15006.23218052613,-0.015779680630094366,0.002707877470203582,0.9998718263251638,27.423829867060704,0.029909000560296592,-69.38711407317703,22.361140502310324,-46.717559814453125,5356.25390625,True
1599559568.3394458,0.0,10,0.5,0.5,-0.9695197158813478,-0.05075,-0.001,-0.37525,0.07902809652430573,10,1,100,0.13389273410260116,-10,-1,-100,15007.101309651276,-0.015412097346848935,0.003167771353222689,0.9998762085778543,27.270731262524958,0.02966019444696031,-67.85516100010648,21.989374459962917,-49.717498779296875,5356.25390625,True
1599559568.369334,0.0,10,0.5,0.5,-1.4107358474731448,-0.05075,-0.001,-0.37525,0.061316906400047756,10,1,100,0.14834836626748132,-10,-1,-100,15007.563218533876,-0.01521077918780759,0.003422170270903,0.9998784530867424,27.17489226103521,0.02947610085995458,-67.04641851295959,21.803497913349446,-51.320404052734375,5356.25390625,True
1599559568.4032438,0.0,10,0.5,0.5,-0.5567716293334963,-0.05075,-0.001,-0.37525,0.09147656362302686,10,1,100,0.11904750604826586,-10,-1,-100,15008.435276119038,-0.014762981860411516,0.003924881831780855,0.9998833180272565,26.93617414050191,0.028979869478910764,-65.32695186641962,21.431759528857494,-54.732879638671875,5356.25390625,True
1599559568.43815,0.0,10,0.5,0.5,0.5616997451782224,-0.05075,-0.001,-0.37525,0.12540495843779526,10,1,100,0.07851534306046326,-10,-1,-100,15009.705762755359,-0.013989356422621219,0.004687348980449346,0.9998911574098533,26.43284419209831,0.027903695982222147,-62.442345038715175,20.87419506752255,-60.3597412109375,5356.25390625,True
1599559568.4730558,0.0,10,0.5,0.5,-1.5473284973144532,-0.05075,-0.001,-0.37525,0.0495488785553281,10,1,100,0.1555918429789078,-10,-1,-100,15009.705762755359,-0.013989356422621219,0.004687348980449346,0.9998911574098533,26.43284419209831,0.027903695982222147,-62.442345038715175,20.87419506752255,-60.3597412109375,5356.25390625,True
1599559568.5039709,0.0,10,0.5,0.5,0.19062976684570287,-0.05075,-0.001,-0.37525,0.10577520720044493,10,1,100,0.09099886291566163,-10,-1,-100,15010.505552666029,-0.013404635228020113,0.005195224258304334,0.9998966573598042,25.97804850993288,0.026968499665801633,-60.27795010301775,20.502519651992458,-64.43408203125,5356.25390625,True
1599559568.5369096,0.0,10,0.5,0.5,0.4083581298828125,-0.05075,-0.001,-0.37525,0.10760067236212713,10,1,100,0.08026852220557976,-10,-1,-100,15011.306319306139,-0.012778301675058033,0.0056702829534447455,0.9999022766738404,25.425271154194235,0.025893200534874976,-57.928639814739256,20.130876442467443,-68.52850341796875,5356.25390625,True
1599559568.5707932,0.0,10,0.5,0.5,-0.2450257476806642,-0.05075,-0.001,-0.37525,0.08846678764881134,10,1,100,0.10488440885567434,-10,-1,-100,15011.709633224411,-0.012436037439181181,0.005924536975712706,0.9999051179159124,25.120206397885152,0.025324497403604086,-56.706704989497034,19.945067676872075,-70.59478759765625,5356.25390625,True
1599559568.6067264,0.0,10,0.5,0.5,0.7947113647460936,-0.05075,-0.001,-0.37525,0.11457941395849285,10,1,100,0.0605596498346936,-10,-1,-100,15012.506492968649,-0.011725256377676779,0.00638972276995282,0.9999108409282306,24.42437202574382,0.024123982700945023,-54.11146873488219,19.57347728193357,-74.849365234375,5356.25390625,True
1599559568.63765,0.0,10,0.5,0.5,1.000794329833984,-0.05075,-0.001,-0.37525,0.11572503491635958,10,1,100,0.0491968350975967,-10,-1,-100,15013.300423540175,-0.010979760223693095,0.006819269048429084,0.9999164677287175,23.632040457815453,0.022895906207419423,-51.36500358803484,19.201924140333364,-79.0736083984375,5356.25390625,True
1599559568.670582,0.0,10,0.5,0.5,2.103574520874023,-0.05075,-0.001,-0.37525,0.13855719167063643,10,1,100,-0.008887622169077111,-10,-1,-100,15014.38145574485,-0.009778359490743986,0.007413593097920727,0.9999247083271062,22.332657771384433,0.021156242290337086,-47.136039334811,18.644662149931115,-85.37570190429688,5356.25390625,True
1599559568.7051768,0.0,10,0.5,0.5,-0.25772024688720707,-0.05075,-0.001,-0.37525,0.07954936889594195,10,1,100,0.11068907734022333,-10,-1,-100,15014.38145574485,-0.009778359490743986,0.007413593097920727,0.9999247083271062,22.332657771384433,0.021156242290337086,-47.136039334811,18.644662149931115,-85.37570190429688,5356.25390625,True
1599559568.7440732,0.0,10,0.5,0.5,1.4509463302612304,-0.05075,-0.001,-0.37525,0.11751995479340084,10,1,100,0.019059563981971325,-10,-1,-100,15015.11484063603,-0.008950302478120844,0.0077551516762367,0.9999298723950737,21.40166162652125,0.020114519549897233,-44.273642962753826,18.27319543072601,-89.378662109375,5356.25390625,True
1599559568.779982,0.0,10,0.5,0.5,1.5457666900634766,-0.05075,-0.001,-0.37525,0.11568330073812275,10,1,100,0.010235664088806495,-10,-1,-100,15015.84431999328,-0.008122590357964025,0.008045480556162825,0.9999346447485942,21.436788657019378,0.020129607810748757,-43.44738528590964,17.901747785949386,-93.11919403076172,5356.25390625,True
1599559568.8108943,0.0,10,0.5,0.5,0.9206824001312255,-0.05075,-0.001,-0.37525,0.10228714147034967,10,1,100,0.043372194776576015,-10,-1,-100,15016.23689278937,-0.007676699405950875,0.008184579788592534,0.9999370384878814,21.72555009846019,0.020440219333664415,-43.57708552223615,17.716024280214693,-94.9390869140625,5356.25390625,True
1599559568.8438063,0.0,10,0.5,0.5,1.7253612724304197,-0.05075,-0.001,-0.37525,0.11331799027828121,10,1,100,-0.006066795742916728,-10,-1,-100,15016.90387331834,-0.006827637405776868,0.0084081347792297,0.9999413415980907,22.241701462672125,0.021088887193942595,-43.67953215931022,17.344577033804985,-98.4229736328125,5356.25390625,True
1599559569.0543704,0.0,10,0.5,0.5,1.7953460227966307,-0.05075,-0.001,-0.37525,0.11117625668219286,10,1,100,-0.015796935259372744,-10,-1,-100,15017.571831901441,-0.005973286135307483,0.008588975455734569,0.9999452731791708,22.706788336448582,0.021783418356576403,-43.64038448985787,16.973128198856863,-101.64812469482422,5356.25390625,True
1599559569.0862935,0.0,10,0.5,0.5,1.8509982196807861,-0.05075,-0.001,-0.37525,0.108442716781038,10,1,100,-0.02653907421257548,-10,-1,-100,15018.241744176485,-0.005105133731251426,0.00872587235118096,0.999948897074894,23.094992937134883,0.022473443498058045,-43.41751044807004,16.60167784011972,-104.61192321777344,5356.25390625,True
1599559569.1232855,0.0,10,0.5,0.5,1.3314036659240722,-0.05075,-0.001,-0.37525,0.10072122250208446,10,1,100,0.013273781224535458,-10,-1,-100,15018.570840572705,-0.0046845037803632285,0.00877758200325495,0.9999505035143029,23.256854807925873,0.02280569398821144,-43.23385858376734,16.415952088534283,-105.99494934082031,5356.25390625,True
1599559569.1546664,0.0,10,0.5,0.5,1.9067401557922363,-0.05075,-0.001,-0.37525,0.10399106121410741,10,1,100,-0.03746971828371489,-10,-1,-100,15019.230989242438,-0.0038472090591146943,0.008852145803219419,0.9999534181636333,23.52036794467679,0.02343485237997225,-42.736647451689386,16.044500753735807,-108.55645751953125,5356.25390625,True
1599559569.1935658,0.0,10,0.5,0.5,2.3658542312622073,-0.05075,-0.001,-0.37525,0.10097263483495598,10,1,100,-0.09008099284402138,-10,-1,-100,15020.159691395238,-0.0026142318630355847,0.008890642766326841,0.999957060209571,23.856562711525473,0.02434855711478557,-41.845434882938065,15.487325640241153,-111.88362121582031,5356.25390625,True
1599559569.2245164,0.0,10,0.5,0.5,1.9183630821228026,-0.05075,-0.001,-0.37525,0.09516317941030916,10,1,100,-0.05493895286755694,-10,-1,-100,15020.755389517639,-0.0018193294369567147,0.00887148400195643,0.9999589925651966,24.01776874328588,0.024894682544196894,-41.11985865211404,15.115878969275741,-113.75774383544922,5356.25390625,True
1599559569.2552059,0.0,10,0.5,0.5,1.898967351913452,-0.05075,-0.001,-0.37525,0.0928650064672144,10,1,100,-0.05836931601681824,-10,-1,-100,15021.357924496639,-0.001072741230122446,0.008831849106769709,0.9999604230506368,24.125275781858555,0.025376120003408373,-40.29093277592188,14.744436659627885,-115.35640716552734,5356.25390625,True
1599559569.2861214,0.0,10,0.5,0.5,1.5982208499908448,-0.05075,-0.001,-0.37525,0.09316789696336308,10,1,100,-0.025359314883273476,-10,-1,-100,15021.677258208976,-0.0007012770171671526,0.008797592117991738,0.9999610545333606,24.16112220923173,0.025593173415526825,-39.84350848070441,14.558717621530171,-116.05254364013672,5356.25390625,True
1599559569.3140469,0.0,10,0.5,0.5,1.8443806934356692,-0.05075,-0.001,-0.37525,0.08749491866282252,10,1,100,-0.0670987346177273,-10,-1,-100,15022.269052392221,9.120343704697081e-06,0.00871419313313246,0.9999620306565934,24.20106949134409,0.025982553579250407,-38.89304157788214,14.187284750799641,-117.23820495605469,5356.25390625,True
1599559569.3400126,0.0,10,0.5,0.5,1.4016911964416505,-0.05075,-0.001,-0.37525,0.09588777848320428,10,1,100,0.003172419494492119,-10,-1,-100,15022.269052392221,9.120343704697081e-06,0.00871419313313246,0.9999620306565934,24.20106949134409,0.025982553579250407,-38.89304157788214,14.187284750799641,-117.23820495605469,5356.25390625,True
1599559569.3718941,0.0,10,0.5,0.5,1.7913545341491701,-0.05075,-0.001,-0.37525,0.08402997157627319,10,1,100,-0.07211009110144667,-10,-1,-100,15022.79834790749,0.0006872915693500666,0.008606116653656811,0.9999627304987132,24.20354827584268,0.02631706353957205,-37.88047390598311,13.815859772673472,-118.14849090576172,5356.25390625,True
1599559569.4097927,0.0,10,0.5,0.5,1.4514197681427004,-0.05075,-0.001,-0.37525,0.0948393336436303,10,1,100,-0.004959026307375488,-10,-1,-100,15022.79834790749,0.0006872915693500666,0.008606116653656811,0.9999627304987132,24.20354827584268,0.02631706353957205,-37.88047390598311,13.815859772673472,-118.14849090576172,5356.25390625,True
1599559569.4486895,0.0,10,0.5,0.5,1.8762838314056398,-0.05075,-0.001,-0.37525,0.06495447460245246,10,1,100,-0.14280393899991636,-10,-1,-100,15023.85498644854,0.0019351612980998915,0.008334544985734762,0.9999633945853373,24.11344849001306,0.026846116492515823,-35.71364585316221,13.073037206402082,-119.14264678955078,5356.25390625,True
1599559569.4855902,0.0,10,0.5,0.5,1.5045416057586671,-0.05075,-0.001,-0.37525,0.09206733769290537,10,1,100,-0.0186789326327802,-10,-1,-100,15023.85498644854,0.0019351612980998915,0.008334544985734762,0.9999633945853373,24.11344849001306,0.026846116492515823,-35.71364585316221,13.073037206402082,-119.14264678955078,5356.25390625,True
1599559569.5204968,0.0,10,0.5,0.5,1.459702000808716,-0.05075,-0.001,-0.37525,0.054617409211540235,10,1,100,-0.14155708786043228,-10,-1,-100,15024.902837910224,0.0030469787362083518,0.007994561636647338,0.9999634007826582,23.9128447942346,0.027224580067269438,-33.40724469987813,12.3302565242814,-119.03490447998047,5356.25390625,True
1599559569.557397,0.0,10,0.5,0.5,1.416106998062134,-0.05075,-0.001,-0.37525,0.07678506241027562,10,1,100,-0.06055123152096604,-10,-1,-100,15025.101080965833,0.003316158430857946,0.007887824603946983,0.9999633919880662,23.845824612190732,0.02729880920577389,-32.812651466530404,12.144568520348727,-118.83598327636719,5356.25390625,True
1599559569.5923042,0.0,10,0.5,0.5,1.233564324951172,-0.05075,-0.001,-0.37525,0.06595501912129678,10,1,100,-0.08720465224060614,-10,-1,-100,15025.562019187142,0.0037985024435653832,0.007693230234681406,0.9999631921164611,23.691094612851973,0.027424319919948387,-31.604258249488396,11.77320125413482,-118.23106384277344,5356.25390625,True
1599559569.6880486,0.0,10,0.5,0.5,1.0857577201843265,-0.05075,-0.001,-0.37525,0.06297078946193824,10,1,100,-0.08804950093989633,-10,-1,-100,15026.0805742495,0.004240249039953248,0.0074902320101477024,0.9999629576701896,23.506528474812544,0.027517534051435255,-30.370249215827158,11.40184621122382,-117.35057067871094,5356.25390625,True
1599559569.7349226,0.0,10,0.5,0.5,0.9238275863647463,-0.05075,-0.001,-0.37525,0.059516707730538854,10,1,100,-0.0891563890274332,-10,-1,-100,15026.47803616873,0.004647407177413351,0.007275475935838745,0.9999627338338335,23.288281380172936,0.02757398944069029,-29.10958341394025,11.030503761067118,-116.19454956054688,5356.25390625,True
1599559569.7708273,0.0,10,0.5,0.5,1.06724524307251,-0.05075,-0.001,-0.37525,0.0690500100839134,10,1,100,-0.06943640762785203,-10,-1,-100,15026.731941837003,0.004834061756168425,0.00716821745076791,0.9999626235542587,23.16534609415032,0.02758658647010792,-28.469129796596775,10.844837179251268,-115.51315307617188,5356.25390625,True
1599559569.802741,0.0,10,0.5,0.5,0.2804428703308106,-0.05075,-0.001,-0.37525,0.04279500656561337,10,1,100,-0.10678856379931886,-10,-1,-100,15027.323740013759,0.005338926482584134,0.0068334333193393005,0.9999623993196363,22.73183221411207,0.027545654661311997,-26.50322437183946,10.287856382329807,-113.0663833618164,5356.25390625,True
1599559569.8376489,0.0,10,0.5,0.5,0.7944198337554933,-0.05075,-0.001,-0.37525,0.06302077884886761,10,1,100,-0.07354170333228728,-10,-1,-100,15027.517098862212,0.005491421470613369,0.006714566296374074,0.9999623787371621,22.563970055516943,0.02750148908736963,-25.833294111080203,10.102202426337808,-112.11881256103516,5356.25390625,True
1599559569.8855572,0.0,10,0.5,0.5,0.26738118171691905,-0.05075,-0.001,-0.37525,0.04887428155586525,10,1,100,-0.08866233053344752,-10,-1,-100,15027.905770433717,0.005763146134376619,0.006479620436794103,0.9999623996259205,22.187050789077123,0.027355018116094827,-24.46911755284194,9.730903547636848,-110.0483627319336,5356.25390625,True
1599559569.9164371,0.0,10,0.5,0.5,0.10315423698425308,-0.05075,-0.001,-0.37525,0.04522961576462145,10,1,100,-0.08794623058058014,-10,-1,-100,15028.297371764667,0.006000178570193254,0.00623458626139095,0.9999625631948804,21.762331524742756,0.02713268636213646,-23.085852848287974,9.359616349607633,-107.84119415283203,5356.25390625,True
1599559569.9433959,0.0,10,0.5,0.5,0.42942679023742686,-0.05075,-0.001,-0.37525,0.05542003368852665,10,1,100,-0.07644244760346319,-10,-1,-100,15028.491708363406,0.006107387287259956,0.006106377136445716,0.9999627052939479,21.54448204885949,0.02700581455383109,-22.401875783426128,9.173976546166351,-106.66551971435547,5356.25390625,True
1599559569.976278,0.0,10,0.5,0.5,-0.1689125614166258,-0.05075,-0.001,-0.37525,0.04006907654755689,10,1,100,-0.0861548466620056,-10,-1,-100,15028.87256640161,0.006290362104624569,0.005851985762032326,0.9999630921225212,21.09996647130614,0.026718481941335998,-21.05254478758717,8.802703756331967,-104.22825622558594,5356.25390625,True
1599559570.0062335,0.0,10,0.5,0.5,0.7442097900390625,-0.05075,-0.001,-0.37525,0.06530463010470448,10,1,100,-0.06815478529292092,-10,-1,-100,15028.87256640161,0.006290362104624569,0.005851985762032326,0.9999630921225212,21.09996647130614,0.026718481941335998,-21.05254478758717,8.802703756331967,-104.22825622558594,5356.25390625,True
1599559570.0398629,0.0,10,0.5,0.5,-0.32693566894531234,-0.05075,-0.001,-0.37525,0.03563110713570819,10,1,100,-0.0851491969813568,-10,-1,-100,15029.194830657914,0.006442591429373023,0.005583900320925677,0.9999636558759925,20.603641280958414,0.026329028479894285,-19.69099945696157,8.431438234294513,-101.71711730957031,5356.25390625,True
1599559570.073774,0.0,10,0.5,0.5,-1.0153535751342773,-0.05075,-0.001,-0.37525,0.015891449312608392,10,1,100,-0.08866459330444118,-10,-1,-100,15029.700686309487,0.00661093774354564,0.005162467877608927,0.9999648215950215,19.800902618304036,0.02558630214119079,-17.674795799082826,7.874549530524211,-97.8927993774414,5356.25390625,True
1599559570.1106746,0.0,10,0.5,0.5,0.4178915538787842,-0.05075,-0.001,-0.37525,0.0578233928384604,10,1,100,-0.07202631494379276,-10,-1,-100,15029.700686309487,0.00661093774354564,0.005162467877608927,0.9999648215950215,19.800902618304036,0.02558630214119079,-17.674795799082826,7.874549530524211,-97.8927993774414,5356.25390625,True
1599559570.146578,0.0,10,0.5,0.5,-0.7215237102508545,-0.05075,-0.001,-0.37525,0.025036403525469264,10,1,100,-0.08039528085214079,-10,-1,-100,15029.965331966756,0.006685403909996643,0.004866227747102788,0.9999658120166276,19.246137191062488,0.025002202739710568,-16.37014482326305,7.5032935090419475,-95.22225189208984,5356.25390625,True
1599559570.180491,0.0,10,0.5,0.5,-1.3271972492218016,-0.05075,-0.001,-0.37525,0.0036867758346265864,10,1,100,-0.07921349938957793,-10,-1,-100,15030.40673443058,0.0067411328867220625,0.00440461938179158,0.99996757770215,18.355608700435745,0.023945435567388873,-14.45454029448104,6.946408380702119,-91.4522705078125,5356.25390625,True
1599559570.211407,0.0,10,0.5,0.5,-0.9682419631958008,-0.05075,-0.001,-0.37525,0.013791299651125848,10,1,100,-0.07413980806251472,-10,-1,-100,15030.65868387185,0.006744535024939043,0.004078934672490096,0.9999689362871403,17.738733498618515,0.023142235382858506,-13.222515332844734,6.575146566158262,-88.9788818359375,5356.25390625,True
1599559570.2443187,0.0,10,0.5,0.5,-1.0277898292541503,-0.05075,-0.001,-0.37525,0.009844481753194398,10,1,100,-0.07106836611430059,-10,-1,-100,15030.907703689183,0.006718813506615659,0.003749159942929646,0.9999704002343197,17.929478663582444,0.02334036498378843,-12.610338078491882,6.203874872399858,-86.66531372070312,5356.25390625,True
1599559570.2722774,0.0,10,0.5,0.5,-0.1617409820556641,-0.05075,-0.001,-0.37525,0.04257341207739326,10,1,100,-0.07371238144028128,-10,-1,-100,15030.907703689183,0.006718813506615659,0.003749159942929646,0.9999704002343197,17.929478663582444,0.02334036498378843,-12.610338078491882,6.203874872399858,-86.66531372070312,5356.25390625,True
1599559570.3057046,0.0,10,0.5,0.5,-0.6170030265808105,-0.05075,-0.001,-0.37525,0.023826341634336834,10,1,100,-0.07123710298053926,-10,-1,-100,15031.03367698798,0.006695755133145863,0.0035808749545323294,0.9999711716833425,18.12615188231805,0.023554980039266468,-12.367316123491356,6.018233800026646,-85.601318359375,5356.25390625,True
1599559570.3390028,0.0,10,0.5,0.5,-1.423199666595459,-0.05075,-0.001,-0.37525,-0.01770137706322572,10,1,100,-0.062141994039061794,-10,-1,-100,15031.40769500169,0.006591741627770324,0.0030524285322001093,0.9999736154631124,18.588345267791247,0.023986843399098835,-11.50932898408607,5.461289544880907,-82.77597045898438,5356.25390625,True
1599559570.374309,0.0,10,0.5,0.5,-0.7384941184997558,-0.05075,-0.001,-0.37525,0.014608975061319383,10,1,100,-0.06738797206368546,-10,-1,-100,15031.469215311809,0.006544600623540827,0.002868298219602894,0.9999744702081157,18.709767489520626,0.024078342306779413,-11.190803299898512,5.275634323124159,-81.8995361328125,5356.25390625,True
1599559570.4052536,0.0,10,0.5,0.5,-0.7706413810729981,-0.05075,-0.001,-0.37525,0.012745882734196905,10,1,100,-0.06623715040104577,-10,-1,-100,15031.593237528112,0.006491190414404407,0.0026864385525418783,0.9999753234429873,18.821948667350288,0.024154911695452346,-10.86181595311534,5.08997558071294,-81.05670166015625,5356.25390625,True
1599559570.4391906,0.0,10,0.5,0.5,-1.1166581665039064,-0.05075,-0.001,-0.37525,-0.009774815867909743,10,1,100,-0.05794991400721569,-10,-1,-100,15031.771943829139,0.00636740602736297,0.0023186288945809554,0.9999770397866802,19.0100757405778,0.024256599978554456,-10.17023716543102,4.718647537476482,-79.5059814453125,5356.25390625,True
1599559570.4724903,0.0,10,0.5,0.5,-1.1053084480285644,-0.05075,-0.001,-0.37525,-0.015857511239393735,10,1,100,-0.054179599102657724,-10,-1,-100,15031.954556346172,0.006220820568844031,0.0019315445557693783,0.9999787850385025,19.140675849670444,0.024284699087841147,-9.434398220216156,4.347305773725524,-78.17095947265625,5356.25390625,True
1599559570.5084324,0.0,10,0.5,0.5,-0.8569300048828125,-0.05075,-0.001,-0.37525,0.001005964964696602,10,1,100,-0.059830327240842,-10,-1,-100,15032.073693767074,0.006139353665393173,0.0017356219252427053,0.9999796477694453,19.186113901348303,0.024275538350832595,-9.05295963830016,4.1616299283133,-77.58203125,5356.25390625,True
1599559570.539401,0.0,10,0.5,0.5,-1.2407523773193359,-0.05075,-0.001,-0.37525,-0.04444127471117802,10,1,100,-0.037590156631946814,-10,-1,-100,15032.24751608551,0.0058636565469218265,0.0011467800799437322,0.9999821510543815,19.245707228476807,0.024166310534038008,-7.865719240485255,3.60458215992987,-76.16552734375,5356.25390625,True
1599559570.5724301,0.0,10,0.5,0.5,-0.8549780487060548,-0.05075,-0.001,-0.37525,-0.007649007384149857,10,1,100,-0.05381277952123084,-10,-1,-100,15032.368606956676,0.0057613019913759275,0.0009486100640926912,0.9999829536238658,19.23768615373584,0.024101701182587497,-7.457460308912629,3.418892694256597,-75.82635498046875,5356.25390625,True
1599559570.6063087,0.0,10,0.5,0.5,-1.0027598052978517,-0.05075,-0.001,-0.37525,-0.05395598432950681,10,1,100,-0.026927136776862134,-10,-1,-100,15032.54047686921,0.005424707926399249,0.00035002894097835167,0.999985224902675,19.137980765098664,0.023840955471643586,-6.210076022353024,2.8618018606997535,-75.1832275390625,5356.25390625,True
1599559570.6422222,0.0,10,0.5,0.5,-0.7625744415283203,-0.05075,-0.001,-0.37525,0.00556221488173202,10,1,100,-0.06045713271650835,-10,-1,-100,15032.54047686921,0.005424707926399249,0.00035002894097835167,0.999985224902675,19.137980765098664,0.023840955471643586,-6.210076022353024,2.8618018606997535,-75.1832275390625,5356.25390625,True
1599559570.6721423,0.0,10,0.5,0.5,-0.7983405548095704,-0.05075,-0.001,-0.37525,-0.060264159581868974,10,1,100,-0.01866831755598647,-10,-1,-100,15032.647892560344,0.00504596510421882,-0.00024545551231479015,0.9999872389124566,18.947749089816668,0.02351445790290899,-4.951502301769395,2.3046765702734455,-75.10171508789062,5356.25390625,True
1599559570.7070477,0.0,10,0.5,0.5,-0.7243187728881837,-0.05075,-0.001,-0.37525,-0.021986785539511135,10,1,100,-0.04165743290245204,-10,-1,-100,15032.70453214401,0.004912050656771345,-0.00043583081124665243,0.9999878408310019,18.862734319870572,0.02338956151418407,-4.532100636503954,2.1189605406810257,-75.20547485351562,5356.25390625,True
1599559570.7399607,0.0,10,0.5,0.5,-0.6015739334106446,-0.05075,-0.001,-0.37525,-0.046062361166947105,10,1,100,-0.02374629961059254,-10,-1,-100,15032.807068704744,0.00462896590186289,-0.000824764380496991,0.9999889461581042,18.661653052191593,0.023116671805498454,-3.6978481013299125,1.7475179396644136,-75.58657836914062,5356.25390625,True
1599559570.7758644,0.0,10,0.5,0.5,-0.6283336532592774,-0.05075,-0.001,-0.37525,-0.027611218716294496,10,1,100,-0.03591731480914133,-10,-1,-100,15032.803160083597,0.004483954648762504,-0.0010074106912340579,0.9999894395814423,18.54987610804384,0.022973387528261863,-3.2850663002447322,1.5617918713804424,-75.86074829101562,5356.25390625,True
1599559570.8058121,0.0,10,0.5,0.5,-0.2518884231567384,-0.05075,-0.001,-0.37525,-0.07071491195203397,10,1,100,0.0009015298599936855,-10,-1,-100,15032.900813697954,0.004019121695659653,-0.0015622808762419185,0.9999907029264117,18.17870719455486,0.02252196187645371,-2.070824128680287,1.004597568985583,-76.98678588867188,5356.25390625,True
1599559570.8397868,0.0,10,0.5,0.5,-0.6745524490356446,-0.05075,-0.001,-0.37525,-0.015577275994449044,10,1,100,-0.04536159556297299,-10,-1,-100,15032.900813697954,0.004019121695659653,-0.0015622808762419185,0.9999907029264117,18.17870719455486,0.02252196187645371,-2.070824128680287,1.004597568985583,-76.98678588867188,5356.25390625,True
1599559570.8726404,0.0,10,0.5,0.5,-0.25867435150146495,-0.05075,-0.001,-0.37525,-0.05524970422984039,10,1,100,-0.00901210044232987,-10,-1,-100,15032.938898098888,0.0036905992236262912,-0.0019199412212895812,0.999991346614098,17.897959157188975,0.022192763363025652,-1.2849509314607783,0.633124726086348,-77.96316528320312,5356.25390625,True
1599559570.9085412,0.0,10,0.5,0.5,-0.15765640716552742,-0.05075,-0.001,-0.37525,-0.0557201106019063,10,1,100,-0.005186689743804519,-10,-1,-100,15032.92424830061,0.003359141476630546,-0.002246575482623298,0.9999918345002327,17.594763469389147,0.02183982937303151,-0.5220349202397736,0.26164742373285277,-79.0599365234375,5356.25390625,True
1599559570.9394686,0.0,10,0.5,0.5,-0.3150619232177736,-0.05075,-0.001,-0.37525,-0.04242873928708016,10,1,100,-0.018463991379203272,-10,-1,-100,15032.915457856725,0.0031807027765150806,-0.0024197803577494245,0.9999920138645446,17.43844165932192,0.021657405859001434,-0.1501057426068716,0.07590788971760887,-79.65579223632812,5356.25390625,True
1599559570.9723465,0.0,10,0.5,0.5,-0.00039232330322269693,-0.05075,-0.001,-0.37525,-0.05950897408098703,10,1,100,0.002478602526086962,-10,-1,-100,15032.949637004058,0.0028301385637710045,-0.0027299961884462132,0.999992268688374,17.160393186452122,0.021330414855962262,0.5751724676051385,-0.29557098027706363,-80.91827392578125,5356.25390625,True
1599559571.005318,0.0,10,0.5,0.5,-0.19392456970214847,-0.05075,-0.001,-0.37525,-0.04518703506442412,10,1,100,-0.012669252977841008,-10,-1,-100,15032.939872171031,0.0026515103016417608,-0.0028790111115386996,0.9999923403647349,17.059230582297822,0.021210729061897488,0.9310998828917266,-0.48130953330138393,-81.57470703125,5356.25390625,True
1599559571.0422792,0.0,10,0.5,0.5,0.7302581451416016,-0.05075,-0.001,-0.37525,-0.09143480432282497,10,1,100,0.050176796437472214,-10,-1,-100,15032.824638039107,0.0019199700275692162,-0.0034325193479725824,0.9999922657331,16.61599459385587,0.020664522194482043,2.3068760184680333,-1.2242537093657901,-84.32086181640625,5356.25390625,True
1599559571.0733008,0.0,10,0.5,0.5,0.0013633941650390557,-0.05075,-0.001,-0.37525,-0.05057712883788408,10,1,100,-0.001951134346151056,-10,-1,-100,15032.810965615907,0.0017315437679263892,-0.0035615509780159895,0.9999921585246611,16.49531777567856,0.02051066525753744,2.637583861009648,-1.4099877904519815,-85.02670288085938,5356.25390625,True
1599559571.107037,0.0,10,0.5,0.5,0.33772509307861326,-0.05075,-0.001,-0.37525,-0.06338073840731573,10,1,100,0.01976943691703555,-10,-1,-100,15032.777763106278,0.0013654214496166106,-0.0037927609226889028,0.9999918752614185,16.25243159746111,0.020196113904685502,3.2834560116684735,-1.7814548777819414,-86.43582153320312,5356.25390625,True
1599559571.1437166,0.0,10,0.5,0.5,-0.18998917388916015,-0.05075,-0.001,-0.37525,-0.04053827896316988,10,1,100,-0.016530941594027727,-10,-1,-100,15032.777763106278,0.0013654214496166106,-0.0037927609226889028,0.9999918752614185,16.25243159746111,0.020196113904685502,3.2834560116684735,-1.7814548777819414,-86.43582153320312,5356.25390625,True
1599559571.181655,0.0,10,0.5,0.5,0.6715620529174804,-0.05075,-0.001,-0.37525,-0.07577844871014408,10,1,100,0.045588850036220846,-10,-1,-100,15032.615656122915,0.0008031085259289355,-0.0041110983930737165,0.9999912269048654,15.874202504547586,0.019700103206982667,4.210264745406364,-2.3386593500454507,-88.45602416992188,5356.25390625,True
1599559571.2125347,0.0,10,0.5,0.5,-0.08537206268310547,-0.05075,-0.001,-0.37525,-0.044199583423345894,10,1,100,-0.010320841015573599,-10,-1,-100,15032.615656122915,0.0008031085259289355,-0.0041110983930737165,0.9999912269048654,15.874202504547586,0.019700103206982667,4.210264745406364,-2.3386593500454507,-88.45602416992188,5356.25390625,True
1599559571.2520108,0.0,10,0.5,0.5,0.9673517227172851,-0.05075,-0.001,-0.37525,-0.0817445684818946,10,1,100,0.06979459129698362,-10,-1,-100,15032.41448750603,7.741140553995827e-05,-0.004450424477995265,0.9999900938156538,15.523948608369038,0.019237506400445373,5.425642590937858,-3.081625305306625,-90.92474365234375,5356.25390625,True
1599559571.3131092,0.0,10,0.5,0.5,0.28150320739746093,-0.05075,-0.001,-0.37525,-0.05641538635726562,10,1,100,0.018148588756341236,-10,-1,-100,15032.338315544417,-0.00010982074437955329,-0.00452663394588607,0.9999897487097175,15.64051541261029,0.019379190219150345,5.795944771754571,-3.2673740710542036,-91.48660278320312,5356.25390625,True
1599559571.3448822,0.0,10,0.5,0.5,0.5506046310424804,-0.05075,-0.001,-0.37525,-0.06367699882967093,10,1,100,0.04007878137084777,-10,-1,-100,15032.181090922793,-0.00047640579214653717,-0.004660014617728545,0.999989028590456,15.866505145588743,0.01966065948040492,6.548392602882572,-3.6388823249343254,-92.61044311523438,5356.25390625,True
1599559571.3758354,0.0,10,0.5,0.5,0.7384041122436522,-0.05075,-0.001,-0.37525,-0.06673810932609876,10,1,100,0.05913993006662566,-10,-1,-100,15031.938906628639,-0.0009799421470273056,-0.004807343488980791,0.999987964508557,16.196711980695255,0.0200933929357411,7.708756022695729,-4.196171918267476,-94.03849792480469,5356.25390625,True
1599559571.4097123,0.0,10,0.5,0.5,0.20377292404174807,-0.05075,-0.001,-0.37525,-0.052198055438618364,10,1,100,0.00914943982341573,-10,-1,-100,15031.938906628639,-0.0009799421470273056,-0.004807343488980791,0.999987964508557,16.196711980695255,0.0200933929357411,7.708756022695729,-4.196171918267476,-94.03849792480469,5356.25390625,True
1599559571.4423454,0.0,10,0.5,0.5,0.6815440956115724,-0.05075,-0.001,-0.37525,-0.06378075630561822,10,1,100,0.06275348961908195,-10,-1,-100,15031.690862070536,-0.0014646154068291835,-0.0049113909294616915,0.9999868664841794,16.51893354666,0.020543159921840356,8.906767660262997,-4.7534897917602414,-95.15774536132812,5356.25390625,True
1599559571.4792476,0.0,10,0.5,0.5,0.49345152130126957,-0.05075,-0.001,-0.37525,-0.05829073757388746,10,1,100,0.0486395456665521,-10,-1,-100,15031.467230937444,-0.0017740132805581141,-0.004954843123290916,0.999986151107356,16.716964648828423,0.020836026092252956,9.718440280502593,-5.125046968278644,-95.69974517822266,5356.25390625,True
1599559571.511199,0.0,10,0.5,0.5,0.29099248237609865,-0.05075,-0.001,-0.37525,-0.054061726411025204,10,1,100,0.018013701766676497,-10,-1,-100,15031.467230937444,-0.0017740132805581141,-0.004954843123290916,0.999986151107356,16.716964648828423,0.020836026092252956,9.718440280502593,-5.125046968278644,-95.69974517822266,5356.25390625,True
1599559571.5436702,0.0,10,0.5,0.5,0.4789666500091553,-0.05075,-0.001,-0.37525,-0.056675239522060675,10,1,100,0.05022267950068002,-10,-1,-100,15031.235787366284,-0.002063968137476169,-0.004977545895027055,0.9999854819308079,16.899729193465582,0.021120061009710697,10.537392291738675,-5.496612685004067,-96.13882446289062,5356.25390625,True
1599559571.5805452,0.0,10,0.5,0.5,0.44229721069335937,-0.05075,-0.001,-0.37525,-0.05494736551464641,10,1,100,0.05158087190719712,-10,-1,-100,15031.007273569936,-0.00233730423231237,-0.004981689153354367,0.9999848597764394,17.06666480698791,0.021393772085497264,11.361326261989257,-5.8681860554087235,-96.43771362304688,5356.25390625,True
1599559571.614488,0.0,10,0.5,0.5,0.41205051879882815,-0.05075,-0.001,-0.37525,-0.05295725921700323,10,1,100,0.054293505964893796,-10,-1,-100,15030.77387658623,-0.0026075969801804847,-0.004966572430254911,0.9999842666743731,17.21772703552408,0.021655833824227387,12.18821621592774,-6.239766290025317,-96.62812042236328,5356.25390625,True
1599559571.6473656,0.0,10,0.5,0.5,0.37480946846008306,-0.05075,-0.001,-0.37525,-0.0509119709270725,10,1,100,0.054033938335109145,-10,-1,-100,15030.537549880217,-0.0028485170376209828,-0.004933767199390346,0.9999837718142774,17.357650992376378,0.02191099442613233,13.019612711652446,-6.611352371931202,-96.70708465576172,5356.25390625,True
1599559571.680278,0.0,10,0.5,0.5,0.2992819446563721,-0.05075,-0.001,-0.37525,-0.04527537963947392,10,1,100,0.06693970325963727,-10,-1,-100,15030.091262979084,-0.003182370683432381,-0.004852332402123022,0.9999831635518132,17.53906964000441,0.022267733959906447,14.265922432963544,-7.168740523477233,-96.5981216430664,5356.25390625,True
1599559571.7151845,0.0,10,0.5,0.5,0.3011938541412354,-0.05075,-0.001,-0.37525,-0.04957134453245957,10,1,100,0.04503898157693163,-10,-1,-100,15029.942825251026,-0.0032843165598806135,-0.004817180160194058,0.9999830038755854,17.59187961457123,0.02237867299088537,14.680132367669133,-7.354538416873128,-96.50569152832031,5356.25390625,True
1599559571.7470982,0.0,10,0.5,0.5,0.2251268051147461,-0.05075,-0.001,-0.37525,-0.044141984756384436,10,1,100,0.055554942720288165,-10,-1,-100,15029.643020920805,-0.0034704993903069267,-0.004735856818047758,0.9999827634985419,17.686756435733294,0.022588032336520084,15.505921754163356,-7.726136770632193,-96.24513244628906,5356.25390625,True
1599559571.782041,0.0,10,0.5,0.5,0.3231222640991211,-0.05075,-0.001,-0.37525,-0.052267170303921084,10,1,100,0.0371857154019848,-10,-1,-100,15029.643020920805,-0.0034704993903069267,-0.004735856818047758,0.9999827634985419,17.686756435733294,0.022588032336520084,15.505921754163356,-7.726136770632193,-96.24513244628906,5356.25390625,True
1599559571.8109276,0.0,10,0.5,0.5,0.08887120056152345,-0.05075,-0.001,-0.37525,-0.03563116634959418,10,1,100,0.06417091322062643,-10,-1,-100,15029.184037906234,-0.0037139958395823254,-0.00458477999492789,0.9999825928621467,17.804937504047047,0.022870439413006427,16.737200348577534,-8.283538390051314,-95.69499206542969,5356.25390625,True
1599559571.8468363,0.0,10,0.5,0.5,0.20213640365600588,-0.05075,-0.001,-0.37525,-0.04447145692373149,10,1,100,0.04769636431612708,-10,-1,-100,15028.977982449112,-0.0037838240011017626,-0.00452814012742777,0.9999825891598888,17.838452364290994,0.022955851932055092,17.145375914983727,-8.469339851348519,-95.47627258300781,5356.25390625,True
1599559571.9146867,0.0,10,0.5,0.5,0.07582646636962892,-0.05075,-0.001,-0.37525,-0.036334619834133705,10,1,100,0.05496496900827952,-10,-1,-100,15028.67134143319,-0.003911555271756688,-0.004403066004336647,0.9999826562221554,17.89720908724415,0.023112820846647394,17.957785692523437,-8.840943545498636,-94.9871597290039,5356.25390625,True
1599559571.9466002,0.0,10,0.5,0.5,-0.08707560920715329,-0.05075,-0.001,-0.37525,-0.025370755394456233,10,1,100,0.059413757456383595,-10,-1,-100,15028.085404330399,-0.004066438515394584,-0.004190213015611914,0.9999829529510412,17.96984356785459,0.02331686249175348,19.169468459539456,-9.398350492547586,-94.17418670654297,5356.25390625,True
1599559572.0213673,0.0,10,0.5,0.5,-0.1722549839019775,-0.05075,-0.001,-0.37525,-0.02016658146473966,10,1,100,0.05640147605993996,-10,-1,-100,15027.50434749131,-0.004178285147567655,-0.00395011915026268,0.999983469109327,18.02309754492512,0.023476830013001024,20.368824349607287,-9.95575665874181,-93.2586441040039,5356.25390625,True
1599559572.112124,0.0,10,0.5,0.5,-0.09273972434997557,-0.05075,-0.001,-0.37525,-0.02529670644419106,10,1,100,0.05086489539377963,-10,-1,-100,15027.066845786758,-0.004228203454244091,-0.0037794135481947462,0.999983919035092,18.05174783295922,0.023561170705688764,21.164324704350747,-10.327359156831111,-92.63961791992188,5356.25390625,True
1599559572.1560056,0.0,10,0.5,0.5,-0.23489394378662104,-0.05075,-0.001,-0.37525,-0.012057917357092367,10,1,100,0.05037084632706761,-10,-1,-100,15026.47895441542,-0.0042678381175101756,-0.0035049234215695415,0.9999847504185311,18.098318192254418,0.023670092111150728,22.366889595222606,-10.884759047571396,-91.7615966796875,5356.25390625,True
1599559572.1879208,0.0,10,0.5,0.5,-0.13323641433715816,-0.05075,-0.001,-0.37525,-0.018014984565819438,10,1,100,0.04702467262945988,-10,-1,-100,15025.976022882503,-0.004272463080106475,-0.0033107670165173774,0.9999853923338038,18.136585063750903,0.023737065419599693,23.181335450415386,-11.256355288591998,-91.22794342041016,5356.25390625,True
1599559572.223825,0.0,10,0.5,0.5,-0.1457892765045166,-0.05075,-0.001,-0.37525,-0.015434265272791434,10,1,100,0.0451389880543874,-10,-1,-100,15025.538520828937,-0.004258626689493156,-0.0031121695757548615,0.9999860891528697,18.18005408359722,0.023798917006228288,24.00607283671136,-11.627947811431001,-90.7296371459961,5356.25390625,True
1599559572.2756865,0.0,10,0.5,0.5,-0.14887576484680176,-0.05075,-0.001,-0.37525,-0.012529924046516545,10,1,100,0.04328420606578454,-10,-1,-100,15025.096136156702,-0.004228470018767216,-0.002906699425043069,0.9999868354832241,18.231089339996057,0.02385905464859457,24.84498950165749,-11.999536195074143,-90.28474426269531,5356.25390625,True
1599559572.3086326,0.0,10,0.5,0.5,-0.15435970306396485,-0.05075,-0.001,-0.37525,-0.009601763271637781,10,1,100,0.04132395344787854,-10,-1,-100,15024.595157229342,-0.004182545321009525,-0.0026949516058907275,0.9999876216986286,18.28996306964222,0.023918512314039922,25.699433874862187,-12.371119922307663,-89.88137817382812,5356.25390625,True
1599559572.342537,0.0,10,0.5,0.5,-0.08307592544555664,-0.05075,-0.001,-0.37525,-0.018770033062471495,10,1,100,0.04281298111210388,-10,-1,-100,15024.313905361225,-0.0041539062568305566,-0.002587519521477121,0.9999880248310655,18.321841045762977,0.02394749329919724,26.132080920769667,-12.556909857784888,-89.69476318359375,5356.25390625,True
1599559572.3794093,0.0,10,0.5,0.5,-0.08879562454223633,-0.05075,-0.001,-0.37525,-0.017351420913881213,10,1,100,0.0421718605360782,-10,-1,-100,15024.092225440312,-0.004121705936653326,-0.002478721716664795,0.9999884336725215,18.393524781270813,0.02402594708784555,26.62374450937652,-12.742698250039524,-89.518310546875,5356.25390625,True
1599559572.411323,0.0,10,0.5,0.5,-0.28384044952392573,-0.05075,-0.001,-0.37525,0.021412237006426884,10,1,100,0.02730802285673063,-10,-1,-100,15023.009213416604,-0.003957116075166414,-0.0020291671350941265,0.9999901118076646,18.820279748341544,0.024498295640113826,28.835803667882185,-13.485832802870984,-88.90631103515625,5356.25390625,True
1599559572.4432395,0.0,10,0.5,0.5,-0.11242358779907227,-0.05075,-0.001,-0.37525,-0.010585649759676671,10,1,100,0.038271458829596094,-10,-1,-100,15022.729914697702,-0.003907255912150024,-0.001913335618704022,0.9999905362042418,18.922335826909595,0.024604631239280996,29.39305302337852,-13.671611469348047,-88.77084350585938,5356.25390625,True
1599559572.4761848,0.0,10,0.5,0.5,-0.16613308715820313,-0.05075,-0.001,-0.37525,0.0030896371153396676,10,1,100,0.031465633634427045,-10,-1,-100,15022.216240564594,-0.0038003037433021487,-0.0016855650717870136,0.9999913582435837,19.122129314551078,0.024805308571437673,30.513796770387973,-14.043162340633872,-88.5264892578125,5356.25390625,True
1599559572.5120935,0.0,10,0.5,0.5,-0.07485046844482422,-0.05075,-0.001,-0.37525,-0.0194780327287204,10,1,100,0.04211806054812038,-10,-1,-100,15022.216240564594,-0.0038003037433021487,-0.0016855650717870136,0.9999913582435837,19.122129314551078,0.024805308571437673,30.513796770387973,-14.043162340633872,-88.5264892578125,5356.25390625,True
1599559572.5420086,0.0,10,0.5,0.5,-0.1971965621948242,-0.05075,-0.001,-0.37525,0.019844608229844143,10,1,100,0.021671221131895343,-10,-1,-100,15021.29436336481,-0.00361484841622211,-0.001329740479754411,0.999992582303081,19.403324555920555,0.02506827052397538,32.19639975426546,-14.6004726746745,-88.24005126953125,5356.25390625,True
1599559572.5753613,0.0,10,0.5,0.5,-0.12178268966674806,-0.05075,-0.001,-0.37525,-0.002709712644803618,10,1,100,0.03283799320771308,-10,-1,-100,15021.010181676014,-0.0035483666056239493,-0.0012131037918004454,0.9999929687120916,19.492593194235802,0.02514689628713285,32.757829205271634,-14.78623828875965,-88.16546630859375,5356.25390625,True
1599559572.6092703,0.0,10,0.5,0.5,-0.12266517486572266,-0.05075,-0.001,-0.37525,-0.0006789922694451986,10,1,100,0.03151015999277346,-10,-1,-100,15020.716235817294,-0.0034765030759296876,-0.0010903357682335406,0.9999933625251097,19.579416711128804,0.025220976375352613,33.31894187561159,-14.972001720636532,-88.09829711914062,5356.25390625,True
1599559572.6451755,0.0,10,0.5,0.5,-0.13990416717529297,-0.05075,-0.001,-0.37525,0.012346151154033539,10,1,100,0.022878589132278738,-10,-1,-100,15020.138109269785,-0.003333387374696623,-0.00086196931901092,0.9999940727511856,19.74717645859382,0.025357829028680848,34.44212574074972,-15.343521929390127,-87.99917602539062,5356.25390625,True
1599559572.6751547,0.0,10,0.5,0.5,-0.11706772918701173,-0.05075,-0.001,-0.37525,0.0028603973737195316,10,1,100,0.028540954070430533,-10,-1,-100,15019.786545151495,-0.0032555301984191374,-0.0007422639288903739,0.9999944252681546,19.826929611527348,0.025419424294310784,35.00185989657995,-15.529278422908636,-87.96591186523438,5356.25390625,True
1599559572.708092,0.0,10,0.5,0.5,-0.12163287200927736,-0.05075,-0.001,-0.37525,0.017027354734797613,10,1,100,0.01844949729453619,-10,-1,-100,15019.149824339896,-0.0030938271366209398,-0.0005063278305824282,0.9999950859208143,19.979998088459254,0.02553205890252755,36.12002731032322,-15.900784534978385,-87.92630004882812,5356.25390625,True
1599559572.7420144,0.0,10,0.5,0.5,-0.10302759246826172,-0.05075,-0.001,-0.37525,0.031643104652305284,10,1,100,0.006402092898986737,-10,-1,-100,15018.208416771493,-0.002838236930299431,-0.00016076310003975558,0.9999959592750128,20.194621063769286,0.02567802305286744,37.79407845073748,-16.458026175895064,-87.93545532226562,5356.25390625,True
1599559572.7793524,0.0,10,0.5,0.5,-0.10656019439697266,-0.05075,-0.001,-0.37525,-0.002726527998456548,10,1,100,0.03184922561665093,-10,-1,-100,15018.208416771493,-0.002838236930299431,-0.00016076310003975558,0.9999959592750128,20.194621063769286,0.02567802305286744,37.79407845073748,-16.458026175895064,-87.93545532226562,5356.25390625,True
1599559572.80927,0.0,10,0.5,0.5,-0.07030736846923828,-0.05075,-0.001,-0.37525,0.0342954064464421,10,1,100,0.002052396596232041,-10,-1,-100,15017.214273495367,-0.002568328501915487,0.0001742066926241737,0.9999966866648782,20.391388053954177,0.02579997188091933,39.4614962855099,-17.015246655425507,-88.020751953125,5356.25390625,True
1599559572.8431807,0.0,10,0.5,0.5,-0.08376180419921876,-0.05075,-0.001,-0.37525,0.012822673689603022,10,1,100,0.018830384838116714,-10,-1,-100,15016.855875211419,-0.0024766043467121138,0.00028182732292519853,0.9999968934973098,20.453437269708232,0.02583647041079371,40.016081159851836,-17.2009821792042,-88.06442260742188,5356.25390625,True
1599559572.8800802,0.0,10,0.5,0.5,-0.07853661041259767,-0.05075,-0.001,-0.37525,0.014757032630087197,10,1,100,0.017064256671246322,-10,-1,-100,15016.505287854117,-0.00237836640355258,0.00039546080229897523,0.9999970934877782,20.513631218459732,0.025870987137653984,40.56970084616357,-17.38671539228642,-88.11526489257812,5356.25390625,True
1599559572.9140239,0.0,10,0.5,0.5,0.01665963592529296,-0.05075,-0.001,-0.37525,0.049953437790166665,10,1,100,-0.016446290903472202,-10,-1,-100,15015.084388208925,-0.0019855419154670806,0.0008171629202012643,0.9999976949313752,20.738988255978686,0.025995771099370835,42.77864379586679,-18.129624308337124,-88.383544921875,5356.25390625,True
1599559572.9449306,0.0,10,0.5,0.5,-0.01231894531250001,-0.05075,-0.001,-0.37525,0.03030395264318811,10,1,100,0.00021771789983420983,-10,-1,-100,15014.309973568772,-0.0017813404833195547,0.001020051101765357,0.9999978931586968,20.843297968944462,0.026052839553888214,43.88029272088607,-18.5010649384065,-88.55178833007812,5356.25390625,True
1599559572.9765074,0.0,10,0.5,0.5,-0.0754069351196289,-0.05075,-0.001,-0.37525,0.010226173173778741,10,1,100,0.020468344855325782,-10,-1,-100,15014.309973568772,-0.0017813404833195547,0.001020051101765357,0.9999978931586968,20.843297968944462,0.026052839553888214,43.88029272088607,-18.5010649384065,-88.55178833007812,5356.25390625,True
1599559573.044485,0.0,10,0.5,0.5,-0.03763725738525392,-0.05075,-0.001,-0.37525,0.02050490934654596,10,1,100,0.009695741513073605,-10,-1,-100,15013.95255246025,-0.0016848186773821504,0.0011117832302261713,0.9999979626599612,20.89351853644463,0.026080623642731088,44.43043980400193,-18.686781800586427,-88.64031982421875,5356.25390625,True
1599559573.0763998,0.0,10,0.5,0.5,0.044016052246093736,-0.05075,-0.001,-0.37525,0.04194441170323883,10,1,100,-0.014412933565121484,-10,-1,-100,15012.81192634534,-0.0013793297272018611,0.0013883951437431046,0.9999980849023806,21.04177807915498,0.026168144941398627,46.08888378031356,-19.243918429111556,-88.90982055664062,5356.25390625,True
1599559573.1113079,0.0,10,0.5,0.5,0.02747442779541015,-0.05075,-0.001,-0.37525,0.033614530187569304,10,1,100,-0.006677894219362036,-10,-1,-100,15012.03262924368,-0.0011734896732807014,0.0015624118486393887,0.9999980908937787,21.137507786482267,0.026229044043950205,47.19846391384163,-19.61533157325794,-89.108154296875,5356.25390625,True
1599559573.143223,0.0,10,0.5,0.5,0.04405337524414062,-0.05075,-0.001,-0.37525,0.03452672701845133,10,1,100,-0.00892662198891607,-10,-1,-100,15011.254309466109,-0.0009674327784082638,0.0017273350288725025,0.9999980401918384,21.228845393947445,0.02629045368133862,48.306509819001135,-19.986735481895977,-89.32150268554688,5356.25390625,True
1599559573.1811287,0.0,10,0.5,0.5,0.009985719299316406,-0.05075,-0.001,-0.37525,0.026507413805539455,10,1,100,0.0005820553309942925,-10,-1,-100,15010.83243517892,-0.0008682515806614976,0.0018026458924862141,0.9999979983014861,21.273291908047728,0.026322069104900744,48.86076106227004,-20.172434050833328,-89.42913818359375,5356.25390625,True
1599559573.217034,0.0,10,0.5,0.5,0.14378687438964843,-0.05075,-0.001,-0.37525,0.050230698492781625,10,1,100,-0.03355172109354762,-10,-1,-100,15009.200600234442,-0.0004693253215061056,0.002085296139110097,0.9999977156342682,21.452429175212725,0.026466514802351168,51.100725578130096,-20.915205762443478,-89.83770751953125,5356.25390625,True
1599559573.256929,0.0,10,0.5,0.5,0.07264263916015624,-0.05075,-0.001,-0.37525,0.036035634911024704,10,1,100,-0.015554020824723968,-10,-1,-100,15008.35196751915,-0.0002721053420134241,0.0022115653591011234,0.9999975174655912,21.550444972242623,0.02655863160151605,52.25313601069594,-21.28657791741966,-90.03018188476562,5356.25390625,True
1599559573.295824,0.0,10,0.5,0.5,0.03874180755615234,-0.05075,-0.001,-0.37525,0.02941991341220951,10,1,100,-0.005902073586100934,-10,-1,-100,15007.925209155073,-0.00018247420924532234,0.0022645616322339163,0.9999974192285582,21.60456096725897,0.026613304125116626,52.84509638379939,-21.472260498064202,-90.11969757080078,5356.25390625,True
1599559573.33173,0.0,10,0.5,0.5,0.03985395851135254,-0.05075,-0.001,-0.37525,0.02988766665709905,10,1,100,-0.006896984247503875,-10,-1,-100,15007.496499489062,-9.358587135813195e-05,0.002315676547569967,0.9999973144382996,21.6601449129418,0.02667123380015058,53.44307168416114,-21.65794074234026,-90.20075225830078,5356.25390625,True
1599559573.3696299,0.0,10,0.5,0.5,0.09872793083190917,-0.05075,-0.001,-0.37525,0.04061562382655718,10,1,100,-0.02777008487798852,-10,-1,-100,15006.158608963946,0.0001754428464419366,0.0024584936944652643,0.999996962509668,21.866757828005134,0.026901575422950418,55.35264689230605,-22.214966397382458,-90.40996551513672,5356.25390625,True
1599559573.396554,0.0,10,0.5,0.5,0.07227192192077636,-0.05075,-0.001,-0.37525,0.03512706431915332,10,1,100,-0.019725753447775163,-10,-1,-100,15005.247476822464,0.0003451052284130034,0.0025371237937639544,0.9999967219472453,22.03375177911477,0.027096612809164065,56.71613184072781,-22.5863037186366,-90.5317153930664,5356.25390625,True
1599559573.4284701,0.0,10,0.5,0.5,0.026774419784545898,-0.05075,-0.001,-0.37525,0.0274065884456381,10,1,100,-0.0029625076412479975,-10,-1,-100,15005.247476822464,0.0003451052284130034,0.0025371237937639544,0.9999967219472453,22.03375177911477,0.027096612809164065,56.71613184072781,-22.5863037186366,-90.5317153930664,5356.25390625,True
1599559573.4613836,0.0,10,0.5,0.5,0.07305584144592285,-0.05075,-0.001,-0.37525,0.03465254163447802,10,1,100,-0.020694165596423494,-10,-1,-100,15004.330485317274,0.0005047344507731308,0.002601951796707935,0.9999964875388222,22.19851761891182,0.027292865764317876,58.08840789986941,-22.957630200432444,-90.63997650146484,5356.25390625,True
1599559573.4932964,0.0,10,0.5,0.5,0.07010995216369628,-0.05075,-0.001,-0.37525,0.03424179087050869,10,1,100,-0.021769592317277476,-10,-1,-100,15003.413493737578,0.0006581028739045975,0.0026562072106681334,0.9999962557249209,22.360018122700588,0.027488574696008697,59.46644446846081,-23.328945979725496,-90.72806549072266,5356.25390625,True
1599559573.521222,0.0,10,0.5,0.5,0.05358558082580567,-0.05075,-0.001,-0.37525,0.031551022534227646,10,1,100,-0.015099236253421633,-10,-1,-100,15002.920330769964,0.0007354113528505933,0.0026802243546823084,0.999996137776317,22.43952873220006,0.027586002580707557,60.15745534338005,-23.514599861374744,-90.76654052734375,5356.25390625,True
1599559573.7057626,0.0,10,0.5,0.5,0.05389086227416993,-0.05075,-0.001,-0.37525,0.03132082723587499,10,1,100,-0.015316950121722215,-10,-1,-100,15002.494548972812,0.0008062131298464929,0.002699167638835447,0.9999960322493519,22.518315282145,0.027683204008317808,60.85000202122001,-23.700250942730914,-90.80083465576172,5356.25390625,True
1599559573.7356484,0.0,10,0.5,0.5,0.05373202705383301,-0.05075,-0.001,-0.37525,0.03128275004318991,10,1,100,-0.015950116371281672,-10,-1,-100,15002.003339033807,0.0008751748580648034,0.0027154845849505036,0.9999959300979362,22.596536722122625,0.027780298405031094,61.544473514406775,-23.88589935454694,-90.8304443359375,5356.25390625,True
1599559573.7655687,0.0,10,0.5,0.5,0.05329641876220703,-0.05075,-0.001,-0.37525,0.03117955216331652,10,1,100,-0.01654609889182276,-10,-1,-100,15001.511151021929,0.0009422423791772063,0.0027289219013963886,0.9999958325735939,22.67379960278839,0.027876724796137075,62.23975505856024,-24.071545124762554,-90.85531616210938,5356.25390625,True
1599559573.8014715,0.0,10,0.5,0.5,0.06011193161010743,-0.05075,-0.001,-0.37525,0.03203284447653838,10,1,100,-0.02426337889530885,-10,-1,-100,15000.524823676911,0.0010723474742306983,0.002748472700768153,0.9999956479748837,22.826157186320977,0.028068122124824693,63.634480813316664,-24.442828668433215,-90.89305114746094,5356.25390625,True
1599559573.8303962,0.0,10,0.5,0.5,0.05165356979370118,-0.05075,-0.001,-0.37525,0.030695990776234604,10,1,100,-0.01811906464987694,-10,-1,-100,15000.03459017747,0.0011337074917339566,0.0027536994882368156,0.9999955659133953,22.901418359053633,0.028163161086592114,64.33430257849106,-24.628466337089343,-90.9062728881836,5356.25390625,True
1599559573.8892388,0.0,10,0.5,0.5,0.053319989395141605,-0.05075,-0.001,-0.37525,0.029367394660893737,10,1,100,-0.03637801310382064,-10,-1,-100,14998.059004849754,0.0013546086166406868,0.0027461045978017995,0.999995311961528,23.19612207386941,0.028537079838444807,67.14845798274357,-25.37098992298482,-90.92171478271484,5356.25390625,True
1599559573.9241414,0.0,10,0.5,0.5,0.04114217720031739,-0.05075,-0.001,-0.37525,0.027931333522528252,10,1,100,-0.02514481061945796,-10,-1,-100,14997.009200536762,0.0014523900681633012,0.0027259550681447914,0.999995229854651,23.339789872864586,0.028719442406030984,68.56426225523519,-25.74223551857048,-90.9066390991211,5356.25390625,True
1599559573.9530673,0.0,10,0.5,0.5,0.04132461280822754,-0.05075,-0.001,-0.37525,0.028402695194732895,10,1,100,-0.019982915854396537,-10,-1,-100,14996.511152846157,0.0014933493581926192,0.0027117507552272073,0.9999952081462872,23.410697912366558,0.028809214847382737,69.27420023096518,-25.927854346140595,-90.8936996459961,5356.25390625,True
1599559574.0059266,0.0,10,0.5,0.5,0.030767435073852538,-0.05075,-0.001,-0.37525,0.0259010864263014,10,1,100,-0.02441553179692626,-10,-1,-100,14995.4525593617,0.0015699828441446153,0.0026759960283541,0.9999951870879805,23.55113966837444,0.028986165917553406,70.69938820783922,-26.29908394973988,-90.85746002197266,5356.25390625,True
1599559574.0388353,0.0,10,0.5,0.5,0.034752431869506835,-0.05075,-0.001,-0.37525,0.02712643490591373,10,1,100,-0.020667703627122037,-10,-1,-100,14994.896895957645,0.0016047495025843551,0.0026546132729953088,0.999995188892129,23.620728129513225,0.029073277714709914,71.41474812187887,-26.484694633537192,-90.8348617553711,5356.25390625,True
1599559574.0697532,0.0,10,0.5,0.5,0.007309164047241211,-0.05075,-0.001,-0.37525,0.020389653884124774,10,1,100,-0.026763364853384354,-10,-1,-100,14993.286543352879,0.0016909803503594727,0.0025739542234544054,0.9999952576613103,23.82693407989336,0.02932837094929724,73.57149148243037,-27.041510348409894,-90.75051879882812,5356.25390625,True
1599559574.1196225,0.0,10,0.5,0.5,0.010014739990234382,-0.05075,-0.001,-0.37525,0.02123751672223949,10,1,100,-0.022991337952698195,-10,-1,-100,14992.22404304368,0.0017342765426756027,0.002508449489141337,0.9999953499722056,23.96285080184008,0.029493369764131274,75.01976220060365,-27.412707210155478,-90.68258666992188,5356.25390625,True
1599559574.1495416,0.0,10,0.5,0.5,0.00308451843261719,-0.05075,-0.001,-0.37525,0.019639762180124844,10,1,100,-0.02223991244070391,-10,-1,-100,14991.101972296252,0.001766024574958854,0.002434562903106423,0.9999954770201069,24.097712979956405,0.02965404926067058,76.47681223232892,-27.783893276587257,-90.60651397705078,5356.25390625,True
1599559574.1769834,0.0,10,0.5,0.5,0.0148190357208252,-0.05075,-0.001,-0.37525,0.022620524231237164,10,1,100,-0.020354748518731244,-10,-1,-100,14990.540449451888,0.001776999675747711,0.0023947587153559675,0.999995553691539,24.165043288601577,0.02973301468626502,77.20953171017342,-27.96948204033248,-90.56710815429688,5356.25390625,True
1599559574.213888,0.0,10,0.5,0.5,-0.004861566925048827,-0.05075,-0.001,-0.37525,0.01708412734964533,10,1,100,-0.02100727772389991,-10,-1,-100,14989.420331903966,0.001792268530874099,0.0023085637675550933,0.9999957291443021,24.299558032854975,0.02988813836328056,78.68352711678237,-28.340651577912706,-90.48627471923828,5356.25390625,True
1599559574.2458,0.0,10,0.5,0.5,-0.009912647628784174,-0.05075,-0.001,-0.37525,0.015298686773659004,10,1,100,-0.02000841596497893,-10,-1,-100,14988.236737434636,0.0017964700549632246,0.0022143781149732244,0.9999959346041891,24.43433666024965,0.030039940570360267,80.17042455463701,-28.71181004023397,-90.40331268310547,5356.25390625,True
1599559574.324005,0.0,10,0.5,0.5,0.003307595443725591,-0.05075,-0.001,-0.37525,0.019258293289313534,10,1,100,-0.01938189416538469,-10,-1,-100,14987.668377157883,0.0017941922773767342,0.0021652346050255017,0.9999960463087727,24.5017451358826,0.030114435873756732,80.91846223661577,-28.8973850562095,-90.36138916015625,5356.25390625,True
1599559574.3674064,0.0,10,0.5,0.5,-0.03363460388183594,-0.05075,-0.001,-0.37525,0.006866146004650974,10,1,100,-0.017176559199742182,-10,-1,-100,14985.919353583828,0.0017717623415111625,0.002008412548360748,0.9999964135621892,24.722563021834674,0.03035492513293045,83.24330491129481,-29.454092919542454,-90.23786926269531,5356.25390625,True
1599559574.4023168,0.0,10,0.5,0.5,-0.03764498443603515,-0.05075,-0.001,-0.37525,0.0034770037175324495,10,1,100,-0.014401726286483126,-10,-1,-100,14984.150797232869,0.0017258926342552708,0.0018356760562434095,0.999996825788978,24.968028311255548,0.030616877850684347,85.68235645629917,-30.010774226743585,-90.11980438232422,5356.25390625,True
1599559574.459555,0.0,10,0.5,0.5,-0.026101381301879882,-0.05075,-0.001,-0.37525,0.007425448559509738,10,1,100,-0.01427374390828225,-10,-1,-100,14982.90665576281,0.001682887688047988,0.0017153017619475413,0.9999971128102796,25.131511904784226,0.030786439915167628,87.3260842602401,-30.381879785846294,-90.04307556152344,5356.25390625,True
