Timestamp,Input Throttle,horizon,dT,dt,Input Roll,Roll P,Roll I,Roll D,Input Pitch,Pitch P,Pitch I,Pitch D,Input Yaw,Yaw P,Yaw I,Yaw D,Altitude,Direction X,Direction Y,Direction Z,Drag X,Drag Y,Drag Z,Vertical Velocity,Roll,Mass,Has Fuel
1599559986.6581585,0.0,10,0.5,0.5,-2.9541785125732427,-0.05075,-0.0155,-0.2505,-0.0005785417542741846,10,1,100,0.1711474617687569,-10,-1,-100,14993.421664959053,-0.016777209526125936,-7.737031024328865e-05,0.9998592497218554,28.717133706085168,0.027109153543905064,-88.3279381669082,27.194950070642925,-31.79229736328125,5356.25390625,True
1599559986.6940608,0.0,10,0.5,0.5,-3.044446716308594,-0.05075,-0.0155,-0.2505,-0.0004979738446084625,10,1,100,0.17328878885568,-10,-1,-100,14993.959752330557,-0.0168121092774151,-7.479334398102726e-05,0.9998586637058258,28.644437517878664,0.027275048738950508,-87.50343772868627,27.008978519479786,-31.79168701171875,5356.25390625,True
1599559986.7241914,0.0,10,0.5,0.5,-3.122749130249024,-0.05075,-0.0155,-0.2505,0.0036319994680416973,10,1,100,0.1814210454561877,-10,-1,-100,14995.566202581744,-0.016902482193794033,-3.483744149671452e-05,0.9998571422368504,28.426602360765706,0.02776378605193004,-85.04899723305913,26.45108777874618,-31.83074951171875,5356.25390625,True
1599559986.756647,0.0,10,0.5,0.5,-3.144148040771485,-0.05075,-0.0155,-0.2505,0.007614611597675662,10,1,100,0.1781061092015297,-10,-1,-100,14996.633587436518,-0.01693913771346545,3.7723341432511934e-05,0.9998565218022402,28.292827663915542,0.028090615986729173,-83.46170367674306,26.079179853707522,-32.09149169921875,5356.25390625,True
1599559986.7875495,0.0,10,0.5,0.5,-3.23006923828125,-0.05075,-0.0155,-0.2505,0.005705857685373386,10,1,100,0.17732094485220212,-10,-1,-100,14997.163861204637,-0.016949923839342428,8.630108730957664e-05,0.9998563359973086,28.23323032349666,0.028256248373664583,-82.69361117364728,25.89323136419807,-32.321044921875,5356.25390625,True
1599559986.824193,0.0,10,0.5,0.5,-3.3769747009277347,-0.05075,-0.0155,-0.2505,0.0008567132063978723,10,1,100,0.1779373246484386,-10,-1,-100,14997.163861204637,-0.016949923839342428,8.630108730957664e-05,0.9998563359973086,28.23323032349666,0.028256248373664583,-82.69361117364728,25.89323136419807,-32.321044921875,5356.25390625,True
1599559986.8561058,0.0,10,0.5,0.5,-2.983933958435059,-0.05075,-0.0155,-0.2505,0.035697068371214516,10,1,100,0.17638590569807472,-10,-1,-100,14999.174602384446,-0.016920411009030627,0.00040295313327399194,0.9998567584009511,28.043946879259142,0.028915656351838584,-79.7858545125374,25.149470837773997,-33.922515869140625,5356.25390625,True
1599559986.8894534,0.0,10,0.5,0.5,-3.47202253112793,-0.05075,-0.0155,-0.2505,0.004072159088100382,10,1,100,0.18102922983015787,-10,-1,-100,14999.174602384446,-0.016920411009030627,0.00040295313327399194,0.9998567584009511,28.043946879259142,0.028915656351838584,-79.7858545125374,25.149470837773997,-33.922515869140625,5356.25390625,True
1599559986.922204,0.0,10,0.5,0.5,-2.9799502075195314,-0.05075,-0.0155,-0.2505,0.044710015661086684,10,1,100,0.1703002503356721,-10,-1,-100,15000.653114197892,-0.016807492639981637,0.0007720218719981638,0.9998584460679351,27.942034629073664,0.02936902053342099,-77.73716048679789,24.59168254118607,-35.844482421875,5356.25390625,True
1599559986.9575706,0.0,10,0.5,0.5,-3.5453438812255857,-0.05075,-0.0155,-0.2505,0.007880343975869316,10,1,100,0.1832728365045692,-10,-1,-100,15000.653114197892,-0.016807492639981637,0.0007720218719981638,0.9998584460679351,27.942034629073664,0.02936902053342099,-77.73716048679789,24.59168254118607,-35.844482421875,5356.25390625,True
1599559986.9878008,0.0,10,0.5,0.5,-3.1398272308349613,-0.05075,-0.0155,-0.2505,0.04220836563520081,10,1,100,0.17210616147055313,-10,-1,-100,15001.654086315073,-0.016690697873636053,0.0010833929581084518,0.9998601136479989,27.883812754313663,0.02962498739049212,-76.40503861560589,24.219837926302155,-37.46923828125,5356.25390625,True
1599559987.0217128,0.0,10,0.5,0.5,-2.6485383102416997,-0.05075,-0.0155,-0.2505,0.0705492082785257,10,1,100,0.15476061221884876,-10,-1,-100,15003.060326662147,-0.016426912648899564,0.0016230463665404384,0.9998637518488793,27.793755808267875,0.029893963541557315,-74.4085967814517,23.662092169491913,-40.421905517578125,5356.25390625,True
1599559987.0547578,0.0,10,0.5,0.5,-3.3748046142578128,-0.05075,-0.0155,-0.2505,0.0167536514063792,10,1,100,0.18110061502964608,-10,-1,-100,15003.060326662147,-0.016426912648899564,0.0016230463665404384,0.9998637518488793,27.793755808267875,0.029893963541557315,-74.4085967814517,23.662092169491913,-40.421905517578125,5356.25390625,True
1599559987.0913749,0.0,10,0.5,0.5,-3.0235841552734377,-0.05075,-0.0155,-0.2505,0.03880459082900562,10,1,100,0.16883086696755084,-10,-1,-100,15003.529072855017,-0.016315801820648602,0.001822002285102463,0.999865228377616,27.758841100519092,0.029942508253641843,-73.73260051283063,23.476182614427177,-41.5435791015625,5356.25390625,True
1599559987.1232898,0.0,10,0.5,0.5,-2.551956796264649,-0.05075,-0.0155,-0.2505,0.06515013183258925,10,1,100,0.15127953661524857,-10,-1,-100,15004.463634828338,-0.016055801097120268,0.0022407541484244548,0.9998685865012342,27.674454347144078,0.029961306847579687,-72.34691335248836,23.104372876065657,-43.99322509765625,5356.25390625,True
1599559987.1562004,0.0,10,0.5,0.5,-2.3267954055786135,-0.05075,-0.0155,-0.2505,0.07527740031728508,10,1,100,0.14384557509442852,-10,-1,-100,15005.39331219811,-0.015752668173489075,0.0027115451439770322,0.999872242323162,27.561536257096314,0.029856746871087442,-70.8948898938763,22.732576682602627,-46.717559814453125,5356.25390625,True
1599559987.19011,0.0,10,0.5,0.5,-1.6004393417358402,-0.05075,-0.0155,-0.2505,0.10952408309784868,10,1,100,0.1124418847982831,-10,-1,-100,15006.732163165347,-0.01519269310901017,0.003448483852432983,0.9998786376531978,27.311990203067378,0.029422648733843176,-68.53346370740564,22.17491187009074,-51.32000732421875,5356.25390625,True
1599559987.2260134,0.0,10,0.5,0.5,-1.6984516082763674,-0.05075,-0.0155,-0.2505,0.09251231819037506,10,1,100,0.11976964443821525,-10,-1,-100,15007.603244321188,-0.014751811517937842,0.003961007060307579,0.9998833404352767,27.072623990510646,0.028924085126289793,-66.7965673216164,21.80315894485426,-54.73223876953125,5356.25390625,True
1599559987.2561045,0.0,10,0.5,0.5,-2.5209605148315433,-0.05075,-0.0155,-0.2505,0.041615802795618814,10,1,100,0.16364094359633885,-10,-1,-100,15007.603244321188,-0.014751811517937842,0.003961007060307579,0.9998833404352767,27.072623990510646,0.028924085126289793,-66.7965673216164,21.80315894485426,-54.73223876953125,5356.25390625,True
1599559987.2893856,0.0,10,0.5,0.5,-1.3807331832885743,-0.05075,-0.0155,-0.2505,0.09725904388561199,10,1,100,0.10917219367309419,-10,-1,-100,15008.46944236965,-0.014258509865110203,0.004463955629136327,0.9998883777685226,26.75798564345055,0.02824760348841657,-64.89728484078057,21.431428442041952,-58.4200439453125,5356.25390625,True
1599559987.3224857,0.0,10,0.5,0.5,-1.0756694915771488,-0.05075,-0.0155,-0.2505,0.10326460627424788,10,1,100,0.09795796001716678,-10,-1,-100,15009.333686068654,-0.013710423495462892,0.004972421319098116,0.999893644001101,26.352756469661777,0.0273939860869693,-62.80861806445052,21.059724145268355,-62.383087158203125,5356.25390625,True
1599559987.3753448,0.0,10,0.5,0.5,-0.08336438140869151,-0.05075,-0.0155,-0.2505,0.13456443706943855,10,1,100,0.0508018478834239,-10,-1,-100,15010.544601852074,-0.012786180571275105,0.005715671291418758,0.9999019175339586,25.539832050238743,0.025807497166765732,-59.2638054911392,20.502226420338992,-68.84426879882812,5356.25390625,True
1599559987.4112506,0.0,10,0.5,0.5,-1.6578357192993165,-0.05075,-0.0155,-0.2505,0.06064870232986216,10,1,100,0.14286206709444021,-10,-1,-100,15010.544601852074,-0.012786180571275105,0.005715671291418758,0.9999019175339586,25.539832050238743,0.025807497166765732,-59.2638054911392,20.502226420338992,-68.84426879882812,5356.25390625,True
1599559987.4960232,0.0,10,0.5,0.5,-0.21234524230957041,-0.05075,-0.0155,-0.2505,0.11209999499051106,10,1,100,0.06831879517597206,-10,-1,-100,15011.347321605193,-0.012111824219359598,0.00617968974749295,0.999907553301156,24.836719987375446,0.024583451263945375,-56.5904629072233,20.1306062026798,-73.496337890625,5356.25390625,True
1599559987.528936,0.0,10,0.5,0.5,1.6149922561645504,-0.05075,-0.0155,-0.2505,0.15844554024558855,10,1,100,-0.02752602428703098,-10,-1,-100,15012.944948254386,-0.0106312782475921,0.007018886312186201,0.9999188522864036,23.019844632533164,0.021962455614785166,-50.51999938984451,19.387485780061496,-83.26614379882812,5356.25390625,True
1599559987.8715322,0.0,10,0.5,0.5,0.006099205017089826,-0.05075,-0.0155,-0.2505,0.09606996087941974,10,1,100,0.07586150719247647,-10,-1,-100,15013.34435486223,-0.010230145398389469,0.00721039780206602,0.9999216740768567,22.48458294132011,0.021316224740593446,-48.87391152933987,19.201730575030478,-85.8472900390625,5356.25390625,True
1599559987.921398,0.0,10,0.5,0.5,1.752569193649292,-0.05075,-0.0155,-0.2505,0.12963557791720187,10,1,100,-0.014315136859432337,-10,-1,-100,15014.42050577607,-0.00905071197389254,0.007685551263520158,0.9999295059725667,21.579205662145032,0.02032727768703522,-45.54871502171986,18.64451165055353,-93.58968353271484,5356.25390625,True
1599559987.9582992,0.0,10,0.5,0.5,1.362084027481079,-0.05075,-0.0155,-0.2505,0.11247915136292144,10,1,100,0.012122456593562758,-10,-1,-100,15015.151938311988,-0.00822442514768176,0.007957689562156745,0.9999345148597595,22.390720036148682,0.02122614202364529,-46.322675959162225,18.273035207685897,-98.51405334472656,5356.25390625,True
1599559987.9922106,0.0,10,0.5,0.5,0.9189090072631837,-0.05075,-0.0155,-0.2505,0.0981063744452825,10,1,100,0.050056879815279086,-10,-1,-100,15015.549392785062,-0.007824047686205976,0.008070793059391608,0.9999368212928237,22.783622572836475,0.02171783352614463,-46.65773960235387,18.087293867941412,-100.9124526977539,5356.25390625,True
1599559988.049059,0.0,10,0.5,0.5,1.0936019214630126,-0.05075,-0.0155,-0.2505,0.09823227556893127,10,1,100,0.045635844875740864,-10,-1,-100,15015.885324371862,-0.007426174916170127,0.008171022807093668,0.9999390412982183,23.137104238603243,0.022201249590356523,-46.8963676460139,17.901550080985643,-103.24909210205078,5356.25390625,True
1599559988.1039116,0.0,10,0.5,0.5,1.2617860275268555,-0.05075,-0.0155,-0.2505,0.09851928929282433,10,1,100,0.040250580660605925,-10,-1,-100,15016.27594369417,-0.007021726664135347,0.008261379914150971,0.9999412207507841,23.451177634533558,0.02266997877510562,-47.04105956865293,17.715803928255557,-105.51972198486328,5356.25390625,True
1599559988.1398149,0.0,10,0.5,0.5,2.069988683319092,-0.05075,-0.0155,-0.2505,0.10562276245138094,10,1,100,-0.009857806166756591,-10,-1,-100,15016.950737381587,-0.006204596279156186,0.008405109805103532,0.999945427067986,23.968060198816648,0.023544603840371794,-47.07221252330851,17.344305069563116,-109.86871337890625,5356.25390625,True
1599559988.1757176,0.0,10,0.5,0.5,2.2744246425628663,-0.05075,-0.0155,-0.2505,0.10220819288234168,10,1,100,-0.017365462389204403,-10,-1,-100,15017.619672475965,-0.005399482312872985,0.008502286856693062,0.9999492770680718,24.371679213293373,0.024330640202279617,-46.84205507062812,16.972798846136886,-113.95259857177734,5356.25390625,True
1599559988.214616,0.0,10,0.5,0.5,3.0120361000061036,-0.05075,-0.0155,-0.2505,0.10028402515777654,10,1,100,-0.06849794057848962,-10,-1,-100,15018.614775984897,-0.00420943499476603,0.008570603910128156,0.999954411663672,24.8776833354088,0.025372777988293824,-46.24805233976861,16.41553046273606,-119.56490325927734,5356.25390625,True
1599559988.261487,0.0,10,0.5,0.5,2.199684275817871,-0.05075,-0.0155,-0.2505,0.0941981721324836,10,1,100,0.007102414085617029,-10,-1,-100,15018.94973286218,-0.003822033738183034,0.008575210827418639,0.9999559279375113,24.99406516277141,0.025643173209500617,-45.93969291018593,16.229773556092557,-121.298095703125,5356.25390625,True
1599559988.2924044,0.0,10,0.5,0.5,3.7055601261138915,-0.05075,-0.0155,-0.2505,0.08808024777952603,10,1,100,-0.11768873057395765,-10,-1,-100,15020.210461630602,-0.00234157604848364,0.00852236659946016,0.9999609423818281,25.246600408585063,0.02633423237604187,-44.2834237915928,15.4867530407526,-127.5423812866211,5356.25390625,True
1599559988.331301,0.0,10,0.5,0.5,2.6243980335235597,-0.05075,-0.0155,-0.2505,0.09038010093532572,10,1,100,-0.0087176181729266,-10,-1,-100,15020.543466816074,-0.001993523324538933,0.008494041449280273,0.9999619378379421,25.26518404881638,0.026414819708818746,-43.785445962167564,15.301001405883941,-128.9312744140625,5356.25390625,True
1599559988.366208,0.0,10,0.5,0.5,3.1058100372314454,-0.05075,-0.0155,-0.2505,0.08555703224641986,10,1,100,-0.04861398596158397,-10,-1,-100,15021.143071799539,-0.0013208331307371813,0.008423710242685086,0.9999636475920451,25.26047534577472,0.026477896613113172,-42.71626440995818,14.929504574170107,-131.5023956298828,5356.25390625,True
1599559988.3981237,0.0,10,0.5,0.5,2.8689740493774414,-0.05075,-0.0155,-0.2505,0.08912596487310162,10,1,100,-0.01634382262335282,-10,-1,-100,15021.414554220624,-0.0010089377049167306,0.008391793969040634,0.9999642792813596,25.240357938243996,0.026464520486094996,-42.152126403655934,14.743759847816237,-132.68446350097656,5356.25390625,True
1599559988.4300401,0.0,10,0.5,0.5,2.9575392047882083,-0.05075,-0.0155,-0.2505,0.08651127930642993,10,1,100,-0.02103598853484168,-10,-1,-100,15021.736818235833,-0.0006889359095039578,0.008338717487021708,0.999964994966316,25.210093965289115,0.02642396637918703,-41.57208353843158,14.558017903219453,-133.79791259765625,5356.25390625,True
1599559988.458963,0.0,10,0.5,0.5,3.6075739280700683,-0.05075,-0.0155,-0.2505,0.07504158982246992,10,1,100,-0.0863080285578368,-10,-1,-100,15022.540525617544,0.00018923223289245836,0.008186043785623114,0.9999664758772177,25.073045609776944,0.026165387734654755,-39.76612627923937,14.000810579718776,-136.72439575195312,5356.25390625,True
1599559988.494867,0.0,10,0.5,0.5,2.9228571422576906,-0.05075,-0.0155,-0.2505,0.09030142634947658,10,1,100,0.0007876897921020381,-10,-1,-100,15022.540525617544,0.00018923223289245836,0.008186043785623114,0.9999664758772177,25.073045609776944,0.026165387734654755,-39.76612627923937,14.000810579718776,-136.72439575195312,5356.25390625,True
1599559988.5257807,0.0,10,0.5,0.5,3.4484572772979742,-0.05075,-0.0155,-0.2505,0.0768518928884567,10,1,100,-0.05976064685679372,-10,-1,-100,15023.134273867006,0.0007338590855987393,0.008063974450540643,0.9999672163460679,24.954891504520468,0.02590352028613586,-38.53031737612413,13.629355384648676,-138.33094787597656,5356.25390625,True
1599559988.5596933,0.0,10,0.5,0.5,3.484640138244629,-0.05075,-0.0155,-0.2505,0.0768101983835108,10,1,100,-0.06058210265827576,-10,-1,-100,15023.662592499633,0.0012308664213465843,0.007953021752608118,0.9999676166820879,24.82496324447122,0.02559213085038616,-37.28669703066299,13.257913696922067,-139.66152954101562,5356.25390625,True
1599559988.597591,0.0,10,0.5,0.5,3.628212997055054,-0.05075,-0.0155,-0.2505,0.06366681664071758,10,1,100,-0.08877952291077465,-10,-1,-100,15024.397942741169,0.0019340857275799673,0.00773323181333272,0.9999682277143208,24.626720029687174,0.025073002020367552,-35.436807842385306,12.700775970170318,-141.14114379882812,5356.25390625,True
1599559988.6275113,0.0,10,0.5,0.5,3.3953469570159913,-0.05075,-0.0155,-0.2505,0.07794954700233245,10,1,100,-0.04245134316914603,-10,-1,-100,15024.662591047352,0.0021469778997175435,0.0076640312163825716,0.9999683260540868,24.574237202833366,0.024905291525651914,-34.84498239745061,12.51506973794583,-141.49639892578125,5356.25390625,True
1599559988.6584296,0.0,10,0.5,0.5,3.4142553321838376,-0.05075,-0.0155,-0.2505,0.07677175375071994,10,1,100,-0.04422670184520333,-10,-1,-100,15024.930168845574,0.0023525753587629507,0.007591194676306939,0.9999684190776066,24.52206813095116,0.02473526752160164,-34.25578454843126,12.32936660070006,-141.78277587890625,5356.25390625,True
1599559988.6913495,0.0,10,0.5,0.5,3.4279408531188964,-0.05075,-0.0155,-0.2505,0.07586132823267294,10,1,100,-0.04579988656622322,-10,-1,-100,15025.186028129188,0.0025498328201923183,0.007517523814049549,0.9999684920977733,24.470561930280454,0.024564220901352837,-33.669674192573126,12.143666344285192,-142.00021362304688,5356.25390625,True
1599559988.7242625,0.0,10,0.5,0.5,3.458446746826172,-0.05075,-0.0155,-0.2505,0.06710378947359985,10,1,100,-0.06687002291932141,-10,-1,-100,15025.649895071401,0.0029171856920190637,0.007371760120031835,0.9999685730963604,24.37081245923363,0.02422393513327694,-32.50824726177636,11.77227422029901,-142.228271484375,5356.25390625,True
1599559988.7602348,0.0,10,0.5,0.5,3.4017786125183105,-0.05075,-0.0155,-0.2505,0.06481002938194316,10,1,100,-0.06729790609280584,-10,-1,-100,15026.110832427163,0.003251463492168749,0.007219322609954315,0.9999686541918263,24.276713879144854,0.023893085949416915,-31.362432033941847,11.400892637891925,-142.18069458007812,5356.25390625,True
1599559988.7911437,0.0,10,0.5,0.5,3.3883763595581056,-0.05075,-0.0155,-0.2505,0.07160849485191353,10,1,100,-0.051204437846654766,-10,-1,-100,15026.315910708508,0.003405465963338296,0.007143564918589997,0.9999686856506189,24.231933761107275,0.02373341248774949,-30.795345930904848,11.215205565140037,-142.0535125732422,5356.25390625,True
1599559988.824062,0.0,10,0.5,0.5,3.289550823974609,-0.05075,-0.0155,-0.2505,0.06265275118556891,10,1,100,-0.06712458620623135,-10,-1,-100,15026.775871295598,0.0036872729824609027,0.006994226146625697,0.9999687419207476,24.146520463724144,0.023429139519249187,-29.67185701484736,10.843838265965198,-141.59228515625,5356.25390625,True
1599559988.856974,0.0,10,0.5,0.5,3.0484913314819337,-0.05075,-0.0155,-0.2505,0.05277242708251618,10,1,100,-0.0790239839750134,-10,-1,-100,15027.372550408938,0.004048457487970774,0.006769725969029488,0.9999688899172176,24.024933151802394,0.023018321635321488,-28.007553341771054,10.286803491319155,-140.38351440429688,5356.25390625,True
1599559988.8934193,0.0,10,0.5,0.5,3.354469882965088,-0.05075,-0.0155,-0.2505,0.07509301999398599,10,1,100,-0.04323699326426345,-10,-1,-100,15027.372550408938,0.004048457487970774,0.006769725969029488,0.9999688899172176,24.024933151802394,0.023018321635321488,-28.007553341771054,10.286803491319155,-140.38351440429688,5356.25390625,True
1599559988.924309,0.0,10,0.5,0.5,3.009006203460694,-0.05075,-0.0155,-0.2505,0.058639178590231066,10,1,100,-0.06540190848646428,-10,-1,-100,15027.767081600148,0.004247395270839305,0.006621221316071332,0.9999690590521773,23.94335003829711,0.02277895807013393,-26.905846004431837,9.915456786877519,-139.2330322265625,5356.25390625,True
1599559988.9582446,0.0,10,0.5,0.5,2.86455313949585,-0.05075,-0.0155,-0.2505,0.058167465605782884,10,1,100,-0.06385673136301191,-10,-1,-100,15028.158682293026,0.00441209772728544,0.006482939704884627,0.9999692519704931,23.855635800582867,0.022568466362058205,-25.804286733235635,9.544117362098657,-137.80667114257812,5356.25390625,True
1599559988.992117,0.0,10,0.5,0.5,2.970185936737061,-0.05075,-0.0155,-0.2505,0.06334425621154198,10,1,100,-0.055524964202422616,-10,-1,-100,15028.357900770032,0.004484024695478779,0.006405364601595885,0.9999694319462225,23.807532828284682,0.022473816206056717,-25.251740125700998,9.358450375598592,-136.990234375,5356.25390625,True
1599559989.030045,0.0,10,0.5,0.5,1.9757570587158204,-0.05075,-0.0155,-0.2505,0.039377739171300705,10,1,100,-0.07098292026246585,-10,-1,-100,15029.079578220611,0.004688002040439739,0.006118042380126391,0.999970295655978,23.56359120578845,0.02215599638466717,-23.011266982708776,8.615799498074221,-133.0349884033203,5356.25390625,True
1599559989.062927,0.0,10,0.5,0.5,2.602881799316406,-0.05075,-0.0155,-0.2505,0.059853117808965586,10,1,100,-0.05430902987918414,-10,-1,-100,15029.212390310015,0.004719911378537826,0.0060442524222546435,0.9999705942922696,23.483935171064637,0.022087819236497688,-22.43967299428922,8.43014094761723,-131.87393188476562,5356.25390625,True
1599559989.0948782,0.0,10,0.5,0.5,2.877677230834961,-0.05075,-0.0155,-0.2505,0.06709936282636263,10,1,100,-0.05129836863802732,-10,-1,-100,15029.212390310015,0.004719911378537826,0.0060442524222546435,0.9999705942922696,23.483935171064637,0.022087819236497688,-22.43967299428922,8.43014094761723,-131.87393188476562,5356.25390625,True
1599559989.1277559,0.0,10,0.5,0.5,1.6878007915496829,-0.05075,-0.0155,-0.2505,0.042972145738996485,10,1,100,-0.05705337754440479,-10,-1,-100,15029.730941957212,0.004770894688699104,0.005825982330721951,0.9999716478449533,23.178267747739486,0.021889549420505312,-20.685356970103125,7.873174732457724,-127.97716522216797,5356.25390625,True
1599559989.161664,0.0,10,0.5,0.5,2.209321551132202,-0.05075,-0.0155,-0.2505,0.0563063439931973,10,1,100,-0.05233350213108713,-10,-1,-100,15029.86180024303,0.004773093895337959,0.005749972761264845,0.999972077304117,23.048968014623405,0.021819244372116468,-20.085233235141747,7.6875221965781275,-126.54048156738281,5356.25390625,True
1599559989.1921248,0.0,10,0.5,0.5,1.1229343917846681,-0.05075,-0.0155,-0.2505,0.038119377745007864,10,1,100,-0.04841317635643423,-10,-1,-100,15030.320780622773,0.00473846673895564,0.0055166682353069915,0.9999735563026381,22.561285087771928,0.021568494658752532,-18.236729218700553,7.13057206728479,-121.81700897216797,5356.25390625,True
1599559989.2260075,0.0,10,0.5,0.5,1.2250107624053954,-0.05075,-0.0155,-0.2505,0.043130487788527856,10,1,100,-0.04567747396729144,-10,-1,-100,15030.581519826781,0.004681490203024065,0.005351267900953418,0.9999747234712141,22.165969980750322,0.021368558713546718,-16.98470694816437,6.759276363884629,-118.32364654541016,5356.25390625,True
1599559989.2609758,0.0,10,0.5,0.5,2.065905255126953,-0.05075,-0.0155,-0.2505,0.059528675417077646,10,1,100,-0.05143843083195422,-10,-1,-100,15030.581519826781,0.004681490203024065,0.005351267900953418,0.9999747234712141,22.165969980750322,0.021368558713546718,-16.98470694816437,6.759276363884629,-118.32364654541016,5356.25390625,True
1599559989.2942505,0.0,10,0.5,0.5,0.8981013916015627,-0.05075,-0.0155,-0.2505,0.04094209863792578,10,1,100,-0.04296097401581214,-10,-1,-100,15030.836399245425,0.0046040277820298785,0.005183453524247599,0.9999759670800815,21.67496412876857,0.021088619518893785,-15.69657221066675,6.387981800474222,-114.55470275878906,5356.25390625,True
1599559989.3241427,0.0,10,0.5,0.5,1.2073678207397462,-0.05075,-0.0155,-0.2505,0.04784742944836026,10,1,100,-0.04544006640527148,-10,-1,-100,15030.966280392371,0.00455597012098048,0.005094852085683201,0.9999766425364554,21.39015194949975,0.02091040862553691,-15.040328840320818,6.202334333260859,-112.56694030761719,5356.25390625,True
1599559989.3580809,0.0,10,0.5,0.5,0.40760745620727534,-0.05075,-0.0155,-0.2505,0.03573864962776453,10,1,100,-0.03747099080996985,-10,-1,-100,15031.224088759162,0.004439769791500557,0.004905416881815527,0.9999781124251741,20.76361345848015,0.020487654927199027,-13.72610942114254,5.831037379952166,-108.38490295410156,5356.25390625,True
1599559989.3920732,0.0,10,0.5,0.5,-0.6202985557556153,-0.05075,-0.0155,-0.2505,0.021794375491345528,10,1,100,-0.026520184380287522,-10,-1,-100,15031.547325215419,0.004234806008293459,0.004607539318421387,0.9999804183080292,19.678252019877057,0.01965783816160661,-11.76645764229554,5.274079484788115,-101.62208557128906,5356.25390625,True
1599559989.4271073,0.0,10,0.5,0.5,1.0268968368530274,-0.05075,-0.0155,-0.2505,0.05143846052037617,10,1,100,-0.04696805216397289,-10,-1,-100,15031.547325215419,0.004234806008293459,0.004607539318421387,0.9999804183080292,19.678252019877057,0.01965783816160661,-11.76645764229554,5.274079484788115,-101.62208557128906,5356.25390625,True
1599559989.4581451,0.0,10,0.5,0.5,-0.4539878372192383,-0.05075,-0.0155,-0.2505,0.027721161283262047,10,1,100,-0.02965476262600442,-10,-1,-100,15031.73970359948,0.00407785347192124,0.004393233609996562,0.9999820351433866,18.76038269730046,0.018857050685322754,-10.428044866251513,4.902760842603833,-96.8619384765625,5356.25390625,True
1599559989.493018,0.0,10,0.5,0.5,-0.028329750442504853,-0.05075,-0.0155,-0.2505,0.03698072711580733,10,1,100,-0.03628146364832309,-10,-1,-100,15031.80903723999,0.0039960421219828275,0.004283890608743246,0.9999828398170697,18.243160048418215,0.018376675093891726,-9.756609089581195,4.717096717880944,-94.47677612304688,5356.25390625,True
1599559989.5244844,0.0,10,0.5,0.5,-2.333383192062378,-0.05075,-0.0155,-0.2505,-0.004923746559413564,10,1,100,-0.004328762394835851,-10,-1,-100,15032.179146263865,0.003631895475891982,0.0038048709216041525,0.9999861660505721,17.24306597344736,0.017369119385867673,-7.770024744852707,3.9744024392707846,-85.00677490234375,5356.25390625,True
1599559989.5611112,0.0,10,0.5,0.5,-0.018203749084472698,-0.05075,-0.0155,-0.2505,0.04280704242312552,10,1,100,-0.04063276987761402,-10,-1,-100,15032.179146263865,0.003631895475891982,0.0038048709216041525,0.9999861660505721,17.24306597344736,0.017369119385867673,-7.770024744852707,3.9744024392707846,-85.00677490234375,5356.25390625,True
1599559989.5920541,0.0,10,0.5,0.5,-0.7762857112884521,-0.05075,-0.0155,-0.2505,0.028425566326271932,10,1,100,-0.02973004107522844,-10,-1,-100,15032.246526615345,0.003533733936531324,0.0036755360452503465,0.9999870014951424,17.689504618946714,0.01778389660273678,-7.598829145482022,3.7887169925004294,-82.6617431640625,5356.25390625,True
1599559989.6250706,0.0,10,0.5,0.5,-1.6408508003234865,-0.05075,-0.0155,-0.2505,0.012663068996094769,10,1,100,-0.017833787988099398,-10,-1,-100,15032.371522078756,0.0033373918329263645,0.0034161868472504606,0.9999885956765597,18.49890436576537,0.018510917189274344,-7.167668338621198,3.4173345236487234,-78.02532958984375,5356.25390625,True
1599559989.6589792,0.0,10,0.5,0.5,-1.9062371063232422,-0.05075,-0.0155,-0.2505,0.006778123761207948,10,1,100,-0.01417320978025955,-10,-1,-100,15032.492611862137,0.003126772514986133,0.003128521953003409,0.9999902177741686,19.17872696996269,0.01910336575452931,-6.623562937721061,3.045943171437681,-73.47698974609375,5356.25390625,True
1599559989.693892,0.0,10,0.5,0.5,-2.8012763740539555,-0.05075,-0.0155,-0.2505,-0.013103850020833814,10,1,100,-9.543892360369677e-05,-10,-1,-100,15032.678152936161,0.002808619943258137,0.0026880507694263273,0.9999924429899836,19.98134868264541,0.019793522118686922,-5.6387456149042,2.4888496346192888,-66.9249267578125,5356.25390625,True
1599559989.7239053,0.0,10,0.5,0.5,-1.2242475585937502,-0.05075,-0.0155,-0.2505,0.030721531725635416,10,1,100,-0.03174758111157906,-10,-1,-100,15032.678152936161,0.002808619943258137,0.0026880507694263273,0.9999924429899836,19.98134868264541,0.019793522118686922,-5.6387456149042,2.4888496346192888,-66.9249267578125,5356.25390625,True
1599559989.7578127,0.0,10,0.5,0.5,-2.5008450035095215,-0.05075,-0.0155,-0.2505,-0.0030496711064747217,10,1,100,-0.007728745163080395,-10,-1,-100,15032.73674267251,0.002591563421967272,0.002382784824178958,0.9999938030485548,20.347012927749752,0.020107929231536655,-4.885162977285944,2.1174498775977706,-62.86578369140625,5356.25390625,True
1599559989.7906954,0.0,10,0.5,0.5,-2.1247675598144533,-0.05075,-0.0155,-0.2505,0.010556109992755526,10,1,100,-0.01730118000115103,-10,-1,-100,15032.796311329701,0.002482755303491061,0.0022309817516691175,0.999994429307747,20.489361994343938,0.02023303832942636,-4.487943115245167,1.9317480597554666,-60.938262939453125,5356.25390625,True
1599559989.8267379,0.0,10,0.5,0.5,-3.3151784362792966,-0.05075,-0.0155,-0.2505,-0.02685915244235485,10,1,100,0.008426862208100249,-10,-1,-100,15032.909588037175,0.002151397628581703,0.0017548058925758296,0.9999961460648352,20.737480545366555,0.020458945540767756,-3.2323639295884785,1.3746309836388755,-55.5687255859375,5356.25390625,True
1599559989.8576713,0.0,10,0.5,0.5,-2.5281026214599613,-0.05075,-0.0155,-0.2505,0.0032041201149389936,10,1,100,-0.012337160545956734,-10,-1,-100,15032.908610288985,0.00204060417142226,0.0015975203936629367,0.9999966419259654,20.76727373357887,0.020488956551289444,-2.7997136027441027,1.1889201425753493,-53.916656494140625,5356.25390625,True
1599559989.8906534,0.0,10,0.5,0.5,-2.6393392944335936,-0.05075,-0.0155,-0.2505,0.0007542570089773028,10,1,100,-0.011013129210352362,-10,-1,-100,15032.964273176156,0.0019292928266849722,0.0014342687759860563,0.9999971103469585,20.774654955167925,0.020499157233754693,-2.3632447757736923,1.0032059688530337,-52.3336181640625,5356.25390625,True
1599559989.9238172,0.0,10,0.5,0.5,-3.184954336547852,-0.05075,-0.0155,-0.2505,-0.018329054570300506,10,1,100,0.002613888272543014,-10,-1,-100,15032.959388045827,0.001705766538578577,0.001114528656600565,0.99999792409104,20.731521130971764,0.02046751122045053,-1.4851815619212534,0.6317667699915526,-49.37420654296875,5356.25390625,True
1599559989.9477527,0.0,10,0.5,0.5,-3.6766822509765626,-0.05075,-0.0155,-0.2505,-0.04111256544659171,10,1,100,0.017649909656259406,-10,-1,-100,15033.004307550262,0.0013675315071734803,0.0006190611831826072,0.9999988733097793,20.55458691879277,0.02031735902298069,-0.17382853460512795,0.07457787935240523,-45.45233154296875,5356.25390625,True
1599559989.9696658,0.0,10,0.5,0.5,-2.7447407104492187,-0.05075,-0.0155,-0.2505,0.008154469328797286,10,1,100,-0.015976607451674976,-10,-1,-100,15033.004307550262,0.0013675315071734803,0.0006190611831826072,0.9999988733097793,20.55458691879277,0.02031735902298069,-0.17382853460512795,0.07457787935240523,-45.45233154296875,5356.25390625,True
1599559989.9926376,0.0,10,0.5,0.5,-3.1404708007812503,-0.05075,-0.0155,-0.2505,-0.010312053081632097,10,1,100,-0.0033052536352945593,-10,-1,-100,15032.994541360065,0.0012539366915771243,0.0004534650346967226,0.9999991110057229,20.47389930229743,0.020246785405931857,0.2580809368188309,-0.11116021011949195,-44.28289794921875,5356.25390625,True
1599559990.0245519,0.0,10,0.5,0.5,-3.2141651504516604,-0.05075,-0.0155,-0.2505,-0.011746044734464597,10,1,100,-0.0018726176200475932,-10,-1,-100,15032.992587432382,0.0011390580620342656,0.0002919182353517408,0.9999993086649986,20.431910437820534,0.020214599357046087,0.6879103806048888,-0.2969019554234624,-43.182342529296875,5356.25390625,True
1599559990.0574296,0.0,10,0.5,0.5,-3.57604866027832,-0.05075,-0.0155,-0.2505,-0.03171920102732953,10,1,100,0.01223360041214101,-10,-1,-100,15032.919344719849,0.0009079023820492467,-3.433833713876513e-05,0.9999995872669865,20.38011112751416,0.020182854474404613,1.5447464829316013,-0.668394430944796,-41.188079833984375,5356.25390625,True
1599559990.0933354,0.0,10,0.5,0.5,-3.3793248062133787,-0.05075,-0.0155,-0.2505,-0.017321382343462796,10,1,100,0.0020945261972814995,-10,-1,-100,15032.915438185912,0.0007914648576887868,-0.0001978485757665114,0.9999996672196046,20.349622952461658,0.02016306109395078,1.9711057935979308,-0.8541448320695764,-40.294342041015625,5356.25390625,True
1599559990.1253426,0.0,10,0.5,0.5,-3.6636331634521486,-0.05075,-0.0155,-0.2505,-0.03687205858551465,10,1,100,0.016499423929851403,-10,-1,-100,15032.899812938995,0.0005561964838339172,-0.0005220196400581743,0.999999709070441,20.285439338423302,0.020122090877203545,2.81957038856732,-1.2256532800832114,-38.713623046875,5356.25390625,True
1599559990.1582992,0.0,10,0.5,0.5,-3.8523990753173827,-0.05075,-0.0155,-0.2505,-0.05667126108119187,10,1,100,0.03305239611187766,-10,-1,-100,15032.811922891182,0.00019328476153356768,-0.000994643516163448,0.9999994866625067,20.205204083534987,0.02008284518401301,4.08548566515572,-1.7829332880648097,-36.85931396484375,5356.25390625,True
1599559990.1912534,0.0,10,0.5,0.5,-3.414333531188965,-0.05075,-0.0155,-0.2505,-0.00966808986164714,10,1,100,-0.0030540441771684185,-10,-1,-100,15032.811922891182,0.00019328476153356768,-0.000994643516163448,0.9999994866625067,20.205204083534987,0.02008284518401301,4.08548566515572,-1.7829332880648097,-36.85931396484375,5356.25390625,True
1599559990.2272303,0.0,10,0.5,0.5,-3.7069412536621096,-0.05075,-0.0155,-0.2505,-0.04374016157871051,10,1,100,0.024391089083604788,-10,-1,-100,15032.730868918821,-5.4638260777869304e-05,-0.0013021815205984336,0.9999991506686131,20.1759425838096,0.02008692968277697,4.92979482769609,-2.154463430358719,-35.967620849609375,5356.25390625,True
1599559990.2583377,0.0,10,0.5,0.5,-3.690031848144531,-0.05075,-0.0155,-0.2505,-0.04458462311167675,10,1,100,0.02813777070772467,-10,-1,-100,15032.592198479688,-0.0003124832005535778,-0.0015872414384052055,0.9999986915085769,20.16396038952796,0.02011499923992179,5.77665640630651,-2.526000941233576,-35.35125732421875,5356.25390625,True
1599559990.2922082,0.0,10,0.5,0.5,-3.6740491928100587,-0.05075,-0.0155,-0.2505,-0.0636792125366077,10,1,100,0.04561846158230144,-10,-1,-100,15032.43399772048,-0.0007042757767478953,-0.002017968265163836,0.9999977158972471,20.186103209674712,0.02021229780781051,7.059219988714859,-3.0833193382209467,-34.943756103515625,5356.25390625,True
1599559990.325195,0.0,10,0.5,0.5,-3.5882584289550783,-0.05075,-0.0155,-0.2505,-0.020870232805579293,10,1,100,0.0066463846912618385,-10,-1,-100,15032.43399772048,-0.0007042757767478953,-0.002017968265163836,0.9999977158972471,20.186103209674712,0.02021229780781051,7.059219988714859,-3.0833193382209467,-34.943756103515625,5356.25390625,True
1599559990.3601408,0.0,10,0.5,0.5,-3.5388674072265625,-0.05075,-0.0155,-0.2505,-0.06301854801784115,10,1,100,0.052197346371428255,-10,-1,-100,15032.216227677302,-0.001116595235232749,-0.0023988880095481614,0.9999964992695716,20.26618773428989,0.020386507680814726,8.36868893238721,-3.6406511146608738,-35.15576171875,5356.25390625,True
1599559990.3910582,0.0,10,0.5,0.5,-3.5416525329589845,-0.05075,-0.0155,-0.2505,-0.03801539343828805,10,1,100,0.026792699370182076,-10,-1,-100,15032.139080411289,-0.0012584291763010444,-0.0025154310934971565,0.9999960444733879,20.310670849166677,0.020466410320761127,8.815192304446514,-3.826430905725309,-35.364105224609375,5356.25390625,True
1599559990.4249678,0.0,10,0.5,0.5,-3.5193015502929694,-0.05075,-0.0155,-0.2505,-0.040248471434014374,10,1,100,0.02837168042767589,-10,-1,-100,15032.067792618996,-0.0013997541036509383,-0.0026394245218152473,0.9999955370533626,20.361376249168774,0.020554364026251177,9.26642514996483,-4.012211817317051,-35.641510009765625,5356.25390625,True
1599559990.458009,0.0,10,0.5,0.5,-3.3668021743774417,-0.05075,-0.0155,-0.2505,-0.050408489549626456,10,1,100,0.04663563019629931,-10,-1,-100,15031.917404660839,-0.001692275200082564,-0.00284229000684085,0.9999945287811149,20.480159805255436,0.020752358032901083,10.184013229070858,-4.383776533986891,-36.40234375,5356.25390625,True
1599559990.4955294,0.0,10,0.5,0.5,-3.2487373718261723,-0.05075,-0.0155,-0.2505,-0.05215211137740213,10,1,100,0.05037832439185153,-10,-1,-100,15031.703540168353,-0.0019901838970855018,-0.0030404549458741014,0.9999933973790917,20.619787944211375,0.020975877194045593,11.122960631671605,-4.75534446664842,-37.438812255859375,5356.25390625,True
1599559990.5254822,0.0,10,0.5,0.5,-2.8836549682617187,-0.05075,-0.0155,-0.2505,-0.05938648227818677,10,1,100,0.07125435866396632,-10,-1,-100,15031.415459207725,-0.002448807143508653,-0.0032845120700662716,0.9999916076268017,20.85887153164746,0.021343431095601835,12.57152195686795,-5.312699713120979,-39.50958251953125,5356.25390625,True
1599559990.5583632,0.0,10,0.5,0.5,-3.1488667007446285,-0.05075,-0.0155,-0.2505,-0.04287066068291135,10,1,100,0.042688261860368636,-10,-1,-100,15031.27483578748,-0.002603643676674228,-0.0033541566515985564,0.9999909852957484,20.94337747041442,0.021469211324970986,13.06415395305211,-5.498485235155045,-40.337493896484375,5356.25390625,True
1599559990.593271,0.0,10,0.5,0.5,-3.3494851974487303,-0.05075,-0.0155,-0.2505,-0.03611140004278288,10,1,100,0.027459509085400784,-10,-1,-100,15031.27483578748,-0.002603643676674228,-0.0033541566515985564,0.9999909852957484,20.94337747041442,0.021469211324970986,13.06415395305211,-5.498485235155045,-40.337493896484375,5356.25390625,True
1599559990.6283386,0.0,10,0.5,0.5,-2.7807648239135743,-0.05075,-0.0155,-0.2505,-0.049020334545299235,10,1,100,0.06193538046244888,-10,-1,-100,15031.05999541143,-0.0029149778160327375,-0.003469904315063984,0.9999897312814648,21.113167055039614,0.02171468087799896,14.060713939763332,-5.870055632580025,-42.19970703125,5356.25390625,True
1599559990.6583428,0.0,10,0.5,0.5,-2.23895765991211,-0.05075,-0.0155,-0.2505,-0.053145083135507615,10,1,100,0.08320552883275568,-10,-1,-100,15030.700625266996,-0.0033893641078711853,-0.003611307236261812,0.9999877352602827,21.35199270601162,0.02203672082373573,15.57106854791853,-6.4274075774770765,-45.5093994140625,5356.25390625,True
1599559990.69323,0.0,10,0.5,0.5,-3.051658854675293,-0.05075,-0.0155,-0.2505,-0.03916412491283459,10,1,100,0.03603540848202323,-10,-1,-100,15030.700625266996,-0.0033893641078711853,-0.003611307236261812,0.9999877352602827,21.35199270601162,0.02203672082373573,15.57106854791853,-6.4274075774770765,-45.5093994140625,5356.25390625,True
1599559990.726142,0.0,10,0.5,0.5,-2.2672797988891604,-0.05075,-0.0155,-0.2505,-0.045631014279424155,10,1,100,0.07094511829145231,-10,-1,-100,15030.422308801091,-0.003704658952618142,-0.003668994940297432,0.9999864068967004,21.484066528533987,0.022192639128474728,16.573978134727785,-6.798971529090464,-48.05987548828125,5356.25390625,True
1599559990.7623062,0.0,10,0.5,0.5,-1.5785476898193356,-0.05075,-0.0155,-0.2505,-0.04376550547074621,10,1,100,0.09068130160812392,-10,-1,-100,15029.995556274545,-0.004168486632743011,-0.0037034304422083777,0.9999844540402378,21.609108189108234,0.022282875994466354,18.038486648256367,-7.3563098015407995,-52.401611328125,5356.25390625,True
1599559990.7932138,0.0,10,0.5,0.5,-2.6401743606567383,-0.05075,-0.0155,-0.2505,-0.04042835587169095,10,1,100,0.044575406848546245,-10,-1,-100,15029.995556274545,-0.004168486632743011,-0.0037034304422083777,0.9999844540402378,21.609108189108234,0.022282875994466354,18.038486648256367,-7.3563098015407995,-52.401611328125,5356.25390625,True
1599559990.825213,0.0,10,0.5,0.5,-1.6397605285644532,-0.05075,-0.0155,-0.2505,-0.039597482807453094,10,1,100,0.07827641598709231,-10,-1,-100,15029.708450307953,-0.004472608341791011,-0.003695094195774063,0.999983170885143,21.621195249882405,0.02221256609096171,18.96128333569701,-7.7278634491603295,-55.640167236328125,5356.25390625,True
1599559990.8591244,0.0,10,0.5,0.5,-1.3643222244262696,-0.05075,-0.0155,-0.2505,-0.03582209498226688,10,1,100,0.07942385763019168,-10,-1,-100,15029.36372700776,-0.004757257160913091,-0.003652598955832175,0.9999820133508266,21.557412163791533,0.022013310939163942,19.81550413836372,-8.099413886169382,-59.15380859375,5356.25390625,True
1599559990.8931706,0.0,10,0.5,0.5,-1.6536834732055665,-0.05075,-0.0155,-0.2505,-0.03740479726729785,10,1,100,0.06733068495248859,-10,-1,-100,15029.218220611918,-0.004903992290301859,-0.003628020497670953,0.9999813939903508,21.491934970433256,0.02186044456069253,20.209071366165656,-8.285188527207431,-61.013916015625,5356.25390625,True
1599559990.9253166,0.0,10,0.5,0.5,-0.2822156082153322,-0.05075,-0.0155,-0.2505,-0.026259242248978465,10,1,100,0.09700829536087885,-10,-1,-100,15028.665490569198,-0.005305093094719171,-0.0035041042502250547,0.999979788416076,21.13572503330396,0.021176296522694815,21.21307235566722,-8.842514116916364,-67.00686645507812,5356.25390625,True
1599559990.9582381,0.0,10,0.5,0.5,-1.0988577331542968,-0.05075,-0.0155,-0.2505,-0.032780427391865784,10,1,100,0.07089298218154122,-10,-1,-100,15028.518030864769,-0.005429862388542708,-0.0034506003014835532,0.9999793047618539,20.957283074944172,0.020873033241231475,21.47661557958928,-9.028291193054589,-69.14215087890625,5356.25390625,True
1599559990.991429,0.0,10,0.5,0.5,-0.9280184844970704,-0.05075,-0.0155,-0.2505,-0.03173788636220491,10,1,100,0.07213483730723946,-10,-1,-100,15028.311977279023,-0.005552292352640899,-0.0033925002514612534,0.9999788312717799,20.74584400524273,0.020533043117250682,21.698157653420402,-9.214069817379901,-71.34619140625,5356.25390625,True
1599559991.0273788,0.0,10,0.5,0.5,1.3876929946899415,-0.05075,-0.0155,-0.2505,-0.006084217216415163,10,1,100,0.10701044855740569,-10,-1,-100,15027.548309468548,-0.005978677032963701,-0.0031066657655563473,0.9999773017667736,19.545627862860663,0.01885731384310687,22.094821200296533,-9.95720790378586,-80.73300170898438,5356.25390625,True
1599559991.0594268,0.0,10,0.5,0.5,-0.9091064025878907,-0.05075,-0.0155,-0.2505,-0.03461720165983523,10,1,100,0.06463091181763468,-10,-1,-100,15027.548309468548,-0.005978677032963701,-0.0031066657655563473,0.9999773017667736,19.545627862860663,0.01885731384310687,22.094821200296533,-9.95720790378586,-80.73300170898438,5356.25390625,True
1599559991.0919366,0.0,10,0.5,0.5,-0.10626659240722658,-0.05075,-0.0155,-0.2505,-0.025464535570167132,10,1,100,0.07494451140585978,-10,-1,-100,15027.335419648094,-0.0060703697400563425,-0.003023970918536402,0.9999770028411167,19.181196650096666,0.018406011863102242,22.088285440274415,-10.14299975803484,-83.22991943359375,5356.25390625,True
1599559991.124912,0.0,10,0.5,0.5,1.6302623413085937,-0.05075,-0.0155,-0.2505,-0.004498558941887606,10,1,100,0.09144528183887586,-10,-1,-100,15026.70651496586,-0.006302004765797696,-0.0027588116878281576,0.9999763365670223,17.909949277069945,0.017028404267580063,21.760339717118356,-10.700393179027154,-90.9119873046875,5356.25390625,True
1599559991.161856,0.0,10,0.5,0.5,0.5567513042449952,-0.05075,-0.0155,-0.2505,-0.020240738627260228,10,1,100,0.07584483783817775,-10,-1,-100,15026.501437308034,-0.006368820281798894,-0.002661727310464396,0.9999761763841891,17.876593784197198,0.01700054793683152,22.097860768373643,-10.886193683987061,-93.5382308959961,5356.25390625,True
1599559991.191809,0.0,10,0.5,0.5,2.3508481861114503,-0.05075,-0.0155,-0.2505,0.001983237701707191,10,1,100,0.08556295930527387,-10,-1,-100,15025.808078802424,-0.006516184389737213,-0.0023723720615842813,0.9999759553068266,19.579724785449486,0.018813039671275053,25.445619806211205,-11.443569821016686,-101.48255920410156,5356.25390625,True
1599559991.2259161,0.0,10,0.5,0.5,0.4264035083770752,-0.05075,-0.0155,-0.2505,-0.026824264496879486,10,1,100,0.07100244123432435,-10,-1,-100,15025.808078802424,-0.006516184389737213,-0.0023723720615842813,0.9999759553068266,19.579724785449486,0.018813039671275053,25.445619806211205,-11.443569821016686,-101.48255920410156,5356.25390625,True
1599559991.2598555,0.0,10,0.5,0.5,2.791451968765259,-0.05075,-0.0155,-0.2505,0.005852846229147692,10,1,100,0.08069724418854987,-10,-1,-100,15025.110812526196,-0.00660285333286705,-0.0020764489171986584,0.9999760450569598,21.050420130374256,0.020619528798504323,28.693069422357837,-12.000895186212148,-109.1251220703125,5356.25390625,True
1599559991.2957294,0.0,10,0.5,0.5,2.3952588874816896,-0.05075,-0.0155,-0.2505,-0.002210761596231351,10,1,100,0.07452134675700285,-10,-1,-100,15024.622530781548,-0.006624318977027248,-0.0018820312710179257,0.9999762878970607,21.819438999649932,0.02168243533170537,30.664777665122983,-12.37241432154567,-113.94831085205078,5356.25390625,True
1599559991.326897,0.0,10,0.5,0.5,2.641647016906738,-0.05075,-0.0155,-0.2505,-0.0019391366822999918,10,1,100,0.07204250183774327,-10,-1,-100,15024.136201952118,-0.006620212375553719,-0.0017042446107546705,0.9999766338962173,22.51606146694465,0.022683584020833352,32.59691171183341,-12.743908551515666,-118.54631042480469,5356.25390625,True
1599559991.3598065,0.0,10,0.5,0.5,2.2255528354644776,-0.05075,-0.0155,-0.2505,-0.009917400357076559,10,1,100,0.07130648255544494,-10,-1,-100,15023.860810753773,-0.006608817180717878,-0.0016166848217775952,0.9999768546649762,22.82707003981876,0.023140042724539896,33.530354118062235,-12.929646379505018,-120.7456283569336,5356.25390625,True
1599559991.393719,0.0,10,0.5,0.5,2.3786313037872318,-0.05075,-0.0155,-0.2505,-0.009225529432908108,10,1,100,0.07055851410985889,-10,-1,-100,15023.5873725618,-0.006591085344863827,-0.0015321498060730668,0.999977104793379,23.103950183159014,0.023552458105043996,34.426146568945235,-13.115378433703231,-122.876708984375,5356.25390625,True
1599559991.4286878,0.0,10,0.5,0.5,3.7118632717132574,-0.05075,-0.0155,-0.2505,0.008117964430517864,10,1,100,0.06274513468199508,-10,-1,-100,15022.762174734613,-0.006503378037186928,-0.0012990630439100625,0.9999780090128549,23.748621802364347,0.024513241529670632,36.895190486527085,-13.672543677470445,-128.85760498046875,5356.25390625,True
1599559991.4586077,0.0,10,0.5,0.5,2.843469599533081,-0.05075,-0.0155,-0.2505,-0.007268313093765576,10,1,100,0.06713885002142869,-10,-1,-100,15022.485806818586,-0.006463193343932661,-0.001228609335686841,0.9999783585912744,23.908434764462182,0.02474039891649882,37.649761398456974,-13.858256411209638,-130.71353149414062,5356.25390625,True
1599559991.492515,0.0,10,0.5,0.5,2.4402524013519287,-0.05075,-0.0155,-0.2505,-0.014160663680873589,10,1,100,0.07117343820466887,-10,-1,-100,15022.485806818586,-0.006463193343932661,-0.001228609335686841,0.9999783585912744,23.908434764462182,0.02474039891649882,37.649761398456974,-13.858256411209638,-130.71353149414062,5356.25390625,True
1599559991.525429,0.0,10,0.5,0.5,3.5538211921691896,-0.05075,-0.0155,-0.2505,4.0075010116057824e-05,10,1,100,0.06105960376496125,-10,-1,-100,15021.931117168977,-0.006371163600787925,-0.0011008145457458238,0.9999790980224076,24.158187300460824,0.02506005690702512,39.06637190957645,-14.229671000053475,-134.21875,5356.25390625,True
1599559991.5643241,0.0,10,0.5,0.5,3.6994447341918946,-0.05075,-0.0155,-0.2505,3.546428378816552e-05,10,1,100,0.05768395848767428,-10,-1,-100,15021.373497942928,-0.006256944350670964,-0.0009858353410531877,0.9999799391868184,24.328794868801346,0.02521306925904468,40.3730336393297,-14.601073810840381,-137.44842529296875,5356.25390625,True
1599559991.5932477,0.0,10,0.5,0.5,3.401499085235596,-0.05075,-0.0155,-0.2505,-0.005770290093566032,10,1,100,0.06194571022374713,-10,-1,-100,15021.04048911645,-0.006192087539109904,-0.0009353488645090394,0.9999803913949561,24.389555008435433,0.025233530493233205,40.99063154661316,-14.786771679508341,-138.95993041992188,5356.25390625,True
1599559991.626236,0.0,10,0.5,0.5,3.9175441932678225,-0.05075,-0.0155,-0.2505,-0.0009976686760488594,10,1,100,0.05319747768316416,-10,-1,-100,15020.47700985067,-0.00605397083804342,-0.0008471019639030117,0.9999813157531268,24.471764978046846,0.025177503247220484,42.16602435557716,-15.158161824639265,-141.77630615234375,5356.25390625,True
1599559991.6591506,0.0,10,0.5,0.5,4.020615051651001,-0.05075,-0.0155,-0.2505,-0.001798366182242838,10,1,100,0.05028712921381916,-10,-1,-100,15019.85884359898,-0.005902470985660738,-0.0007750974218694,0.9999822798731236,24.513332051738065,0.025013399028745605,43.2769274468622,-15.529546058047684,-144.3171844482422,5356.25390625,True
1599559991.6951418,0.0,10,0.5,0.5,4.416605350875854,-0.05075,-0.0155,-0.2505,-0.0007754130767287856,10,1,100,0.03738855414974142,-10,-1,-100,15018.89399550762,-0.005648136565993859,-0.0007011838528695209,0.9999838033161018,24.528964723970915,0.02461830563457857,44.86502784610936,-16.08661349753411,-147.61190795898438,5356.25390625,True
1599559991.7262335,0.0,10,0.5,0.5,3.6329198448181157,-0.05075,-0.0155,-0.2505,-0.008075219879825887,10,1,100,0.06272592805495689,-10,-1,-100,15018.89399550762,-0.005648136565993859,-0.0007011838528695209,0.9999838033161018,24.528964723970915,0.02461830563457857,44.86502784610936,-16.08661349753411,-147.61190795898438,5356.25390625,True
1599559991.7603858,0.0,10,0.5,0.5,4.229198894500732,-0.05075,-0.0155,-0.2505,-0.0047627718815676495,10,1,100,0.042697412391726475,-10,-1,-100,15018.215281961253,-0.005466916377036192,-0.0006718261128428128,0.9999848306224454,24.53615299955259,0.024298234265804363,45.919222261524325,-16.457986317198593,-149.4639892578125,5356.25390625,True
1599559991.793193,0.0,10,0.5,0.5,4.045024055480957,-0.05075,-0.0155,-0.2505,-0.006485045307784994,10,1,100,0.05052026467083436,-10,-1,-100,15017.927194265532,-0.005374229827484885,-0.000661364504812388,0.9999853400179192,24.552780093931613,0.02413831411027497,46.47134087288046,-16.643670923082016,-150.2866668701172,5356.25390625,True
1599559991.829259,0.0,10,0.5,0.5,4.302719268798828,-0.05075,-0.0155,-0.2505,-0.006930024012921786,10,1,100,0.03816771025787639,-10,-1,-100,15017.243598211906,-0.005178663345517213,-0.0006564148901322221,0.9999863751899053,24.58877241791662,0.023800001858506614,47.5832475709976,-17.0150362783405,-151.7254638671875,5356.25390625,True
1599559991.8602526,0.0,10,0.5,0.5,4.469392393493653,-0.05075,-0.0155,-0.2505,-0.009268823759282232,10,1,100,0.023999886784499897,-10,-1,-100,15016.210390974651,-0.004873244993969012,-0.0006736972330676704,0.9999878987344132,24.66234090760654,0.02327005728940771,49.29661218386031,-17.5720731137367,-153.36703491210938,5356.25390625,True
1599559992.0537407,0.0,10,0.5,0.5,4.087858688354492,-0.05075,-0.0155,-0.2505,-0.0074978777344695815,10,1,100,0.05439193007863812,-10,-1,-100,15016.210390974651,-0.004873244993969012,-0.0006736972330676704,0.9999878987344132,24.66234090760654,0.02327005728940771,49.29661218386031,-17.5720731137367,-153.36703491210938,5356.25390625,True
1599559992.0786738,0.0,10,0.5,0.5,4.42028228149414,-0.05075,-0.0155,-0.2505,-0.012426303896908748,10,1,100,0.018878628306373955,-10,-1,-100,15015.111754536047,-0.00455165470454543,-0.0007187848691880133,0.9999893828375191,24.775189514663552,0.022741487974074763,51.10113204723004,-18.129093602458124,-154.38861083984375,5356.25390625,True
1599559992.108595,0.0,10,0.5,0.5,4.249368454742432,-0.05075,-0.0155,-0.2505,-0.010082322327827445,10,1,100,0.03872818101563577,-10,-1,-100,15014.765073528048,-0.004441241677730522,-0.0007386615823015141,0.9999898648243525,24.823794892890827,0.022569427389041864,51.72890369787126,-18.314762921034067,-154.5913543701172,5356.25390625,True
1599559992.1416378,0.0,10,0.5,0.5,4.278371836090088,-0.05075,-0.0155,-0.2505,-0.014020537989147479,10,1,100,0.024577699712284937,-10,-1,-100,15014.013117497205,-0.0042136915771049735,-0.0007926318642181529,0.9999908082267661,24.939453526624757,0.02223467747143848,53.030124257916796,-18.686094570183823,-154.790283203125,5356.25390625,True
1599559992.1655734,0.0,10,0.5,0.5,4.243582918548585,-0.05075,-0.0155,-0.2505,-0.011392001736156513,10,1,100,0.03454086888617946,-10,-1,-100,15013.6049132091,-0.0040989373684885665,-0.0008177840323494078,0.9999912649327121,25.00679743938099,0.022072573860592182,53.704980935143105,-18.87175659113503,-154.7863311767578,5356.25390625,True
1599559992.1925013,0.0,10,0.5,0.5,4.19108649520874,-0.05075,-0.0155,-0.2505,-0.015743060443661135,10,1,100,0.01995726762489329,-10,-1,-100,15012.846122016897,-0.0038634455302778725,-0.000880098718737427,0.9999921495766255,25.160877617293472,0.021759934463965125,55.106005306481066,-19.24307220136997,-154.57186889648438,5356.25390625,True
1599559992.2264109,0.0,10,0.5,0.5,4.107964694213868,-0.05075,-0.0155,-0.2505,-0.017003689889327725,10,1,100,0.01673040064140057,-10,-1,-100,15012.091237020679,-0.0036216493329961404,-0.0009480460514454428,0.9999929924078435,25.340393289152846,0.02146344964083254,56.57725321829529,-19.614375763959508,-154.08180236816406,5356.25390625,True
1599559992.2635438,0.0,10,0.5,0.5,4.237883969879151,-0.05075,-0.0155,-0.2505,-0.010236578612386419,10,1,100,0.04072549366516977,-10,-1,-100,15012.091237020679,-0.0036216493329961404,-0.0009480460514454428,0.9999929924078435,25.340393289152846,0.02146344964083254,56.57725321829529,-19.614375763959508,-154.08180236816406,5356.25390625,True
1599559992.2874866,0.0,10,0.5,0.5,3.6994837646484378,-0.05075,-0.0155,-0.2505,-0.027341341299718692,10,1,100,-0.014828642183848488,-10,-1,-100,15010.448654834181,-0.0031182049893636915,-0.0011032832744697061,0.9999945297668686,25.767866180629017,0.020920507993628712,59.72517075778669,-20.356941532277553,-152.27505493164062,5356.25390625,True
1599559992.3094182,0.0,10,0.5,0.5,3.9649985603332514,-0.05075,-0.0155,-0.2505,-0.01701559574607797,10,1,100,0.020896826480365123,-10,-1,-100,15010.03556822124,-0.0029871784451508195,-0.001150131364563814,0.9999948769682679,25.886588374183564,0.0207957152573587,60.55144521298853,-20.542573607577793,-151.65122985839844,5356.25390625,True
1599559992.3313544,0.0,10,0.5,0.5,3.9099257934570315,-0.05075,-0.0155,-0.2505,-0.017594114435189382,10,1,100,0.019183218563967992,-10,-1,-100,15009.62736375432,-0.002854199757125342,-0.0011975466762490193,0.9999952097013788,26.00892780618227,0.020675659007208632,61.39138904920147,-20.72820169726021,-150.95851135253906,5356.25390625,True
1599559992.3602827,0.0,10,0.5,0.5,4.079718567657471,-0.05075,-0.0155,-0.2505,-0.012904968210986988,10,1,100,0.03227918284283137,-10,-1,-100,15009.62736375432,-0.002854199757125342,-0.0011975466762490193,0.9999952097013788,26.00892780618227,0.020675659007208632,61.39138904920147,-20.72820169726021,-150.95851135253906,5356.25390625,True
1599559992.396216,0.0,10,0.5,0.5,3.323782120513916,-0.05075,-0.0155,-0.2505,-0.027111378764399112,10,1,100,-0.012492430018706063,-10,-1,-100,15008.382244582404,-0.00244872823560902,-0.0013262606250918013,0.9999961223738733,26.39008286437933,0.020346991671600194,63.97720766082642,-21.285061365622553,-148.46682739257812,5356.25390625,True
1599559992.427157,0.0,10,0.5,0.5,3.9384559356689453,-0.05075,-0.0155,-0.2505,-0.014298743784399937,10,1,100,0.02785547078871399,-10,-1,-100,15008.382244582404,-0.00244872823560902,-0.0013262606250918013,0.9999961223738733,26.39008286437933,0.020346991671600194,63.97720766082642,-21.285061365622553,-148.46682739257812,5356.25390625,True
1599559992.4600773,0.0,10,0.5,0.5,2.991307224273682,-0.05075,-0.0155,-0.2505,-0.029618752996633302,10,1,100,-0.018728405398963564,-10,-1,-100,15007.080484933918,-0.0020268429642133112,-0.001465048319056765,0.9999968727656209,26.77355303520261,0.020076203065127342,66.61817755180104,-21.8418830338272,-145.3553009033203,5356.25390625,True
1599559992.4939833,0.0,10,0.5,0.5,3.756126512908936,-0.05075,-0.0155,-0.2505,-0.015804710028807675,10,1,100,0.02325291230017978,-10,-1,-100,15007.080484933918,-0.0020268429642133112,-0.001465048319056765,0.9999968727656209,26.77355303520261,0.020076203065127342,66.61817755180104,-21.8418830338272,-145.3553009033203,5356.25390625,True
1599559992.5298908,0.0,10,0.5,0.5,2.617719948577881,-0.05075,-0.0155,-0.2505,-0.03027754939639142,10,1,100,-0.024721019470256556,-10,-1,-100,15005.716225192766,-0.0015923859504512214,-0.0015960878136708724,0.9999974584021081,27.129586644967027,0.019882536127664534,69.23884323913978,-22.398666781617973,-141.623779296875,5356.25390625,True
1599559992.5606635,0.0,10,0.5,0.5,2.6799929710388186,-0.05075,-0.0155,-0.2505,-0.026342018717151035,10,1,100,-0.014161183483826827,-10,-1,-100,15004.822670049733,-0.0012952683227100872,-0.001678847946452216,0.9999977518722455,27.334166337954382,0.019809135314259155,70.9266042776114,-22.769835925260697,-138.7917022705078,5356.25390625,True
1599559992.5936644,0.0,10,0.5,0.5,2.4295028533935548,-0.05075,-0.0155,-0.2505,-0.0251642926029052,10,1,100,-0.017170813777357213,-10,-1,-100,15003.93009125744,-0.0009999160048317671,-0.0017427134644011967,0.9999979815568452,27.498353382331498,0.019789515194517698,72.52562555299016,-23.1409906826125,-135.68389892578125,5356.25390625,True
1599559992.626614,0.0,10,0.5,0.5,3.182291299438477,-0.05075,-0.0155,-0.2505,-0.018841683827000293,10,1,100,0.012152589112021595,-10,-1,-100,15003.93009125744,-0.0009999160048317671,-0.0017427134644011967,0.9999979815568452,27.498353382331498,0.019789515194517698,72.52562555299016,-23.1409906826125,-135.68389892578125,5356.25390625,True
1599559992.6622648,0.0,10,0.5,0.5,2.6583208213806153,-0.05075,-0.0155,-0.2505,-0.02237588198859595,10,1,100,-0.004542422457880809,-10,-1,-100,15003.45059887378,-0.0008499497745965808,-0.0017743038275976686,0.9999980647137813,27.561168958487773,0.01980172928452559,73.27927191672529,-23.32656332846784,-134.0267333984375,5356.25390625,True
1599559992.6936605,0.0,10,0.5,0.5,0.8427935874938965,-0.05075,-0.0155,-0.2505,-0.030571271460553502,10,1,100,-0.056669962992183714,-10,-1,-100,15001.538489202969,-0.00024155215132777474,-0.0018770015555655767,0.9999982092572558,27.641844339332398,0.01999844614207661,75.8536085583511,-24.068830223407865,-126.70921325683594,5356.25390625,True
1599559992.7272198,0.0,10,0.5,0.5,2.6382459709167483,-0.05075,-0.0155,-0.2505,-0.020369444151694352,10,1,100,0.003908534574117133,-10,-1,-100,15001.538489202969,-0.00024155215132777474,-0.0018770015555655767,0.9999982092572558,27.641844339332398,0.01999844614207661,75.8536085583511,-24.068830223407865,-126.70921325683594,5356.25390625,True
1599559992.7621253,0.0,10,0.5,0.5,2.0015436111450198,-0.05075,-0.0155,-0.2505,-0.022355383568143112,10,1,100,-0.012999611181130464,-10,-1,-100,15001.060950264568,-8.984825908396137e-05,-0.0018945548766874075,0.9999982012929373,27.60977206451577,0.020079796785864655,76.35517371267414,-24.254393237084944,-124.70762634277344,5356.25390625,True
1599559992.7960355,0.0,10,0.5,0.5,-0.14550423316955552,-0.05075,-0.0155,-0.2505,-0.025703710354856076,10,1,100,-0.0648218550297679,-10,-1,-100,14999.07657569414,0.0005170312416011866,-0.0019404351446304664,0.9999979836930396,27.21493403483767,0.02045077229382305,77.58929199002817,-24.996647229745037,-116.0383529663086,5356.25390625,True
1599559992.827951,0.0,10,0.5,0.5,1.9807074783325196,-0.05075,-0.0155,-0.2505,-0.021163222243107557,10,1,100,-0.00438829238183456,-10,-1,-100,14999.07657569414,0.0005170312416011866,-0.0019404351446304664,0.9999979836930396,27.21493403483767,0.02045077229382305,77.58929199002817,-24.996647229745037,-116.0383529663086,5356.25390625,True
1599559992.8602767,0.0,10,0.5,0.5,0.507516527557373,-0.05075,-0.0155,-0.2505,-0.02178279019921817,10,1,100,-0.03753736517572121,-10,-1,-100,14998.050209137378,0.0008160738359039611,-0.0019456354107536776,0.9999977742606945,26.830718627543597,0.020589058603890365,77.64150679696661,-25.367783785197457,-111.29893493652344,5356.25390625,True
1599559992.8962386,0.0,10,0.5,0.5,0.9170556728363036,-0.05075,-0.0155,-0.2505,-0.020627329535740983,10,1,100,-0.02311136781772759,-10,-1,-100,14997.566810917458,0.0009545958003916731,-0.0019395409670185473,0.999997663461118,26.622970356308723,0.02065033189288967,77.60997393283114,-25.553356271344768,-108.8734359741211,5356.25390625,True
1599559992.9261549,0.0,10,0.5,0.5,-0.7529663883209228,-0.05075,-0.0155,-0.2505,-0.018334533148575433,10,1,100,-0.055899434608387366,-10,-1,-100,14995.998452801257,0.0013765528624564076,-0.0019129199664482271,0.9999972229158534,25.86259722480852,0.020666339720213287,77.0546011293565,-26.110092840068038,-101.46684265136719,5356.25390625,True
1599559992.955076,0.0,10,0.5,0.5,1.0493488018035888,-0.05075,-0.0155,-0.2505,-0.02101365385581215,10,1,100,-0.013941375288642732,-10,-1,-100,14995.998452801257,0.0013765528624564076,-0.0019129199664482271,0.9999972229158534,25.86259722480852,0.020666339720213287,77.0546011293565,-26.110092840068038,-101.46684265136719,5356.25390625,True
1599559992.9820046,0.0,10,0.5,0.5,-0.5524089393615721,-0.05075,-0.0155,-0.2505,-0.017279554476808005,10,1,100,-0.04326637122435474,-10,-1,-100,14994.965250637732,0.0016409833083562547,-0.0018788188752736012,0.9999968886018675,25.189226831872432,0.020423643069229006,76.12791843755043,-26.481269223834033,-96.32585906982422,5356.25390625,True
1599559993.0129242,0.0,10,0.5,0.5,-1.6474082847595213,-0.05075,-0.0155,-0.2505,-0.01290236464560032,10,1,100,-0.057112704969491966,-10,-1,-100,14993.334392525605,0.0020049858995092244,-0.0018079302347878024,0.9999963557032641,24.03120214694905,0.019630923666837108,74.17408602059498,-27.03806163962245,-88.61007690429688,5356.25390625,True
1599559993.0358963,0.0,10,0.5,0.5,0.2263414863586426,-0.05075,-0.0155,-0.2505,-0.019984321562102423,10,1,100,-0.020937099659278702,-10,-1,-100,14993.334392525605,0.0020049858995092244,-0.0018079302347878024,0.9999963557032641,24.03120214694905,0.019630923666837108,74.17408602059498,-27.03806163962245,-88.61007690429688,5356.25390625,True
