Timestamp,Input Throttle,horizon,dT,dt,Input Roll,Roll P,Roll I,Roll D,Input Pitch,Pitch P,Pitch I,Pitch D,Input Yaw,Yaw P,Yaw I,Yaw D,Altitude,Direction X,Direction Y,Direction Z,Drag X,Drag Y,Drag Z,Vertical Velocity,Roll,Mass,Has Fuel
1599558973.011751,0.0,10,0.5,0.5,-0.05821075439453125,-0.001,-0.02275,-0.001,-0.0002170333287160965,10,1,100,0.1755240014139632,-10,-1,-100,14994.467565675732,-0.0168470574418126,-7.153075643374739e-05,0.999858075698198,28.571799889807195,0.02743956523408021,-86.68216615920122,26.823010476605592,-31.79046630859375,5356.25390625,True
1599558973.0446656,0.0,10,0.5,0.5,-0.19063884735107423,-0.001,-0.02275,-0.001,-0.0001759753381619701,10,1,100,0.1783332196138145,-10,-1,-100,14995.536904844688,-0.01692140234591721,-6.656270823539395e-05,0.9998568206058573,28.426617010662273,0.027763905439635937,-85.04904163447307,26.45108739526213,-31.789154052734375,5356.25390625,True
1599558973.0875502,0.0,10,0.5,0.5,-0.3230672096252441,-0.001,-0.02275,-0.001,-0.0006794364288208536,10,1,100,0.17259086943794508,-10,-1,-100,14995.536904844688,-0.01692140234591721,-6.656270823539395e-05,0.9998568206058573,28.426617010662273,0.027763905439635937,-85.04904163447307,26.45108739526213,-31.789154052734375,5356.25390625,True
1599558973.123456,0.0,10,0.5,0.5,-0.4554756439208984,-0.001,-0.02275,-0.001,0.00750285556014119,10,1,100,0.18284874606924725,-10,-1,-100,14997.093549313839,-0.016999272676796396,7.882275944474983e-06,0.9998555018933135,28.20992675254094,0.028239781286156396,-82.62536888507796,25.89323186131585,-31.799774169921875,5356.25390625,True
1599558973.154372,0.0,10,0.5,0.5,-0.587848931121826,-0.001,-0.02275,-0.001,0.004362650881405379,10,1,100,0.17885857830228463,-10,-1,-100,14997.582808929496,-0.017018335750008,4.7005053323171665e-05,0.9998551765324941,28.139216894609646,0.028396490278876158,-81.82795802293099,25.7072877873153,-31.821197509765625,5356.25390625,True
1599558973.219199,0.0,10,0.5,0.5,-0.7201486999511718,-0.001,-0.02275,-0.001,0.005694529561449532,10,1,100,0.18024095202589863,-10,-1,-100,14998.110152453417,-0.01703276163609685,9.463647071027625e-05,0.9998549275144801,28.069986531485846,0.028552697165533252,-81.03778308897226,25.521347536496034,-31.86041259765625,5356.25390625,True
1599558973.2820315,0.0,10,0.5,0.5,-0.8512044998168945,-0.001,-0.02275,-0.001,0.04891845814794888,10,1,100,0.17597321136294017,-10,-1,-100,15000.61503494042,-0.016991594106845184,0.0005307965314206288,0.9998554915510294,27.75787431144411,0.029328417358914217,-77.22511850698143,24.591701814810474,-32.48590087890625,5356.25390625,True
1599558973.3099723,0.0,10,0.5,0.5,-0.9821969024658201,-0.001,-0.02275,-0.001,0.019234168458708584,10,1,100,0.17826891984812648,-10,-1,-100,15001.08866571309,-0.016959592253657323,0.0006569659562265642,0.9998559599393915,27.704374651373673,0.029481980268390426,-76.49505931509078,24.405783279593162,-32.7247314453125,5356.25390625,True
1599558973.3528485,0.0,10,0.5,0.5,-1.1107298889160155,-0.001,-0.02275,-0.001,0.05648183508933331,10,1,100,0.16642425673033373,-10,-1,-100,15002.562293659896,-0.01680740309309419,0.0011096833427319788,0.9998581298385012,27.56224715082747,0.029931148736212717,-74.36785902197144,23.848047593242196,-33.728271484375,5356.25390625,True
1599558973.4097006,0.0,10,0.5,0.5,-1.2367067504882812,-0.001,-0.02275,-0.001,0.07311163809564167,10,1,100,0.15728899436421956,-10,-1,-100,15003.925565894926,-0.016570722013714765,0.0016714158274826754,0.9998612991515752,27.448266909277244,0.03034911449654714,-72.33260970613017,23.29033999502626,-35.250701904296875,5356.25390625,True
1599558973.4469323,0.0,10,0.5,0.5,-1.3615054527282715,-0.001,-0.02275,-0.001,0.0402990816646659,10,1,100,0.17164703069852827,-10,-1,-100,15004.397242742707,-0.016471020706396534,0.001882266286222181,0.999862571832008,27.41564779337545,0.030476358133047762,-71.67140145824015,23.104443383808604,-35.889892578125,5356.25390625,True
1599558973.4758856,0.0,10,0.5,0.5,-1.3498525062561035,-0.001,-0.02275,-0.001,0.06795861812676227,10,1,100,0.155256143232364,-10,-1,-100,15005.330829108367,-0.016231716937992482,0.0023236226737838295,0.9998655570340019,27.3554805400685,0.030702836000658616,-70.36608610885065,22.73265884771602,-37.37286376953125,5356.25390625,True
1599558973.510067,0.0,10,0.5,0.5,-1.3351178283691405,-0.001,-0.02275,-0.001,0.07630340763279445,10,1,100,0.14758972277367954,-10,-1,-100,15006.205820038565,-0.015945100312917054,0.0027985445803656033,0.9998689523753815,27.29692626048139,0.030877848919961853,-69.06983584797,22.3608855386477,-39.130218505859375,5356.25390625,True
1599558973.5429387,0.0,10,0.5,0.5,-1.3182109436035154,-0.001,-0.02275,-0.001,0.05735259555321791,10,1,100,0.15872144944250066,-10,-1,-100,15006.679447461385,-0.015786624807140492,0.0030554070153632463,0.9998707151252951,27.266012095937118,0.030940190388575588,-68.4194217074063,22.175003107381887,-40.11187744140625,5356.25390625,True
1599558973.5798414,0.0,10,0.5,0.5,-1.295943090057373,-0.001,-0.02275,-0.001,0.0899421806324111,10,1,100,0.13482433567644167,-10,-1,-100,15007.541742240195,-0.015426412083897315,0.0035824167981361155,0.9998745881859895,27.195384427762963,0.031001517900612733,-67.10073208074857,21.803247083218338,-42.2816162109375,5356.25390625,True
1599558973.6103194,0.0,10,0.5,0.5,-1.2719391555786133,-0.001,-0.02275,-0.001,0.06716547300749143,10,1,100,0.14865068506850995,-10,-1,-100,15007.956776496954,-0.01522608726057333,0.0038512416115714424,0.9998766594959514,27.153253162372103,0.03099503628230896,-66.42691352890134,21.617373744374728,-43.4697265625,5356.25390625,True
1599558973.7325034,0.0,10,0.5,0.5,-1.2415511596679687,-0.001,-0.02275,-0.001,0.10251004100134178,10,1,100,0.12018221994609388,-10,-1,-100,15008.818093201146,-0.014786811987689127,0.004413526964510505,0.9998809283964638,27.04899046841179,0.030894255339153926,-65.03646665037327,21.24563706873006,-46.05218505859375,5356.25390625,True
1599558973.769366,0.0,10,0.5,0.5,-1.2104813201904299,-0.001,-0.02275,-0.001,0.07760249814075272,10,1,100,0.13737018669203,-10,-1,-100,15009.23703226808,-0.014545729421047595,0.004694733504419671,0.999883183793453,26.98401310720357,0.030794702816743298,-64.31389940329399,21.059774083106976,-47.446685791015625,5356.25390625,True
1599558973.8062677,0.0,10,0.5,0.5,-1.1658508430480956,-0.001,-0.02275,-0.001,0.17655868278543935,10,1,100,0.04012079941377199,-10,-1,-100,15010.904976456426,-0.013444672533237138,0.00584630679424498,0.999892524963229,26.60170197313368,0.030014953957451247,-61.16946255325634,20.316364407198098,-53.71295166015625,5356.25390625,True
1599558973.874339,0.0,10,0.5,0.5,-1.126651961517334,-0.001,-0.02275,-0.001,0.06187501614805982,10,1,100,0.14989021513883194,-10,-1,-100,15010.904976456426,-0.013444672533237138,0.00584630679424498,0.999892524963229,26.60170197313368,0.030014953957451247,-61.16946255325634,20.316364407198098,-53.71295166015625,5356.25390625,True
1599558973.8962817,0.0,10,0.5,0.5,-1.073804396057129,-0.001,-0.02275,-0.001,0.1546557254951046,10,1,100,0.04328614239962368,-10,-1,-100,15012.099294261774,-0.012478386462408406,0.0066859724328846935,0.9998997888008185,26.138362052987745,0.028986282236166297,-58.4583972886956,19.75886135357333,-59.13592529296875,5356.25390625,True
1599558973.9391613,0.0,10,0.5,0.5,-1.0184240661621093,-0.001,-0.02275,-0.001,0.1347520090432861,10,1,100,0.060288141987572486,-10,-1,-100,15012.850258379127,-0.011758137879949082,0.007263994949225481,0.9999044857239985,25.717432809578863,0.028081219685106396,-56.4376868274817,19.38722535984788,-63.09521484375,5356.25390625,True
1599558973.975792,0.0,10,0.5,0.5,-0.9638650070190429,-0.001,-0.02275,-0.001,0.07744379463675148,10,1,100,0.13186564232770048,-10,-1,-100,15012.850258379127,-0.011758137879949082,0.007263994949225481,0.9999044857239985,25.717432809578863,0.028081219685106396,-56.4376868274817,19.38722535984788,-63.09521484375,5356.25390625,True
1599558974.0106652,0.0,10,0.5,0.5,-0.9008727775573729,-0.001,-0.02275,-0.001,0.13251168306181832,10,1,100,0.04915223262160581,-10,-1,-100,15013.643214661046,-0.011010004121196374,0.007760552616390762,0.9999092727004483,25.188139566828003,0.027011424025006062,-54.21917787051733,19.01562028039239,-67.33114624023438,5356.25390625,True
1599558974.0416172,0.0,10,0.5,0.5,-0.829446957397461,-0.001,-0.02275,-0.001,0.16332788866577325,10,1,100,-0.011134572433738485,-10,-1,-100,15014.764289613697,-0.00978616304063255,0.008487838596030582,0.9999160902840347,24.154244840904095,0.025151119903519963,-50.4735630284279,18.4582791070785,-74.20010375976562,5356.25390625,True
1599558974.0755928,0.0,10,0.5,0.5,-0.7538749397277833,-0.001,-0.02275,-0.001,0.1384512101220594,10,1,100,0.01577167174651041,-10,-1,-100,15015.500606577029,-0.008923309959070667,0.008918396570944025,0.9999204152041189,23.304744400854684,0.023817585104213727,-47.72084305555521,18.086766624625724,-79.11331176757812,5356.25390625,True
1599558974.1086998,0.0,10,0.5,0.5,-0.6726013351440429,-0.001,-0.02275,-0.001,0.1164053593587914,10,1,100,0.05440358496565008,-10,-1,-100,15015.83360998123,-0.008495827075371592,0.009104789582145289,0.9999224588581708,22.836567375241188,0.02314906587929134,-46.283238285529805,17.901025217140425,-81.66213989257812,5356.25390625,True
1599558974.1435144,0.0,10,0.5,0.5,-0.5941375160217285,-0.001,-0.02275,-0.001,0.0982351845004285,10,1,100,0.09652277484432589,-10,-1,-100,15015.83360998123,-0.008495827075371592,0.009104789582145289,0.9999224588581708,22.836567375241188,0.02314906587929134,-46.283238285529805,17.901025217140425,-81.66213989257812,5356.25390625,True
1599558974.1743279,0.0,10,0.5,0.5,-0.5057600044250489,-0.001,-0.02275,-0.001,0.1372932171731913,10,1,100,-0.0014893988196080926,-10,-1,-100,15016.569927498233,-0.007610307226013716,0.009455853464554291,0.9999263323161276,21.772966942062972,0.021802374420844407,-43.21443459480731,17.529571255195336,-86.93081665039062,5356.25390625,True
1599558974.2072463,0.0,10,0.5,0.5,-0.42451721191406255,-0.001,-0.02275,-0.001,0.13624206579254608,10,1,100,-0.014523672713266322,-10,-1,-100,15017.237886659917,-0.006692099750570775,0.009762165120856328,0.9999299555134258,20.919839433323343,0.020858762697068035,-40.64376400681327,17.158149879893468,-92.40122985839844,5356.25390625,True
1599558974.241411,0.0,10,0.5,0.5,-0.3363661098480224,-0.001,-0.02275,-0.001,0.12065412310674108,10,1,100,0.02489161799293626,-10,-1,-100,15017.570889494848,-0.006221825209117821,0.009895361821872124,0.9999316830191358,21.389265648781134,0.02135416591403719,-41.10720415785091,16.9724408900852,-95.20407104492188,5356.25390625,True
1599558974.2769997,0.0,10,0.5,0.5,-0.24565797157287594,-0.001,-0.02275,-0.001,0.13182670531056057,10,1,100,-0.030733784792613537,-10,-1,-100,15018.236896879273,-0.005294305201794948,0.010115101034294855,0.9999348254078846,22.337674922512882,0.022483519534591927,-41.9928550148363,16.601015830183346,-100.93204498291016,5356.25390625,True
1599558974.3089209,0.0,10,0.5,0.5,-0.14763757076263426,-0.001,-0.02275,-0.001,0.13596242047454618,10,1,100,-0.0910148367820822,-10,-1,-100,15019.221261802712,-0.003908971843122761,0.010349869450638052,0.999938798197912,23.543400841648527,0.02418888987013751,-42.77758888763786,16.043851788066284,-109.76683807373047,5356.25390625,True
1599558974.3425436,0.0,10,0.5,0.5,-0.03826555137634277,-0.001,-0.02275,-0.001,0.12288678247261084,10,1,100,-0.05322502179597079,-10,-1,-100,15019.818912404473,-0.0030002572587825363,0.010441620506840263,0.9999409837673283,24.129184362286637,0.02515621971354768,-42.829047858409034,15.672390048514552,-115.7812728881836,5356.25390625,True
1599558974.3755047,0.0,10,0.5,0.5,0.06594405193328857,-0.001,-0.02275,-0.001,0.11397978364143474,10,1,100,0.03684546195181026,-10,-1,-100,15019.818912404473,-0.0030002572587825363,0.010441620506840263,0.9999409837673283,24.129184362286637,0.02515621971354768,-42.829047858409034,15.672390048514552,-115.7812728881836,5356.25390625,True
1599558974.4104152,0.0,10,0.5,0.5,0.17878918228149415,-0.001,-0.02275,-0.001,0.12166972746600713,10,1,100,-0.10481541654454998,-10,-1,-100,15020.748592870426,-0.001718600095890034,0.010509752921690185,0.9999432941458407,24.813896091081386,0.026303514474519802,-42.4814476726702,15.115174956210273,-124.90525817871094,5356.25390625,True
1599558974.4413798,0.0,10,0.5,0.5,0.2799492664337158,-0.001,-0.02275,-0.001,0.11523218326168716,10,1,100,-0.022830021651334353,-10,-1,-100,15021.067927857395,-0.0013053287285289747,0.01051172166392289,0.9999438983385871,24.95201296032792,0.026533026071844115,-42.19390918713824,14.929433277427561,-127.95895385742188,5356.25390625,True
1599558974.4744115,0.0,10,0.5,0.5,0.38832647438049317,-0.001,-0.02275,-0.001,0.11328792459104128,10,1,100,-0.02803953991140122,-10,-1,-100,15021.346246080007,-0.0008888050452427153,0.01049455732159968,0.9999445356079582,25.039191353676962,0.026670798946099403,-41.81546105969845,14.743691532058165,-131.01177978515625,5356.25390625,True
1599558974.5083723,0.0,10,0.5,0.5,0.5157394527435303,-0.001,-0.02275,-0.001,0.10987874915998161,10,1,100,-0.11085193780196573,-10,-1,-100,15022.189994075568,0.00023577735490435347,0.010446697444896716,0.9999454039704035,24.993084666882666,0.02650384525755429,-40.16362621773721,14.186478786459928,-140.10946655273438,5356.25390625,True
1599558974.5445018,0.0,10,0.5,0.5,0.6395800121307373,-0.001,-0.02275,-0.001,0.1065944046942924,10,1,100,-0.0769442618977433,-10,-1,-100,15022.786673243856,0.0009427405881079229,0.010372430021860172,0.9999457604968507,24.70763666642879,0.025922587320710413,-38.666993124912814,13.815026566679101,-146.08787536621094,5356.25390625,True
1599558974.575414,0.0,10,0.5,0.5,0.7674842662811279,-0.001,-0.02275,-0.001,0.10606690441909075,10,1,100,-0.07867000416952165,-10,-1,-100,15023.312063682592,0.0015941822386376268,0.010299563939415113,0.9999456873078897,24.29333798217984,0.025090115985118924,-36.998152208099214,13.443601984728387,-151.9606475830078,5356.25390625,True
1599558974.6085277,0.0,10,0.5,0.5,0.8907327056884765,-0.001,-0.02275,-0.001,0.11339393287535095,10,1,100,-0.014307439861326808,-10,-1,-100,15023.312063682592,0.0015941822386376268,0.010299563939415113,0.9999456873078897,24.29333798217984,0.025090115985118924,-36.998152208099214,13.443601984728387,-151.9606475830078,5356.25390625,True
1599558974.6410677,0.0,10,0.5,0.5,1.012585990715027,-0.001,-0.02275,-0.001,0.10885887360022095,10,1,100,-0.04920550420262841,-10,-1,-100,15023.56303964404,0.0019051751077036117,0.010258168434272913,0.9999455686627062,24.026491933463298,0.024584958584037104,-36.08714666000207,13.257901812059396,-154.84225463867188,5356.25390625,True
1599558974.6774461,0.0,10,0.5,0.5,1.1343320720672607,-0.001,-0.02275,-0.001,0.09230013657664833,10,1,100,-0.1428777153320877,-10,-1,-100,15024.614800488576,0.0030341758653488404,0.010070085548489675,0.9999446920474472,22.633302338561112,0.02223971975522094,-32.09338396493906,12.515188649894723,-165.8828125,5356.25390625,True
1599558974.7075403,0.0,10,0.5,0.5,1.237272516822815,-0.001,-0.02275,-0.001,0.11107127165913702,10,1,100,-0.03058108287997798,-10,-1,-100,15024.614800488576,0.0030341758653488404,0.010070085548489675,0.9999446920474472,22.633302338561112,0.02223971975522094,-32.09338396493906,12.515188649894723,-165.8828125,5356.25390625,True
1599558974.7421467,0.0,10,0.5,0.5,1.3564737342834472,-0.001,-0.02275,-0.001,0.1064871950132982,10,1,100,-0.05893707873732501,-10,-1,-100,15024.864801523276,0.003286471797575512,0.01002874988348964,0.999944310088766,22.209939575632426,0.021618908002067883,-31.02667474156709,12.329531934227829,-168.492919921875,5356.25390625,True
1599558974.7751374,0.0,10,0.5,0.5,1.463058913040161,-0.001,-0.02275,-0.001,0.10365527580311218,10,1,100,-0.08634945803908296,-10,-1,-100,15025.320858868072,0.003760485118803499,0.009965864561613556,0.9999432685383761,21.285039977912593,0.02039378412059838,-28.84067065723686,11.958241712894072,-173.5095977783203,5356.25390625,True
1599558974.8110425,0.0,10,0.5,0.5,0.8556901222229005,-0.001,-0.02275,-0.001,0.09753326318979255,10,1,100,-0.10890358405570688,-10,-1,-100,15026.026916907402,0.00439183854384613,0.009853537660789035,0.9999418080817364,19.75025011898498,0.01869660729195199,-25.51675698418345,11.401353669080445,179.48031616210938,5356.25390625,True
1599558974.8449512,0.0,10,0.5,0.5,0.5109668899536133,-0.001,-0.02275,-0.001,0.10463169567933475,10,1,100,-0.0872042542207227,-10,-1,-100,15026.483951451955,0.004763728983031312,0.009816536245999683,0.9999404694792121,20.147224593818837,0.019099377896584935,-25.183303060347825,11.030107164775973,175.15213012695312,5356.25390625,True
1599558974.8939118,0.0,10,0.5,0.5,-0.20243708038330077,-0.001,-0.02275,-0.001,0.10793592520912523,10,1,100,-0.08784297798283132,-10,-1,-100,15026.926338220597,0.0051035014604659855,0.009813509920279182,0.9999388227766175,20.74020705930431,0.019807224652835242,-25.053132249262408,10.658855174929304,171.0799560546875,5356.25390625,True
1599558974.9188173,0.0,10,0.5,0.5,-0.9203036808013917,-0.001,-0.02275,-0.001,0.11039029070100898,10,1,100,-0.08753369910622978,-10,-1,-100,15027.312085489742,0.0054057913948262586,0.009833579237824562,0.9999370370872203,21.28575184075589,0.020560555553374542,-24.817673591101514,10.287595316573206,167.19876098632812,5356.25390625,True
1599558974.9547212,0.0,10,0.5,0.5,-1.6502725303649903,-0.001,-0.02275,-0.001,0.10833676047631192,10,1,100,-0.057685866585821345,-10,-1,-100,15027.312085489742,0.0054057913948262586,0.009833579237824562,0.9999370370872203,21.28575184075589,0.020560555553374542,-24.817673591101514,10.287595316573206,167.19876098632812,5356.25390625,True
1599558974.9786568,0.0,10,0.5,0.5,-2.368696183395386,-0.001,-0.02275,-0.001,0.11496602937404213,10,1,100,-0.08804385228972372,-10,-1,-100,15027.698809350142,0.005678307983810654,0.00989426894116901,0.9999349280130986,21.73481133992421,0.021282073422449716,-24.42776873553233,9.916326708278064,163.36676025390625,5356.25390625,True
1599558975.0105717,0.0,10,0.5,0.5,-3.088511066055298,-0.001,-0.02275,-0.001,0.11983911906648836,10,1,100,-0.0879882656247706,-10,-1,-100,15028.086511076195,0.005922114883318615,0.00999407303186175,0.9999325212530806,22.113331566879985,0.021968287239138566,-23.92364639492455,9.54504915142782,159.39544677734375,5356.25390625,True
1599558975.0435097,0.0,10,0.5,0.5,-3.8283393573760987,-0.001,-0.02275,-0.001,0.11634019360652781,10,1,100,-0.07601405891146933,-10,-1,-100,15028.27889780351,0.006032275695461323,0.01005306471241608,0.9999312714081013,22.280467489284135,0.022294008671110206,-23.636124171502722,9.359407067492384,157.31991577148438,5356.25390625,True
1599558975.0765436,0.0,10,0.5,0.5,-4.561417464828492,-0.001,-0.02275,-0.001,0.118829808990683,10,1,100,-0.07686446467311943,-10,-1,-100,15028.45858813601,0.006137427304487774,0.010129341853536039,0.999929861750161,22.463405662332598,0.022634429401795064,-23.357970032523323,9.173762751734394,155.1781005859375,5356.25390625,True
1599558975.112315,0.0,10,0.5,0.5,-5.2954917232513425,-0.001,-0.02275,-0.001,0.12081969589921783,10,1,100,-0.0774681147753337,-10,-1,-100,15028.65097542759,0.006235915626798394,0.010216683142840821,0.9999283638050549,22.63864088706825,0.02296307221743673,-23.064240891081084,8.988116210946119,152.96853637695312,5356.25390625,True
1599558975.1541824,0.0,10,0.5,0.5,-6.031190202331543,-0.001,-0.02275,-0.001,0.13430224667821883,10,1,100,-0.087733777325199,-10,-1,-100,15029.024030838977,0.006416524278890465,0.010418424941489517,0.9999251395169125,22.927137412462773,0.023531174428580878,-22.39404247548938,8.616817415310189,148.3441162109375,5356.25390625,True
1599558975.2160141,0.0,10,0.5,0.5,-5.944834442901612,-0.001,-0.02275,-0.001,0.17362782954866016,10,1,100,-0.10337701285556367,-10,-1,-100,15029.658816621522,0.006721084571309259,0.010958818341555343,0.999917362246872,23.21701991955235,0.024168179491080497,-20.724215774735384,7.874206418347431,138.27145385742188,5356.25390625,True
1599558975.2499259,0.0,10,0.5,0.5,-5.860106838226318,-0.001,-0.02275,-0.001,0.1575483438384051,10,1,100,-0.08777169099116816,-10,-1,-100,15029.96058636834,0.006854311587842496,0.011302869487798725,0.9999126279600626,23.219291740306712,0.02419850848445898,-19.749518928991424,7.502899219409746,132.82308959960938,5356.25390625,True
1599558975.3127565,0.0,10,0.5,0.5,-5.7611463806152345,-0.001,-0.02275,-0.001,0.19294587620151657,10,1,100,-0.0951570860798234,-10,-1,-100,15030.386389222811,0.007040975367199235,0.01193608504262325,0.9999039726592418,22.882365357826572,0.023705556667878137,-18.018959386584466,6.945940862556585,124.1358642578125,5356.25390625,True
1599558975.343717,0.0,10,0.5,0.5,-5.6532555610656745,-0.001,-0.02275,-0.001,0.21352552279333065,10,1,100,-0.09739505830255757,-10,-1,-100,15030.756535241846,0.007229528383209879,0.012696911874384946,0.9998932554769087,22.0566927186287,0.0225392358146888,-15.976724711913667,6.388986544837432,114.83088684082031,5356.25390625,True
1599558975.3795846,0.0,10,0.5,0.5,-5.536946085739136,-0.001,-0.02275,-0.001,0.17003213956367158,10,1,100,-0.08595272473805213,-10,-1,-100,15030.936232932843,0.007295261059007338,0.012990575207865443,0.9998890059010798,21.658888688129153,0.022007934546680194,-15.232890005875142,6.203335542497096,111.59211730957031,5356.25390625,True
1599558975.4115102,0.0,10,0.5,0.5,-5.422397542572022,-0.001,-0.02275,-0.001,0.14097543684229163,10,1,100,-0.07954115246582585,-10,-1,-100,15030.936232932843,0.007295261059007338,0.012990575207865443,0.9998890059010798,21.658888688129153,0.022007934546680194,-15.232890005875142,6.203335542497096,111.59211730957031,5356.25390625,True
1599558975.4437633,0.0,10,0.5,0.5,-5.300278390884399,-0.001,-0.02275,-0.001,0.21150028944277482,10,1,100,-0.09561244676135398,-10,-1,-100,15031.16867934959,0.0074401154197160585,0.013628986138618923,0.9998794404423839,20.66223887529416,0.020751405338176994,-13.66244619591884,5.832033205605043,104.90882873535156,5356.25390625,True
1599558975.4766788,0.0,10,0.5,0.5,-5.173810654449462,-0.001,-0.02275,-0.001,0.22399556575098534,10,1,100,-0.09959107262361383,-10,-1,-100,15031.359137775027,0.007606690673904299,0.014319702295354725,0.9998685335498683,19.387032579309025,0.019268230431702765,-12.003337819364859,5.460727118234701,97.950927734375,5356.25390625,True
1599558975.513543,0.0,10,0.5,0.5,-5.036111832427978,-0.001,-0.02275,-0.001,0.23750746397201059,10,1,100,-0.10451950222569784,-10,-1,-100,15031.592568970751,0.0078015909346676295,0.01506665209399494,0.9998560552267346,17.83431558499164,0.017609803436874443,-10.29135035522144,5.089414604274565,90.71847534179688,5356.25390625,True
1599558975.544494,0.0,10,0.5,0.5,-4.8942875602722165,-0.001,-0.02275,-0.001,0.20849477235189012,10,1,100,-0.09781893324607444,-10,-1,-100,15031.646298755077,0.007916435385266927,0.015477536560802082,0.9998488765372495,16.996902936336596,0.01677090168572302,-9.450399167176219,4.903755533287775,86.99955749511719,5356.25390625,True
1599558975.5773733,0.0,10,0.5,0.5,-4.743159948348999,-0.001,-0.02275,-0.001,0.26250845721668736,10,1,100,-0.11603076031258427,-10,-1,-100,15031.879738100455,0.008185037939956036,0.01633750220065281,0.9998330316486675,18.39705042891038,0.01821289489465273,-9.454465751792055,4.532422431497041,79.35572814941406,5356.25390625,True
1599558975.6114264,0.0,10,0.5,0.5,-4.600933892822265,-0.001,-0.02275,-0.001,0.27817674231749356,10,1,100,-0.12558478973502607,-10,-1,-100,15032.041894596186,0.008514746026815017,0.01725683838883435,0.999814833171083,19.632580942800786,0.01954745533892889,-9.262928338335023,4.161075139585711,71.43742370605469,5356.25390625,True
1599558975.6494198,0.0,10,0.5,0.5,-4.4610754482269295,-0.001,-0.02275,-0.001,0.23915777224055979,10,1,100,-0.11338425198185845,-10,-1,-100,15032.095631298493,0.008702057185804411,0.01773246795111723,0.999804897858126,20.147344866103712,0.020113878429539933,-9.081706990692911,3.9753994238309067,67.375244140625,5356.25390625,True
1599558975.6823318,0.0,10,0.5,0.5,-4.302137832260132,-0.001,-0.02275,-0.001,0.4188112634607269,10,1,100,-0.20482080461402494,-10,-1,-100,15032.378959331894,0.00970207137079755,0.019792802579822733,0.9997570278708483,21.615710158411375,0.021689877276963487,-7.923521930718593,3.2326980056334578,50.4405517578125,5356.25390625,True
1599558975.7162406,0.0,10,0.5,0.5,-4.172584512329101,-0.001,-0.02275,-0.001,0.2134873896607202,10,1,100,-0.10506664041346976,-10,-1,-100,15032.378959331894,0.00970207137079755,0.019792802579822733,0.9997570278708483,21.615710158411375,0.021689877276963487,-7.923521930718593,3.2326980056334578,50.4405517578125,5356.25390625,True
1599558975.7491536,0.0,10,0.5,0.5,-4.015705362319946,-0.001,-0.02275,-0.001,0.3325963180737508,10,1,100,-0.17554431417893515,-10,-1,-100,15032.52844850847,0.01034058948656379,0.020869427176875777,0.9997287328162472,21.87279087936747,0.021914035867378744,-7.096841818660506,2.861342598613042,41.560882568359375,5356.25390625,True
1599558975.7850554,0.0,10,0.5,0.5,-3.846954768371582,-0.001,-0.02275,-0.001,0.34671947042545215,10,1,100,-0.19871326559115976,-10,-1,-100,15032.637907305965,0.011128918851528271,0.02196940651196764,0.9996967001759625,21.570778391206847,0.0215391704704716,-6.090579423660522,2.4899728339954215,32.406280517578125,5356.25390625,True
1599558975.8149776,0.0,10,0.5,0.5,-3.681804928207397,-0.001,-0.02275,-0.001,0.29785626296561635,10,1,100,-0.16584498091496652,-10,-1,-100,15032.690687488415,0.011543425864956214,0.022517594548440507,0.9996798023642632,21.224133013938648,0.021149736604955924,-5.545830645503819,2.3042792144481585,27.7257080078125,5356.25390625,True
1599558975.8475082,0.0,10,0.5,0.5,-3.507587261581421,-0.001,-0.02275,-0.001,0.3625692071871756,10,1,100,-0.23362179592981355,-10,-1,-100,15032.727893462172,0.012532824436215633,0.023596794172472665,0.9996429960823178,20.15487918387156,0.020005136930592738,-4.41763833501951,1.9328680347686866,18.15777587890625,5356.25390625,True
1599558975.8803864,0.0,10,0.5,0.5,-3.342304578018189,-0.001,-0.02275,-0.001,0.3127306873785052,10,1,100,-0.1946511557062898,-10,-1,-100,15032.767006721115,0.013073698013963481,0.024117052612351735,0.9996236522779626,19.415531038375995,0.019250595301868883,-3.8467087975879273,1.7471471074078524,13.270263671875,5356.25390625,True
1599558975.91629,0.0,10,0.5,0.5,-3.159494018554687,-0.001,-0.02275,-0.001,0.37264510203077816,10,1,100,-0.2683877819295918,-10,-1,-100,15032.806176895392,0.014231045811556365,0.025126837221761053,0.9995829727373015,17.601884624887578,0.01744138625856666,-2.7459366083414056,1.3756746286552581,3.288299560546875,5356.25390625,True
1599558975.947076,0.0,10,0.5,0.5,-2.986232824325562,-0.001,-0.02275,-0.001,0.3235134182301094,10,1,100,-0.22412497769991163,-10,-1,-100,15032.85896807874,0.014875294672851348,0.025590181254835163,0.9995618381229551,16.55736291152728,0.01640249537283498,-2.234243987983063,1.189930306036254,-1.80657958984375,5356.25390625,True
1599558975.9779932,0.0,10,0.5,0.5,-2.793297266387939,-0.001,-0.02275,-0.001,0.41415297900893266,10,1,100,-0.39020631489695445,-10,-1,-100,15032.920666694874,0.01696502347705078,0.02682782334392275,0.9994961009794137,18.166134148579744,0.017965453311983084,-1.3034319866689434,0.6327032231159988,-17.506744384765625,5356.25390625,True
1599558976.010905,0.0,10,0.5,0.5,-2.6051464614868167,-0.001,-0.02275,-0.001,0.3287204285540747,10,1,100,-0.2647528409370698,-10,-1,-100,15032.92072703503,0.01771677902096836,0.027168024461328384,0.9994738686869161,18.882049069420685,0.01865522363919514,-0.9570917830189443,0.4469670688572127,-22.87896728515625,5356.25390625,True
1599558976.0460205,0.0,10,0.5,0.5,-2.4328338439941404,-0.001,-0.02275,-0.001,0.330264588202489,10,1,100,-0.27477643515958894,-10,-1,-100,15032.903207896044,0.018484030637779817,0.027484631272244996,0.9994513173012533,19.515727116250634,0.019275357481417354,-0.5781528595019901,0.26123157290277144,-28.3204345703125,5356.25390625,True
1599558976.0769389,0.0,10,0.5,0.5,-2.23690986328125,-0.001,-0.02275,-0.001,0.3508924023729178,10,1,100,-0.3734554578066782,-10,-1,-100,15032.92481035553,0.02007063053233924,0.02795298865763452,0.9994077247125623,20.27789174469024,0.020033413794103252,0.2535283898412613,-0.11024637809497051,-39.41253662109375,5356.25390625,True
1599558976.1105,0.0,10,0.5,0.5,-2.0410479347229002,-0.001,-0.02275,-0.001,0.3405616702486432,10,1,100,-0.39436690503503724,-10,-1,-100,15032.89367397537,0.021694252646700368,0.028278412750967267,0.9993646435482832,20.589803295198152,0.020359702648464997,1.124891557455664,-0.4817383012437533,-50.78228759765625,5356.25390625,True
1599558976.1448965,0.0,10,0.5,0.5,-1.839866390991211,-0.001,-0.02275,-0.001,0.3212063235036093,10,1,100,-0.41030932082740124,-10,-1,-100,15032.847882088041,0.02330559895441818,0.02839255967791582,0.9993251280801019,20.21339931767114,0.020003025263370347,1.9559943952785843,-0.8532428922156898,-62.430938720703125,5356.25390625,True
1599558976.180803,0.0,10,0.5,0.5,-1.6225546058654783,-0.001,-0.02275,-0.001,0.3026787791570747,10,1,100,-0.42093637287585794,-10,-1,-100,15032.815750515903,0.024856375913611742,0.028322556512782846,0.9992897444530395,19.14202227246654,0.0189507642345941,2.6588828435480316,-1.2247495707284104,-74.35797119140625,5356.25390625,True
1599558976.2137134,0.0,10,0.5,0.5,-1.4118726325988769,-0.001,-0.02275,-0.001,0.29929521765308353,10,1,100,-0.3489136180335616,-10,-1,-100,15032.7845434614,0.02560021760387829,0.028223861474134488,0.999273757537004,18.342183620829516,0.01816750187351071,2.9342113751584367,-1.4104966300147515,-80.42581176757812,5356.25390625,True
1599558976.2456608,0.0,10,0.5,0.5,-1.1675417282104492,-0.001,-0.02275,-0.001,0.2535839487658128,10,1,100,-0.4991529221729102,-10,-1,-100,15032.667460174765,0.027630861433032942,0.02771484825924099,0.9992339179003262,16.136010681461354,0.015983056624608832,3.601126793955398,-1.9677127585378846,-99.0458984375,5356.25390625,True
1599558976.2785811,0.0,10,0.5,0.5,-0.9533515144348144,-0.001,-0.02275,-0.001,0.3047440713589106,10,1,100,-0.29742852081959253,-10,-1,-100,15032.667460174765,0.027630861433032942,0.02771484825924099,0.9992339179003262,16.136010681461354,0.015983056624608832,3.601126793955398,-1.9677127585378846,-99.0458984375,5356.25390625,True
1599558976.314547,0.0,10,0.5,0.5,-0.7194411460876464,-0.001,-0.02275,-0.001,0.2792735023276708,10,1,100,-0.36647630331550884,-10,-1,-100,15032.634284852305,0.028246972576850198,0.027481366116225713,0.9992231397724078,17.236285358496662,0.01707601490688084,4.209830269611687,-2.153455282280833,-105.391357421875,5356.25390625,True
1599558976.3455637,0.0,10,0.5,0.5,-0.5000528457641601,-0.001,-0.02275,-0.001,0.24643523119750316,10,1,100,-0.42388319734115787,-10,-1,-100,15032.533741861116,0.02931869815409924,0.02696998575523548,0.9992062018457007,19.13464474167646,0.01898714697924663,5.479892596621347,-2.5249697445660333,-118.28948974609375,5356.25390625,True
1599558976.3786209,0.0,10,0.5,0.5,-0.269555339050293,-0.001,-0.02275,-0.001,0.23162598378113644,10,1,100,-0.4212982934401195,-10,-1,-100,15032.41658404516,0.03025894780783154,0.02637064503119202,0.9991941678964114,20.25835132229578,0.020136074089919444,6.655605627848947,-2.896515892806218,-131.4578399658203,5356.25390625,True
1599558976.4115095,0.0,10,0.5,0.5,-0.03473968696594238,-0.001,-0.02275,-0.001,0.2594519328028594,10,1,100,-0.37142265928483903,-10,-1,-100,15032.386319841491,0.03064960089420376,0.026079765715205493,0.9991898957581918,20.432176117825296,0.02031593888814179,7.143370714286927,-3.0822967785430198,-138.13104248046875,5356.25390625,True
1599558976.4474592,0.0,10,0.5,0.5,0.23737450065612795,-0.001,-0.02275,-0.001,0.1722084157832226,10,1,100,-0.4645587860107284,-10,-1,-100,15032.097276670276,0.031841814878993985,0.025023910021350525,0.999179614860339,19.365286741525534,0.01916153140212542,8.40321534605172,-3.8254230969282794,-165.23243713378906,5356.25390625,True
1599558976.4783795,0.0,10,0.5,0.5,0.49796052017211917,-0.001,-0.02275,-0.001,0.2307889086864489,10,1,100,-0.3894081084753056,-10,-1,-100,15031.926381357596,0.03223323274008826,0.024599549783084082,0.9991776022597748,17.458517087146827,0.017198755720448673,8.311895906400757,-4.196976094293565,-178.88909912109375,5356.25390625,True
1599558976.5104887,0.0,10,0.5,0.5,0.7492461730957032,-0.001,-0.02275,-0.001,0.2728456315236101,10,1,100,-0.35115908574444493,-10,-1,-100,15031.926381357596,0.03223323274008826,0.024599549783084082,0.9991776022597748,17.458517087146827,0.017198755720448673,8.311895906400757,-4.196976094293565,-178.88909912109375,5356.25390625,True
1599558976.5444033,0.0,10,0.5,0.5,0.3078823699951172,-0.001,-0.02275,-0.001,0.23325946288707755,10,1,100,-0.4036508737202111,-10,-1,-100,15031.654907807591,0.03270372457911661,0.024243060074324422,0.9991710266200108,18.270672276923076,0.018087154092238614,9.854209573633785,-4.754319683340277,160.69696044921875,5356.25390625,True
1599558976.64928,0.0,10,0.5,0.5,0.11239581222534184,-0.001,-0.02275,-0.001,0.2621754842859766,10,1,100,-0.369827391082573,-10,-1,-100,15031.552374460734,0.032817500493368186,0.024185470353078185,0.9991686918059274,19.266325450390287,0.019149596649518114,10.797483667429471,-4.9401051998476255,153.95611572265625,5356.25390625,True
1599558976.6941233,0.0,10,0.5,0.5,-0.4167299125671387,-0.001,-0.02275,-0.001,0.2869817445233751,10,1,100,-0.4156948010516754,-10,-1,-100,15031.122736888705,0.03333319447053388,0.024361836043109014,0.9991473360275741,20.72033085266956,0.020831207368510334,13.360409104489397,-5.683258620631078,127.3587646484375,5356.25390625,True
1599558976.7510018,0.0,10,0.5,0.5,-0.9320741722106933,-0.001,-0.02275,-0.001,0.3022098850575358,10,1,100,-0.40010579012656233,-10,-1,-100,15030.881572321989,0.03365510495678575,0.024663654322734985,0.9991291398341839,20.267121498704284,0.020332871585033545,13.92324127914428,-6.054832435143238,114.19691467285156,5356.25390625,True
1599558976.7788978,0.0,10,0.5,0.5,-1.4054302310943603,-0.001,-0.02275,-0.001,0.3470374736875916,10,1,100,-0.44216877582070335,-10,-1,-100,15030.525229950901,0.03432522514843425,0.02534811966611682,0.9990892111057458,18.042143759136696,0.01791755134934928,13.536688978072844,-6.612204819320864,94.51235961914062,5356.25390625,True
1599558976.8108096,0.0,10,0.5,0.5,-1.8827866924285888,-0.001,-0.02275,-0.001,0.3418478961152688,10,1,100,-0.44365577964528957,-10,-1,-100,15030.212824224844,0.03494339215107064,0.025924657333160208,0.9990529873270659,16.37841370270182,0.016256515008364204,12.979691234296322,-6.9838092885859755,81.28620910644531,5356.25390625,True
1599558976.8467164,0.0,10,0.5,0.5,-2.353089081192016,-0.001,-0.02275,-0.001,0.355297416403759,10,1,100,-0.470545961778687,-10,-1,-100,15029.956106594065,0.03574555976891348,0.026571456294638682,0.9990076139185273,18.91585249437043,0.018946452485965874,15.789060456672145,-7.355402546614691,67.82797241210938,5356.25390625,True
1599558976.8935883,0.0,10,0.5,0.5,-2.821445934677124,-0.001,-0.02275,-0.001,0.3268474544538924,10,1,100,-0.44246520276667234,-10,-1,-100,15029.787228748319,0.03621489074059346,0.026900372341366295,0.9989819075721756,19.846098176855058,0.019987308253141316,16.98444724131941,-7.541190896953755,60.9989013671875,5356.25390625,True
1599558976.9524329,0.0,10,0.5,0.5,-3.3152250129699707,-0.001,-0.02275,-0.001,0.36587893892124557,10,1,100,-0.5162363428112948,-10,-1,-100,15029.474882657756,0.03730822646447038,0.02755251273144005,0.9989238986430647,20.903916415544177,0.021230191088139935,18.77229003013605,-7.912753273566606,47.13575744628906,5356.25390625,True
1599558976.9823518,0.0,10,0.5,0.5,-3.8006719028472906,-0.001,-0.02275,-0.001,0.39642428163242793,10,1,100,-0.6269902130341913,-10,-1,-100,15028.994685433106,0.03930440776663538,0.028420368053473886,0.9988230304762797,20.969932192944846,0.021257033956382388,20.15983789792964,-8.47008375467589,25.824356079101562,5356.25390625,True
1599558977.0172591,0.0,10,0.5,0.5,-4.287706414794922,-0.001,-0.02275,-0.001,0.31002083125608315,10,1,100,-0.428079200320346,-10,-1,-100,15028.994685433106,0.03930440776663538,0.028420368053473886,0.9988230304762797,20.969932192944846,0.021257033956382388,20.15983789792964,-8.47008375467589,25.824356079101562,5356.25390625,True
1599558977.0472553,0.0,10,0.5,0.5,-3.9517633602142337,-0.001,-0.02275,-0.001,0.35658545704606365,10,1,100,-0.6012371249495156,-10,-1,-100,15028.612074355828,0.040872570096730086,0.028839885280674483,0.9987480633426457,19.823595672169596,0.01990753646142438,19.895143357572927,-8.841657270693734,11.270416259765625,5356.25390625,True
1599558977.0801363,0.0,10,0.5,0.5,-3.612041257095337,-0.001,-0.02275,-0.001,0.33533988432249995,10,1,100,-0.6354097401124313,-10,-1,-100,15028.27244132082,0.04260150956229418,0.02902389172161754,0.9986704787327727,17.870304447512225,0.01784178938658832,18.689891591475632,-9.213265378531505,-3.5626220703125,5356.25390625,True
1599558977.1130838,0.0,10,0.5,0.5,-3.313987613296509,-0.001,-0.02275,-0.001,0.323521736471551,10,1,100,-0.5610939397131604,-10,-1,-100,15028.057704096194,0.04348924878636656,0.02907949436412214,0.9986305964907766,17.526421295096096,0.017543148749630512,18.70058402406002,-9.399074839433172,-11.0828857421875,5356.25390625,True
1599558977.1489825,0.0,10,0.5,0.5,-3.0059943778991696,-0.001,-0.02275,-0.001,0.3045268977409722,10,1,100,-0.67680969844885,-10,-1,-100,15027.665339404251,0.045339305756911745,0.028953347468810706,0.9985519771267952,20.060863040308476,0.02034566462488218,22.25267160302494,-9.770659905668605,-26.3338623046875,5356.25390625,True
1599558977.1799006,0.0,10,0.5,0.5,-2.730858712768555,-0.001,-0.02275,-0.001,0.29785223399526145,10,1,100,-0.5939751517843455,-10,-1,-100,15027.4935676608,0.0462581215962678,0.028774712231927766,0.9985149984463703,20.876236151748788,0.021325665103882938,23.59829369312183,-9.956433947138889,-34.064605712890625,5356.25390625,True
1599558977.2138114,0.0,10,0.5,0.5,-2.412924042892456,-0.001,-0.02275,-0.001,0.17131926877656806,10,1,100,-0.8884802931085676,-10,-1,-100,15026.646269612946,0.049760442071861505,0.027459425919229,0.9983836328451099,21.142371469549545,0.021762779976035065,25.686441651026264,-10.699462349476017,-65.68576049804688,5356.25390625,True
1599558977.24669,0.0,10,0.5,0.5,-2.140801455307007,-0.001,-0.02275,-0.001,0.3029366970089036,10,1,100,-0.5396497337794917,-10,-1,-100,15026.646269612946,0.049760442071861505,0.027459425919229,0.9983836328451099,21.142371469549545,0.021762779976035065,25.686441651026264,-10.699462349476017,-65.68576049804688,5356.25390625,True
1599558977.2826097,0.0,10,0.5,0.5,-1.8364344257354734,-0.001,-0.02275,-0.001,0.25121652393054966,10,1,100,-0.6289178560137727,-10,-1,-100,15026.421731151873,0.050559656318235634,0.026988734297082272,0.9983563138349069,20.55207029093354,0.02106871744626494,25.403759239742936,-10.88522540901656,-73.76547241210938,5356.25390625,True
1599558977.3115516,0.0,10,0.5,0.5,-1.5367281677246094,-0.001,-0.02275,-0.001,0.18070767813583286,10,1,100,-0.7013569538125842,-10,-1,-100,15025.96872243355,0.05193270522233425,0.025920355841028146,0.9983141435847559,18.63658244642129,0.01895920408259436,23.824333791220084,-11.256785311562194,-90.13330841064453,5356.25390625,True
1599558977.3455818,0.0,10,0.5,0.5,-1.2391489606857298,-0.001,-0.02275,-0.001,0.08332395346617874,10,1,100,-0.7529182545594888,-10,-1,-100,15025.279376984341,0.0536381903260724,0.024066068849629762,0.998270388656635,19.887167048020743,0.020487160765363832,26.685142355893227,-11.814131177250566,-115.20498657226562,5356.25390625,True
1599558977.3795233,0.0,10,0.5,0.5,-0.9433788843154907,-0.001,-0.02275,-0.001,0.2683172226856327,10,1,100,-0.5838031224416176,-10,-1,-100,15025.279376984341,0.0536381903260724,0.024066068849629762,0.998270388656635,19.887167048020743,0.020487160765363832,26.685142355893227,-11.814131177250566,-115.20498657226562,5356.25390625,True
1599558977.417387,0.0,10,0.5,0.5,-0.6042699625015259,-0.001,-0.02275,-0.001,0.06959560226934389,10,1,100,-0.705498755822342,-10,-1,-100,15024.570426942897,0.054732909156597766,0.022263848497146268,0.9982527884786255,21.803767003007557,0.022783643552084912,30.640593598715725,-12.371352557623084,-140.8936767578125,5356.25390625,True
1599558977.4473093,0.0,10,0.5,0.5,-0.30013218784332274,-0.001,-0.02275,-0.001,0.18891284741931685,10,1,100,-0.6263156075773195,-10,-1,-100,15024.332146789995,0.0549972327461258,0.021716314081001456,0.998250322360581,21.659166882555972,0.022607611412064087,30.895622608433083,-12.557083287764122,-149.59283447265625,5356.25390625,True
1599558977.4812536,0.0,10,0.5,0.5,0.04147022457122802,-0.001,-0.02275,-0.001,0.12518556936127911,10,1,100,-0.6387289989617163,-10,-1,-100,15023.809672362986,0.055339914127409656,0.020645910429690485,0.9982540960531543,20.747099554225613,0.02145934757301106,30.47279140474448,-12.928569112027242,-167.1885528564453,5356.25390625,True
1599558977.5151618,0.0,10,0.5,0.5,-0.3400752073287964,-0.001,-0.02275,-0.001,0.14352818484271668,10,1,100,-0.636356405567306,-10,-1,-100,15023.274498454295,0.05562078216283625,0.019847119466547325,0.9982546871617858,18.829354123455552,0.019355022828622778,28.453527167170197,-13.300107304348114,175.00851440429688,5356.25390625,True
1599558977.5490363,0.0,10,0.5,0.5,-0.455612566947937,-0.001,-0.02275,-0.001,0.18411169917710388,10,1,100,-0.618548060182309,-10,-1,-100,15022.979568370036,0.055705711181936304,0.0194980028965165,0.9982568314941612,18.691171621950858,0.019280600360540398,28.640623609488394,-13.485881531559706,166.0550537109375,5356.25390625,True
1599558977.5799522,0.0,10,0.5,0.5,-0.9738510564804077,-0.001,-0.02275,-0.001,0.18635308983822307,10,1,100,-0.6211219993370534,-10,-1,-100,15022.739329326781,0.055800914037879415,0.0192082381325193,0.9982571319957507,20.181645875971125,0.02096478923869362,31.35195765104152,-13.67163744733373,157.09239196777344,5356.25390625,True
1599558977.6138887,0.0,10,0.5,0.5,-1.4357467775344848,-0.001,-0.02275,-0.001,0.1525737942489117,10,1,100,-0.649979431610975,-10,-1,-100,15021.906334362924,0.05614431104398515,0.018645232194243296,0.9982485520419346,22.296450816233587,0.02357460311784843,36.053851437711,-14.228801788079913,130.14877319335938,5356.25390625,True
1599558977.6467733,0.0,10,0.5,0.5,-1.8903760972976684,-0.001,-0.02275,-0.001,0.19045924937164133,10,1,100,-0.6554409156861627,-10,-1,-100,15021.300906245946,0.0565010630368323,0.018485406844292507,0.9982313958243895,21.707436043288208,0.0228867395962564,36.020957124707934,-14.600219394582272,112.03916931152344,5356.25390625,True
1599558977.6823893,0.0,10,0.5,0.5,-2.3684280879974366,-0.001,-0.02275,-0.001,0.20569828946704674,10,1,100,-0.6202225521828977,-10,-1,-100,15021.300906245946,0.0565010630368323,0.018485406844292507,0.9982313958243895,21.707436043288208,0.0228867395962564,36.020957124707934,-14.600219394582272,112.03916931152344,5356.25390625,True
1599558977.7133014,0.0,10,0.5,0.5,-2.830172550201416,-0.001,-0.02275,-0.001,0.19890405612723178,10,1,100,-0.7157695424384213,-10,-1,-100,15020.398686933098,0.057367069427600004,0.018428714415753587,0.9981830502619604,19.058004060607033,0.019887799573951724,32.836387955727155,-15.157427774098307,84.42117309570312,5356.25390625,True
1599558977.7463331,0.0,10,0.5,0.5,-3.2932594871520995,-0.001,-0.02275,-0.001,0.20404547653499708,10,1,100,-0.6725042591739032,-10,-1,-100,15020.09015196201,0.05775763731761909,0.018429040897546867,0.998160521050138,18.97076479536497,0.019869377274010072,33.08834808669707,-15.343175482188602,75.08088684082031,5356.25390625,True
1599558977.7792447,0.0,10,0.5,0.5,-3.7751245838165284,-0.001,-0.02275,-0.001,0.20341159526981567,10,1,100,-0.6818898623938161,-10,-1,-100,15019.794322855538,0.05819527294858018,0.018427061330947837,0.9981351379533463,20.522304425258557,0.021641740829289723,36.22965567471499,-15.528903044081051,65.67222595214844,5356.25390625,True
1599558977.815149,0.0,10,0.5,0.5,-4.236213222503662,-0.001,-0.02275,-0.001,0.19518703533510062,10,1,100,-0.7541476527406985,-10,-1,-100,15019.133353988058,0.059247105216059685,0.018353483228042266,0.9980746115280736,22.4185605492548,0.023931350043917887,40.52783124756871,-15.90030128290783,46.64820861816406,5356.25390625,True
1599558977.846066,0.0,10,0.5,0.5,-4.6836053680419925,-0.001,-0.02275,-0.001,0.15891105090601793,10,1,100,-0.858847728079619,-10,-1,-100,15018.147322184639,0.06115158324313247,0.017958896391683403,0.9979669142347611,21.98323022448213,0.023361902850611307,41.139304445764665,-16.45736533584427,17.59295654296875,5356.25390625,True
1599558977.8789787,0.0,10,0.5,0.5,-4.3545402259826655,-0.001,-0.02275,-0.001,0.19818091223441786,10,1,100,-0.6689530054803704,-10,-1,-100,15018.147322184639,0.06115158324313247,0.017958896391683403,0.9979669142347611,21.98323022448213,0.023361902850611307,41.139304445764665,-16.45736533584427,17.59295654296875,5356.25390625,True
1599558977.912889,0.0,10,0.5,0.5,-3.9773520652770995,-0.001,-0.02275,-0.001,0.13644833031876202,10,1,100,-0.8252459415385662,-10,-1,-100,15017.485430023167,0.06256747732360589,0.017399090289272744,0.9978890631921294,20.32336244281223,0.021425568307001576,38.895687602125136,-16.828798350044757,-2.12548828125,5356.25390625,True
1599558977.9495647,0.0,10,0.5,0.5,-3.5948524570465086,-0.001,-0.02275,-0.001,0.09546025216875387,10,1,100,-0.8386736690939869,-10,-1,-100,15016.809860926121,0.06397057258973489,0.016519201438302294,0.9978150539185016,20.67415434221663,0.021974892587333223,40.44494097089202,-17.200247744532312,-22.124176025390625,5356.25390625,True
1599558977.9824762,0.0,10,0.5,0.5,-3.2073888034820555,-0.001,-0.02275,-0.001,-0.01232114714825741,10,1,100,-0.9165511254526691,-10,-1,-100,15015.756430526031,0.06594697583352586,0.014741404335225366,0.9977142313190877,22.960538798512808,0.024821456634862606,46.379849590968256,-17.757276428525476,-52.644866943359375,5356.25390625,True
1599558978.0183804,0.0,10,0.5,0.5,-2.863253311920166,-0.001,-0.02275,-0.001,0.1650841629085287,10,1,100,-0.7198553923532409,-10,-1,-100,15015.756430526031,0.06594697583352586,0.014741404335225366,0.9977142313190877,22.960538798512808,0.024821456634862606,46.379849590968256,-17.757276428525476,-52.644866943359375,5356.25390625,True
1599558978.0516686,0.0,10,0.5,0.5,-2.4472066265106203,-0.001,-0.02275,-0.001,0.0024195409197427242,10,1,100,-0.8333584438571584,-10,-1,-100,15015.025120347273,0.06697023456283721,0.013266038683062828,0.9976667779876495,22.12362896099347,0.023808754387717006,45.62868839338594,-18.128613084400282,-73.34011840820312,5356.25390625,True
1599558978.0856128,0.0,10,0.5,0.5,-2.0458750514984128,-0.001,-0.02275,-0.001,-0.11485559916287927,10,1,100,-0.8416575352593212,-10,-1,-100,15013.913889727555,0.06796718590665334,0.010863352885557311,0.9976284123881068,19.4715779808767,0.020875802697515794,41.40024953727765,-18.685711535814143,-104.90006256103516,5356.25390625,True
1599558978.1155312,0.0,10,0.5,0.5,-1.6679783357620237,-0.001,-0.02275,-0.001,0.12465641178647341,10,1,100,-0.7429833557366121,-10,-1,-100,15013.913889727555,0.06796718590665334,0.010863352885557311,0.9976284123881068,19.4715779808767,0.020875802697515794,41.40024953727765,-18.685711535814143,-104.90006256103516,5356.25390625,True
1599558978.2641706,0.0,10,0.5,0.5,-1.237162173461914,-0.001,-0.02275,-0.001,-0.0526626234509535,10,1,100,-0.7744221663715343,-10,-1,-100,15013.168771936675,0.0682441097188271,0.009258237754712876,0.9976256945981102,22.3740921390918,0.024291917864226444,48.52247418819045,-19.057058869644095,-126.28216552734375,5356.25390625,True
1599558978.2871373,0.0,10,0.5,0.5,-0.7999680072784422,-0.001,-0.02275,-0.001,-0.12439726985581022,10,1,100,-0.7453937846328645,-10,-1,-100,15012.042725120904,0.06822378516454011,0.007155177437058628,0.9976443848254082,22.978758986702385,0.024942616471708964,51.298748593823,-19.613998385122105,-158.86199951171875,5356.25390625,True
1599558978.3411584,0.0,10,0.5,0.5,-1.1070003284454346,-0.001,-0.02275,-0.001,-0.039917014264957654,10,1,100,-0.7274428814052976,-10,-1,-100,15011.229176758323,0.06803568899319096,0.00602112830724854,0.9976647187493047,21.222379211242796,0.022827769508937914,48.28058288998481,-19.985342178450605,179.08175659179688,5356.25390625,True
1599558978.3752074,0.0,10,0.5,0.5,-1.114186024093628,-0.001,-0.02275,-0.001,0.019925889412102424,10,1,100,-0.7344155756359877,-10,-1,-100,15010.793593466515,0.06792182232519794,0.00554505346638031,0.9976752369554328,19.76851211057899,0.021285587248210454,45.39378519228458,-20.171037733797085,167.95297241210938,5356.25390625,True
1599558978.4151328,0.0,10,0.5,0.5,-1.4673801471710204,-0.001,-0.02275,-0.001,-0.022507356677549384,10,1,100,-0.7267380732435496,-10,-1,-100,15009.978105905815,0.06774364410981705,0.004737277770978623,0.9976915138869545,22.82158499354502,0.02487821348340196,53.375719728961556,-20.54235938810291,145.52139282226562,5356.25390625,True
1599558978.4790604,0.0,10,0.5,0.5,-1.8258490116119386,-0.001,-0.02275,-0.001,-0.009616413839008742,10,1,100,-0.7340008558135765,-10,-1,-100,15009.16264538467,0.06764425914508913,0.004130837458843207,0.9977009523833286,23.777422647842425,0.026057452249505005,56.6229082769562,-20.913613235730704,122.84320068359375,5356.25390625,True
1599558978.517051,0.0,10,0.5,0.5,-2.1554376369476325,-0.001,-0.02275,-0.001,-0.054067470243459884,10,1,100,-0.784689130655589,-10,-1,-100,15007.461528528249,0.06801316869088972,0.0031850735412945305,0.9976793393626836,20.136891980348658,0.02184050428914268,49.66861876685666,-21.656218320032753,76.68074035644531,5356.25390625,True
1599558978.545976,0.0,10,0.5,0.5,-2.4958158538818362,-0.001,-0.02275,-0.001,0.03935328843201472,10,1,100,-0.7480047953612667,-10,-1,-100,15007.461528528249,0.06801316869088972,0.0031850735412945305,0.9976793393626836,20.136891980348658,0.02184050428914268,49.66861876685666,-21.656218320032753,76.68074035644531,5356.25390625,True
1599558978.5790684,0.0,10,0.5,0.5,-2.7901301532745366,-0.001,-0.02275,-0.001,-0.020293818999526744,10,1,100,-0.8003893695172467,-10,-1,-100,15006.57489836088,0.06848844397037313,0.002651991623863943,0.997648384944788,23.283887600072894,0.025539255669708875,58.422824294776184,-22.02749221804601,53.18916320800781,5356.25390625,True
1599558978.615655,0.0,10,0.5,0.5,-3.1495756528854364,-0.001,-0.02275,-0.001,-0.004887503014389213,10,1,100,-0.7855857831252337,-10,-1,-100,15006.126714303624,0.0687854604771909,0.0023148939908480166,0.9976287895268219,24.026238635466786,0.026430822514799404,60.79716853977258,-22.21310048472034,41.339630126953125,5356.25390625,True
1599558978.6457715,0.0,10,0.5,0.5,-3.4221923862457277,-0.001,-0.02275,-0.001,-0.11709509664240504,10,1,100,-0.8676713909164734,-10,-1,-100,15004.790978229954,0.06980096439551785,0.00099614389048313,0.997560440808879,22.8883843652741,0.02489532051343107,59.38112363679186,-22.769948640539912,5.375579833984375,5356.25390625,True
1599558978.6796453,0.0,10,0.5,0.5,-3.757677807235718,-0.001,-0.02275,-0.001,0.013953704007660645,10,1,100,-0.7662766845514482,-10,-1,-100,15004.790978229954,0.06980096439551785,0.00099614389048313,0.997560440808879,22.8883843652741,0.02489532051343107,59.38112363679186,-22.769948640539912,5.375579833984375,5356.25390625,True
1599558978.7136583,0.0,10,0.5,0.5,-4.0334690570831295,-0.001,-0.02275,-0.001,-0.27803128762982354,10,1,100,-0.8880198290018876,-10,-1,-100,15002.896694425493,0.07090628645485732,-0.001652666002997112,0.9974816124802824,24.206976773945616,0.026660572288058938,64.86736627530578,-23.512459761185735,-43.549041748046875,5356.25390625,True
1599558978.7483363,0.0,10,0.5,0.5,-3.5511001407623293,-0.001,-0.02275,-0.001,-0.10125541504429042,10,1,100,-0.7976458880825632,-10,-1,-100,15002.446539471624,0.07108693377547964,-0.0024466454332831714,0.9974671231537029,24.549336409830207,0.027061896201033574,66.30821098197123,-23.69804549110694,-55.953277587890625,5356.25390625,True
1599558978.7802536,0.0,10,0.5,0.5,-3.0291712467193608,-0.001,-0.02275,-0.001,-0.11480757908589248,10,1,100,-0.7911499276414644,-10,-1,-100,15001.939730759826,0.07118922705253515,-0.0032843812258308226,0.997457421041934,24.306632215035982,0.02670651677400137,66.17105738182715,-23.883634478187894,-68.42648315429688,5356.25390625,True
1599558978.8161566,0.0,10,0.5,0.5,-2.5298316745758056,-0.001,-0.02275,-0.001,-0.12041916273770827,10,1,100,-0.7786473786516794,-10,-1,-100,15001.490524000023,0.07116542905636691,-0.0040896811986208224,0.9974561425019733,23.43178287251623,0.02560976662017555,64.28943253217197,-24.06923926156939,-80.9671630859375,5356.25390625,True
1599558978.8469708,0.0,10,0.5,0.5,-2.0281301380157473,-0.001,-0.02275,-0.001,-0.22443067683158754,10,1,100,-0.7597163514626641,-10,-1,-100,15000.535425501643,0.07096849320366722,-0.005759858103231121,0.9974619275977563,21.51983452148719,0.023486470486261887,59.96272639642544,-24.44049756499932,-106.25398254394531,5356.25390625,True
1599558978.882108,0.0,10,0.5,0.5,-1.6117509761810305,-0.001,-0.02275,-0.001,-0.14610723554471283,10,1,100,-0.7559043625990717,-10,-1,-100,15000.030509684002,0.0707521195074414,-0.0065580377033193265,0.9974723704076653,23.289096548250875,0.025545951043853717,65.38986792201437,-24.626100801776015,-118.99872589111328,5356.25390625,True
1599558978.913026,0.0,10,0.5,0.5,-1.0760269144058228,-0.001,-0.02275,-0.001,-0.3622207925123941,10,1,100,-0.6282194846329845,-10,-1,-100,14997.979496115702,0.06939215457407481,-0.009239466847428785,0.997546671156765,24.12424551139411,0.026276353502845,69.79522313722305,-25.368403587914116,-170.64773559570312,5356.25390625,True
1599558978.947934,0.0,10,0.5,0.5,-1.3122884710311888,-0.001,-0.02275,-0.001,-0.15256826705780113,10,1,100,-0.7185383332857225,-10,-1,-100,14997.531183535466,0.06897608170367217,-0.009760387239330818,0.9975705664231211,22.69731122541336,0.02462318171625977,66.1521744696292,-25.554013596737438,176.27301025390625,5356.25390625,True
1599558978.9798715,0.0,10,0.5,0.5,-1.2723411649703982,-0.001,-0.02275,-0.001,-0.10168375599061574,10,1,100,-0.7601646824486348,-10,-1,-100,14997.531183535466,0.06897608170367217,-0.009760387239330818,0.9975705664231211,22.69731122541336,0.02462318171625977,66.1521744696292,-25.554013596737438,176.27301025390625,5356.25390625,True
1599558979.0148087,0.0,10,0.5,0.5,-1.5551609258651733,-0.001,-0.02275,-0.001,-0.27242894999356815,10,1,100,-0.5983020279396081,-10,-1,-100,14995.410817493568,0.0675053529196736,-0.011302837611057827,0.9976548868166428,25.636046885112656,0.02808559496473192,76.90940673535069,-26.296312753634815,123.28706359863281,5356.25390625,True
1599558979.0462387,0.0,10,0.5,0.5,-1.8495672510147096,-0.001,-0.02275,-0.001,-0.14949419506779837,10,1,100,-0.7149773324069055,-10,-1,-100,14994.89221827162,0.06723109825799202,-0.011576295648301255,0.9976702705834666,25.28311566800906,0.02756292439102325,76.3911257894591,-26.48186589878524,109.87294006347656,5356.25390625,True
1599558979.080119,0.0,10,0.5,0.5,-2.1579511671066283,-0.001,-0.02275,-0.001,-0.18622339189138476,10,1,100,-0.6940998044809001,-10,-1,-100,14993.811105402652,0.06679532121004222,-0.012149774171786698,0.9976927222607278,22.50116882903081,0.02430733791903221,68.94874897437666,-26.85303744150349,82.84033203125,5356.25390625,True
1599558979.1131394,0.0,10,0.5,0.5,-2.5007392370223998,-0.001,-0.02275,-0.001,-0.1298458524166908,10,1,100,-0.737248348019336,-10,-1,-100,14993.811105402652,0.06679532121004222,-0.012149774171786698,0.9976927222607278,22.50116882903081,0.02430733791903221,68.94874897437666,-26.85303744150349,82.84033203125,5356.25390625,True
1599558979.1500409,0.0,10,0.5,0.5,-2.7902620191574097,-0.001,-0.02275,-0.001,-0.19573843303675673,10,1,100,-0.7084641553826027,-10,-1,-100,14992.714406148414,0.06653764119138328,-0.012740738183836428,0.9977025688526705,25.003378052678674,0.027202008897288715,77.68649580435677,-27.224176625397448,55.53572082519531,5356.25390625,True
1599558979.1819546,0.0,10,0.5,0.5,-3.100600101661682,-0.001,-0.02275,-0.001,-0.1764429397348436,10,1,100,-0.7234079219372097,-10,-1,-100,14992.19487798016,0.06644344613206701,-0.013094700022059504,0.9977042634455499,25.9297412231268,0.028248370318750705,81.11951695514634,-27.40971032052982,41.780426025390625,5356.25390625,True
1599558979.2138667,0.0,10,0.5,0.5,-3.3397160123825067,-0.001,-0.02275,-0.001,-0.34766326890648824,10,1,100,-0.6926758488817026,-10,-1,-100,14989.936131456867,0.06608254545679453,-0.014966363920260135,0.9977019119641684,23.176492863485795,0.024844307270813028,74.49191657153689,-28.151929537505666,-13.92840576171875,5356.25390625,True
1599558979.2464926,0.0,10,0.5,0.5,-3.634459822463989,-0.001,-0.02275,-0.001,-0.16133771170811922,10,1,100,-0.7282989590038866,-10,-1,-100,14989.936131456867,0.06608254545679453,-0.014966363920260135,0.9977019119641684,23.176492863485795,0.024844307270813028,74.49191657153689,-28.151929537505666,-13.92840576171875,5356.25390625,True
1599558979.2816873,0.0,10,0.5,0.5,-3.9627981777191157,-0.001,-0.02275,-0.001,-0.22610768898704597,10,1,100,-0.7111442899661444,-10,-1,-100,14989.417581404909,0.06592960265564894,-0.015549975625456895,0.9977031050125663,25.028648451618455,0.02694165023691419,80.98142010436075,-28.337479270389334,-28.0274658203125,5356.25390625,True
1599558979.312585,0.0,10,0.5,0.5,-3.4553085399627683,-0.001,-0.02275,-0.001,-0.30317340107089613,10,1,100,-0.6722682157656045,-10,-1,-100,14988.251550625078,0.06543991441555534,-0.016775865841501564,0.9977154844576448,26.58625563352313,0.028675558390097125,87.16020541443643,-28.708512732964802,-56.430023193359375,5356.25390625,True
1599558979.3466504,0.0,10,0.5,0.5,-2.89696153755188,-0.001,-0.02275,-0.001,-0.32429206525509036,10,1,100,-0.6408489454572369,-10,-1,-100,14987.08547260589,0.0647123282556561,-0.018075921640851055,0.9977402345443257,24.955464107667385,0.026577400279568602,82.88382079588759,-29.079570695230878,-85.1051025390625,5356.25390625,True
1599558979.3795319,0.0,10,0.5,0.5,-2.364513585662842,-0.001,-0.02275,-0.001,-0.3822183514908135,10,1,100,-0.5402487663306706,-10,-1,-100,14985.331376811722,0.06313887832247349,-0.019778235802375536,0.9978087509301198,26.449986224206416,0.028256182719679834,89.55007679595089,-29.636188067756827,-128.6205291748047,5356.25390625,True
1599558979.41509,0.0,10,0.5,0.5,-1.8067687782287596,-0.001,-0.02275,-0.001,-0.3105468602295399,10,1,100,-0.5614546644079126,-10,-1,-100,14984.0978028666,0.06190497038386014,-0.020666778810337055,0.9978680568569063,26.981684238766885,0.028585773956932414,92.5077173360106,-30.007176477006965,-157.96432495117188,5356.25390625,True
1599558979.4461455,0.0,10,0.5,0.5,-1.2882819793701172,-0.001,-0.02275,-0.001,-0.22254425989724305,10,1,100,-0.6843564231866289,-10,-1,-100,14984.0978028666,0.06190497038386014,-0.020666778810337055,0.9978680568569063,26.981684238766885,0.028585773956932414,92.5077173360106,-30.007176477006965,-157.96432495117188,5356.25390625,True
1599558979.4800975,0.0,10,0.5,0.5,-1.4012309867858885,-0.001,-0.02275,-0.001,-0.2978896209317498,10,1,100,-0.54545387478307,-10,-1,-100,14982.919880495174,0.060646665717306134,-0.02134399390643389,0.9979310676902966,24.156897184822718,0.025280477098020077,83.86073380237286,-30.37824195915954,172.42547607421875,5356.25390625,True
1599558979.51404,0.0,10,0.5,0.5,-1.3069559307098388,-0.001,-0.02275,-0.001,-0.25806768637543837,10,1,100,-0.6012648209338419,-10,-1,-100,14982.274280167883,0.06001548005405867,-0.02158980526535309,0.997963938457941,25.671885066444517,0.026926790252242202,89.6717449083453,-30.56376552233632,157.520751953125,5356.25390625,True
1599558979.5492342,0.0,10,0.5,0.5,-1.5251530200958252,-0.001,-0.02275,-0.001,-0.2668904067253836,10,1,100,-0.5376516747091209,-10,-1,-100,14981.039733797545,0.0588692171818617,-0.021885753862785236,0.9980257657226351,27.792953428490133,0.029208066356925584,98.27440387904134,-30.934730831911274,127.51231384277344,5356.25390625,True
1599558979.5811708,0.0,10,0.5,0.5,-1.8467280357360838,-0.001,-0.02275,-0.001,-0.25386810017363626,10,1,100,-0.5945270101867408,-10,-1,-100,14980.449815214728,0.05835076610082003,-0.022030123082759916,0.99805303555092,27.53060997303806,0.028745757948849246,97.93811990985269,-31.120207880401846,112.40678405761719,5356.25390625,True
