Timestamp,Input Throttle,horizon,dT,dt,Input Roll,Roll P,Roll I,Roll D,Input Pitch,Pitch P,Pitch I,Pitch D,Input Yaw,Yaw P,Yaw I,Yaw D,Altitude,Direction X,Direction Y,Direction Z,Drag X,Drag Y,Drag Z,Vertical Velocity,Roll,Mass,Has Fuel
1599560773.9427176,0.0,10,0.5,0.5,-5.850191635131837,-0.1005,-0.001,-0.5,-0.0005411465324442284,10,1,100,0.1711619371552286,-10,-1,-100,14993.513460730086,-0.016776912522133,-7.675943020202055e-05,0.9998592547524949,28.717142506958123,0.027109185712624186,-88.32796512937811,27.194950179868563,-31.792022705078125,5356.25390625,True
1599560773.977744,0.0,10,0.5,0.5,-5.856437222290039,-0.1005,-0.001,-0.5,-0.0002836982370390224,10,1,100,0.1771931267231652,-10,-1,-100,14994.583776538726,-0.01684733352440229,-7.229059376564432e-05,0.9998580709916721,28.571814960188387,0.027439515795409052,-86.68221035288524,26.823011381579573,-31.79083251953125,5356.25390625,True
1599560774.0091276,0.0,10,0.5,0.5,-5.837857824707032,-0.1005,-0.001,-0.5,0.003420553026018143,10,1,100,0.17781951588846337,-10,-1,-100,14995.648232560721,-0.016901731306582173,-3.4487284983177475e-05,0.9998571549423783,28.426611232262207,0.027763828877448576,-85.04902331465985,26.451088266788627,-31.830474853515625,5356.25390625,True
1599560774.0421147,0.0,10,0.5,0.5,-5.804560153198242,-0.1005,-0.001,-0.5,0.003539523241450348,10,1,100,0.1761010596128353,-10,-1,-100,14996.182413232396,-0.016920196295779462,9.92258854797135e-07,0.9998568432312336,28.357480446875584,0.027926456143984268,-84.24730974594189,26.26513248566716,-31.928619384765625,5356.25390625,True
1599560774.075261,0.0,10,0.5,0.5,-5.623971279907227,-0.1005,-0.001,-0.5,0.009493676930294279,10,1,100,0.17909847469619172,-10,-1,-100,14997.247844641446,-0.016948849880993166,8.737415746166905e-05,0.9998563541096632,28.23329895759409,0.028256353652806446,-82.69381063140978,25.893231840129747,-32.32073974609375,5356.25390625,True
1599560774.111399,0.0,10,0.5,0.5,-5.82579938659668,-0.1005,-0.001,-0.5,0.000864224485353253,10,1,100,0.17792800116292068,-10,-1,-100,14997.247844641446,-0.016948849880993166,8.737415746166905e-05,0.9998563541096632,28.23329895759409,0.028256353652806446,-82.69381063140978,25.893231840129747,-32.32073974609375,5356.25390625,True
1599560774.1433141,0.0,10,0.5,0.5,-5.433090994262696,-0.1005,-0.001,-0.5,0.01546782195563383,10,1,100,0.17980417615069766,-10,-1,-100,14998.25370422902,-0.016950497971899327,0.00022005470341198186,0.9998563057732007,28.1294177732765,0.028588953601203365,-81.2093078782423,25.52134511033909,-32.98431396484375,5356.25390625,True
1599560774.1753676,0.0,10,0.5,0.5,-4.863947088623047,-0.1005,-0.001,-0.5,0.03473336628757931,10,1,100,0.1748583549301869,-10,-1,-100,14999.73221731314,-0.016891624681653103,0.0005156146439268506,0.9998571933817115,28.007129647093,0.029073473709307927,-79.09350761283939,24.963538937501838,-34.494110107421875,5356.25390625,True
1599560774.208273,0.0,10,0.5,0.5,-5.624395748901367,-0.1005,-0.001,-0.5,0.0052289337004851185,10,1,100,0.1824348464229746,-10,-1,-100,14999.73221731314,-0.016891624681653103,0.0005156146439268506,0.9998571933817115,28.007129647093,0.029073473709307927,-79.09350761283939,24.963538937501838,-34.494110107421875,5356.25390625,True
1599560774.2444289,0.0,10,0.5,0.5,-4.819285998535157,-0.1005,-0.001,-0.5,0.03386802418016108,10,1,100,0.17498575431337335,-10,-1,-100,15000.730261277175,-0.016808549640037043,0.0007755012713385167,0.999858425606734,27.942116405292825,0.029369146139401347,-77.73738690381352,24.591682894746928,-35.844085693359375,5356.25390625,True
1599560774.2753441,0.0,10,0.5,0.5,-3.974230993652344,-0.1005,-0.001,-0.5,0.06020564095368683,10,1,100,0.16295799766332947,-10,-1,-100,15002.199004053487,-0.016608403132985648,0.0012504897203163214,0.9998612889900437,27.855282820790887,0.029732719557850038,-75.74236306296868,24.033920175550428,-38.3843994140625,5356.25390625,True
1599560774.309457,0.0,10,0.5,0.5,-4.0204261108398445,-0.1005,-0.001,-0.5,0.053374112864924425,10,1,100,0.16214604363804078,-10,-1,-100,15003.136497396277,-0.016419223553062797,0.001618986010261469,0.9998638847274227,27.793985133569528,0.029894316438619978,-74.40920977905101,23.662092298550128,-40.421539306640625,5356.25390625,True
1599560774.3425665,0.0,10,0.5,0.5,-4.364513021850586,-0.1005,-0.001,-0.5,0.03806244797514609,10,1,100,0.16851446586050922,-10,-1,-100,15003.61012622004,-0.01630552605512932,0.0018132481597554118,0.9998654119186126,27.75913944471203,0.02994299054471371,-73.73339243175603,23.476182801001105,-41.543304443359375,5356.25390625,True
1599560774.3785646,0.0,10,0.5,0.5,-3.4534118865966796,-0.1005,-0.001,-0.5,0.06475258411973099,10,1,100,0.15102713823532626,-10,-1,-100,15004.544687783113,-0.016043730992462178,0.0022308079556600056,0.9998688024894599,27.674902814872933,0.02996209490774439,-72.34808537923729,23.104372977477855,-43.992950439453125,5356.25390625,True
1599560774.4085498,0.0,10,0.5,0.5,-4.677028451538086,-0.1005,-0.001,-0.5,0.02321958609895213,10,1,100,0.17711899797170866,-10,-1,-100,15004.544687783113,-0.016043730992462178,0.0022308079556600056,0.9998688024894599,27.674902814872933,0.02996209490774439,-72.34808537923729,23.104372977477855,-43.992950439453125,5356.25390625,True
1599560774.4423256,0.0,10,0.5,0.5,-3.039788278198243,-0.1005,-0.001,-0.5,0.07338842266600665,10,1,100,0.14290777514687658,-10,-1,-100,15005.475341574987,-0.015733542711226005,0.0026849397119075935,0.9998726152528118,27.562202726446245,0.02985802627686012,-70.89660439376412,22.73257681589578,-46.71746826171875,5356.25390625,True
1599560774.4753165,0.0,10,0.5,0.5,-3.520547351074219,-0.1005,-0.001,-0.5,0.05345550821907836,10,1,100,0.15439083535396908,-10,-1,-100,15005.885492008762,-0.015557049645775568,0.0029142170266565565,0.999874734927051,27.49146422299873,0.029752957514240695,-70.1376994748358,22.54668432602986,-48.183013916015625,5356.25390625,True
1599560774.5112965,0.0,10,0.5,0.5,-1.3639648742675785,-0.1005,-0.001,-0.5,0.11125854671199092,10,1,100,0.1050306429878535,-10,-1,-100,15007.22727083345,-0.014949139154152415,0.003645683878797324,0.9998816091056008,27.20220528638038,0.029198187409430303,-67.68712732857011,21.98903304726398,-52.9920654296875,5356.25390625,True
1599560774.5432444,0.0,10,0.5,0.5,-2.7213735321044923,-0.1005,-0.001,-0.5,0.06561873203089799,10,1,100,0.14026423592054058,-10,-1,-100,15007.694061463466,-0.014718564538908067,0.0038929008207018397,0.9998840978739056,27.07429228307121,0.028927596699488623,-66.80068576677314,21.803159155772374,-54.73272705078125,5356.25390625,True
1599560774.5764327,0.0,10,0.5,0.5,-1.3753000793457035,-0.1005,-0.001,-0.5,0.09781300588848274,10,1,100,0.10791475981753645,-10,-1,-100,15008.562211890821,-0.014216840615152028,0.00440724845188692,0.9998892226661945,26.76018590767121,0.028252359266739975,-64.90262416594271,21.431428568057015,-58.4202880859375,5356.25390625,True
1599560774.6093502,0.0,10,0.5,0.5,-2.0474716430664066,-0.1005,-0.001,-0.5,0.07341074395688635,10,1,100,0.12818880849359165,-10,-1,-100,15008.971384923323,-0.013947393589724208,0.004649696874331073,0.9998919194248097,26.570119776898352,0.02784781219970741,-63.88414697293973,21.24557284478188,-60.367584228515625,5356.25390625,True
1599560774.6453776,0.0,10,0.5,0.5,2.0717125305175776,-0.1005,-0.001,-0.5,0.15722184965579913,10,1,100,0.021420877827378892,-10,-1,-100,15010.645183478482,-0.012734243296499947,0.005628933485494042,0.999903072380259,25.543096923879,0.025814360943911742,-59.27138535705998,20.502226270693487,-68.84490966796875,5356.25390625,True
1599560774.676784,0.0,10,0.5,0.5,-2.164107852172852,-0.1005,-0.001,-0.5,0.0596991832870255,10,1,100,0.14236740912414866,-10,-1,-100,15010.645183478482,-0.012734243296499947,0.005628933485494042,0.999903072380259,25.543096923879,0.025814360943911742,-59.27138535705998,20.502226270693487,-68.84490966796875,5356.25390625,True
1599560774.709801,0.0,10,0.5,0.5,2.041425927734375,-0.1005,-0.001,-0.5,0.1345241500991629,10,1,100,0.028580338887811696,-10,-1,-100,15011.857075142441,-0.011703062005950183,0.006305691651671892,0.9999116343919991,24.434993937113326,0.02394395834570621,-55.162726053056744,19.944810692708167,-75.84375,5356.25390625,True
1599560774.7427702,0.0,10,0.5,0.5,-1.4548091583251954,-0.1005,-0.001,-0.5,0.06725582185097906,10,1,100,0.1312644010441369,-10,-1,-100,15011.857075142441,-0.011703062005950183,0.006305691651671892,0.9999116343919991,24.434993937113326,0.02394395834570621,-55.162726053056744,19.944810692708167,-75.84375,5356.25390625,True
1599560774.7786708,0.0,10,0.5,0.5,1.443175161743164,-0.1005,-0.001,-0.5,0.11637592767477735,10,1,100,0.0466740183353582,-10,-1,-100,15012.60413033457,-0.010938004589494479,0.00674853362852823,0.9999174052637873,23.543142744703985,0.022641553986489323,-52.16204779666042,19.57325009721133,-80.66439819335938,5356.25390625,True
1599560774.8094718,0.0,10,0.5,0.5,1.9621255645751954,-0.1005,-0.001,-0.5,0.11468149318329879,10,1,100,0.03682152033207661,-10,-1,-100,15013.406850247178,-0.010157289263706489,0.007132019117641803,0.9999229789229364,22.529513036410663,0.021358028967528055,-48.97157496464891,19.201729252032813,-85.53680419921875,5356.25390625,True
1599560774.8438323,0.0,10,0.5,0.5,2.530059635925293,-0.1005,-0.001,-0.5,0.11563520233999941,10,1,100,0.02384999980838083,-10,-1,-100,15014.15195282374,-0.009334534017667508,0.007485478007268708,0.9999284144845949,21.416940561497547,0.020156717928607393,-45.65522194541038,18.830244801220957,-90.53330993652344,5356.25390625,True
1599560774.8777263,0.0,10,0.5,0.5,0.03556089172363282,-0.1005,-0.001,-0.5,0.08067329279015611,10,1,100,0.10556406389863039,-10,-1,-100,15014.15195282374,-0.009334534017667508,0.007485478007268708,0.9999284144845949,21.416940561497547,0.020156717928607393,-45.65522194541038,18.830244801220957,-90.53330993652344,5356.25390625,True
1599560774.91275,0.0,10,0.5,0.5,5.669918835449218,-0.1005,-0.001,-0.5,0.14420826343261717,10,1,100,-0.0806908068685684,-10,-1,-100,15015.63337156747,-0.007646202492985011,0.008059802670212383,0.9999382856798481,22.632825419130178,0.021518993930645436,-46.348952575685836,18.087296625183686,-99.91012573242188,5356.25390625,True
1599560774.9426675,0.0,10,0.5,0.5,0.9856599212646484,-0.1005,-0.001,-0.5,0.08714105256008212,10,1,100,0.08748528178746465,-10,-1,-100,15015.63337156747,-0.007646202492985011,0.008059802670212383,0.9999382856798481,22.632825419130178,0.021518993930645436,-46.348952575685836,18.087296625183686,-99.91012573242188,5356.25390625,True
1599560774.9767516,0.0,10,0.5,0.5,3.6446660629272465,-0.1005,-0.001,-0.5,0.11207435095861884,10,1,100,-0.011676481334923827,-10,-1,-100,15016.313047618023,-0.006750460274687606,0.008283368923111916,0.9999429069128716,23.280903239670735,0.022431030755402287,-46.69956850039162,17.71581229801027,-104.33152770996094,5356.25390625,True
1599560775.0106623,0.0,10,0.5,0.5,2.733363524627686,-0.1005,-0.001,-0.5,0.09995529246729663,10,1,100,0.0326980008300857,-10,-1,-100,15016.65288597066,-0.006344993353209881,0.008374024589065273,0.9999448068626234,23.564831551128012,0.02287977491377077,-46.7747848538996,17.530067038566518,-106.4894790649414,5356.25390625,True
1599560775.0465646,0.0,10,0.5,0.5,6.4598295082092285,-0.1005,-0.001,-0.5,0.12004555130538104,10,1,100,-0.1142522848856438,-10,-1,-100,15018.066929779481,-0.004646283781671944,0.008636582010184028,0.9999519095927571,24.420162600924783,0.02448637719043598,-46.42291774561099,16.78706825948582,-114.48561096191406,5356.25390625,True
1599560775.0774825,0.0,10,0.5,0.5,3.5643560058593753,-0.1005,-0.001,-0.5,0.09813898872240812,10,1,100,0.00841650159751893,-10,-1,-100,15018.39993351826,-0.0042235883921428255,0.008674001014666312,0.9999534604207796,24.598394048222644,0.024851129620698825,-46.24544619457281,16.60131526097985,-116.31529998779297,5356.25390625,True
1599560775.1103954,0.0,10,0.5,0.5,3.7110355194091795,-0.1005,-0.001,-0.5,0.09757972477709892,10,1,100,0.003983401850791386,-10,-1,-100,15018.68020304956,-0.003805818470885928,0.008700781065271947,0.9999549050605337,24.750208047963735,0.02518091547595923,-46.011333008612446,16.415561503246835,-118.0762939453125,5356.25390625,True
1599560775.3393362,0.0,10,0.5,0.5,3.8503540252685546,-0.1005,-0.001,-0.5,0.09828362458280465,10,1,100,0.0029482740735400914,-10,-1,-100,15019.015160908923,-0.003423101186421563,0.008729750884568264,0.9999560359474616,24.87751668753541,0.02547459558605508,-45.725759271654596,16.229807506569383,-119.76834106445312,5356.25390625,True
1599560775.3682587,0.0,10,0.5,0.5,4.916115973663331,-0.1005,-0.001,-0.5,0.09673036761229958,10,1,100,-0.04806193177915832,-10,-1,-100,15019.690936255734,-0.0026175692274087773,0.00874051408259039,0.9999583750061358,25.065020464019938,0.025950953257027155,-45.01791476917183,15.858300311480937,-122.94629669189453,5356.25390625,True
1599560775.40395,0.0,10,0.5,0.5,5.073365161132813,-0.1005,-0.001,-0.5,0.09364593594482318,10,1,100,-0.05304844099811663,-10,-1,-100,15020.30030625558,-0.0018460418761250409,0.008721117578292246,0.9999602663294064,25.175325591408253,0.026282843404228755,-44.15877278873171,15.486796668073953,-125.8488540649414,5356.25390625,True
1599560775.5000374,0.0,10,0.5,0.5,4.435114679718017,-0.1005,-0.001,-0.5,0.09328010614503643,10,1,100,-0.01809763166349473,-10,-1,-100,15020.57569477579,-0.0014691957254014273,0.008699035358413123,0.9999610833666246,25.205673764883258,0.02639743169368962,-43.68269484772882,15.30104692999585,-127.19689178466797,5356.25390625,True
1599560775.535939,0.0,10,0.5,0.5,6.588183921051026,-0.1005,-0.001,-0.5,0.08012039875696925,10,1,100,-0.13747287872810768,-10,-1,-100,15021.794438539655,-4.69942575812824e-05,0.008558745788914945,0.999963372160231,25.197948838486347,0.02655520552943927,-41.55247142514097,14.558068398039381,-131.90023803710938,5356.25390625,True
1599560775.5648634,0.0,10,0.5,0.5,5.4038199592590335,-0.1005,-0.001,-0.5,0.08197813372081797,10,1,100,-0.06999067990252014,-10,-1,-100,15022.342288125772,0.0006255332618085957,0.00844764473166186,0.9999641223597104,25.135912202759233,0.026481560440003476,-40.39423926791609,14.186594523543855,-133.83880615234375,5356.25390625,True
1599560775.5907953,0.0,10,0.5,0.5,4.437486629486084,-0.1005,-0.001,-0.5,0.09310466702698145,10,1,100,-0.0034755273171819504,-10,-1,-100,15022.342288125772,0.0006255332618085957,0.00844764473166186,0.9999641223597104,25.135912202759233,0.026481560440003476,-40.39423926791609,14.186594523543855,-133.83880615234375,5356.25390625,True
1599560775.6157281,0.0,10,0.5,0.5,5.438483174133301,-0.1005,-0.001,-0.5,0.08365103291006482,10,1,100,-0.07047969905335283,-10,-1,-100,15022.888186039752,0.001228325253396496,0.008361635675923894,0.9999642864952202,25.04819288334158,0.026329756412651874,-39.200959322847716,13.815132483372201,-135.50119018554688,5356.25390625,True
1599560775.6446815,0.0,10,0.5,0.5,4.609392715454102,-0.1005,-0.001,-0.5,0.09222444385043542,10,1,100,-0.010787960798069644,-10,-1,-100,15022.888186039752,0.001228325253396496,0.008361635675923894,0.9999642864952202,25.04819288334158,0.026329756412651874,-39.200959322847716,13.815132483372201,-135.50119018554688,5356.25390625,True
1599560775.6695838,0.0,10,0.5,0.5,5.798695230865479,-0.1005,-0.001,-0.5,0.07171409246230864,10,1,100,-0.10656919876888027,-10,-1,-100,15023.706545354798,0.002094107495271557,0.008175461904521598,0.9999643876341028,24.885538270756573,0.025993631060427267,-37.37806785574515,13.257963068060233,-137.478515625,5356.25390625,True
1599560775.6995041,0.0,10,0.5,0.5,4.811972733306885,-0.1005,-0.001,-0.5,0.0902789376864632,10,1,100,-0.020580967177989934,-10,-1,-100,15023.706545354798,0.002094107495271557,0.008175461904521598,0.9999643876341028,24.885538270756573,0.025993631060427267,-37.37806785574515,13.257963068060233,-137.478515625,5356.25390625,True
1599560775.7284238,0.0,10,0.5,0.5,5.62847241897583,-0.1005,-0.001,-0.5,0.07020316918593264,10,1,100,-0.10524923088701796,-10,-1,-100,15024.52197623963,0.0028588033392793633,0.007993458817225909,0.9999639652805518,24.70616050242401,0.025577467658479174,-35.55147634310182,12.700822201836937,-138.83526611328125,5356.25390625,True
1599560775.754358,0.0,10,0.5,0.5,5.140579313659669,-0.1005,-0.001,-0.5,0.08034949138710057,10,1,100,-0.05583941960245188,-10,-1,-100,15024.731937684002,0.0030998227561843247,0.00792091989902714,0.9999638244090799,24.645628264612387,0.02542938447986707,-34.94655653130372,12.51511470860607,-139.1498260498047,5356.25390625,True
1599560775.7822828,0.0,10,0.5,0.5,4.984629442596436,-0.1005,-0.001,-0.5,0.08752336343905098,10,1,100,-0.03223206437518668,-10,-1,-100,15024.731937684002,0.0030998227561843247,0.00792091989902714,0.9999638244090799,24.645628264612387,0.02542938447986707,-34.94655653130372,12.51511470860607,-139.1498260498047,5356.25390625,True
1599560775.8112051,0.0,10,0.5,0.5,5.303960722351075,-0.1005,-0.001,-0.5,0.065271383549017,10,1,100,-0.10480483745268615,-10,-1,-100,15025.483892524033,0.003755421585541969,0.007719336550444454,0.9999631536471411,24.49274939824007,0.02500324070887763,-33.185868556161296,11.958009552542604,-139.6796112060547,5356.25390625,True
1599560775.8471506,0.0,10,0.5,0.5,5.0398460815429695,-0.1005,-0.001,-0.5,0.08534577748343848,10,1,100,-0.03962519610123402,-10,-1,-100,15025.483892524033,0.003755421585541969,0.007719336550444454,0.9999631536471411,24.49274939824007,0.02500324070887763,-33.185868556161296,11.958009552542604,-139.6796112060547,5356.25390625,True
1599560775.8780715,0.0,10,0.5,0.5,4.986130799865722,-0.1005,-0.001,-0.5,0.06165305592998293,10,1,100,-0.10324972725644282,-10,-1,-100,15026.170417563291,0.00433098106120411,0.007504610271032329,0.9999624610092759,24.353769781669286,0.024593530886291952,-31.462251594087462,11.400928699276033,-139.5891876220703,5356.25390625,True
1599560775.911972,0.0,10,0.5,0.5,4.931089047241211,-0.1005,-0.001,-0.5,0.07447181134104618,10,1,100,-0.06536792295686299,-10,-1,-100,15026.376473176526,0.004506468320174061,0.007426796006631544,0.9999622665102695,24.308355206265432,0.02446251976756873,-30.89272871117736,11.215240204398988,-139.42127990722656,5356.25390625,True
1599560775.9439282,0.0,10,0.5,0.5,4.689473808288574,-0.1005,-0.001,-0.5,0.06634536063100283,10,1,100,-0.08316754659867036,-10,-1,-100,15026.851083322894,0.0048248368222842865,0.007283028795875247,0.999961838492448,24.218231936736476,0.024213270599290244,-29.76021977830337,10.843870254754854,-138.8784637451172,5356.25390625,True
1599560775.9799595,0.0,10,0.5,0.5,4.469684857177735,-0.1005,-0.001,-0.5,0.06514418639158606,10,1,100,-0.08254544514365023,-10,-1,-100,15027.266123356647,0.005105337709548956,0.007142392117447597,0.9999614601381956,24.127089252558672,0.023984430857994524,-28.63400057727924,10.47250941168153,-138.05992126464844,5356.25390625,True
1599560776.0108972,0.0,10,0.5,0.5,4.879014237976074,-0.1005,-0.001,-0.5,0.0791045472556437,10,1,100,-0.05479647943861105,-10,-1,-100,15027.266123356647,0.005105337709548956,0.007142392117447597,0.9999614601381956,24.127089252558672,0.023984430857994524,-28.63400057727924,10.47250941168153,-138.05992126464844,5356.25390625,True
1599560776.044922,0.0,10,0.5,0.5,3.8312302993774416,-0.1005,-0.001,-0.5,0.05682380318368015,10,1,100,-0.09346020793628587,-10,-1,-100,15027.830577713903,0.005454088668423929,0.00694077905296345,0.9999610384924678,23.980618219636387,0.02368491683890355,-26.947930636626133,9.915484220149951,-136.31497192382812,5356.25390625,True
1599560776.0788293,0.0,10,0.5,0.5,4.703452940368653,-0.1005,-0.001,-0.5,0.0768798416556686,10,1,100,-0.05884464058170298,-10,-1,-100,15027.830577713903,0.005454088668423929,0.00694077905296345,0.9999610384924678,23.980618219636387,0.02368491683890355,-26.947930636626133,9.915484220149951,-136.31497192382812,5356.25390625,True
1599560776.1138444,0.0,10,0.5,0.5,3.7976822341918943,-0.1005,-0.001,-0.5,0.061898546970036335,10,1,100,-0.07964805123597724,-10,-1,-100,15028.239757698146,0.005641070341724386,0.006805476502045033,0.9999609311443021,23.868976309067342,0.023514879470930956,-25.818913523964603,9.544144120437636,-134.8070831298828,5356.25390625,True
1599560776.1448233,0.0,10,0.5,0.5,2.882398678588867,-0.1005,-0.001,-0.5,0.054843042728818986,10,1,100,-0.08405770031918922,-10,-1,-100,15028.792492187698,0.0058488311749489656,0.006619347274832661,0.9999609869467618,23.663210983641942,0.023297656952238347,-24.103834900410952,8.987148726178095,-132.028076171875,5356.25390625,True
1599560776.1778185,0.0,10,0.5,0.5,4.271137004089355,-0.1005,-0.001,-0.5,0.07334596652249495,10,1,100,-0.063490957955672,-10,-1,-100,15028.792492187698,0.0058488311749489656,0.006619347274832661,0.9999609869467618,23.663210983641942,0.023297656952238347,-24.103834900410952,8.987148726178095,-132.028076171875,5356.25390625,True
1599560776.2117243,0.0,10,0.5,0.5,2.9509321685791017,-0.1005,-0.001,-0.5,0.05926086022313461,10,1,100,-0.07405676623673837,-10,-1,-100,15029.146006995463,0.005942980877877381,0.0064923008441799416,0.9999612647538073,23.48779015507116,0.023168795720304964,-22.937430664180148,8.615828014662636,-129.83084106445312,5356.25390625,True
1599560776.2474566,0.0,10,0.5,0.5,2.563551388549805,-0.1005,-0.001,-0.5,0.058546447341925587,10,1,100,-0.07109327430213497,-10,-1,-100,15029.486825773492,0.006000165226755297,0.006371229707781798,0.9999617019912623,23.269981480185294,0.023040767956286817,-21.746096902112434,8.244514552315302,-127.35786437988281,5356.25390625,True
1599560776.2773767,0.0,10,0.5,0.5,2.1484159126281743,-0.1005,-0.001,-0.5,0.05574519616090519,10,1,100,-0.06819933596916983,-10,-1,-100,15029.776863700827,0.0060244845618841,0.00623665872422771,0.9999624041301358,22.998092778386763,0.022898375616135242,-20.524748252131733,7.873207849131155,-124.60945892333984,5356.25390625,True
1599560776.311489,0.0,10,0.5,0.5,2.63386081161499,-0.1005,-0.001,-0.5,0.06207907489417132,10,1,100,-0.06573481255257524,-10,-1,-100,15029.919440443395,0.0060230977011779705,0.00617285342772791,0.9999628083957132,22.848466620292108,0.02282661451686895,-19.91070096818786,7.6875567280845045,-123.13180541992188,5356.25390625,True
1599560776.3444088,0.0,10,0.5,0.5,0.4610751380920415,-0.1005,-0.001,-0.5,0.04596261542385561,10,1,100,-0.060263527501554226,-10,-1,-100,15030.40576484648,0.005971263636443454,0.0059692167436249674,0.9999643555957641,22.304579838435345,0.02255662860725245,-18.02941522860925,7.130611020826475,-118.28564453125,5356.25390625,True
1599560776.3812802,0.0,10,0.5,0.5,2.882178154754639,-0.1005,-0.001,-0.5,0.06620896629676763,10,1,100,-0.06553352656769537,-10,-1,-100,15030.40576484648,0.005971263636443454,0.0059692167436249674,0.9999643555957641,22.304579838435345,0.02255662860725245,-18.02941522860925,7.130611020826475,-118.28564453125,5356.25390625,True
1599560776.4112298,0.0,10,0.5,0.5,-1.5333217689514158,-0.1005,-0.001,-0.5,0.03347166250463214,10,1,100,-0.0464976309354545,-10,-1,-100,15030.909663527389,0.0057977398807248825,0.005672488129432225,0.9999671040042751,21.265927687009775,0.021913725394608813,-15.400529576493591,6.388025918191037,-110.93560791015625,5356.25390625,True
1599560776.444437,0.0,10,0.5,0.5,0.9605985542297364,-0.1005,-0.001,-0.5,0.05384525433162443,10,1,100,-0.056897945672986394,-10,-1,-100,15031.04735685559,0.005734226917492561,0.0055891023067056,0.999967939774603,20.953351665092114,0.02169232643149013,-14.733364405423302,6.202379443948704,-108.97297668457031,5356.25390625,True
1599560776.4783971,0.0,10,0.5,0.5,1.9393307563781739,-0.1005,-0.001,-0.5,0.062062199184753045,10,1,100,-0.06325855765379532,-10,-1,-100,15031.04735685559,0.005734226917492561,0.0055891023067056,0.999967939774603,20.953351665092114,0.02169232643149013,-14.733364405423302,6.202379443948704,-108.97297668457031,5356.25390625,True
1599560776.5142956,0.0,10,0.5,0.5,-0.4872955848693845,-0.1005,-0.001,-0.5,0.043318600718123317,10,1,100,-0.04794341269899435,-10,-1,-100,15031.266102051595,0.0055951025126829675,0.005419642543343627,0.9999696606910506,20.3234371580603,0.021225461315854496,-13.435280764989962,5.831083673336735,-104.93580627441406,5356.25390625,True
1599560776.5443757,0.0,10,0.5,0.5,-2.2549287925720214,-0.1005,-0.001,-0.5,0.02865755835481354,10,1,100,-0.033178711089206045,-10,-1,-100,15031.623516420834,0.005334631883369139,0.005133396650376734,0.9999725945952214,19.1642553823856,0.02023219979317243,-11.459251866935778,5.274126161549216,-98.63520812988281,5356.25390625,True
1599560776.5782871,0.0,10,0.5,0.5,0.8922507164001465,-0.1005,-0.001,-0.5,0.05714625723212245,10,1,100,-0.05916493912113804,-10,-1,-100,15031.623516420834,0.005334631883369139,0.005133396650376734,0.9999725945952214,19.1642553823856,0.02023219979317243,-11.459251866935778,5.274126161549216,-98.63520812988281,5356.25390625,True
1599560776.6121957,0.0,10,0.5,0.5,-1.7876231704711913,-0.1005,-0.001,-0.5,0.033992342403347704,10,1,100,-0.03728280083639257,-10,-1,-100,15031.77780798846,0.005136308383819986,0.00492403181834915,0.9999746858030147,18.242053093968238,0.019348479027169557,-10.140049489159624,4.9028078212554025,-94.17725372314453,5356.25390625,True
1599560776.6477532,0.0,10,0.5,0.5,-2.1616674476623534,-0.1005,-0.001,-0.5,0.030615098432909278,10,1,100,-0.03389613072057722,-10,-1,-100,15031.994599005557,0.004926033816066129,0.004704191232143614,0.9999768021187763,17.29749186227573,0.01837801244575355,-8.88691499015551,4.531476527265677,-89.84756469726562,5356.25390625,True
1599560776.677709,0.0,10,0.5,0.5,-1.29147925491333,-0.1005,-0.001,-0.5,0.03889816382530736,10,1,100,-0.041878092622520076,-10,-1,-100,15032.069791402668,0.004808435738930387,0.004580971895701822,0.999977946577941,16.839820451786423,0.01788387158381746,-8.297340252919827,4.3458056805887635,-87.6971435546875,5356.25390625,True
1599560776.712075,0.0,10,0.5,0.5,-2.838305072784424,-0.1005,-0.001,-0.5,0.02333692414649945,10,1,100,-0.02727767445750632,-10,-1,-100,15032.22505897039,0.004569854438122781,0.004328750542627324,0.9999801889783387,17.648087496157768,0.018684258588129884,-7.9526428554661335,3.9744486682954694,-83.3358154296875,5356.25390625,True
1599560776.7469804,0.0,10,0.5,0.5,-4.36148267288208,-0.1005,-0.001,-0.5,0.0036961002250765485,10,1,100,-0.009413207185168096,-10,-1,-100,15032.448682854301,0.004191832106911265,0.0039223967916384795,0.9999835215377283,18.7086419329313,0.019669247360876926,-7.249053175687186,3.4173821782871077,-77.1737060546875,5356.25390625,True
1599560776.7819333,0.0,10,0.5,0.5,-1.283804175567627,-0.1005,-0.001,-0.5,0.04415646619018166,10,1,100,-0.04705484952893834,-10,-1,-100,15032.448682854301,0.004191832106911265,0.0039223967916384795,0.9999835215377283,18.7086419329313,0.019669247360876926,-7.249053175687186,3.4173821782871077,-77.1737060546875,5356.25390625,True
1599560776.8118517,0.0,10,0.5,0.5,-5.655013185882568,-0.1005,-0.001,-0.5,-0.020385931611510567,10,1,100,0.011311911113453602,-10,-1,-100,15032.690858995891,0.0036626273690809575,0.003337162907545884,0.9999877241768939,19.678478121658834,0.020518848690064862,-5.96769696765612,2.674595732704737,-69.89971923828125,5356.25390625,True
1599560776.8457606,0.0,10,0.5,0.5,-2.0219271034240727,-0.1005,-0.001,-0.5,0.03791226285783303,10,1,100,-0.041401402714735976,-10,-1,-100,15032.690858995891,0.0036626273690809575,0.003337162907545884,0.9999877241768939,19.678478121658834,0.020518848690064862,-5.96769696765612,2.674595732704737,-69.89971923828125,5356.25390625,True
1599560776.8786852,0.0,10,0.5,0.5,-4.866993486785889,-0.1005,-0.001,-0.5,-0.014825650906716399,10,1,100,0.004343589246452867,-10,-1,-100,15032.850031128735,0.0032485206013825154,0.0028596204911734324,0.9999906347984209,20.12915320034178,0.020903449537919273,-4.832964128973602,2.11749248750485,-65.167724609375,5356.25390625,True
1599560776.9141688,0.0,10,0.5,0.5,-2.504342920684815,-0.1005,-0.001,-0.5,0.032701213114608406,10,1,100,-0.03685847639519269,-10,-1,-100,15032.850031128735,0.0032485206013825154,0.0028596204911734324,0.9999906347984209,20.12915320034178,0.020903449537919273,-4.832964128973602,2.11749248750485,-65.167724609375,5356.25390625,True
1599560776.9460838,0.0,10,0.5,0.5,-4.194854967498779,-0.1005,-0.001,-0.5,-0.00538285164688769,10,1,100,-0.005409923182307534,-10,-1,-100,15032.937916765339,0.0029645211278853654,0.0025154687898500164,0.999992441987063,20.324622754281734,0.021073147843029973,-4.024015223153939,1.7460823230586962,-62.358123779296875,5356.25390625,True
1599560776.980095,0.0,10,0.5,0.5,-5.0136460571289065,-0.1005,-0.001,-0.5,-0.02679817101157147,10,1,100,0.013121178930564716,-10,-1,-100,15032.972090725321,0.0025398495757308764,0.002010108488084785,0.9999947543002407,20.474842329757013,0.02120790801009534,-2.7603637111638126,1.1889504266168607,-58.6605224609375,5356.25390625,True
1599560777.0130084,0.0,10,0.5,0.5,-4.441112799072266,-0.1005,-0.001,-0.5,-0.015321248238921895,10,1,100,0.0025398481653029527,-10,-1,-100,15033.055095054326,0.0022521477027658437,0.0016574748596350785,0.9999960902962644,20.494529245281633,0.021227713813219078,-1.899863165777905,0.8175150739452945,-56.540374755859375,5356.25390625,True
1599560777.048974,0.0,10,0.5,0.5,-3.9587236083984374,-0.1005,-0.001,-0.5,0.0011689185616523545,10,1,100,-0.010187876382396056,-10,-1,-100,15033.061929430347,0.0021086310305368635,0.0014894671656278994,0.9999966675758173,20.485019683551062,0.021220084095816407,-1.4675833130563913,0.631792384346503,-55.58355712890625,5356.25390625,True
1599560777.07989,0.0,10,0.5,0.5,-3.4830900207519533,-0.1005,-0.001,-0.5,0.01768575962467033,10,1,100,-0.02429342126453548,-10,-1,-100,15033.061929430347,0.0021086310305368635,0.0014894671656278994,0.9999966675758173,20.485019683551062,0.021220084095816407,-1.4675833130563913,0.631792384346503,-55.58355712890625,5356.25390625,True
1599560777.1128082,0.0,10,0.5,0.5,-4.510101391601562,-0.1005,-0.001,-0.5,-0.020692451294758225,10,1,100,0.007851189282765757,-10,-1,-100,15033.023840420297,0.0018183011174490108,0.001142786093293104,0.9999976939078365,20.434906322850924,0.021175617760346224,-0.6032622042992296,0.2603361652242424,-53.87689208984375,5356.25390625,True
1599560777.1458838,0.0,10,0.5,0.5,-4.885791333007813,-0.1005,-0.001,-0.5,-0.045127290548580376,10,1,100,0.027363497374939955,-10,-1,-100,15033.055087568937,0.0013791379692488905,0.0006080134985888571,0.9999988641483786,20.348366672081482,0.021101013138852348,0.6850409961208751,-0.2968772602720504,-51.8341064453125,5356.25390625,True
1599560777.181788,0.0,10,0.5,0.5,-3.8662050720214847,-0.1005,-0.001,-0.5,0.00807705398094861,10,1,100,-0.016324468505088875,-10,-1,-100,15033.055087568937,0.0013791379692488905,0.0006080134985888571,0.9999988641483786,20.348366672081482,0.021101013138852348,0.6850409961208751,-0.2968772602720504,-51.8341064453125,5356.25390625,True
1599560777.2137008,0.0,10,0.5,0.5,-4.924402700805664,-0.1005,-0.001,-0.5,-0.06730747419604274,10,1,100,0.04918863866606274,-10,-1,-100,15032.966218185495,0.0007856401671473594,-7.481934901201235e-05,0.9999996885857478,20.39177465161083,0.021168932387861307,2.4047018910163356,-1.0398712753636314,-50.074920654296875,5356.25390625,True
1599560777.2458012,0.0,10,0.5,0.5,-4.0463190856933595,-0.1005,-0.001,-0.5,0.0006823665800256681,10,1,100,-0.009914853500666843,-10,-1,-100,15032.966218185495,0.0007856401671473594,-7.481934901201235e-05,0.9999996885857478,20.39177465161083,0.021168932387861307,2.4047018910163356,-1.0398712753636314,-50.074920654296875,5356.25390625,True
1599560777.2796676,0.0,10,0.5,0.5,-4.208344097900391,-0.1005,-0.001,-0.5,-0.019512930765041226,10,1,100,0.006829437694130485,-10,-1,-100,15032.974030345445,0.0006356583203166884,-0.00025574528865790643,0.9999997652663959,20.398403178780352,0.021181538710353814,2.8352113782256207,-1.225626422987197,-49.8076171875,5356.25390625,True
1599560777.3156602,0.0,10,0.5,0.5,-4.273133084106446,-0.1005,-0.001,-0.5,-0.0379082499008179,10,1,100,0.025227580303472386,-10,-1,-100,15032.928131707013,0.00033417249293803266,-0.0005849343040444091,0.9999997730902767,20.41045673609437,0.02120519957166873,3.696898679248322,-1.5971442204552395,-49.479248046875,5356.25390625,True
1599560777.349568,0.0,10,0.5,0.5,-4.141350375366211,-0.1005,-0.001,-0.5,-0.043025050525455584,10,1,100,0.02882327831782894,-10,-1,-100,15032.820710228058,2.9411465265824986e-05,-0.0009283542848087275,0.9999995686465508,20.423666092586238,0.02122917805392706,4.5599263535624335,-1.9686711589847852,-49.42681884765625,5356.25390625,True
1599560777.3814802,0.0,10,0.5,0.5,-3.9819587951660154,-0.1005,-0.001,-0.5,-0.044402145082746834,10,1,100,0.03244987455944999,-10,-1,-100,15032.716219437541,-0.00027859240187137334,-0.0012507225549839886,0.9999991790393451,20.443699930012354,0.02125864476991654,5.425948349996399,-2.340206457443626,-49.6497802734375,5356.25390625,True
1599560777.4133961,0.0,10,0.5,0.5,-3.96507419128418,-0.1005,-0.001,-0.5,-0.02947808817195851,10,1,100,0.01887516697072859,-10,-1,-100,15032.660555867944,-0.00043301928170553345,-0.0014056202925719575,0.9999989183623625,20.458470684181613,0.02127736780773109,5.860981512537708,-2.5259769083239423,-49.864532470703125,5356.25390625,True
1599560777.4494333,0.0,10,0.5,0.5,-3.437959722900391,-0.1005,-0.001,-0.5,-0.06364935613273595,10,1,100,0.05519401833520846,-10,-1,-100,15032.491613336024,-0.0009012681391298212,-0.001854452410515179,0.9999978743587401,20.504984629719743,0.021329571202109265,7.170699580837542,-3.0832980152353517,-50.922088623046875,5356.25390625,True
1599560777.481347,0.0,10,0.5,0.5,-3.3368638000488287,-0.1005,-0.001,-0.5,-0.0501369469516872,10,1,100,0.04333792466893226,-10,-1,-100,15032.380287582753,-0.0012166939132252272,-0.0021369167629051115,0.9999969766167645,20.547296715275,0.021368176185792488,8.051640952303515,-3.4548523643513667,-51.97149658203125,5356.25390625,True
1599560777.5132618,0.0,10,0.5,0.5,-3.0661957489013676,-0.1005,-0.001,-0.5,-0.04923509287417901,10,1,100,0.04659368687732892,-10,-1,-100,15032.208415249828,-0.0015306826080405897,-0.0023830084732263447,0.9999959891326414,20.58446682918964,0.021391620402147985,8.934000801838726,-3.826410721805871,-53.295989990234375,5356.25390625,True
1599560777.5462263,0.0,10,0.5,0.5,-3.268556777954102,-0.1005,-0.001,-0.5,-0.038149226134677555,10,1,100,0.03280647754858561,-10,-1,-100,15032.148846321506,-0.0016881433179957168,-0.0025032284922758023,0.9999954419992391,20.59909989784155,0.021394334338876244,9.374589278396996,-4.012190956305296,-54.06158447265625,5356.25390625,True
1599560777.5821793,0.0,10,0.5,0.5,-3.6509553527832033,-0.1005,-0.001,-0.5,-0.02637006514405817,10,1,100,0.017307784901587204,-10,-1,-100,15032.148846321506,-0.0016881433179957168,-0.0025032284922758023,0.9999954419992391,20.59909989784155,0.021394334338876244,9.374589278396996,-4.012190956305296,-54.06158447265625,5356.25390625,True
1599560777.615324,0.0,10,0.5,0.5,-1.3983334960937501,-0.1005,-0.001,-0.5,-0.07270471029686723,10,1,100,0.08670124646510918,-10,-1,-100,15031.796313552884,-0.0023167440744957866,-0.002922244894443827,0.9999930465666599,20.606191651982385,0.021306188892831715,11.115586249108729,-4.755315778272699,-57.812164306640625,5356.25390625,True
1599560777.646824,0.0,10,0.5,0.5,-3.272822958374024,-0.1005,-0.001,-0.5,-0.031069720040643383,10,1,100,0.02413641105458346,-10,-1,-100,15031.796313552884,-0.0023167440744957866,-0.002922244894443827,0.9999930465666599,20.606191651982385,0.021306188892831715,11.115586249108729,-4.755315778272699,-57.812164306640625,5356.25390625,True
1599560777.6787643,0.0,10,0.5,0.5,-1.8977924774169925,-0.1005,-0.001,-0.5,-0.05164952254159829,10,1,100,0.05910695657961812,-10,-1,-100,15031.564871650422,-0.002632248200571162,-0.0031072091802794174,0.9999917082258835,20.562163609841857,0.02117791835817456,11.959003069941808,-5.1268789857497925,-60.1005859375,5356.25390625,True
1599560777.715845,0.0,10,0.5,0.5,-2.291978564453125,-0.1005,-0.001,-0.5,-0.040936100898166426,10,1,100,0.04420703372548032,-10,-1,-100,15031.50335029827,-0.002781196598633126,-0.0031759830116483275,0.9999910889989918,20.523381215782937,0.02108630715835444,12.369249548205985,-5.312660700494621,-61.347808837890625,5356.25390625,True
1599560777.7507927,0.0,10,0.5,0.5,-1.2923298492431643,-0.1005,-0.001,-0.5,-0.049864546818401564,10,1,100,0.06295098142309674,-10,-1,-100,15031.263119342504,-0.003084728663034368,-0.003317922129934325,0.9999897378682517,20.404550275472737,0.020839566853997495,13.158300073027673,-5.6842240845184095,-64.04904174804688,5356.25390625,True
1599560777.779715,0.0,10,0.5,0.5,0.10147873840332045,-0.1005,-0.001,-0.5,-0.053761922383940876,10,1,100,0.08101758148389446,-10,-1,-100,15030.902772889123,-0.003522498077241541,-0.003480649922756169,0.9999877384665329,20.09631638713023,0.02028845288981971,14.231231775234972,-6.241570866710217,-68.61691284179688,5356.25390625,True
1599560777.8137026,0.0,10,0.5,0.5,-2.1806873260498048,-0.1005,-0.001,-0.5,-0.03765176285298059,10,1,100,0.03750276305698831,-10,-1,-100,15030.902772889123,-0.003522498077241541,-0.003480649922756169,0.9999877384665329,20.09631638713023,0.02028845288981971,14.231231775234972,-6.241570866710217,-68.61691284179688,5356.25390625,True
1599560777.8492374,0.0,10,0.5,0.5,0.9085089538574216,-0.1005,-0.001,-0.5,-0.04950553345478621,10,1,100,0.08278176043748736,-10,-1,-100,15030.477973409113,-0.0039320291405515176,-0.00358718989808181,0.99998583550742,19.591684681231364,0.01950085814687882,15.11391129574394,-6.798924382582946,-73.75851440429688,5356.25390625,True
1599560777.8801234,0.0,10,0.5,0.5,-0.6049723815917969,-0.1005,-0.001,-0.5,-0.04148224490583091,10,1,100,0.05608124280209451,-10,-1,-100,15030.356880950509,-0.004059415086391097,-0.0036100107239102034,0.9999852443770006,19.37943814079559,0.019191771430701235,15.359106414507627,-6.984711397042959,-75.51583862304688,5356.25390625,True
1599560777.9130356,0.0,10,0.5,0.5,-0.40011992492675774,-0.1005,-0.001,-0.5,-0.041787766515379854,10,1,100,0.058097155867350675,-10,-1,-100,15030.233835627674,-0.004191391272503593,-0.003632528232721338,0.9999846183706224,19.150424023967958,0.018867819167250884,15.581735482764982,-7.1704999782661,-77.31661987304688,5356.25390625,True
1599560777.9464576,0.0,10,0.5,0.5,1.85817841796875,-0.1005,-0.001,-0.5,-0.041967019441906186,10,1,100,0.08296268436283827,-10,-1,-100,15029.745558663737,-0.004535144202606196,-0.003653601631208568,0.9999830416872989,18.360292635421445,0.017828085938336024,16.10143688642343,-7.727878430824171,-82.57284545898438,5356.25390625,True
1599560777.982468,0.0,10,0.5,0.5,-0.7674583068847657,-0.1005,-0.001,-0.5,-0.0399328152668597,10,1,100,0.04880923136538896,-10,-1,-100,15029.745558663737,-0.004535144202606196,-0.003653601631208568,0.9999830416872989,18.360292635421445,0.017828085938336024,16.10143688642343,-7.727878430824171,-82.57284545898438,5356.25390625,True
1599560778.0133843,0.0,10,0.5,0.5,1.3760216369628906,-0.1005,-0.001,-0.5,-0.038936774637574584,10,1,100,0.07209296657040393,-10,-1,-100,15029.440873825224,-0.004744797795262596,-0.00364388184663619,0.9999821043493577,17.766604326617955,0.01712025732603398,16.330971637560417,-8.099475471329296,-86.13821411132812,5356.25390625,True
1599560778.0470905,0.0,10,0.5,0.5,2.7193272506713866,-0.1005,-0.001,-0.5,-0.034822183361114895,10,1,100,0.08061746133017186,-10,-1,-100,15028.942829525797,-0.0050109668776802205,-0.0035971524193604337,0.9999809751717392,16.876575482201723,0.016176519417137332,16.582037024842553,-8.656887525733525,-91.33952331542969,5356.25390625,True
1599560778.0800767,0.0,10,0.5,0.5,0.12167182006835939,-0.1005,-0.001,-0.5,-0.03953724302946172,10,1,100,0.05422353011631409,-10,-1,-100,15028.942829525797,-0.0050109668776802205,-0.0035971524193604337,0.9999809751717392,16.876575482201723,0.016176519417137332,16.582037024842553,-8.656887525733525,-91.33952331542969,5356.25390625,True
1599560778.1170936,0.0,10,0.5,0.5,4.199592739868164,-0.1005,-0.001,-0.5,-0.027483828712240935,10,1,100,0.08450186030619908,-10,-1,-100,15028.207480765763,-0.005284473299211315,-0.0034873220798498574,0.9999799562624551,18.329590818924252,0.017694372958234988,19.558545187861334,-9.400098265252847,-98.1258544921875,5356.25390625,True
1599560778.155958,0.0,10,0.5,0.5,2.705159734344482,-0.1005,-0.001,-0.5,-0.030193218041209953,10,1,100,0.06911762892182556,-10,-1,-100,15027.833458312438,-0.005391657055998033,-0.003412101063142603,0.9999796435930709,18.997054756625936,0.018492142957317135,21.073624629010574,-9.77169131217116,-101.2828598022461,5356.25390625,True
1599560778.190865,0.0,10,0.5,0.5,2.043767462158203,-0.1005,-0.001,-0.5,-0.03368477306751275,10,1,100,0.06267831314243803,-10,-1,-100,15027.643028745893,-0.005428858365101747,-0.0033755220471565913,0.9999795664651158,19.33777214161952,0.018918698420217817,21.86027649769599,-9.957483744500331,-102.8046646118164,5356.25390625,True
1599560778.2207842,0.0,10,0.5,0.5,3.0011979446411132,-0.1005,-0.001,-0.5,-0.02844310266775038,10,1,100,0.06575231084373799,-10,-1,-100,15027.212365076295,-0.005489262416821896,-0.003294809272490491,0.9999795059049846,19.952441160561538,0.01974194482432239,23.398606525960254,-10.329059016462578,-105.66133117675781,5356.25390625,True
1599560778.2555244,0.0,10,0.5,0.5,1.5758792114257814,-0.1005,-0.001,-0.5,-0.03648285998921842,10,1,100,0.059854890404766166,-10,-1,-100,15027.212365076295,-0.005489262416821896,-0.003294809272490491,0.9999795059049846,19.952441160561538,0.01974194482432239,23.398606525960254,-10.329059016462578,-105.66133117675781,5356.25390625,True
1599560778.2923918,0.0,10,0.5,0.5,4.521127947235108,-0.1005,-0.001,-0.5,-0.01700142693468899,10,1,100,0.06508833809284975,-10,-1,-100,15026.337363955798,-0.005535659331127821,-0.0031180123528677063,0.9999798170336924,20.955936927409883,0.021268648444589675,26.347730041364553,-11.07216990643322,-110.56127166748047,5356.25390625,True
1599560778.3223114,0.0,10,0.5,0.5,2.7062472358703613,-0.1005,-0.001,-0.5,-0.02937169611197414,10,1,100,0.06012300594105725,-10,-1,-100,15026.14595720009,-0.005531789401727347,-0.0030702317723480766,0.9999799862911652,21.19148526957171,0.021650030659910058,27.092045248146977,-11.257938997648447,-111.61421203613281,5356.25390625,True
1599560778.357086,0.0,10,0.5,0.5,3.32312356338501,-0.1005,-0.001,-0.5,-0.0239761582067961,10,1,100,0.057706132999229234,-10,-1,-100,15025.64888563531,-0.005505393670802006,-0.0029782748726093953,0.9999804100677736,21.615928679538523,0.02237631167570112,28.54907880509076,-11.629466637407894,-113.51336669921875,5356.25390625,True
1599560778.3929913,0.0,10,0.5,0.5,3.351115816497803,-0.1005,-0.001,-0.5,-0.022578631925295526,10,1,100,0.05494153357814495,-10,-1,-100,15025.207478161086,-0.005455573378973166,-0.002882578003900613,0.9999809635503859,21.984425385645718,0.02305420381369412,29.965945279853834,-12.000980409830731,-115.13673400878906,5356.25390625,True
1599560778.4268997,0.0,10,0.5,0.5,2.5418118827819827,-0.1005,-0.001,-0.5,-0.032076861354627756,10,1,100,0.05996802341115821,-10,-1,-100,15025.207478161086,-0.005455573378973166,-0.002882578003900613,0.9999809635503859,21.984425385645718,0.02305420381369412,29.965945279853834,-12.000980409830731,-115.13673400878906,5356.25390625,True
1599560778.4644194,0.0,10,0.5,0.5,2.9695198089599613,-0.1005,-0.001,-0.5,-0.02688472448036916,10,1,100,0.05641352328246397,-10,-1,-100,15024.958453854546,-0.005422855553711134,-0.002836026372694135,0.9999812746207085,22.149960630799217,0.023375488015379087,30.66023861653145,-12.186732201395415,-115.84502410888672,5356.25390625,True
1599560778.500323,0.0,10,0.5,0.5,3.3436365898132325,-0.1005,-0.001,-0.5,-0.021147968105947258,10,1,100,0.05068648619656381,-10,-1,-100,15024.456498824875,-0.005340922300642467,-0.002742146464290915,0.9999819774284668,22.447548130616333,0.02398431687662245,32.022220073955054,-12.558225887578109,-117.0548324584961,5356.25390625,True
1599560778.536227,0.0,10,0.5,0.5,3.6965730590820316,-0.1005,-0.001,-0.5,-0.009856437216511343,10,1,100,0.03323665793362329,-10,-1,-100,15023.390088044223,-0.005107848845239998,-0.002554759861837527,0.9999836914081262,22.92778611958952,0.025080206428805946,34.64867407820982,-13.301175946966726,-118.64727783203125,5356.25390625,True
1599560778.5771182,0.0,10,0.5,0.5,3.0375410140991215,-0.1005,-0.001,-0.5,-0.02347588883692458,10,1,100,0.04880330526673764,-10,-1,-100,15023.135203935322,-0.00503777068837503,-0.0025089677490521298,0.9999841628482551,23.026998677773552,0.025331812521652324,35.286182818518824,-13.486906108436663,-118.87310028076172,5356.25390625,True
1599560778.614019,0.0,10,0.5,0.5,3.072997231292725,-0.1005,-0.001,-0.5,-0.018056261694831523,10,1,100,0.039166296932476696,-10,-1,-100,15022.569772034767,-0.004886864553394003,-0.002418783619340412,0.9999851339098195,23.203060739977502,0.025811925986651444,36.5387575006152,-13.858358252290447,-119.11797332763672,5356.25390625,True
1599560778.6449358,0.0,10,0.5,0.5,2.9633600006103515,-0.1005,-0.001,-0.5,-0.02208101539169227,10,1,100,0.04531500033714853,-10,-1,-100,15022.315864478936,-0.004806122096056838,-0.002374183103804085,0.9999856321192757,23.280342915690166,0.026041377518706395,37.15357036660876,-14.044080443695744,-119.13704681396484,5356.25390625,True
1599560778.6848314,0.0,10,0.5,0.5,2.740694983673096,-0.1005,-0.001,-0.5,-0.011833772048580552,10,1,100,0.023025626470962474,-10,-1,-100,15021.43695395498,-0.004530752406271425,-0.0022411566313328296,0.9999872246681889,23.470506966166372,0.02669230714131145,38.948845376249764,-14.601232352822423,-118.78070068359375,5356.25390625,True
1599560778.722729,0.0,10,0.5,0.5,2.5700245361328125,-0.1005,-0.001,-0.5,-0.015459375753747916,10,1,100,0.028174947938458157,-10,-1,-100,15020.867615371011,-0.004328138371621425,-0.002153937212897769,0.9999883138180761,23.56187766531062,0.027097449726034534,40.09918879188229,-14.972655898252693,-118.1985855102539,5356.25390625,True
1599560778.7606282,0.0,10,0.5,0.5,2.861550644683838,-0.1005,-0.001,-0.5,-0.024098883831282794,10,1,100,0.04831862587354011,-10,-1,-100,15020.867615371011,-0.004328138371621425,-0.002153937212897769,0.9999883138180761,23.56187766531062,0.027097449726034534,40.09918879188229,-14.972655898252693,-118.1985855102539,5356.25390625,True
1599560778.8055074,0.0,10,0.5,0.5,1.6661438247680667,-0.1005,-0.001,-0.5,-0.004652646248680569,10,1,100,0.0006474632086431106,-10,-1,-100,15019.600031461567,-0.003895789106492681,-0.001977815635593206,0.999990455490726,23.64990407842208,0.027836795736337128,42.25471346428902,-15.715480688644005,-116.20738983154297,5356.25390625,True
1599560778.8493896,0.0,10,0.5,0.5,2.661848729705811,-0.1005,-0.001,-0.5,-0.022174327742306137,10,1,100,0.04372641129426945,-10,-1,-100,15019.600031461567,-0.003895789106492681,-0.001977815635593206,0.999990455490726,23.64990407842208,0.027836795736337128,42.25471346428902,-15.715480688644005,-116.20738983154297,5356.25390625,True
1599560778.888289,0.0,10,0.5,0.5,1.8157367042541503,-0.1005,-0.001,-0.5,-0.012320591961859417,10,1,100,0.016750607454591483,-10,-1,-100,15018.971122097573,-0.0036519427683567164,-0.0018890164109865095,0.9999915474297849,23.6392096203444,0.028163858461523614,43.238449560752585,-16.086884188181223,-114.7983169555664,5356.25390625,True
1599560778.927185,0.0,10,0.5,0.5,0.3311903549194337,-0.1005,-0.001,-0.5,-0.00076164147981371,10,1,100,-0.013869765319117683,-10,-1,-100,15017.640062287217,-0.0031534326898651067,-0.0017039840479193737,0.9999935761296844,23.480724780092395,0.02868921730027852,44.941761211996955,-16.82968015121287,-111.15325927734375,5356.25390625,True
1599560778.9650803,0.0,10,0.5,0.5,0.8102517555236817,-0.1005,-0.001,-0.5,-0.008511230844743605,10,1,100,0.007370497724814795,-10,-1,-100,15016.940840994357,-0.0028951117517770067,-0.0016069970537339931,0.9999945179291805,23.318940609436883,0.028857530870597583,45.62235210251696,-17.20107593969101,-108.9172592163086,5356.25390625,True
1599560779.0050082,0.0,10,0.5,0.5,1.9272562019348145,-0.1005,-0.001,-0.5,-0.01811973319374985,10,1,100,0.032988325639965,-10,-1,-100,15016.940840994357,-0.0028951117517770067,-0.0016069970537339931,0.9999945179291805,23.318940609436883,0.028857530870597583,45.62235210251696,-17.20107593969101,-108.9172592163086,5356.25390625,True
1599560779.0468981,0.0,10,0.5,0.5,0.4745024574279786,-0.1005,-0.001,-0.5,-0.007153673884297636,10,1,100,0.004704035741035374,-10,-1,-100,15016.246502840426,-0.0026397925279700255,-0.0015080435932531607,0.9999953786392867,23.120567787719366,0.028971413139244073,46.216427355204594,-17.572472081312405,-106.49971771240234,5356.25390625,True
1599560779.085793,0.0,10,0.5,0.5,0.12632725219726582,-0.1005,-0.001,-0.5,-0.005581755824756771,10,1,100,0.0005504860921093646,-10,-1,-100,15015.546305344556,-0.0023718939909444306,-0.0014045831372843515,0.9999962006253355,22.90514996651044,0.029042839927998904,46.7592266557361,-17.94386931230807,-103.90907287597656,5356.25390625,True
1599560779.1216617,0.0,10,0.5,0.5,-0.2808204483032226,-0.1005,-0.001,-0.5,-0.0039310970303982895,10,1,100,-0.0033352261180774403,-10,-1,-100,15014.780678446754,-0.0020949878084788524,-0.00129628270963131,0.9999969653340048,22.62701956190733,0.028998543460818323,47.15340910772735,-18.31526853729426,-101.07646179199219,5356.25390625,True
1599560779.159561,0.0,10,0.5,0.5,-1.6181675407409668,-0.1005,-0.001,-0.5,0.0037811061761139336,10,1,100,-0.02015100568656372,-10,-1,-100,15013.703527352773,-0.0016924143288540357,-0.0011284965230723126,0.9999979311125282,22.096200287165807,0.02867715338361952,47.45702345906749,-18.872373529526786,-96.49371337890625,5356.25390625,True
1599560779.1954656,0.0,10,0.5,0.5,-1.1831963272094725,-0.1005,-0.001,-0.5,-8.20907237658302e-05,10,1,100,-0.009938226944850501,-10,-1,-100,15012.93790066673,-0.0014216779941586565,-0.0010120158168265177,0.9999984773266744,21.70634316406116,0.028318238187907775,47.54345957167194,-19.24378007875309,-93.40589904785156,5356.25390625,True
1599560779.233363,0.0,10,0.5,0.5,0.358430689239502,-0.1005,-0.001,-0.5,-0.01163358136646865,10,1,100,0.016887995413454017,-10,-1,-100,15012.93790066673,-0.0014216779941586565,-0.0010120158168265177,0.9999984773266744,21.70634316406116,0.028318238187907775,47.54345957167194,-19.24378007875309,-93.40589904785156,5356.25390625,True
1599560779.273258,0.0,10,0.5,0.5,-1.3982338134765624,-0.1005,-0.001,-0.5,0.0012655947970119808,10,1,100,-0.01215706647662511,-10,-1,-100,15012.173251459957,-0.0011598811688964226,-0.0008956285788119362,0.9999989262619849,21.28818444758777,0.02783086093069523,47.53386173651455,-19.615188375690614,-90.48435974121094,5356.25390625,True
1599560779.3111567,0.0,10,0.5,0.5,-3.0893960060119627,-0.1005,-0.001,-0.5,0.016725796394562578,10,1,100,-0.04407601345638219,-10,-1,-100,15010.518952791113,-0.0006339773202961096,-0.0006501777913956517,0.9999995876707134,21.856160838527614,0.02841674659288635,50.66399007641549,-20.357981121115337,-85.23956298828125,5356.25390625,True
1599560779.349087,0.0,10,0.5,0.5,-1.9468138679504396,-0.1005,-0.001,-0.5,0.005623735581065942,10,1,100,-0.01923349452630434,-10,-1,-100,15009.688874050044,-0.00038401440763250453,-0.0005289265431912933,0.9999997863848005,22.50642949732832,0.0290604639313138,53.130456229939725,-20.729346576876516,-82.77957153320312,5356.25390625,True
1599560779.3949635,0.0,10,0.5,0.5,-0.7194319091796876,-0.1005,-0.001,-0.5,-0.006393582188315637,10,1,100,0.005511687005641716,-10,-1,-100,15009.688874050044,-0.00038401440763250453,-0.0005289265431912933,0.9999997863848005,22.50642949732832,0.0290604639313138,53.130456229939725,-20.729346576876516,-82.77957153320312,5356.25390625,True
1599560779.4328296,0.0,10,0.5,0.5,-3.211624703216553,-0.1005,-0.001,-0.5,0.019460518327832098,10,1,100,-0.04690173256681561,-10,-1,-100,15008.029694149154,9.018840907697618e-05,-0.00029486932987226173,0.9999999524590636,23.630144216301424,0.029912789396786616,57.7980372624136,-21.47201097800113,-78.63372802734375,5356.25390625,True
1599560779.4707296,0.0,10,0.5,0.5,-1.668118226623535,-0.1005,-0.001,-0.5,0.00291013339596058,10,1,100,-0.012811225719067799,-10,-1,-100,15007.583404809353,0.0002088863793451176,-0.0002336509755659568,0.9999999508868499,23.867545668188637,0.030036629968609785,58.887664448939994,-21.657663887293815,-77.75674438476562,5356.25390625,True
1599560779.7462175,0.0,10,0.5,0.5,-1.2322416381835937,-0.1005,-0.001,-0.5,-0.003094608818498073,10,1,100,-0.0011995067292826114,-10,-1,-100,15007.583404809353,0.0002088863793451176,-0.0002336509755659568,0.9999999508868499,23.867545668188637,0.030036629968609785,58.887664448939994,-21.657663887293815,-77.75674438476562,5356.25390625,True
1599560779.7791588,0.0,10,0.5,0.5,-2.1870023818969724,-0.1005,-0.001,-0.5,0.00927254610488897,10,1,100,-0.02560427763123621,-10,-1,-100,15006.690826735226,0.00042865350191940125,-0.00012218832329340674,0.9999999006630894,24.301837933176255,0.030202660967141283,60.99584030058385,-22.028954669211405,-76.17068481445312,5356.25390625,True
1599560779.8160686,0.0,10,0.5,0.5,-2.190465226745606,-0.1005,-0.001,-0.5,0.010742050858390546,10,1,100,-0.02792911490531362,-10,-1,-100,15005.799225934548,0.0006476484359960234,-8.414330922691357e-06,0.9999997902403291,24.68323505608997,0.03026961276069231,63.00636043697313,-22.40022640323473,-74.84768676757812,5356.25390625,True
1599560779.9038246,0.0,10,0.5,0.5,-2.16089987487793,-0.1005,-0.001,-0.5,0.011956511121106215,10,1,100,-0.029845308644223932,-10,-1,-100,15004.902741886443,0.0008622734769374511,0.00010514475408818887,0.9999996227144445,25.012634827211052,0.030247543461168726,64.91480979703876,-22.771480320131587,-73.79843139648438,5356.25390625,True
1599560779.9347403,0.0,10,0.5,0.5,-2.102792109680176,-0.1005,-0.001,-0.5,0.012130425731448492,10,1,100,-0.030609254690113646,-10,-1,-100,15004.004304894828,0.0010622557950549318,0.00020894572730945096,0.9999994139769828,25.294099679473053,0.030148659509543336,66.72527481382762,-23.1427178705441,-73.02481079101562,5356.25390625,True
1599560779.96672,0.0,10,0.5,0.5,-2.0166766296386722,-0.1005,-0.001,-0.5,0.013006979102314443,10,1,100,-0.03219138823037948,-10,-1,-100,15003.049227540614,0.0012564208101060116,0.00031027475696745115,0.9999991625678109,25.531229382455805,0.029982886894594902,68.4412947968513,-23.513940619390052,-72.5269775390625,5356.25390625,True
1599560779.9936347,0.0,10,0.5,0.5,-1.9068596466064456,-0.1005,-0.001,-0.5,0.018289890612220368,10,1,100,-0.04290154674177086,-10,-1,-100,15001.637119101011,0.001528580993773822,0.00044954538624808417,0.9999987306737399,25.80962947090668,0.029624966550436203,70.84188730810979,-24.070749692047016,-72.29745483398438,5356.25390625,True
1599560780.0265129,0.0,10,0.5,0.5,-1.7931465057373048,-0.1005,-0.001,-0.5,0.0044606748771010025,10,1,100,-0.015876787915130454,-10,-1,-100,15001.637119101011,0.001528580993773822,0.00044954538624808417,0.9999987306737399,25.80962947090668,0.029624966550436203,70.84188730810979,-24.070749692047016,-72.29745483398438,5356.25390625,True
1599560780.0536854,0.0,10,0.5,0.5,-1.5592945404052736,-0.1005,-0.001,-0.5,0.0178158286076904,10,1,100,-0.043077248551009535,-10,-1,-100,15000.167394099408,0.0017741191855532624,0.0005700663547721338,0.9999982637612261,25.99888009650995,0.029150370875265546,73.02871067400562,-24.62753292887996,-72.68862915039062,5356.25390625,True
1599560780.0856264,0.0,10,0.5,0.5,-1.755476208496094,-0.1005,-0.001,-0.5,0.0058502253237498756,10,1,100,-0.01869182245071312,-10,-1,-100,15000.167394099408,0.0017741191855532624,0.0005700663547721338,0.9999982637612261,25.99888009650995,0.029150370875265546,73.02871067400562,-24.62753292887996,-72.68862915039062,5356.25390625,True
1599560780.1165516,0.0,10,0.5,0.5,-1.1483909332275393,-0.1005,-0.001,-0.5,0.017221456885708804,10,1,100,-0.04298194000541449,-10,-1,-100,14998.632238860126,0.001993515497135813,0.0006727105350350894,0.9999977866758,26.097896731785248,0.0285696736878014,74.98159372837948,-25.184295271021288,-73.700439453125,5356.25390625,True
1599560780.1488264,0.0,10,0.5,0.5,-1.6547017150878909,-0.1005,-0.001,-0.5,0.007047675010473347,10,1,100,-0.02122077175893851,-10,-1,-100,14998.632238860126,0.001993515497135813,0.0006727105350350894,0.9999977866758,26.097896731785248,0.0285696736878014,74.98159372837948,-25.184295271021288,-73.700439453125,5356.25390625,True
1599560780.1857214,0.0,10,0.5,0.5,-0.6747013946533205,-0.1005,-0.001,-0.5,0.01622940306051506,10,1,100,-0.04227500826126612,-10,-1,-100,14997.095130851725,0.00218349504534314,0.0007554581547097155,0.9999973308126193,26.099987848738394,0.02789158093557415,76.66360024103392,-25.741041501625403,-75.33282470703125,5356.25390625,True
1599560780.2166474,0.0,10,0.5,0.5,-1.4908455078125,-0.1005,-0.001,-0.5,0.008031028341615697,10,1,100,-0.023430638101468133,-10,-1,-100,14997.095130851725,0.00218349504534314,0.0007554581547097155,0.9999973308126193,26.099987848738394,0.02789158093557415,76.66360024103392,-25.741041501625403,-75.33282470703125,5356.25390625,True
1599560780.2485614,0.0,10,0.5,0.5,-0.6301855377197265,-0.1005,-0.001,-0.5,0.01312098178932498,10,1,100,-0.0358446750645032,-10,-1,-100,14996.068764558528,0.0022951488163085445,0.0008011392647792349,0.9999970452295293,26.041820908797042,0.027390984695383584,77.60824475594377,-26.112199265583897,-76.76580810546875,5356.25390625,True
1599560780.28287,0.0,10,0.5,0.5,-0.3476750091552736,-0.1005,-0.001,-0.5,0.012391518076748584,10,1,100,-0.035130022519313485,-10,-1,-100,14995.039468244882,0.0023890345913015025,0.0008354977006031309,0.9999967972235281,25.932737206917203,0.02685961384069486,78.39453557502621,-26.483354013953694,-78.42880249023438,5356.25390625,True
1599560780.3187747,0.0,10,0.5,0.5,-0.03659111328125009,-0.1005,-0.001,-0.5,0.012529922155928457,10,1,100,-0.03552189350310757,-10,-1,-100,14993.948648331803,0.0024769181104375964,0.0008675133857595482,0.9999965561426699,25.7754161357333,0.026312031063121025,79.02415059765157,-26.854506967616675,-80.33053588867188,5356.25390625,True
1599560780.3496552,0.0,10,0.5,0.5,-0.3643651214599609,-0.1005,-0.001,-0.5,0.010645084768330584,10,1,100,-0.03075065830968947,-10,-1,-100,14993.43400030001,0.002512575228696914,0.0008791036978331183,0.9999964570649282,25.674322100489224,0.026032244432987104,79.2648542022979,-27.040083188167632,-81.3668212890625,5356.25390625,True
1599560780.3836014,0.0,10,0.5,0.5,1.0908239044189454,-0.1005,-0.001,-0.5,0.01246494967365338,10,1,100,-0.037162146659639086,-10,-1,-100,14991.768962062662,0.002602382508264087,0.0009057940640287666,0.9999962035639904,25.297464231090142,0.025207866911128324,79.72991389985437,-27.596812984241758,-84.65145874023438,5356.25390625,True
1599560780.416497,0.0,10,0.5,0.5,0.8050597229003906,-0.1005,-0.001,-0.5,0.011065019349671409,10,1,100,-0.03297503690048459,-10,-1,-100,14990.621501327143,0.002645207888857648,0.0009170261869801956,0.999996080961419,25.00396093317574,0.024705707706879455,79.87867260789275,-27.967967660213414,-86.90850830078125,5356.25390625,True
1599560780.4526067,0.0,10,0.5,0.5,0.9696879943847656,-0.1005,-0.001,-0.5,0.010540610869812247,10,1,100,-0.031623935618099584,-10,-1,-100,14989.52482198726,0.0026710654152816544,0.0009221544399989495,0.9999960075123981,24.688765692863946,0.024264995069293232,79.93252302378049,-28.33912368179628,-89.05960083007812,5356.25390625,True
1599560780.4827557,0.0,10,0.5,0.5,0.4917977783203125,-0.1005,-0.001,-0.5,0.010189209389468545,10,1,100,-0.03003919062665371,-10,-1,-100,14988.944743939559,0.0026795495303647467,0.0009233951620992705,0.999995983669779,24.539587221750697,0.02408428740940968,79.97691958120879,-28.52470177110625,-90.05230712890625,5356.25390625,True
1599560780.516844,0.0,10,0.5,0.5,1.0853348777770997,-0.1005,-0.001,-0.5,0.009964472929164955,10,1,100,-0.029829262228436015,-10,-1,-100,14987.790447048843,0.0026847302549717345,0.0009222521374358349,0.9999959708291095,24.615778783330377,0.024149833174451036,81.28363259450673,-28.895853157527817,-91.86455535888672,5356.25390625,True
1599560780.5497525,0.0,10,0.5,0.5,0.1808639358520508,-0.1005,-0.001,-0.5,0.010095454793781126,10,1,100,-0.029361313288700102,-10,-1,-100,14987.790447048843,0.0026847302549717345,0.0009222521374358349,0.9999959708291095,24.615778783330377,0.024149833174451036,81.28363259450673,-28.895853157527817,-91.86455535888672,5356.25390625,True
