Timestamp,Input Throttle,horizon,dT,dt,Input Roll,Roll P,Roll I,Roll D,Input Pitch,Pitch P,Pitch I,Pitch D,Input Yaw,Yaw P,Yaw I,Yaw D,Altitude,Direction X,Direction Y,Direction Z,Drag X,Drag Y,Drag Z,Vertical Velocity,Roll,Mass,Has Fuel
1599562292.750245,0.0,10,0.5,0.5,-8.745795570373534,-0.15025,-0.0155,-0.001,-0.0002779286369471916,10,1,100,0.17487506588009766,-10,-1,-100,14994.947056190227,-0.016807444944885702,-7.382430635444209e-05,0.9998587421953145,28.50858798207899,0.027124023241090485,-85.88483237828413,26.637681175786188,-31.791717529296875,5356.25390625,True
1599562292.7881472,0.0,10,0.5,0.5,-8.836294226074218,-0.15025,-0.0155,-0.001,0.00010812040059603862,10,1,100,0.18178001399523924,-10,-1,-100,14996.568155297777,-0.016916761490812008,-6.606298003829751e-05,0.999856899169249,28.291181758296734,0.027608384192809976,-83.44960792348157,26.079813966386666,-31.789886474609375,5356.25390625,True
1599562292.8280373,0.0,10,0.5,0.5,-8.90558549194336,-0.15025,-0.0155,-0.001,0.007099722025462882,10,1,100,0.17667073426755914,-10,-1,-100,14997.590618785704,-0.01695431329731991,4.61284318429459e-06,0.9998562652898355,28.149892648008553,0.027926515524725085,-81.85192905120209,25.70792201470229,-31.92828369140625,5356.25390625,True
1599562292.8675954,0.0,10,0.5,0.5,-8.936431460571288,-0.15025,-0.0155,-0.001,0.00982800832542524,10,1,100,0.17783177497805835,-10,-1,-100,14998.612104843254,-0.016983593206697706,9.366200080159586e-05,0.9998557639925967,28.026119217902963,0.02825061230905502,-80.31628228064412,25.33604462637485,-32.32037353515625,5356.25390625,True
1599562292.9075422,0.0,10,0.5,0.5,-8.981218464660644,-0.15025,-0.0155,-0.001,0.007493930445058977,10,1,100,0.17708975640846836,-10,-1,-100,14999.090620093048,-0.01698802605258425,0.00015331174335872044,0.9998556813192322,27.97200813255417,0.028414310910759424,-79.57446131260252,25.15011117812991,-32.617950439453125,5356.25390625,True
1599562292.9499846,0.0,10,0.5,0.5,-8.949363133239746,-0.15025,-0.0155,-0.001,0.019055199172030697,10,1,100,0.1766928666425813,-10,-1,-100,15000.110150623252,-0.01697300416365251,0.0003125018507073414,0.999855899353629,27.87814026836028,0.028739808994385243,-78.13782873011777,24.778254050515688,-33.4185791015625,5356.25390625,True
1599562292.9928358,0.0,10,0.5,0.5,-8.875241673278808,-0.15025,-0.0155,-0.001,0.02632363035560596,10,1,100,0.1746297325461588,-10,-1,-100,15001.067180184531,-0.016925162132689225,0.000523012684647038,0.9998566223936881,27.801078083838995,0.0290544216485825,-76.75541508304369,24.406409396519066,-34.4937744140625,5356.25390625,True
1599562293.0337267,0.0,10,0.5,0.5,-8.758158479309081,-0.15025,-0.0155,-0.001,0.033803394985523934,10,1,100,0.1717543403249144,-10,-1,-100,15002.02323188691,-0.016840142936954298,0.0007819085642417918,0.9998578890046627,27.73642023059541,0.029345339966387215,-75.41312849276912,24.034576391689612,-35.84381103515625,5356.25390625,True
1599562293.0707202,0.0,10,0.5,0.5,-8.72576658782959,-0.15025,-0.0155,-0.001,0.024168763718984965,10,1,100,0.17569479996759121,-10,-1,-100,15002.504675591597,-0.01678336589854965,0.0009289700718464486,0.9998587178415363,27.706975127598007,0.029477127030937675,-74.75177387640821,23.84866418311065,-36.62188720703125,5356.25390625,True
1599562293.1055925,0.0,10,0.5,0.5,-8.393864822387695,-0.15025,-0.0155,-0.001,0.06516043273779658,10,1,100,0.15736929574802921,-10,-1,-100,15003.939236541628,-0.01654989731082345,0.0014344693697745635,0.9998620120779809,27.620588261811363,0.029791662350383337,-72.7801496953955,23.29094402507221,-39.368438720703125,5356.25390625,True
1599562293.1464827,0.0,10,0.5,0.5,-8.146174163818358,-0.15025,-0.0155,-0.001,0.05765385318219892,10,1,100,0.15931915920485856,-10,-1,-100,15004.832783904276,-0.016340333810397335,0.0018244684906858033,0.9998648232664711,27.55430353850023,0.02990851456969977,-71.44914981921079,22.91914469150413,-41.5430908203125,5356.25390625,True
1599562293.1854126,0.0,10,0.5,0.5,-7.762706767272949,-0.15025,-0.0155,-0.001,0.06410987349542963,10,1,100,0.1512424491892732,-10,-1,-100,15005.730236114585,-0.01607682154726326,0.0022359785190917184,0.9998682594267104,27.470215227917507,0.0299257525381143,-70.07824242063104,22.547357495044075,-43.99285888671875,5356.25390625,True
1599562293.2302604,0.0,10,0.5,0.5,-7.746241928100586,-0.15025,-0.0155,-0.001,0.023189074804751117,10,1,100,0.17750968150832575,-10,-1,-100,15005.730236114585,-0.01607682154726326,0.0022359785190917184,0.9998682594267104,27.470215227917507,0.0299257525381143,-70.07824242063104,22.547357495044075,-43.99285888671875,5356.25390625,True
1599562293.27115,0.0,10,0.5,0.5,-7.3154215896606445,-0.15025,-0.0155,-0.001,0.07249592178139964,10,1,100,0.14318308903840404,-10,-1,-100,15006.625734140864,-0.015765559335491296,0.002682194068264971,0.9998721183100463,27.357656938852024,0.02982104426425875,-68.64292514637098,22.175583518588393,-46.717620849609375,5356.25390625,True
1599562293.3100812,0.0,10,0.5,0.5,-6.346788565063476,-0.15025,-0.0155,-0.001,0.13440556166628426,10,1,100,0.0880156973052452,-10,-1,-100,15008.349343097536,-0.014982179248916436,0.003648306264587367,0.9998811050151677,26.998182174275577,0.02916481033042712,-65.47479991902735,21.432083857146498,-52.992279052734375,5356.25390625,True
1599562293.3497977,0.0,10,0.5,0.5,-6.321483013916016,-0.15025,-0.0155,-0.001,0.03814384148616755,10,1,100,0.16615312128236442,-10,-1,-100,15008.349343097536,-0.014982179248916436,0.003648306264587367,0.9998811050151677,26.998182174275577,0.02916481033042712,-65.47479991902735,21.432083857146498,-52.992279052734375,5356.25390625,True
1599562293.3926826,0.0,10,0.5,0.5,-5.175476550292969,-0.15025,-0.0155,-0.001,0.14467955022554863,10,1,100,0.0560682097884648,-10,-1,-100,15010.073925333563,-0.0139832171670762,0.004613780158205486,0.9998915854582987,26.366957816110286,0.027823641487446198,-61.73101637894485,20.688667009092672,-60.36859130859375,5356.25390625,True
1599562293.4325755,0.0,10,0.5,0.5,-5.142746896362305,-0.15025,-0.0155,-0.001,0.04854123761109258,10,1,100,0.15567022347592718,-10,-1,-100,15010.073925333563,-0.0139832171670762,0.004613780158205486,0.9998915854582987,26.366957816110286,0.027823641487446198,-61.73101637894485,20.688667009092672,-60.36859130859375,5356.25390625,True
1599562293.4714715,0.0,10,0.5,0.5,-4.484506016540527,-0.15025,-0.0155,-0.001,0.10605660920171195,10,1,100,0.09067726778462454,-10,-1,-100,15010.839535519015,-0.013394969320582428,0.005133163653034786,0.9998971074204646,25.911511778718996,0.026890881908932775,-59.577515316746144,20.316998890811956,-64.46926879882812,5356.25390625,True
1599562293.50937,0.0,10,0.5,0.5,-3.4367975845336916,-0.15025,-0.0155,-0.001,0.12964167074847435,10,1,100,0.043650510278764404,-10,-1,-100,15012.085607418208,-0.01243576293424206,0.0058159181227763635,0.9999057590076339,25.007771002204755,0.02520454205347054,-55.92595396785239,19.759558896585443,-71.13800048828125,5356.25390625,True
1599562293.550262,0.0,10,0.5,0.5,-3.0371972427368163,-0.15025,-0.0155,-0.001,0.08750614542067746,10,1,100,0.10030296840768341,-10,-1,-100,15012.440091017983,-0.012082519597265154,0.0060495706388769156,0.9999087035401117,24.639297600971442,0.024580836697100764,-54.58519762850646,19.57376403731717,-73.49850463867188,5356.25390625,True
1599562293.5911531,0.0,10,0.5,0.5,-1.8562611389160155,-0.15025,-0.0155,-0.001,0.13118713608881938,10,1,100,0.015374490861636114,-10,-1,-100,15013.620733066695,-0.010993182962515839,0.00665524093036217,0.9999174254389768,23.30349100819519,0.02259716468570867,-50.1599979125657,19.016439785198937,-80.99447631835938,5356.25390625,True
1599562293.9271476,0.0,10,0.5,0.5,-1.4076239715576173,-0.15025,-0.0155,-0.001,0.09142192667299509,10,1,100,0.08206729328055791,-10,-1,-100,15013.975216584397,-0.01061379662435643,0.006840330871194662,0.9999202754193903,22.78744428426113,0.021929768745334297,-48.571477069841556,18.830685408886307,-83.63104248046875,5356.25390625,True
1599562293.965046,0.0,10,0.5,0.5,0.35062942581176765,-0.15025,-0.0155,-0.001,0.1444808972883051,10,1,100,-0.05625611477738135,-10,-1,-100,15015.448820612393,-0.009016380811796525,0.007486762957225107,0.9999313242705617,21.545332274583313,0.02051761122921335,-44.11715201647479,18.087751603139807,-94.86708068847656,5356.25390625,True
1599562294.001948,0.0,10,0.5,0.5,0.8649882709503174,-0.15025,-0.0155,-0.001,0.09457669639371052,10,1,100,0.058220669590088786,-10,-1,-100,15015.801353484043,-0.008611018275104245,0.007616386146493778,0.999933918329773,22.03718874224995,0.02105363698229837,-44.66224364843272,17.902021611181006,-97.8486557006836,5356.25390625,True
1599562294.0440366,0.0,10,0.5,0.5,1.3929243556976318,-0.15025,-0.0155,-0.001,0.09545898702414378,10,1,100,0.05157053738060303,-10,-1,-100,15016.153884938918,-0.008187843095273949,0.00773863888803114,0.9999365343328583,22.543789628716265,0.0216474464061404,-45.21623228866333,17.71628838174914,-100.899169921875,5356.25390625,True
1599562294.0964158,0.0,10,0.5,0.5,3.2938504104614252,-0.15025,-0.0155,-0.001,0.12159124681364109,10,1,100,-0.08392273655127636,-10,-1,-100,15017.561087258742,-0.006577558019823542,0.008083625257857404,0.9999456938920165,24.135206435245546,0.023881508180867563,-46.383037759579615,16.973314273189786,-112.99649810791016,5356.25390625,True
1599562294.1323166,0.0,10,0.5,0.5,3.363326337814331,-0.15025,-0.0155,-0.001,0.08743959434097982,10,1,100,0.07636520507903904,-10,-1,-100,15017.561087258742,-0.006577558019823542,0.008083625257857404,0.9999456938920165,24.135206435245546,0.023881508180867563,-46.383037759579615,16.973314273189786,-112.99649810791016,5356.25390625,True
1599562294.1642697,0.0,10,0.5,0.5,4.7314304409027095,-0.15025,-0.0155,-0.001,0.10341269585269017,10,1,100,-0.053836346498281715,-10,-1,-100,15018.556189514115,-0.005400639968345401,0.008225680866964178,0.9999515844590713,24.87812202542215,0.025138236285822416,-46.244397262877264,16.41604648280081,-121.50248718261719,5356.25390625,True
1599562294.203132,0.0,10,0.5,0.5,5.6176352684021,-0.15025,-0.0155,-0.001,0.09417232682732235,10,1,100,-0.02214984624659587,-10,-1,-100,15019.198758515646,-0.004626041132337178,0.008268007595727057,0.9999551188897624,25.191637865026124,0.02568443687124377,-45.76946650751989,16.044525636781792,-126.83345794677734,5356.25390625,True
1599562294.2390726,0.0,10,0.5,0.5,6.463304907989501,-0.15025,-0.0155,-0.001,0.09269984084525208,10,1,100,-0.02495497058162871,-10,-1,-100,15019.839375606622,-0.0039034589891038625,0.008290871031608171,0.9999580113512054,25.333303309620508,0.02592817884299028,-44.96303614688863,15.673005629325454,-131.88914489746094,5356.25390625,True
1599562294.275974,0.0,10,0.5,0.5,6.915481035614014,-0.15025,-0.0155,-0.001,0.09023960440546538,10,1,100,0.0071472285787942055,-10,-1,-100,15020.129410301335,-0.0035458398154484764,0.008287252641690458,0.999959373406568,25.346380765425746,0.02593932475291145,-44.45402373177495,15.487248113579694,-134.31378173828125,5356.25390625,True
1599562294.3158648,0.0,10,0.5,0.5,8.033361806488035,-0.15025,-0.0155,-0.001,0.08603322625066859,10,1,100,-0.06992447321000364,-10,-1,-100,15021.059089349,-0.0025268499532700244,0.008244239747893177,0.9999628230790848,25.186412151549256,0.025567154000552633,-42.58679600406129,14.92999566605132,-141.17434692382812,5356.25390625,True
1599562294.3547597,0.0,10,0.5,0.5,8.115693363189697,-0.15025,-0.0155,-0.001,0.09047490651806656,10,1,100,0.03116581834073292,-10,-1,-100,15021.059089349,-0.0025268499532700244,0.008244239747893177,0.9999628230790848,25.186412151549256,0.025567154000552633,-42.58679600406129,14.92999566605132,-141.17434692382812,5356.25390625,True
1599562294.398642,0.0,10,0.5,0.5,9.425108938598632,-0.15025,-0.0155,-0.001,0.07770395339057679,10,1,100,-0.10586273654608135,-10,-1,-100,15022.216307359631,-0.0012870353914431005,0.008127451558742662,0.9999661434623982,24.619143943678875,0.024338341728502362,-39.559723424671915,14.187063618829923,-149.35708618164062,5356.25390625,True
1599562294.4395003,0.0,10,0.5,0.5,10.053111598587035,-0.15025,-0.0155,-0.001,0.07767175176101221,10,1,100,-0.04667843312438774,-10,-1,-100,15022.73095232714,-0.0007046285326009855,0.008020523130689563,0.9999675868283638,24.276691402338706,0.02356773170517169,-37.98991548268732,13.815634114660355,-153.03541564941406,5356.25390625,True
1599562294.476438,0.0,10,0.5,0.5,10.644758934402466,-0.15025,-0.0155,-0.001,0.08195130920652807,10,1,100,-0.04696073781998726,-10,-1,-100,15023.308098372654,-0.00017940426784149698,0.0079619642781072,0.9999682869666132,23.87780367079319,0.022714939659345495,-36.3629490876783,13.444230534238343,-156.43716430664062,5356.25390625,True
1599562294.5123417,0.0,10,0.5,0.5,10.950344957733154,-0.15025,-0.0155,-0.001,0.08260554507310393,10,1,100,-0.02335942733544399,-10,-1,-100,15023.534659340978,7.769846503311545e-05,0.007914787157255515,0.9999686745629605,23.67419638990026,0.022282496530617778,-35.55578102748159,13.258538341918213,-158.03488159179688,5356.25390625,True
1599562294.5512013,0.0,10,0.5,0.5,11.470555044937134,-0.15025,-0.0155,-0.001,0.07794715903655616,10,1,100,-0.05141833171139495,-10,-1,-100,15024.05125928775,0.0005604589378960839,0.007829703390785914,0.9999691903406781,23.247899319192257,0.02140940900463323,-33.93923734640304,12.887172573871508,-161.02330017089844,5356.25390625,True
1599562294.5891335,0.0,10,0.5,0.5,11.93910935935974,-0.15025,-0.0155,-0.001,0.07691885870386168,10,1,100,-0.053020663702229756,-10,-1,-100,15024.566883814172,0.0010084795686825159,0.007743366306858308,0.9999695111588139,22.802949682463954,0.02054710141004867,-32.33203464219867,12.515830371444167,-163.73593139648438,5356.25390625,True
1599562294.6280286,0.0,10,0.5,0.5,11.9935955619812,-0.15025,-0.0155,-0.001,0.08550010296773548,10,1,100,-0.008782052693688532,-10,-1,-100,15024.566883814172,0.0010084795686825159,0.007743366306858308,0.9999695111588139,22.802949682463954,0.02054710141004867,-32.33203464219867,12.515830371444167,-163.73593139648438,5356.25390625,True
1599562294.666928,0.0,10,0.5,0.5,12.738309738922117,-0.15025,-0.0155,-0.001,0.07045396259955673,10,1,100,-0.09646195387245395,-10,-1,-100,15025.532704038196,0.0018011041807096684,0.0076070809441700915,0.9999694437047758,21.908375180579487,0.01894942656653478,-29.2233887607036,11.773208203934722,-168.3332977294922,5356.25390625,True
1599562294.7038267,0.0,10,0.5,0.5,12.786442622375487,-0.15025,-0.0155,-0.001,0.08401448169862631,10,1,100,-0.01773418706935451,-10,-1,-100,15025.532704038196,0.0018011041807096684,0.0076070809441700915,0.9999694437047758,21.908375180579487,0.01894942656653478,-29.2233887607036,11.773208203934722,-168.3332977294922,5356.25390625,True
1599562294.7437203,0.0,10,0.5,0.5,13.11366749420166,-0.15025,-0.0155,-0.001,0.07558141017814092,10,1,100,-0.05634981499129603,-10,-1,-100,15025.983876526123,0.002148220839878246,0.007530995892896336,0.999969334153845,21.480854283065515,0.01824401286293965,-27.75086521674796,11.401923102140831,-170.21844482421875,5356.25390625,True
1599562294.7835577,0.0,10,0.5,0.5,13.400110196685791,-0.15025,-0.0155,-0.001,0.07988290590630857,10,1,100,-0.056717864010381196,-10,-1,-100,15026.434072573204,0.0024628772749385017,0.007501580574589898,0.9999688297764144,21.078943593000616,0.01761096377873678,-26.346187470196387,11.03065202304723,-171.8271026611328,5356.25390625,True
1599562294.8334317,0.0,10,0.5,0.5,13.634995961761476,-0.15025,-0.0155,-0.001,0.07662498711199883,10,1,100,-0.05667254684272713,-10,-1,-100,15026.886222489178,0.002745107593772441,0.007445790906166823,0.9999685117952866,20.710550329359922,0.017052417514695717,-25.0156738048389,10.659392460733805,-173.16043090820312,5356.25390625,True
1599562294.874321,0.0,10,0.5,0.5,13.94287429046631,-0.15025,-0.0155,-0.001,0.07878615048285001,10,1,100,-0.08054385604346068,-10,-1,-100,15027.725092367851,0.003215556388967806,0.007415242449357695,0.9999673366548163,20.097017478577257,0.016150295244264937,-22.58574503238296,9.916898999332645,-174.99856567382812,5356.25390625,True
1599562294.916204,0.0,10,0.5,0.5,14.046209087371826,-0.15025,-0.0155,-0.001,0.08234345241488354,10,1,100,-0.05463766388318536,-10,-1,-100,15028.052242742735,0.0034046399461821718,0.00742030725330311,0.9999666731782131,19.86088784425222,0.01579787128917163,-21.485718915962128,9.54566068268118,-175.5037078857422,5356.25390625,True
1599562294.9610608,0.0,10,0.5,0.5,14.095314881896972,-0.15025,-0.0155,-0.001,0.08339063090337662,10,1,100,-0.0450745349669766,-10,-1,-100,15028.275877441745,0.0034865720612468347,0.007434880952152473,0.9999662826118134,19.761725175662644,0.01564359775583683,-20.963161801589788,9.360042625260258,-175.65269470214844,5356.25390625,True
1599562295.0039754,0.0,10,0.5,0.5,14.122851889801025,-0.15025,-0.0155,-0.001,0.08846320186343201,10,1,100,-0.0590971352700112,-10,-1,-100,15028.82763759594,0.003685873883948342,0.007494602980232972,0.9999651220217035,19.542432091246027,0.01525804002258695,-19.49836475239019,8.803190405537904,-175.68582153320312,5356.25390625,True
1599562295.0428414,0.0,10,0.5,0.5,14.092510717010498,-0.15025,-0.0155,-0.001,0.08905210908086336,10,1,100,-0.04969108505001156,-10,-1,-100,15029.153811545577,0.0037791138168449287,0.0075544755834888256,0.9999643234623014,19.461627645990173,0.015055802428436613,-18.599564754406885,8.431954649235777,-175.36297607421875,5356.25390625,True
1599562295.08373,0.0,10,0.5,0.5,14.110855481719971,-0.15025,-0.0155,-0.001,0.0830459596829411,10,1,100,-0.040644155185169145,-10,-1,-100,15029.153811545577,0.0037791138168449287,0.0075544755834888256,0.9999643234623014,19.461627645990173,0.015055802428436613,-18.599564754406885,8.431954649235777,-175.36297607421875,5356.25390625,True
1599562295.1316016,0.0,10,0.5,0.5,13.898852980804442,-0.15025,-0.0155,-0.001,0.10225103853875142,10,1,100,-0.0499588076565107,-10,-1,-100,15029.801276567392,0.0038619942850970017,0.007729115032505902,0.9999626721937955,19.452998706463685,0.014749316783087689,-16.955387487611752,7.689472897115271,-173.88926696777344,5356.25390625,True
1599562295.1728997,0.0,10,0.5,0.5,13.908938442230223,-0.15025,-0.0155,-0.001,0.08479929704587731,10,1,100,-0.041876849841742135,-10,-1,-100,15029.801276567392,0.0038619942850970017,0.007729115032505902,0.9999626721937955,19.452998706463685,0.014749316783087689,-16.955387487611752,7.689472897115271,-173.88926696777344,5356.25390625,True
1599562295.2127945,0.0,10,0.5,0.5,13.524813744354248,-0.15025,-0.0155,-0.001,0.10960919567891778,10,1,100,-0.035920569416619724,-10,-1,-100,15030.388195244945,0.0038062883053729627,0.007954479457224807,0.9999611184570634,19.683891054682896,0.014567458437303202,-15.500888272580855,6.946965559287565,-171.31198120117188,5356.25390625,True
1599562295.2547219,0.0,10,0.5,0.5,13.269105714416503,-0.15025,-0.0155,-0.001,0.10121779364120118,10,1,100,-0.03322367827288293,-10,-1,-100,15030.650891790865,0.003729908030653107,0.008082659007642174,0.9999603784197898,19.868712862767328,0.014502096235455484,-14.810640381037624,6.575698094784502,-169.60958862304688,5356.25390625,True
1599562295.2976105,0.0,10,0.5,0.5,13.120915663909912,-0.15025,-0.0155,-0.001,0.09566895490856492,10,1,100,-0.03462627977168092,-10,-1,-100,15030.75050316879,0.003672327066863328,0.00814816291217811,0.9999600599299308,19.973934010707843,0.014472875810356261,-14.468929746493181,6.390060476318821,-168.6549530029297,5356.25390625,True
1599562295.339494,0.0,10,0.5,0.5,12.616318686676026,-0.15025,-0.0155,-0.001,0.11188718079489293,10,1,100,-0.01578356903820274,-10,-1,-100,15031.112809738726,0.0034482681197701864,0.008354484042120287,0.9999591551875325,20.3291610943963,0.014396664556576767,-13.443264073549313,5.833130870268123,-165.37747192382812,5356.25390625,True
1599562295.3834214,0.0,10,0.5,0.5,12.60390050201416,-0.15025,-0.0155,-0.001,0.0913484854795569,10,1,100,-0.03819382656487572,-10,-1,-100,15031.112809738726,0.0034482681197701864,0.008354484042120287,0.9999591551875325,20.3291610943963,0.014396664556576767,-13.443264073549313,5.833130870268123,-165.37747192382812,5356.25390625,True
1599562295.4332535,0.0,10,0.5,0.5,11.781088759613036,-0.15025,-0.0155,-0.001,0.1215643340507227,10,1,100,0.009559010062388719,-10,-1,-100,15031.571796256816,0.00301418624492367,0.008628337571776369,0.9999582323637466,20.85167468822006,0.014321824967123451,-12.033876424898072,5.090520169349599,-160.04269409179688,5356.25390625,True
1599562295.4701807,0.0,10,0.5,0.5,11.534392380523682,-0.15025,-0.0155,-0.001,0.10212744605997681,10,1,100,-0.01938153260783538,-10,-1,-100,15031.670430554892,0.0028832728262825334,0.008699565676464623,0.9999580012654782,20.98180111793213,0.014307898627782308,-11.667461712819636,4.904861460226143,-158.53668212890625,5356.25390625,True
1599562295.5110788,0.0,10,0.5,0.5,10.763983152770995,-0.15025,-0.0155,-0.001,0.11579167065624885,10,1,100,0.01755679455826577,-10,-1,-100,15031.906759289093,0.0024292720541810916,0.00888749773151735,0.9999575546098739,21.343492309359565,0.0142739177556902,-10.5211211910249,4.34787361406256,-153.6055450439453,5356.25390625,True
1599562295.5509655,0.0,10,0.5,0.5,10.185879701995848,-0.15025,-0.0155,-0.001,0.10988430534829147,10,1,100,0.0105827916658894,-10,-1,-100,15032.103048835183,0.002081171234712897,0.009003429894994735,0.9999573025766738,21.538854887249318,0.014254136633824351,-9.71081777552519,3.9765405075809594,-149.97373962402344,5356.25390625,True
1599562295.5942314,0.0,10,0.5,0.5,10.152442440032958,-0.15025,-0.0155,-0.001,0.09841852048680182,10,1,100,-0.024049207975891666,-10,-1,-100,15032.103048835183,0.002081171234712897,0.009003429894994735,0.9999573025766738,21.538854887249318,0.014254136633824351,-9.71081777552519,3.9765405075809594,-149.97373962402344,5356.25390625,True
1599562295.6361406,0.0,10,0.5,0.5,9.524453820800781,-0.15025,-0.0155,-0.001,0.10757430038641548,10,1,100,0.018054452730062842,-10,-1,-100,15032.237814780441,0.0017000296128863869,0.009085505789661687,0.9999572808294669,21.67444254077342,0.014228845976985054,-8.859582737072357,3.605202184899605,-146.06683349609375,5356.25390625,True
1599562295.6769972,0.0,10,0.5,0.5,8.856669903564452,-0.15025,-0.0155,-0.001,0.10653800163887864,10,1,100,0.025644617427843353,-10,-1,-100,15032.374533417984,0.0012864505127847246,0.009149671135897276,0.9999573133705174,21.72792815625511,0.014185401935509805,-7.966777178234948,3.2338580109622037,-141.88461303710938,5356.25390625,True
1599562295.7199178,0.0,10,0.5,0.5,8.143669351196289,-0.15025,-0.0155,-0.001,0.10549964326322217,10,1,100,0.03394632985548616,-10,-1,-100,15032.511251991498,0.0008372207247299774,0.009197593636216157,0.9999573507569017,21.676243152168375,0.014105320768294132,-7.0352775600180895,2.8625056981066344,-137.42703247070312,5356.25390625,True
1599562295.7638006,0.0,10,0.5,0.5,6.626552439880371,-0.15025,-0.0155,-0.001,0.0979832863059501,10,1,100,0.09479278572255405,-10,-1,-100,15032.654805327184,-0.00012174222107301603,0.009171874999872631,0.9999579300589693,21.208065078883262,0.0137740824110148,-5.097460777660993,2.119765878745257,-127.68705749511719,5356.25390625,True
1599562295.8056796,0.0,10,0.5,0.5,6.5778722724914545,-0.15025,-0.0155,-0.001,0.1006368890360779,10,1,100,-0.0007465078236609747,-10,-1,-100,15032.654805327184,-0.00012174222107301603,0.009171874999872631,0.9999579300589693,21.208065078883262,0.0137740824110148,-5.097460777660993,2.119765878745257,-127.68705749511719,5356.25390625,True
1599562295.84758,0.0,10,0.5,0.5,5.720471512603759,-0.15025,-0.0155,-0.001,0.09335079755047397,10,1,100,0.055219408949356355,-10,-1,-100,15032.72609354544,-0.0006272778186996798,0.009104894721860093,0.9999583528400781,20.742721268428486,0.013476059426179451,-4.112169522544037,1.7483715139371023,-122.404541015625,5356.25390625,True
1599562295.888458,0.0,10,0.5,0.5,3.944719026184082,-0.15025,-0.0155,-0.001,0.07102032841935424,10,1,100,0.11738737364422333,-10,-1,-100,15032.87062139227,-0.0016487085282557799,0.008840566061429349,0.9999595622583457,19.27653538499316,0.01252458981865609,-2.1978777803973473,1.005519681980581,-111.01481628417969,5356.25390625,True
1599562295.9303195,0.0,10,0.5,0.5,3.882449858856201,-0.15025,-0.0155,-0.001,0.09746729450092514,10,1,100,0.01569750082406715,-10,-1,-100,15032.87062139227,-0.0016487085282557799,0.008840566061429349,0.9999595622583457,19.27653538499316,0.01252458981865609,-2.1978777803973473,1.005519681980581,-111.01481628417969,5356.25390625,True
1599562295.9702134,0.0,10,0.5,0.5,2.8927212890624996,-0.15025,-0.0155,-0.001,0.07557430997108636,10,1,100,0.07080550517795921,-10,-1,-100,15032.879408496548,-0.0021459831309434923,0.00864158159449453,0.9999603581262345,18.353806222593285,0.011894902999193577,-1.3196151593610976,0.634061270660045,-104.90762329101562,5356.25390625,True
1599562296.0101063,0.0,10,0.5,0.5,1.8636633110046386,-0.15025,-0.0155,-0.001,0.06972905048757821,10,1,100,0.07279980645865056,-10,-1,-100,15032.887218745542,-0.002612338095606192,0.008407876854976895,0.9999612408970989,17.309385795824856,0.011172792564586847,-0.5154091695266905,0.2625878853428878,-98.525390625,5356.25390625,True
1599562296.0500336,0.0,10,0.5,0.5,-0.2650847961425781,-0.15025,-0.0155,-0.001,0.02871802422601078,10,1,100,0.12847048462930055,-10,-1,-100,15032.903815230704,-0.0035381274020051742,0.00782313190125572,0.9999631394515214,15.519276705391642,0.009986459014161862,0.8453705011403151,-0.48036133522408075,-84.93606567382812,5356.25390625,True
1599562296.089935,0.0,10,0.5,0.5,-0.34624816131591796,-0.15025,-0.0155,-0.001,0.08706628220928767,10,1,100,0.036415369690891486,-10,-1,-100,15032.903815230704,-0.0035381274020051742,0.00782313190125572,0.9999631394515214,15.519276705391642,0.009986459014161862,0.8453705011403151,-0.48036133522408075,-84.93606567382812,5356.25390625,True
1599562296.129813,0.0,10,0.5,0.5,-2.6294804916381835,-0.15025,-0.0155,-0.001,0.012799487738461832,10,1,100,0.12270255802899094,-10,-1,-100,15032.79541144811,-0.004318170406974451,0.007149185169006977,0.999965120669594,18.32796433002265,0.011813009493007334,2.542562395506451,-1.2233064679724188,-70.42391967773438,5356.25390625,True
1599562296.168709,0.0,10,0.5,0.5,-3.8149148605346674,-0.15025,-0.0155,-0.001,0.037146294091993756,10,1,100,0.08420420395744242,-10,-1,-100,15032.739744619466,-0.004672628655267258,0.006759703114237692,0.9999662359076217,19.31386980374888,0.012438142288552367,3.493066607955069,-1.594801431363204,-63.177032470703125,5356.25390625,True
1599562296.2075803,0.0,10,0.5,0.5,-4.976429378509521,-0.15025,-0.0155,-0.001,0.03744762458643557,10,1,100,0.08140043834530943,-10,-1,-100,15032.685054282076,-0.0049652374786647874,0.006410560770656572,0.9999671250233111,20.015059056218846,0.01286798244755064,4.463248080085416,-1.9663159250413418,-56.11077880859375,5356.25390625,True
1599562296.2414894,0.0,10,0.5,0.5,-5.600071295166015,-0.15025,-0.0155,-0.001,0.05143451099021888,10,1,100,0.06798520808970548,-10,-1,-100,15032.598139667185,-0.0051048856837410585,0.0062228224385528705,0.9999676077868994,20.255020410312504,0.013014002742010467,4.943530229253883,-2.1520795112654985,-52.67431640625,5356.25390625,True
1599562296.282379,0.0,10,0.5,0.5,-6.713440817260742,-0.15025,-0.0155,-0.001,0.02937517296064493,10,1,100,0.0817642112025035,-10,-1,-100,15032.539543503546,-0.005353031709503977,0.005854231856629113,0.9999685360154519,20.53896377631788,0.013190795290467457,5.878405091430739,-2.5236165317114927,-46.00506591796875,5356.25390625,True
1599562296.3242688,0.0,10,0.5,0.5,-7.774718762969971,-0.15025,-0.0155,-0.001,0.025814075635052953,10,1,100,0.0806702914047408,-10,-1,-100,15032.423330003861,-0.00556530671368947,0.005489490746651952,0.9999694459594878,20.589564245687384,0.013236983382143009,6.76067611902991,-2.8951629709152265,-39.6104736328125,5356.25390625,True
1599562296.3641949,0.0,10,0.5,0.5,-8.804562463378907,-0.15025,-0.0155,-0.001,0.024059825383053735,10,1,100,0.08000972442581893,-10,-1,-100,15032.305163937504,-0.005748718292062962,0.005145006621940701,0.9999702401296044,20.402678841759197,0.013156417965378144,7.559297295347598,-3.266714087143028,-33.491058349609375,5356.25390625,True
1599562296.4030921,0.0,10,0.5,0.5,-9.356288153076173,-0.15025,-0.0155,-0.001,0.039600408952855985,10,1,100,0.07103573703669784,-10,-1,-100,15032.217270970927,-0.005830599173264018,0.004976295972812815,0.9999706198642395,20.233075340161896,0.013078489977692974,7.922901704999559,-3.4524900026245873,-30.534698486328125,5356.25390625,True
1599562296.442986,0.0,10,0.5,0.5,-10.737691021728516,-0.15025,-0.0155,-0.001,0.0034731713686047064,10,1,100,0.08582937288325987,-10,-1,-100,15032.007308182772,-0.0060365982447085804,0.004497612841823511,0.9999716650787448,19.496536670989283,0.012737931131519392,8.867337000272437,-4.009815786021163,-22.07867431640625,5356.25390625,True
1599562296.482872,0.0,10,0.5,0.5,-11.627230093383789,-0.15025,-0.0155,-0.001,0.018144539658989017,10,1,100,0.07701169767431837,-10,-1,-100,15031.82566624682,-0.00614143810699262,0.00419884563361803,0.9999723258337317,19.025523877204645,0.012544150326647279,9.455236965665886,-4.381365317083679,-16.785675048828125,5356.25390625,True
1599562296.521739,0.0,10,0.5,0.5,-12.486520433044435,-0.15025,-0.0155,-0.001,0.018400495219549798,10,1,100,0.07765770691384616,-10,-1,-100,15031.64695372642,-0.006240253237878375,0.00393286075513418,0.999972795552863,18.427027333326876,0.012267316905505038,9.934763989438439,-4.7529175845221605,-11.767822265625,5356.25390625,True
1599562296.5640035,0.0,10,0.5,0.5,-13.289703085327147,-0.15025,-0.0155,-0.001,0.017395786923600363,10,1,100,0.07644804932299873,-10,-1,-100,15031.40183539514,-0.006317340939829627,0.003684846539652842,0.9999732561970991,17.731301224759306,0.011907470765563468,10.30738647540115,-5.1244770390593235,-7.02545166015625,5356.25390625,True
1599562296.602866,0.0,10,0.5,0.5,-13.715022245788573,-0.15025,-0.0155,-0.001,0.029422573169215434,10,1,100,0.07276168177640856,-10,-1,-100,15031.312967072125,-0.006352413043648524,0.0035715088156068396,0.9999734452340738,17.359022785766285,0.011696799350605976,10.45702203715234,-5.310260531428856,-4.75750732421875,5356.25390625,True
1599562296.6437836,0.0,10,0.5,0.5,-14.124974476623533,-0.15025,-0.0155,-0.001,0.028755988239896172,10,1,100,0.07302350322984691,-10,-1,-100,15031.221170488163,-0.006385415900728795,0.003464995614348526,0.999973609786362,17.02950656742982,0.011501738234578377,10.61764463925286,-5.496047052241682,-2.558349609375,5356.25390625,True
1599562296.6836774,0.0,10,0.5,0.5,-15.426813404846191,-0.15025,-0.0155,-0.001,-0.00075161118341837,10,1,100,0.081773721056186,-10,-1,-100,15030.733863998088,-0.006493801814480316,0.0031024216428328396,0.9999741024236298,17.17827903612014,0.011546436359519059,12.15971849952767,-6.23921912707314,5.5498046875,5356.25390625,True
1599562296.7227774,0.0,10,0.5,0.5,-16.049329067993163,-0.15025,-0.0155,-0.001,0.019668769058380182,10,1,100,0.07585431195809145,-10,-1,-100,15030.486793832737,-0.006537484589630861,0.0029609504074838357,0.9999742467023464,18.045200731685384,0.012003058202888878,13.53478360454964,-6.610810378875684,9.190887451171875,5356.25390625,True
1599562296.7666607,0.0,10,0.5,0.5,-16.121330094909666,-0.15025,-0.0155,-0.001,0.03356303855936377,10,1,100,0.07158325223063108,-10,-1,-100,15030.486793832737,-0.006537484589630861,0.0029609504074838357,0.9999742467023464,18.045200731685384,0.012003058202888878,13.53478360454964,-6.610810378875684,9.190887451171875,5356.25390625,True
1599562296.803561,0.0,10,0.5,0.5,-16.93547024230957,-0.15025,-0.0155,-0.001,0.01554045629326778,10,1,100,0.07955768146613204,-10,-1,-100,15030.028784897411,-0.006609262340592172,0.002799094256168833,0.9999742410295669,19.141757615542524,0.012449930058680777,15.569017815006108,-7.168195277370853,14.13623046875,5356.25390625,True
1599562296.844452,0.0,10,0.5,0.5,-17.446364990234375,-0.15025,-0.0155,-0.001,0.02332912694148405,10,1,100,0.07729885246131904,-10,-1,-100,15029.783668040996,-0.006653272156724765,0.0027247376715177456,0.9999741545531214,19.752871462725285,0.012616832947313254,16.899870215210843,-7.539780939787665,17.088958740234375,5356.25390625,True
1599562296.88492,0.0,10,0.5,0.5,-17.711804664611815,-0.15025,-0.0155,-0.001,0.027637070854679285,10,1,100,0.07524146772082092,-10,-1,-100,15029.628395113046,-0.0066740169701934885,0.0026979156075642645,0.9999740890387391,20.026456391969425,0.012667902031386298,17.5566658781499,-7.725571855238281,18.462066650390625,5356.25390625,True
1599562296.9238157,0.0,10,0.5,0.5,-18.491677609252932,-0.15025,-0.0155,-0.001,0.025927083945650978,10,1,100,0.08444384703423957,-10,-1,-100,15028.951638842002,-0.006776049722684133,0.002659351059366346,0.9999735061500874,20.93694350610569,0.012703309639537341,20.12300684379523,-8.468719041882059,23.26611328125,5356.25390625,True
1599562296.9657397,0.0,10,0.5,0.5,-18.842016788482663,-0.15025,-0.0155,-0.001,0.032062382698206646,10,1,100,0.08018942791227396,-10,-1,-100,15028.581522994908,-0.006829643145217027,0.002681225558478533,0.9999730831397481,21.299668113680795,0.012644993181116322,21.371241226739613,-8.840281178669883,25.255142211914062,5356.25390625,True
1599562297.0046332,0.0,10,0.5,0.5,-18.89006268005371,-0.15025,-0.0155,-0.001,0.029774570688870492,10,1,100,0.07488131587952336,-10,-1,-100,15028.581522994908,-0.006829643145217027,0.002681225558478533,0.9999730831397481,21.299668113680795,0.012644993181116322,21.371241226739613,-8.840281178669883,25.255142211914062,5356.25390625,True
1599562297.0444953,0.0,10,0.5,0.5,-19.413335044860837,-0.15025,-0.0155,-0.001,0.044296596540299917,10,1,100,0.08859052112197756,-10,-1,-100,15027.84129152575,-0.006953838438237912,0.002814053323725281,0.9999718622215659,21.88461848779254,0.012433074005443039,23.807263486925773,-9.583379117435053,28.4072265625,5356.25390625,True
1599562297.0833893,0.0,10,0.5,0.5,-19.458179603576657,-0.15025,-0.0155,-0.001,0.030948725786562815,10,1,100,0.07622783407363996,-10,-1,-100,15027.84129152575,-0.006953838438237912,0.002814053323725281,0.9999718622215659,21.88461848779254,0.012433074005443039,23.807263486925773,-9.583379117435053,28.4072265625,5356.25390625,True
1599562297.1273086,0.0,10,0.5,0.5,-19.669516123962403,-0.15025,-0.0155,-0.001,0.042780524267893014,10,1,100,0.08385230815332875,-10,-1,-100,15027.468246854492,-0.007022733623849848,0.0029218772811183806,0.9999710715043724,22.121773105100807,0.012295110741816696,25.00007272162736,-9.954914664835021,29.57025146484375,5356.25390625,True
1599562297.1669788,0.0,10,0.5,0.5,-19.88575179367065,-0.15025,-0.0155,-0.001,0.05668913038550324,10,1,100,0.0891315711905052,-10,-1,-100,15026.819812262664,-0.007132917775622105,0.003146376455387078,0.9999696104378409,22.425262086108383,0.01206116246319466,26.764843549033163,-10.512201037596782,30.798751831054688,5356.25390625,True
1599562297.2078705,0.0,10,0.5,0.5,-19.989837077331543,-0.15025,-0.0155,-0.001,0.054749990966714,10,1,100,0.08693313569222101,-10,-1,-100,15026.386221538996,-0.007212558106170671,0.003332669504507898,0.9999684356616158,22.59935721117513,0.011890186366091534,27.928078220203922,-10.88371414490096,31.273605346679688,5356.25390625,True
1599562297.247763,0.0,10,0.5,0.5,-20.03622767944336,-0.15025,-0.0155,-0.001,0.047874035464223204,10,1,100,0.08345903160120749,-10,-1,-100,15026.169427074376,-0.007252827191509628,0.0034390330670966006,0.9999677842557195,22.679124398416857,0.011800259295652846,28.506135700775115,-11.069467325523586,31.4078369140625,5356.25390625,True
1599562297.2901611,0.0,10,0.5,0.5,-20.067671597290037,-0.15025,-0.0155,-0.001,0.06373822038520105,10,1,100,0.08835942218011003,-10,-1,-100,15025.735837658867,-0.007333439406139808,0.0036792977183719663,0.999966341150929,22.825205636398387,0.011610610811225282,29.655038473045938,-11.440967342546065,31.469879150390625,5356.25390625,True
1599562297.3320496,0.0,10,0.5,0.5,-20.05553272323608,-0.15025,-0.0155,-0.001,0.06979257776312059,10,1,100,0.08957536251059656,-10,-1,-100,15025.238771329285,-0.007417177765684443,0.00395186757559356,0.9999646834847005,22.954052145032918,0.011405922990079115,30.79338121112337,-11.81245925330148,31.256729125976562,5356.25390625,True
1599562297.372949,0.0,10,0.5,0.5,-19.994262633514406,-0.15025,-0.0155,-0.001,0.07626339276166282,10,1,100,0.09061715087101604,-10,-1,-100,15024.802252765046,-0.007502191506689743,0.004257308930767005,0.9999627955295463,23.065238922781084,0.011182975336559306,31.918401146674455,-12.183943530181208,30.768341064453125,5356.25390625,True
1599562297.413839,0.0,10,0.5,0.5,-19.814478616333005,-0.15025,-0.0155,-0.001,0.10457025300840814,10,1,100,0.09534213181630974,-10,-1,-100,15024.026869900525,-0.007621819690414074,0.004790885180102104,0.999959476820835,23.19493709885267,0.01080601709430929,33.57033029108178,-12.741156764901836,29.51995849609375,5356.25390625,True
1599562297.4557276,0.0,10,0.5,0.5,-19.738593300628658,-0.15025,-0.0155,-0.001,0.07303696538032364,10,1,100,0.08765943362431482,-10,-1,-100,15023.747577183298,-0.007660009713376969,0.004987370374131769,0.9999582243213675,23.226829907043268,0.010666971676060955,34.10810022619495,-12.9268914238358,28.966278076171875,5356.25390625,True
1599562297.4976156,0.0,10,0.5,0.5,-19.541317870330808,-0.15025,-0.0155,-0.001,0.10012378954060722,10,1,100,0.09158941818769148,-10,-1,-100,15023.250514164567,-0.007729813074578353,0.005410261391024581,0.9999554885401215,23.270043283135045,0.010365759416145412,35.15679920457297,-13.29835659864996,27.652587890625,5356.25390625,True
1599562297.8227704,0.0,10,0.5,0.5,-19.301182634735106,-0.15025,-0.0155,-0.001,0.10975586046733925,10,1,100,0.09036042641878415,-10,-1,-100,15022.68899887614,-0.0077813925917383266,0.005879911862018066,0.9999524371518017,23.28126607024632,0.010031226951565584,36.159738270972134,-13.669817769711592,26.06396484375,5356.25390625,True
1599562297.862665,0.0,10,0.5,0.5,-18.858897068023683,-0.15025,-0.0155,-0.001,0.14807782273055942,10,1,100,0.09227693962049657,-10,-1,-100,15021.850144390133,-0.007845016219201244,0.006652559188422418,0.9999470981890818,23.22303722434092,0.009464404623624332,37.545109721519914,-14.22700411771152,23.165191650390625,5356.25390625,True
1599562297.9035532,0.0,10,0.5,0.5,-18.31795782623291,-0.15025,-0.0155,-0.001,0.16717295020444056,10,1,100,0.08713740689301835,-10,-1,-100,15021.009341704892,-0.007855485493514476,0.007525370477886171,0.9999408283227722,23.1112472977494,0.008849051102013077,38.833780730151055,-14.78418843623399,19.647796630859375,5356.25390625,True
1599562297.9609158,0.0,10,0.5,0.5,-18.303455217742922,-0.15025,-0.0155,-0.001,0.08031109135540312,10,1,100,0.08615477220042947,-10,-1,-100,15021.009341704892,-0.007855485493514476,0.007525370477886171,0.9999408283227722,23.1112472977494,0.008849051102013077,38.833780730151055,-14.78418843623399,19.647796630859375,5356.25390625,True
1599562297.9988124,0.0,10,0.5,0.5,-17.43035632095337,-0.15025,-0.0155,-0.001,0.22583340537668362,10,1,100,0.0729666845180962,-10,-1,-100,15019.76132099831,-0.007735045916127806,0.00884458575316073,0.9999309688011119,22.75041904429041,0.007961766690913828,40.15728005360259,-15.52710631812041,13.995758056640625,5356.25390625,True
1599562298.0387044,0.0,10,0.5,0.5,-16.919096506500242,-0.15025,-0.0155,-0.001,0.17300729285208327,10,1,100,0.07517195087209695,-10,-1,-100,15019.138289222261,-0.007645238170349032,0.009558939264064155,0.9999250857006562,22.45382338383205,0.007519657032110284,40.586610794140704,-15.898570928398573,10.757232666015625,5356.25390625,True
1599562298.0792162,0.0,10,0.5,0.5,-16.35916409912109,-0.15025,-0.0155,-0.001,0.18543872032017972,10,1,100,0.062252558869733784,-10,-1,-100,15018.451782195945,-0.007445938419251696,0.010316267185787717,0.9999190630408085,22.065395193159237,0.007105609546362229,40.821247937873466,-16.27004122285166,7.243865966796875,5356.25390625,True
1599562298.1211064,0.0,10,0.5,0.5,-16.326214529418944,-0.15025,-0.0155,-0.001,0.11031182397332556,10,1,100,0.08217690867072361,-10,-1,-100,15018.451782195945,-0.007445938419251696,0.010316267185787717,0.9999190630408085,22.065395193159237,0.007105609546362229,40.821247937873466,-16.27004122285166,7.243865966796875,5356.25390625,True
1599562298.1699758,0.0,10,0.5,0.5,-15.10405928955078,-0.15025,-0.0155,-0.001,0.28631418758778615,10,1,100,0.02486468483302194,-10,-1,-100,15017.144201853545,-0.00692507809461001,0.011911265598641281,0.9999050780175197,20.97306095918884,0.006461666438694295,40.582193357686606,-17.01299927272867,-0.60821533203125,5356.25390625,True
1599562298.2178442,0.0,10,0.5,0.5,-15.066070906066894,-0.15025,-0.0155,-0.001,0.1275067358248807,10,1,100,0.07687722413531381,-10,-1,-100,15017.144201853545,-0.00692507809461001,0.011911265598641281,0.9999050780175197,20.97306095918884,0.006461666438694295,40.582193357686606,-17.01299927272867,-0.60821533203125,5356.25390625,True
1599562298.2736979,0.0,10,0.5,0.5,-14.366063772583008,-0.15025,-0.0155,-0.001,0.22068096963924372,10,1,100,0.04002743713795305,-10,-1,-100,15016.457699147868,-0.006590811608252156,0.012752394084037657,0.9998969635154764,20.86969250194513,0.006470080730255643,41.26914196989932,-17.384480280259254,-4.946746826171875,5356.25390625,True
1599562298.3245625,0.0,10,0.5,0.5,-12.884948348999023,-0.15025,-0.0155,-0.001,0.3228869818941754,10,1,100,-0.030721694637065616,-10,-1,-100,15015.019267877797,-0.0056448414054116524,0.014439954198331906,0.9998798045206523,22.7121534459494,0.007562743550327154,46.84382989151408,-18.127366363322693,-14.45013427734375,5356.25390625,True
1599562298.373434,0.0,10,0.5,0.5,-12.054945054626465,-0.15025,-0.0155,-0.001,0.24642399929913253,10,1,100,-0.0019404793109890975,-10,-1,-100,15014.272222693311,-0.005048516064715335,0.015271902283180915,0.9998706323751074,23.601995432164568,0.008293874854633893,49.68286163771306,-18.49875978239897,-19.6151123046875,5356.25390625,True
1599562298.4218187,0.0,10,0.5,0.5,-11.99925252380371,-0.15025,-0.0155,-0.001,0.16400384399476112,10,1,100,0.05741135781576273,-10,-1,-100,15014.272222693311,-0.005048516064715335,0.015271902283180915,0.9998706323751074,23.601995432164568,0.008293874854633893,49.68286163771306,-18.49875978239897,-19.6151123046875,5356.25390625,True
1599562298.4716837,0.0,10,0.5,0.5,-10.250744486999512,-0.15025,-0.0155,-0.001,0.33454313959935145,10,1,100,-0.10155074310113535,-10,-1,-100,15012.77129601629,-0.003605957846769715,0.01681521721430874,0.9998521118335666,25.086209909236334,0.009838249546796985,54.941175742294874,-19.24143827327694,-30.77313232421875,5356.25390625,True
1599562298.5195584,0.0,10,0.5,0.5,-9.28615544128418,-0.15025,-0.0155,-0.001,0.26302051909419305,10,1,100,-0.048771396929492734,-10,-1,-100,15011.957844502525,-0.0027781072393516827,0.01756077911850428,0.9998419380866747,25.698397198051943,0.010533107165951046,57.375089147142475,-19.612725534928565,-36.76556396484375,5356.25390625,True
1599562298.5684276,0.0,10,0.5,0.5,-9.218487538146972,-0.15025,-0.0155,-0.001,0.18926451266008307,10,1,100,0.03352695071921075,-10,-1,-100,15011.957844502525,-0.0027781072393516827,0.01756077911850428,0.9998419380866747,25.698397198051943,0.010533107165951046,57.375089147142475,-19.612725534928565,-36.76556396484375,5356.25390625,True
1599562298.615302,0.0,10,0.5,0.5,-8.201923236083985,-0.15025,-0.0155,-0.001,0.25505189632483144,10,1,100,-0.06756992531756978,-10,-1,-100,15011.208846361376,-0.0018632882128172233,0.018152260322790433,0.9998334979396367,26.12490181069535,0.011047274652036419,59.438763252856724,-19.983984790932464,-43.03564453125,5356.25390625,True
1599562298.6691597,0.0,10,0.5,0.5,-6.6295441711425775,-0.15025,-0.0155,-0.001,0.28838726485533395,10,1,100,-0.13853052319104917,-10,-1,-100,15009.9881772371,-0.0003916133445782972,0.01898589568320332,0.9998196749434844,26.411297578648494,0.01136892347143773,61.7762817651688,-20.540840043093564,-52.957733154296875,5356.25390625,True
1599562298.7240114,0.0,10,0.5,0.5,-6.0371886810302735,-0.15025,-0.0155,-0.001,0.23223279070089037,10,1,100,-0.049415984941919726,-10,-1,-100,15009.582916175947,0.0001302012199649756,0.01922681930937049,0.999815139146676,26.398421442745768,0.011338088763435014,62.308048544310225,-20.72645424854604,-56.40325927734375,5356.25390625,True
1599562298.7758691,0.0,10,0.5,0.5,-4.327808200073242,-0.15025,-0.0155,-0.001,0.26530074752766236,10,1,100,-0.17166004840782217,-10,-1,-100,15008.302674426348,0.0017094738744083595,0.019739808073665183,0.9998036895692511,25.953388405523988,0.010830379858355178,62.91566709306593,-21.283304067138616,-67.15594482421875,5356.25390625,True
1599562298.8293252,0.0,10,0.5,0.5,-2.5216909576416016,-0.15025,-0.0155,-0.001,0.24921876614851105,10,1,100,-0.1929450549801912,-10,-1,-100,15007.021451678826,0.003331130633212372,0.020053609470495684,0.9997933568072502,24.848832188670826,0.009879109015805626,61.82695425814134,-21.840193129197004,-78.53079223632812,5356.25390625,True
1599562298.8801868,0.0,10,0.5,0.5,-1.2344032455444336,-0.15025,-0.0155,-0.001,0.22450330428324886,10,1,100,-0.1443739285958267,-10,-1,-100,15006.082012610277,0.004355648381323048,0.0201090941276827,0.9997883039226566,23.728936718980204,0.009185504519858414,60.05292574915542,-22.211486590540662,-86.46029663085938,5356.25390625,True
1599562298.9316099,0.0,10,0.5,0.5,-0.52337181930542,-0.15025,-0.0155,-0.001,0.21904357622003023,10,1,100,-0.09769348402844907,-10,-1,-100,15005.67576748901,0.004854111234042013,0.02010550338651027,0.9997860802880296,23.052933830251444,0.008867557797532927,58.83411538550186,-22.39714424216178,-90.52873229980469,5356.25390625,True
1599562298.9824734,0.0,10,0.5,0.5,1.4912593490600585,-0.15025,-0.0155,-0.001,0.20330770181121072,10,1,100,-0.20549902030387263,-10,-1,-100,15004.268554093083,0.006278307223291506,0.019954791489815764,0.9997811706343582,23.188260989864883,0.009160415433271694,60.66475121355351,-22.954118932505313,-103.14878845214844,5356.25390625,True
1599562299.032909,0.0,10,0.5,0.5,1.5908215599060058,-0.15025,-0.0155,-0.001,0.2186928489082119,10,1,100,-0.0640678478859294,-10,-1,-100,15004.268554093083,0.006278307223291506,0.019954791489815764,0.9997811706343582,23.188260989864883,0.009160415433271694,60.66475121355351,-22.954118932505313,-103.14878845214844,5356.25390625,True
1599562299.084773,0.0,10,0.5,0.5,4.314022106933594,-0.15025,-0.0155,-0.001,0.16821709191133083,10,1,100,-0.2447023232312604,-10,-1,-100,15002.388677078998,0.007912205713283021,0.01949374459677929,0.9997786709679028,25.965023117092414,0.011278621579005783,70.1470120256556,-23.696576764151217,-120.47312927246094,5356.25390625,True
1599562299.1349928,0.0,10,0.5,0.5,4.426444492340088,-0.15025,-0.0155,-0.001,0.2145150777628058,10,1,100,-0.08238150552737235,-10,-1,-100,15002.388677078998,0.007912205713283021,0.01949374459677929,0.9997786709679028,25.965023117092414,0.011278621579005783,70.1470120256556,-23.696576764151217,-120.47312927246094,5356.25390625,True
1599562299.1798725,0.0,10,0.5,0.5,7.044186235809327,-0.15025,-0.0155,-0.001,0.14364248116675948,10,1,100,-0.2270861935091834,-10,-1,-100,15000.507813202683,0.00921881606409394,0.018848228732929788,0.9997798546200096,27.418303664476586,0.01266645555285042,76.4150343290054,-24.43885701275166,-136.9869384765625,5356.25390625,True
1599562299.2327313,0.0,10,0.5,0.5,8.34486185531616,-0.15025,-0.0155,-0.001,0.16494889160900217,10,1,100,-0.15563531706325426,-10,-1,-100,14999.507807874354,0.009748353479496626,0.01845521592158724,0.9997821635785099,27.66322963222521,0.012818028390586104,78.27947236820094,-24.80996349257179,-144.83450317382812,5356.25390625,True
1599562299.2816029,0.0,10,0.5,0.5,9.619104023742675,-0.15025,-0.0155,-0.001,0.16916795309373522,10,1,100,-0.14991454423783496,-10,-1,-100,14998.503895472619,0.010169000329395682,0.018136988109671393,0.9997837971754745,27.58139119003258,0.012595299421307297,79.22685708905288,-25.18106870979725,-152.40489196777344,5356.25390625,True
1599562299.3344593,0.0,10,0.5,0.5,9.74366950302124,-0.15025,-0.0155,-0.001,0.20083045228892066,10,1,100,-0.1086958118934281,-10,-1,-100,14998.503895472619,0.010169000329395682,0.018136988109671393,0.9997837971754745,27.58139119003258,0.012595299421307297,79.22685708905288,-25.18106870979725,-152.40489196777344,5356.25390625,True
1599562299.381334,0.0,10,0.5,0.5,11.497460704040526,-0.15025,-0.0155,-0.001,0.14544991118069167,10,1,100,-0.16238434927139295,-10,-1,-100,14996.969704598421,0.010650861696744287,0.017635271028106424,0.9997877556566105,26.93636867351451,0.011776399004295607,79.10270356345089,-25.737750144265185,-163.24314880371094,5356.25390625,True
1599562299.4411738,0.0,10,0.5,0.5,12.646201988220215,-0.15025,-0.0155,-0.001,0.1625956925013338,10,1,100,-0.1383523063477292,-10,-1,-100,14995.905243773013,0.010864721446559329,0.017337284259689178,0.999790666290893,26.220731607955592,0.011100212980483037,78.1240824350872,-26.10889770244742,-170.1229248046875,5356.25390625,True
1599562299.4890442,0.0,10,0.5,0.5,13.761382633209228,-0.15025,-0.0155,-0.001,0.16410528009810793,10,1,100,-0.13340066750165383,-10,-1,-100,14994.837852868135,0.011008660311233666,0.017082627283941283,0.999793475295388,25.325904209323,0.010468761015888681,76.54343080168307,-26.480069082431474,-176.725830078125,5356.25390625,True
1599562299.5389097,0.0,10,0.5,0.5,-39.16166082000733,-0.15025,-0.0155,-0.001,0.15690509138358286,10,1,100,-0.1301791173365618,-10,-1,-100,14993.240186386043,0.011105926683902279,0.016788275739680128,0.9997973855687863,23.837708762774934,0.00984434404961837,73.57929347270266,-27.036866053712746,173.88894653320312,5356.25390625,True
1599562299.5887778,0.0,10,0.5,0.5,-39.24045453262329,-0.15025,-0.0155,-0.001,0.1860235942346848,10,1,100,-0.12093524201576154,-10,-1,-100,14993.240186386043,0.011105926683902279,0.016788275739680128,0.9997973855687863,23.837708762774934,0.00984434404961837,73.57929347270266,-27.036866053712746,173.88894653320312,5356.25390625,True
1599562299.6386464,0.0,10,0.5,0.5,-38.358927778625485,-0.15025,-0.0155,-0.001,0.16628081277889034,10,1,100,-0.11754853591850628,-10,-1,-100,14991.580020618625,0.01107223506395394,0.016611255425406632,0.9998007160448927,25.577947363108176,0.011067778247792927,80.59737012613486,-27.593613916386808,165.0440673828125,5356.25390625,True
1599562299.6855536,0.0,10,0.5,0.5,-37.42996496810913,-0.15025,-0.0155,-0.001,0.17970397560515738,10,1,100,-0.10497028437861194,-10,-1,-100,14989.917905921233,0.010924385823319439,0.016574977064643493,0.9998029445494195,27.067364733992093,0.012571255269939843,87.03333472007101,-28.150263881159493,155.917724609375,5356.25390625,True
1599562299.7329426,0.0,10,0.5,0.5,-36.92314660110473,-0.15025,-0.0155,-0.001,0.18916103990092623,10,1,100,-0.10407217867272676,-10,-1,-100,14988.787044696743,0.010780262307453457,0.016630036640882435,0.9998035946254171,27.88416315124233,0.013590126012574446,90.85659904052464,-28.521309742477353,149.50485229492188,5356.25390625,True
1599562299.7788215,0.0,10,0.5,0.5,-36.374575738525394,-0.15025,-0.0155,-0.001,0.19715613079409777,10,1,100,-0.09816376369646185,-10,-1,-100,14987.658138297498,0.010594589967038378,0.016754432699474582,0.9998035025185444,28.605237145942073,0.014534332713734974,94.43396561655268,-28.892315426071285,142.8191680908203,5356.25390625,True
1599562299.821711,0.0,10,0.5,0.5,-35.78625924758911,-0.15025,-0.0155,-0.001,0.20647114315970158,10,1,100,-0.09329235816515843,-10,-1,-100,14986.466734413174,0.010381124525796781,0.016953458824618566,0.9998023867182263,29.164099622999057,0.015272499706234061,97.530858033148,-29.26328659934176,135.85983276367188,5356.25390625,True
1599562299.8676162,0.0,10,0.5,0.5,-36.24002890625,-0.15025,-0.0155,-0.001,0.18645017771679795,10,1,100,-0.11466011470895819,-10,-1,-100,14986.466734413174,0.010381124525796781,0.016953458824618566,0.9998023867182263,29.164099622999057,0.015272499706234061,97.530858033148,-29.26328659934176,135.85983276367188,5356.25390625,True
1599562299.9137058,0.0,10,0.5,0.5,-34.47425885467529,-0.15025,-0.0155,-0.001,0.2557001747426142,10,1,100,-0.060925202860707454,-10,-1,-100,14984.082960280706,0.009892870542786272,0.017583624081401884,0.9997964529225875,29.533291555147148,0.01571174497223722,101.30223194638775,-30.0051711097161,121.12013244628906,5356.25390625,True
1599562299.957591,0.0,10,0.5,0.5,-34.357218716430665,-0.15025,-0.0155,-0.001,0.21540596231512943,10,1,100,-0.09627736430524658,-10,-1,-100,14983.486285959603,0.00977127007218505,0.017789966620208028,0.9997939984660983,29.447782312375367,0.01558277865977189,101.6417252646739,-30.190640133670936,117.26422119140625,5356.25390625,True
1599562300.0084882,0.0,10,0.5,0.5,-33.61934183349609,-0.15025,-0.0155,-0.001,0.2478679962637521,10,1,100,-0.07990481173956605,-10,-1,-100,14982.292942378204,0.009513007703076887,0.018272017110168123,0.9997877955222134,29.0412742199476,0.01507863917163017,101.48754854088916,-30.56158817110432,109.347412109375,5356.25390625,True
1599562300.0523353,0.0,10,0.5,0.5,-32.28845600814819,-0.15025,-0.0155,-0.001,0.2624309075827199,10,1,100,-0.07860852348793164,-10,-1,-100,14981.038081096369,0.00926788740067354,0.018841286075422018,0.9997795317979623,28.30610045698702,0.01434789582771607,100.13691875858174,-30.932559895136208,101.15724182128906,5356.25390625,True
1599562300.092228,0.0,10,0.5,0.5,-31.54901791305542,-0.15025,-0.0155,-0.001,0.24017650064580293,10,1,100,-0.09064256994420553,-10,-1,-100,14980.44043835206,0.00915612212925774,0.01915462415319382,0.9997746074996625,27.811497629593944,0.01394607373024882,98.98626082256592,-31.118057917273376,96.9595947265625,5356.25390625,True
1599562300.138107,0.0,10,0.5,0.5,-30.146929088592525,-0.15025,-0.0155,-0.001,0.28657081120831274,10,1,100,-0.07830002370894164,-10,-1,-100,14979.187539095408,0.008944054292136157,0.01985893125743847,0.9997627852356437,26.564876777866573,0.013172139610534485,95.69454388986294,-31.48908146114683,88.35955810546875,5356.25390625,True
1599562300.1799932,0.0,10,0.5,0.5,-28.708735624694825,-0.15025,-0.0155,-0.001,0.30368334249911627,10,1,100,-0.08075048280279132,-10,-1,-100,14977.867264619796,0.008775342551543518,0.020651793496492914,0.9997482166968248,25.857462985497296,0.012983929531778083,94.2616995814353,-31.860130272197086,79.48631286621094,5356.25390625,True
1599562300.224874,0.0,10,0.5,0.5,-26.518437071228025,-0.15025,-0.0155,-0.001,0.371564162001806,10,1,100,-0.08181195501817702,-10,-1,-100,14975.952295979601,0.008633440643649997,0.021986019566698125,0.9997210004027451,28.385198106596146,0.015107602582035785,105.31346967146793,-32.416598866538486,65.66387939453125,5356.25390625,True
1599562300.2687573,0.0,10,0.5,0.5,-25.69512676925659,-0.15025,-0.0155,-0.001,0.29223497813709093,10,1,100,-0.09465490286531207,-10,-1,-100,14975.295097974828,0.008622975843560195,0.02247302197096252,0.9997102618114382,29.0664615131612,0.01582880432170031,108.46800900748198,-32.60205546505317,60.9197998046875,5356.25390625,True
1599562300.3096478,0.0,10,0.5,0.5,-22.610214404296872,-0.15025,-0.0155,-0.001,0.47802061895324177,10,1,100,-0.11981300282811194,-10,-1,-100,14972.65851514251,0.008843770705578772,0.024599694015762123,0.9996582629949287,30.889719546083874,0.01800656056956506,117.93651150512646,-33.343752517515604,41.26029968261719,5356.25390625,True
1599562300.3515358,0.0,10,0.5,0.5,-22.483244628143307,-0.15025,-0.0155,-0.001,0.26611803799239603,10,1,100,-0.09757978124423253,-10,-1,-100,14972.65851514251,0.008843770705578772,0.024599694015762123,0.9996582629949287,30.889719546083874,0.01800656056956506,117.93651150512646,-33.343752517515604,41.26029968261719,5356.25390625,True
1599562300.3964164,0.0,10,0.5,0.5,-20.020701988220214,-0.15025,-0.0155,-0.001,0.4549271754498619,10,1,100,-0.15106536787637714,-10,-1,-100,14970.614695847267,0.009330957038450275,0.02630976247452603,0.9996102888822628,31.172852303405584,0.01827569895301062,121.03543877287784,-33.89995685286093,25.79742431640625,5356.25390625,True
1599562300.4389277,0.0,10,0.5,0.5,-17.462390290832516,-0.15025,-0.0155,-0.001,0.4756221850257266,10,1,100,-0.18821332732810098,-10,-1,-100,14968.57382849406,0.010111962711561617,0.02804476134604261,0.9995555210047932,30.223662359681637,0.01731917877478106,119.30971593739906,-34.45619721718376,9.71807861328125,5356.25390625,True
1599562300.4797843,0.0,10,0.5,0.5,-17.3240441696167,-0.15025,-0.0155,-0.001,0.30309957229765616,10,1,100,-0.11017265551781523,-10,-1,-100,14968.57382849406,0.010111962711561617,0.02804476134604261,0.9995555210047932,30.223662359681637,0.01731917877478106,119.30971593739906,-34.45619721718376,9.71807861328125,5356.25390625,True
1599562300.5236661,0.0,10,0.5,0.5,-13.794148221588134,-0.15025,-0.0155,-0.001,0.5394664297237455,10,1,100,-0.2937099053489883,-10,-1,-100,14965.810371629195,0.011779715823380565,0.030185184163306494,0.9994749086155928,27.25388506540513,0.01568924821562075,109.94756277188114,-35.19800638728425,-12.683013916015625,5356.25390625,True
1599562300.5665855,0.0,10,0.5,0.5,-13.646603270721435,-0.15025,-0.0155,-0.001,0.3265272039983683,10,1,100,-0.1271969535365058,-10,-1,-100,14965.810371629195,0.011779715823380565,0.030185184163306494,0.9994749086155928,27.25388506540513,0.01568924821562075,109.94756277188114,-35.19800638728425,-12.683013916015625,5356.25390625,True
1599562300.6054478,0.0,10,0.5,0.5,-9.934989153289793,-0.15025,-0.0155,-0.001,0.5155658945208295,10,1,100,-0.36408443533092294,-10,-1,-100,14962.921918981941,0.01393066051102868,0.03189433021086899,0.9993941606784215,30.793066452495555,0.01938906299049151,126.89377720654821,-35.93967417134911,-36.1871337890625,5356.25390625,True
1599562300.6403544,0.0,10,0.5,0.5,-9.779199430847166,-0.15025,-0.0155,-0.001,0.3457755434360177,10,1,100,-0.14950549836205992,-10,-1,-100,14962.921918981941,0.01393066051102868,0.03189433021086899,0.9993941606784215,30.793066452495555,0.01938906299049151,126.89377720654821,-35.93967417134911,-36.1871337890625,5356.25390625,True
1599562300.6777973,0.0,10,0.5,0.5,-8.706555885314941,-0.15025,-0.0155,-0.001,0.38757874746298016,10,1,100,-0.2148654475701199,-10,-1,-100,14962.202243537176,0.0145200262130407,0.032265351783255763,0.9993738619320977,31.30635113809343,0.02014279534659968,129.6867170154118,-36.125046096312026,-42.2352294921875,5356.25390625,True
1599562300.7196853,0.0,10,0.5,0.5,-6.69156508026123,-0.15025,-0.0155,-0.001,0.40967281373249215,10,1,100,-0.2925102947773186,-10,-1,-100,14960.755076469388,0.015756314507326633,0.032794597151682675,0.9993379072920255,31.866594723560667,0.021131397268636717,133.3871099478815,-36.49575853690719,-54.54034423828125,5356.25390625,True
1599562300.7590556,0.0,10,0.5,0.5,-3.6853633659362792,-0.15025,-0.0155,-0.001,0.4152606054995551,10,1,100,-0.3798788955772081,-10,-1,-100,14958.524737634812,0.01766818883322034,0.033319077499829604,0.9992885840326178,31.528732670757748,0.021097461261082886,134.02174176541632,-37.051812304785,-73.51565551757812,5356.25390625,True
1599562300.800944,0.0,10,0.5,0.5,-0.5622396652221678,-0.15025,-0.0155,-0.001,0.37481544053611593,10,1,100,-0.38701870352220635,-10,-1,-100,14956.29534414981,0.019463141548871295,0.03342026778621912,0.9992518560513889,29.43453504765414,0.019589115921982318,127.03635812870384,-37.60795533843427,-93.1136474609375,5356.25390625,True
1599562300.8418348,0.0,10,0.5,0.5,1.6307814079284668,-0.15025,-0.0155,-0.001,0.35307580710403763,10,1,100,-0.32306946388466895,-10,-1,-100,14954.788553140475,0.02050434894411235,0.03330816182872552,0.9992347762312765,27.82898757835556,0.01885110517169195,121.31656309579782,-37.97878721165918,-106.52394104003906,5356.25390625,True
1599562300.8827996,0.0,10,0.5,0.5,1.7975462448120116,-0.15025,-0.0155,-0.001,0.3648127429016659,10,1,100,-0.21998796298381865,-10,-1,-100,14954.788553140475,0.02050434894411235,0.03330816182872552,0.9992347762312765,27.82898757835556,0.01885110517169195,121.31656309579782,-37.97878721165918,-106.52394104003906,5356.25390625,True
1599562300.92166,0.0,10,0.5,0.5,6.090530041503906,-0.15025,-0.0155,-0.001,0.3102323547976361,10,1,100,-0.40196081300414965,-10,-1,-100,14951.710470948485,0.02214919995681304,0.03280719157279554,0.9992162434240044,31.65562911652317,0.02314607496217065,140.74864301415474,-38.7202245783819,-133.716064453125,5356.25390625,True
