Timestamp,Input Throttle,horizon,dT,dt,Input Roll,Roll P,Roll I,Roll D,Input Pitch,Pitch P,Pitch I,Pitch D,Input Yaw,Yaw P,Yaw I,Yaw D,Altitude,Direction X,Direction Y,Direction Z,Drag X,Drag Y,Drag Z,Vertical Velocity,Roll,Mass,Has Fuel
1599564253.715317,0.0,10,0.5,0.5,-11.641952514648438,-0.2,-0.02275,-0.5,-0.0005180897489461469,10,1,100,0.171556863810707,-10,-1,-100,14994.54764200584,-0.016809103144834733,-7.459951368406987e-05,0.9998587142623597,28.576544767191585,0.02719965335355868,-86.69276706141842,26.82333013668294,-31.79168701171875,5356.25390625,True
1599564253.76319,0.0,10,0.5,0.5,-11.77494100189209,-0.2,-0.02275,-0.5,-0.00022907263665187323,10,1,100,0.17769947060534866,-10,-1,-100,14995.574012111523,-0.016881171588857623,-6.983240048809503e-05,0.9998575004315482,28.431448657412982,0.027525563856924378,-85.05979085527298,26.451406705198913,-31.79046630859375,5356.25390625,True
1599564253.8140512,0.0,10,0.5,0.5,-11.810327896118164,-0.2,-0.02275,-0.5,0.007251611493513351,10,1,100,0.18054064250141424,-10,-1,-100,14997.148236036184,-0.016957170671943703,2.5710421465551295e-06,0.9998562168412977,28.217430209714678,0.028005795967225314,-82.6437701403481,25.893551324261,-31.92822265625,5356.25390625,True
1599564253.8609257,0.0,10,0.5,0.5,-11.736835110473633,-0.2,-0.02275,-0.5,0.009561070229473915,10,1,100,0.1780183190672643,-10,-1,-100,14998.175581385964,-0.01698791492473701,8.938509573938171e-05,0.9998556909658587,28.093451803548508,0.02833135496157767,-81.1020222970516,25.521666223610357,-32.320343017578125,5356.25390625,True
1599564253.9068027,0.0,10,0.5,0.5,-12.064116510772706,-0.2,-0.02275,-0.5,0.0008886033797651943,10,1,100,0.17664268528040739,-10,-1,-100,14998.175581385964,-0.01698791492473701,8.938509573938171e-05,0.9998556909658587,28.093451803548508,0.02833135496157767,-81.1020222970516,25.521666223610357,-32.320343017578125,5356.25390625,True
1599564253.9596634,0.0,10,0.5,0.5,-11.074329429626465,-0.2,-0.02275,-0.5,0.03568991537584802,10,1,100,0.17515660905500866,-10,-1,-100,15000.169720978476,-0.01695896158184726,0.00040567940016218983,0.9998561041701399,27.904575482958787,0.028982738164157053,-78.21521999747026,24.777936579791124,-33.921783447265625,5356.25390625,True
1599564254.0234926,0.0,10,0.5,0.5,-12.002627587127686,-0.2,-0.02275,-0.5,0.004101052873583433,10,1,100,0.17974783950216833,-10,-1,-100,15000.169720978476,-0.01695896158184726,0.00040567940016218983,0.9998561041701399,27.904575482958787,0.028982738164157053,-78.21521999747026,24.777936579791124,-33.921783447265625,5356.25390625,True
1599564254.0723608,0.0,10,0.5,0.5,-10.240154260253906,-0.2,-0.02275,-0.5,0.06052337606190804,10,1,100,0.1628019995710189,-10,-1,-100,15002.101355184219,-0.016789491253762404,0.000918240811510448,0.9998586249151686,27.773516011559913,0.02956334989541943,-75.51708402689874,24.034255112991485,-36.621856689453125,5356.25390625,True
1599564254.1222274,0.0,10,0.5,0.5,-11.71162615737915,-0.2,-0.02275,-0.5,0.009359059008233278,10,1,100,0.18142798150488074,-10,-1,-100,15002.101355184219,-0.016789491253762404,0.000918240811510448,0.9998586249151686,27.773516011559913,0.02956334989541943,-75.51708402689874,24.034255112991485,-36.621856689453125,5356.25390625,True
1599564254.1731102,0.0,10,0.5,0.5,-10.599516511535645,-0.2,-0.02275,-0.5,0.04613341053588325,10,1,100,0.1680613038182203,-10,-1,-100,15003.065217435593,-0.016652712828198434,0.0012517183337513473,0.9998605504552495,27.71642088499715,0.029790070738368462,-74.19874011108786,23.6624313992393,-38.384063720703125,5356.25390625,True
1599564254.2244823,0.0,10,0.5,0.5,-10.171898821258544,-0.2,-0.02275,-0.5,0.0520390696085891,10,1,100,0.1620343560020398,-10,-1,-100,15004.030054422445,-0.016458439540422094,0.001607429601600626,0.9998632586198826,27.655253017345693,0.02994932539367437,-72.87438756355456,23.290618830569187,-40.421417236328125,5356.25390625,True
1599564254.277341,0.0,10,0.5,0.5,-9.552577464294435,-0.2,-0.02275,-0.5,0.06249962463621264,10,1,100,0.1564743721123311,-10,-1,-100,15004.932389885187,-0.016231600937632082,0.0020243703188826527,0.9998662095779682,27.581251068985246,0.03001982101727326,-71.52182877697209,22.918817779745076,-42.733367919921875,5356.25390625,True
1599564254.3287191,0.0,10,0.5,0.5,-8.872668325042726,-0.2,-0.02275,-0.5,0.06889961692285711,10,1,100,0.14780267750504,-10,-1,-100,15005.833747981349,-0.01594714095743963,0.002459685262000017,0.9998698108472399,27.484203104847282,0.02997891132704139,-70.11664474168917,22.547029694470368,-45.32049560546875,5356.25390625,True
1599564254.378584,0.0,10,0.5,0.5,-5.936234717559815,-0.2,-0.02275,-0.5,0.13066245815348398,10,1,100,0.09677185089544094,-10,-1,-100,15007.57591351599,-0.015225542578736049,0.0034146727540034527,0.9998782540205414,27.174350734309865,0.02947678023946007,-67.0450849851763,21.80349824337588,-51.31982421875,5356.25390625,True
1599564254.4289641,0.0,10,0.5,0.5,-8.892675204467775,-0.2,-0.02275,-0.5,0.0354962377189668,10,1,100,0.16875545153119895,-10,-1,-100,15007.57591351599,-0.015225542578736049,0.0034146727540034527,0.9998782540205414,27.174350734309865,0.02947678023946007,-67.0450849851763,21.80349824337588,-51.31982421875,5356.25390625,True
1599564254.479829,0.0,10,0.5,0.5,-6.460739836883544,-0.2,-0.02275,-0.5,0.09098729738106132,10,1,100,0.11989578911953754,-10,-1,-100,15008.478244673111,-0.01478296598621731,0.003916113943969526,0.9998830571462985,26.93544717762577,0.028980486685737855,-65.32519070879478,21.431759728008743,-54.732269287109375,5356.25390625,True
1599564254.5286987,0.0,10,0.5,0.5,-2.7638751075744636,-0.2,-0.02275,-0.5,0.15124379043426142,10,1,100,0.048122872721415924,-10,-1,-100,15010.157904356485,-0.01373012074903156,0.004916564567564315,0.9998936499333667,26.21701641616145,0.027457000264647972,-61.38244830597657,20.688353923366403,-62.383331298828125,5356.25390625,True
1599564254.5765696,0.0,10,0.5,0.5,-6.524656092071533,-0.2,-0.02275,-0.5,0.051649816591522776,10,1,100,0.1530845123567094,-10,-1,-100,15010.157904356485,-0.01373012074903156,0.004916564567564315,0.9998936499333667,26.21701641616145,0.027457000264647972,-61.38244830597657,20.688353923366403,-62.383331298828125,5356.25390625,True
1599564254.6324217,0.0,10,0.5,0.5,-3.4988032539367673,-0.2,-0.02275,-0.5,0.10463940944404523,10,1,100,0.08612395504289436,-10,-1,-100,15010.935233132099,-0.01312416965572845,0.005394653299172652,0.9998993218752723,25.706137088172802,0.02643958139287567,-59.10777254281363,20.316694285343754,-66.62225341796875,5356.25390625,True
1599564254.691264,0.0,10,0.5,0.5,-0.7373211502075199,-0.2,-0.02275,-0.5,0.13184992032801113,10,1,100,0.0369962164865941,-10,-1,-100,15012.130522274412,-0.01213002133093929,0.006072578233682046,0.9999079889550371,24.70333175392316,0.024651709025590746,-55.247577035324156,19.759270958064103,-73.49752807617188,5356.25390625,True
1599564254.7401328,0.0,10,0.5,0.5,-2.394507720947266,-0.2,-0.02275,-0.5,0.08950671141149283,10,1,100,0.09591104804452064,-10,-1,-100,15012.550437225727,-0.01176595104210962,0.00629955276590412,0.9999109350492295,24.297543434866046,0.02400384153840557,-53.83052757370416,19.573482643678695,-75.92691040039062,5356.25390625,True
1599564254.7939894,0.0,10,0.5,0.5,3.7315126373291014,-0.2,-0.02275,-0.5,0.1503088002094055,10,1,100,-0.03304712824735502,-10,-1,-100,15014.104117590003,-0.010266896893700425,0.007054373945028571,0.9999224103081288,22.297636270412415,0.02133433172488777,-47.52976373956654,18.830430979667145,-86.29824829101562,5356.25390625,True
1599564254.8468473,0.0,10,0.5,0.5,-1.35504620513916,-0.2,-0.02275,-0.5,0.07532968265957496,10,1,100,0.11626181618917125,-10,-1,-100,15014.104117590003,-0.010266896893700425,0.007054373945028571,0.9999224103081288,22.297636270412415,0.02133433172488777,-47.52976373956654,18.830430979667145,-86.29824829101562,5356.25390625,True
1599564255.2896647,0.0,10,0.5,0.5,2.62392799911499,-0.2,-0.02275,-0.5,0.11251035145184919,10,1,100,0.025805376812081823,-10,-1,-100,15014.817970311735,-0.009449729484875739,0.007388203035246493,0.9999280559463128,21.1071443300822,0.020082248681262634,-44.10709297775355,18.458962947873346,-91.84931945800781,5356.25390625,True
1599564255.3375373,0.0,10,0.5,0.5,1.8966044025421143,-0.2,-0.02275,-0.5,0.0943871069556288,10,1,100,0.06441909059926912,-10,-1,-100,15015.174407938495,-0.009063134523185782,0.007523314957950561,0.9999306272560403,21.58830771413815,0.020558324047560583,-44.65995260140622,18.273232158336217,-94.64361572265625,5356.25390625,True
1599564255.3874035,0.0,10,0.5,0.5,2.5210205204010014,-0.2,-0.02275,-0.5,0.0951762281932694,10,1,100,0.059304303238205784,-10,-1,-100,15015.531823841739,-0.008670788680235745,0.007649582678747403,0.999933148419685,22.051609697532076,0.02106377604983069,-45.15602540571668,18.087499316822743,-97.39076232910156,5356.25390625,True
1599564255.4407997,0.0,10,0.5,0.5,8.811824695587159,-0.2,-0.02275,-0.5,0.12819099548403695,10,1,100,-0.086351477019033,-10,-1,-100,15016.959532511886,-0.006995523709129888,0.008061111701447167,0.9999430389408047,23.673434223756296,0.02321093501613341,-46.491050445403346,17.344537299532593,-108.20123291015625,5356.25390625,True
1599564255.492661,0.0,10,0.5,0.5,7.038681576538086,-0.2,-0.02275,-0.5,0.10172370028833104,10,1,100,-0.011733518557172598,-10,-1,-100,15017.611864329316,-0.006157022991450477,0.00819175854109155,0.9999474917013829,24.21453139274585,0.024126498536148816,-46.537550059762914,16.973037530977674,-113.24102783203125,5356.25390625,True
1599564255.5391066,0.0,10,0.5,0.5,7.970834099578857,-0.2,-0.02275,-0.5,0.09992111321810015,10,1,100,-0.01440090245347754,-10,-1,-100,15018.322791578015,-0.005377385301555133,0.008291163791062957,0.9999511689729195,24.66400147528196,0.02494263460361876,-46.36612265931715,16.601528153824304,-118.00724029541016,5356.25390625,True
1599564255.5979514,0.0,10,0.5,0.5,5.704628713035583,-0.2,-0.02275,-0.5,0.09027023927014852,10,1,100,0.06278818810063957,-10,-1,-100,15018.322791578015,-0.005377385301555133,0.008291163791062957,0.9999511689729195,24.66400147528196,0.02494263460361876,-46.36612265931715,16.601528153824304,-118.00724029541016,5356.25390625,True
1599564255.6488132,0.0,10,0.5,0.5,11.900933016586304,-0.2,-0.02275,-0.5,0.09893745913180113,10,1,100,-0.10967497046634628,-10,-1,-100,15019.625509050442,-0.0038156771655183377,0.008367939802934907,0.9999577082013134,25.21486128875533,0.02602673985981379,-45.28429280344201,15.858495973737757,-126.71444702148438,5356.25390625,True
1599564255.7026691,0.0,10,0.5,0.5,10.421428428268433,-0.2,-0.02275,-0.5,0.08844142746910579,10,1,100,-0.03796611819946965,-10,-1,-100,15020.213392192265,-0.0030550686750715765,0.00834043735585124,0.999960551051942,25.30957720903723,0.02623828618723133,-44.391491806124215,15.486982816488867,-130.65524291992188,5356.25390625,True
1599564255.7595177,0.0,10,0.5,0.5,8.551942641830445,-0.2,-0.02275,-0.5,0.09132027851855479,10,1,100,0.037373548023343584,-10,-1,-100,15020.213392192265,-0.0030550686750715765,0.00834043735585124,0.999960551051942,25.30957720903723,0.02623828618723133,-44.391491806124215,15.486982816488867,-130.65524291992188,5356.25390625,True
1599564255.8083873,0.0,10,0.5,0.5,12.428620795822143,-0.2,-0.02275,-0.5,0.0869353767824245,10,1,100,-0.07612972113937021,-10,-1,-100,15021.157719228882,-0.002029776981063841,0.008299405464240217,0.999963499271022,25.276176439120427,0.026176683288948847,-42.74048196761956,14.929728975439033,-136.0491943359375,5356.25390625,True
1599564255.8602526,0.0,10,0.5,0.5,10.99441598968506,-0.2,-0.02275,-0.5,0.08769258956952411,10,1,100,-0.011179392334517532,-10,-1,-100,15021.453616393614,-0.0016948965688316619,0.008268159131359289,0.9999643818007719,25.22623717786324,0.026065650537782394,-42.12624797620133,14.743983965206873,-137.70950317382812,5356.25390625,True
1599564255.9081237,0.0,10,0.5,0.5,13.459618056488038,-0.2,-0.02275,-0.5,0.07687437621424363,10,1,100,-0.08363902905900075,-10,-1,-100,15022.271969079622,-0.0007384342583565191,0.00814072884898916,0.9999665910662483,24.988426991764015,0.025513052398847817,-40.15468384966751,14.186772655647504,-142.27719116210938,5356.25390625,True
1599564255.9737349,0.0,10,0.5,0.5,14.041136842727662,-0.2,-0.02275,-0.5,0.07263472081185166,10,1,100,-0.08533840795510768,-10,-1,-100,15023.089349325397,0.0001393146007474199,0.00798589431938526,0.9999681025329565,24.670126513622346,0.02472878293773079,-38.08876559725126,13.62960139918855,-146.2246856689453,5356.25390625,True
1599564256.030554,0.0,10,0.5,0.5,13.754591796875001,-0.2,-0.02275,-0.5,0.07790559902746924,10,1,100,-0.05677755980950873,-10,-1,-100,15023.676261209184,0.0006711378183274855,0.007893121110234658,0.9999686236143452,24.46511506894641,0.02415686978342711,-36.74454112377429,13.258176915480263,-148.5113983154297,5356.25390625,True
1599564256.0774276,0.0,10,0.5,0.5,14.0991553150177,-0.2,-0.02275,-0.5,0.07641037641262555,10,1,100,-0.05915128648939373,-10,-1,-100,15024.139151123818,0.0011699853852085197,0.007795460384899947,0.9999689304831355,24.24458431419184,0.02354034067280346,-35.39485613631458,12.886770600014042,-150.52236938476562,5356.25390625,True
1599564256.1302874,0.0,10,0.5,0.5,13.799058019828797,-0.2,-0.02275,-0.5,0.08104884704727536,10,1,100,-0.03570372748953253,-10,-1,-100,15024.432118917815,0.0014043713908409366,0.007749296461643538,0.9999689875917882,24.131768816845476,0.023222423052366124,-34.72327962140167,12.70107419611854,-151.4243927001953,5356.25390625,True
1599564256.179668,0.0,10,0.5,0.5,15.028742625045778,-0.2,-0.02275,-0.5,0.07055069876913625,10,1,100,-0.08453749501701849,-10,-1,-100,15025.187002897495,0.002055227685581737,0.007612384153726828,0.9999689133401382,23.79626436754167,0.022257863994875827,-32.74096618184357,12.144009498915768,-153.71678161621094,5356.25390625,True
1599564256.2370298,0.0,10,0.5,0.5,13.943978478240968,-0.2,-0.02275,-0.5,0.08416637399588642,10,1,100,-0.020038956028048463,-10,-1,-100,15025.187002897495,0.002055227685581737,0.007612384153726828,0.9999689133401382,23.79626436754167,0.022257863994875827,-32.74096618184357,12.144009498915768,-153.71678161621094,5356.25390625,True
1599564256.2909212,0.0,10,0.5,0.5,14.824905698013307,-0.2,-0.02275,-0.5,0.07423589477916484,10,1,100,-0.06343632561012638,-10,-1,-100,15025.649894506554,0.0024451035032727604,0.007522768936485836,0.9999687142187932,23.585196942965744,0.021624910679117926,-31.459656871723283,11.772652209557112,-154.90029907226562,5356.25390625,True
1599564256.3427467,0.0,10,0.5,0.5,14.923469878005982,-0.2,-0.02275,-0.5,0.07607400031788192,10,1,100,-0.06350148960907578,-10,-1,-100,15026.114738816395,0.002795128308274736,0.007458753942454512,0.9999682766204968,23.391659717533894,0.02101314258529588,-30.218663013145346,11.401308320096973,-155.80767822265625,5356.25390625,True
1599564256.3976,0.0,10,0.5,0.5,14.957112140274049,-0.2,-0.02275,-0.5,0.07277305763580853,10,1,100,-0.06433297220133358,-10,-1,-100,15026.511224270798,0.003116505331579477,0.007371314152154265,0.9999679750482955,23.220660943197466,0.02043027268722832,-29.022026537591863,11.029976147608552,-156.4396514892578,5356.25390625,True
1599564256.4484646,0.0,10,0.5,0.5,14.932810385894777,-0.2,-0.02275,-0.5,0.07483133719636043,10,1,100,-0.06378432224125008,-10,-1,-100,15026.972162903287,0.0033993045332190177,0.007311350379685608,0.9999674939138351,23.075538729072548,0.01988102918128388,-27.870931142604125,10.658653809150714,-156.79547119140625,5356.25390625,True
1599564256.4983652,0.0,10,0.5,0.5,14.706923762512208,-0.2,-0.02275,-0.5,0.06880860581325869,10,1,100,-0.08695815203295415,-10,-1,-100,15027.77197018254,0.0038633043157326593,0.007202839736203452,0.99996659643185,22.871281112217318,0.01889325906351158,-25.701686114898553,9.916031329477219,-156.67974853515625,5356.25390625,True
1599564256.5511913,0.0,10,0.5,0.5,14.788570358657838,-0.2,-0.02275,-0.5,0.07958136470315606,10,1,100,-0.0409305727530885,-10,-1,-100,15027.77197018254,0.0038633043157326593,0.007202839736203452,0.99996659643185,22.871281112217318,0.01889325906351158,-25.701686114898553,9.916031329477219,-156.67974853515625,5356.25390625,True
1599564256.6160169,0.0,10,0.5,0.5,14.239450108337403,-0.2,-0.02275,-0.5,0.07387694630524898,10,1,100,-0.06940605352004763,-10,-1,-100,15028.338377315667,0.004119270353161919,0.007151608915653416,0.9999659424708798,22.793702978535286,0.018250580345495142,-24.177238470378928,9.35907768416696,-155.86874389648438,5356.25390625,True
1599564256.6678782,0.0,10,0.5,0.5,13.655009716796876,-0.2,-0.02275,-0.5,0.07491657082152015,10,1,100,-0.06382647165292997,-10,-1,-100,15028.904785597464,0.004298562111152947,0.007115071893909709,0.999965448460956,22.773655361453134,0.01768883103869056,-22.719743780193124,8.802130059838575,-154.43716430664062,5356.25390625,True
1599564256.7177448,0.0,10,0.5,0.5,13.468110720443725,-0.2,-0.02275,-0.5,0.07804122860840018,10,1,100,-0.05429598467530088,-10,-1,-100,15029.242677271017,0.004372282745238787,0.007110838967266824,0.9999651589494392,22.78602614999794,0.01735727094782926,-21.77395299584888,8.430832904191154,-153.1378173828125,5356.25390625,True
1599564256.7716365,0.0,10,0.5,0.5,14.116467038726807,-0.2,-0.02275,-0.5,0.07841436675404265,10,1,100,-0.04715562677268254,-10,-1,-100,15029.242677271017,0.004372282745238787,0.007110838967266824,0.9999651589494392,22.78602614999794,0.01735727094782926,-21.77395299584888,8.430832904191154,-153.1378173828125,5356.25390625,True
1599564256.8244607,0.0,10,0.5,0.5,11.717103020095827,-0.2,-0.02275,-0.5,0.0782429792301747,10,1,100,-0.05241488381022108,-10,-1,-100,15029.851076235296,0.004417987759162177,0.007109736849037534,0.9999649658993547,22.846772464820635,0.016793407888855822,-19.91033627245412,7.688238138420436,-149.7120361328125,5356.25390625,True
1599564256.8803103,0.0,10,0.5,0.5,11.92966495628357,-0.2,-0.02275,-0.5,0.07867262679544404,10,1,100,-0.044919314316466404,-10,-1,-100,15030.187013456714,0.0043896026998257705,0.007113016294047399,0.9999650675835323,22.87989020730997,0.016560838546795496,-18.976834256431157,7.316939676067241,-147.5855712890625,5356.25390625,True
1599564256.930177,0.0,10,0.5,0.5,11.292690314865114,-0.2,-0.02275,-0.5,0.07896255499688187,10,1,100,-0.04091582749740731,-10,-1,-100,15030.45849702647,0.004325953243536181,0.00711894762556799,0.9999653027546702,22.902180689907453,0.016360215089543714,-18.031936249641507,6.945640496575152,-145.1834259033203,5356.25390625,True
1599564256.983035,0.0,10,0.5,0.5,12.4681550945282,-0.2,-0.02275,-0.5,0.07834418519216411,10,1,100,-0.047401717917561904,-10,-1,-100,15030.45849702647,0.004325953243536181,0.00711894762556799,0.9999653027546702,22.902180689907453,0.016360215089543714,-18.031936249641507,6.945640496575152,-145.1834259033203,5356.25390625,True
1599564257.0358942,0.0,10,0.5,0.5,9.557773152923584,-0.2,-0.02275,-0.5,0.07830544312642293,10,1,100,-0.030308715043522175,-10,-1,-100,15030.83837729902,0.004169719900399168,0.0071187703365649955,0.9999659676933248,22.889168646421528,0.016112566024583226,-16.577285147929782,6.388690720929456,-141.0634765625,5356.25390625,True
1599564257.0877557,0.0,10,0.5,0.5,10.524466287994386,-0.2,-0.02275,-0.5,0.07805094273719243,10,1,100,-0.03844746772074325,-10,-1,-100,15031.004392852308,0.004101399689536015,0.00711637195156894,0.9999662673164699,22.8655192514053,0.016041159675532626,-16.079148726785146,6.203040562915502,-139.55239868164062,5356.25390625,True
1599564257.1366239,0.0,10,0.5,0.5,7.778456584167481,-0.2,-0.02275,-0.5,0.0761712299319839,10,1,100,-0.017569221988148552,-10,-1,-100,15031.317865955643,0.0038492717226606475,0.0070971819104202975,0.9999674060268842,22.710131619036,0.015842346999130452,-14.536552913046629,5.646088663700949,-134.60585021972656,5356.25390625,True
1599564257.192986,0.0,10,0.5,0.5,8.952765690994262,-0.2,-0.02275,-0.5,0.07673100886170152,10,1,100,-0.03197060323267299,-10,-1,-100,15031.428217300912,0.003751231581024628,0.007084874796923722,0.9999678658890683,22.6228896815912,0.015774619888534056,-14.004734435475402,5.460437152319573,-132.8192901611328,5356.25390625,True
1599564257.2518268,0.0,10,0.5,0.5,5.755891393280029,-0.2,-0.02275,-0.5,0.07171719282186478,10,1,100,-0.0046036464150213605,-10,-1,-100,15031.739735736046,0.0034138112362224393,0.0070281338180164885,0.9999694751480563,22.226009852873947,0.015537312427017303,-12.356060736047949,4.903477043929177,-127.04647064208984,5356.25390625,True
1599564257.3016937,0.0,10,0.5,0.5,4.108325571632386,-0.2,-0.02275,-0.5,0.06694879457960967,10,1,100,0.005073041520302975,-10,-1,-100,15031.992660910357,0.0030199669156347887,0.00693327722148873,0.9999714043245429,21.573339981561485,0.01518892272707498,-10.631267727554286,4.346501240069919,-120.65415954589844,5356.25390625,True
1599564257.3505635,0.0,10,0.5,0.5,5.64271000957489,-0.2,-0.02275,-0.5,0.07159860215656955,10,1,100,-0.019083305134825486,-10,-1,-100,15032.095197517774,0.0028827591536286414,0.006889476349659292,0.999972112018775,21.287958706499747,0.015033909379092877,-10.042613212274636,4.160837374649566,-118.38577270507812,5356.25390625,True
1599564257.410403,0.0,10,0.5,0.5,5.06959339504242,-0.2,-0.02275,-0.5,0.07062722703627608,10,1,100,-0.016968061177408143,-10,-1,-100,15032.20261826599,0.002740190996378835,0.006841026929174752,0.9999728454832449,20.966192162889335,0.014854537062385001,-9.44955060666994,3.975169965418388,-116.04856872558594,5356.25390625,True
1599564257.8263981,0.0,10,0.5,0.5,2.7498685037612915,-0.2,-0.02275,-0.5,0.06287151442037699,10,1,100,0.0011792071504534776,-10,-1,-100,15032.349098215695,0.0024471078792652205,0.006726722786194153,0.9999743811036286,20.221723117562863,0.014419255052638452,-8.262750007609512,3.6038222692364945,-111.16773986816406,5356.25390625,True
1599564257.8782625,0.0,10,0.5,0.5,1.503645079994202,-0.2,-0.02275,-0.5,0.05913592544368177,10,1,100,0.006552226407323371,-10,-1,-100,15032.433078244561,0.0021335310935215457,0.00658920659718672,0.9999760149131041,19.48585084276098,0.013972589851092046,-7.141691879297844,3.232453341707272,-106.01166534423828,5356.25390625,True
1599564257.9271562,0.0,10,0.5,0.5,0.1906798374176022,-0.2,-0.02275,-0.5,0.05485575769496638,10,1,100,0.010089444250045519,-10,-1,-100,15032.57955854421,0.0018182978735025624,0.006425762846762896,0.9999777014337271,18.571023725236937,0.01337161877290188,-6.024451806169127,2.8610579787926658,-100.58039855957031,5356.25390625,True
1599564257.9979393,0.0,10,0.5,0.5,2.8142142272949218,-0.2,-0.02275,-0.5,0.07113083198836856,10,1,100,-0.021198735549163156,-10,-1,-100,15032.57955854421,0.0018182978735025624,0.006425762846762896,0.9999777014337271,18.571023725236937,0.01337161877290188,-6.024451806169127,2.8610579787926658,-100.58039855957031,5356.25390625,True
1599564258.0727413,0.0,10,0.5,0.5,-5.376496328353882,-0.2,-0.02275,-0.5,0.027345827537377188,10,1,100,0.04872643641565781,-10,-1,-100,15032.750447743805,0.0011846900391096749,0.006028345178212798,0.9999811276038781,16.292031649028583,0.011758712664020897,-3.9129247640819713,2.1181777110739484,-89.00604248046875,5356.25390625,True
1599564258.138563,0.0,10,0.5,0.5,0.30694214859008795,-0.2,-0.02275,-0.5,0.06698071071916623,10,1,100,-0.014367888855275839,-10,-1,-100,15032.750447743805,0.0011846900391096749,0.006028345178212798,0.9999811276038781,16.292031649028583,0.011758712664020897,-3.9129247640819713,2.1181777110739484,-89.00604248046875,5356.25390625,True
1599564258.1994004,0.0,10,0.5,0.5,-4.028578937149048,-0.2,-0.02275,-0.5,0.040216873860126734,10,1,100,0.021711992836623673,-10,-1,-100,15032.83247422718,0.0008590243342214202,0.005785998051874903,0.9999828920055267,16.63463732266866,0.01199049557370365,-3.2946000545512346,1.7467123056990057,-82.954833984375,5356.25390625,True
1599564258.249267,0.0,10,0.5,0.5,-5.324837727928162,-0.2,-0.02275,-0.5,0.03766887659470454,10,1,100,0.0216677629718249,-10,-1,-100,15032.915477979579,0.0005656892257320875,0.005543648085305835,0.9999844738602726,17.754530668509997,0.012791276822667468,-2.768614641434299,1.3752462820262301,-76.92404174804688,5356.25390625,True
1599564258.3046677,0.0,10,0.5,0.5,-10.695002456855775,-0.2,-0.02275,-0.5,-0.0015017452115682825,10,1,100,0.05769681872891798,-10,-1,-100,15032.957461671904,-2.6284763695513195e-05,0.004968496671218914,0.9999876565987897,19.419461436825028,0.01401520506090494,-1.3924091807656531,0.6323319069457827,-65.0867919921875,5356.25390625,True
1599564258.3645043,0.0,10,0.5,0.5,-6.883515328407288,-0.2,-0.02275,-0.5,0.03920087459786369,10,1,100,0.014002854176080713,-10,-1,-100,15032.999451353098,-0.00016458049095178945,0.004817401910933313,0.9999883827085646,19.69702710231464,0.014216215896441637,-0.9974951325116033,0.44660358144666024,-62.24981689453125,5356.25390625,True
1599564258.408352,0.0,10,0.5,0.5,-9.417852068901063,-0.2,-0.02275,-0.5,0.021047847952645866,10,1,100,0.029427529984838822,-10,-1,-100,15032.96038509754,-0.0004278875035486319,0.0045168551820973695,0.9999897074128055,20.076645064904593,0.014493727415877535,-0.17106172823577878,0.0751392480816726,-56.77777099609375,5356.25390625,True
1599564258.4661977,0.0,10,0.5,0.5,-8.648919570350646,-0.2,-0.02275,-0.5,0.03455020018582454,10,1,100,0.017180290377440156,-10,-1,-100,15033.00140004605,-0.00055330534094867,0.004368388510370042,0.9999903054705191,20.187885387107364,0.014577599226651732,0.25318492625080696,-0.11059830695188078,-54.1444091796875,5356.25390625,True
1599564258.5160654,0.0,10,0.5,0.5,-10.992299047851562,-0.2,-0.02275,-0.5,0.01499753758680129,10,1,100,0.031343492517214466,-10,-1,-100,15032.960381454322,-0.0007936353612789528,0.004057686256160276,0.9999914526260512,20.382747407247884,0.014728163327019072,1.114272045258298,-0.48208347054955536,-49.084320068359375,5356.25390625,True
1599564258.5679286,0.0,10,0.5,0.5,-11.928590199661254,-0.2,-0.02275,-0.5,0.012355246431264039,10,1,100,0.03215964513708597,-10,-1,-100,15032.918386579258,-0.001017162282455513,0.00375336162963797,0.9999924388000981,20.452085584764436,0.01479230507777621,1.979688966568565,-0.8535810963555244,-44.299774169921875,5356.25390625,True
1599564258.6177933,0.0,10,0.5,0.5,-15.783737384796144,-0.2,-0.02275,-0.5,-0.024793284702607464,10,1,100,0.05439362084555181,-10,-1,-100,15032.83342122857,-0.0014199179352784772,0.0031414184145071556,0.9999940576440453,20.241243593881602,0.014679659741004755,3.6649545884969656,-1.596608543089636,-35.55780029296875,5356.25390625,True
1599564258.6776328,0.0,10,0.5,0.5,-12.943595075225831,-0.2,-0.02275,-0.5,0.01950967422004829,10,1,100,0.024588198064553687,-10,-1,-100,15032.813888072036,-0.0015127332234953815,0.002990485051652109,0.9999943843029072,20.14126718687155,0.014620672505173155,4.071202254359838,-1.7823703702328904,-33.544586181640625,5356.25390625,True
1599564258.7344825,0.0,10,0.5,0.5,-16.001666860961915,-0.2,-0.02275,-0.5,-0.012889472692390457,10,1,100,0.04523313825711815,-10,-1,-100,15032.686933576246,-0.001782339829749876,0.002561496895422224,0.9999951309873394,19.738339660656237,0.014383084942297831,5.237420490693985,-2.339661677971845,-27.91815185546875,5356.25390625,True
1599564258.7779136,0.0,10,0.5,0.5,-15.69803314971924,-0.2,-0.02275,-0.5,-0.0020858952105649656,10,1,100,0.03620403722717886,-10,-1,-100,15032.583417393966,-0.0019429527677418126,0.0022726533679175175,0.9999955299806154,19.408197666069153,0.014195434077548244,5.967747404487505,-2.711191404867618,-24.51190185546875,5356.25390625,True
1599564258.8337317,0.0,10,0.5,0.5,-16.305747330474855,-0.2,-0.02275,-0.5,-0.0029492939700511145,10,1,100,0.037932724407119534,-10,-1,-100,15032.415447910782,-0.002102399283921694,0.0020051928948428086,0.9999957795504467,19.051688525100726,0.014001417015688444,6.661082751073233,-3.0827225200893418,-21.38104248046875,5356.25390625,True
1599564258.8841038,0.0,10,0.5,0.5,-15.86321624069214,-0.2,-0.02275,-0.5,0.009112181097615774,10,1,100,0.030721355848020805,-10,-1,-100,15032.393962267204,-0.0021799053894386647,0.0018743906960958414,0.9999958673274664,18.89674550214504,0.01392581319495127,7.00514482393399,-3.268488861854765,-19.9189453125,5356.25390625,True
1599564258.9429462,0.0,10,0.5,0.5,-18.00954338760376,-0.2,-0.02275,-0.5,-0.019417716827552885,10,1,100,0.04774396868806696,-10,-1,-100,15032.143962617498,-0.002403284397637706,0.0014987923626560084,0.9999959889147345,18.475741333072225,0.013744762235354317,8.017259326544558,-3.8257923599361385,-15.94598388671875,5356.25390625,True
1599564258.9989452,0.0,10,0.5,0.5,-17.728873081207276,-0.2,-0.02275,-0.5,-0.00845456735883042,10,1,100,0.041023578764896,-10,-1,-100,15031.975994314766,-0.0025434659540679266,0.0012597480208985838,0.9999959718998194,18.21860113540702,0.013649613400621447,8.673717490111034,-4.197334342029501,-13.641815185546875,5356.25390625,True
1599564259.0498095,0.0,10,0.5,0.5,-16.66893213195801,-0.2,-0.02275,-0.5,0.015139002767964888,10,1,100,0.027204439183185866,-10,-1,-100,15031.975994314766,-0.0025434659540679266,0.0012597480208985838,0.9999959718998194,18.21860113540702,0.013649613400621447,8.673717490111034,-4.197334342029501,-13.641815185546875,5356.25390625,True
1599564259.1046622,0.0,10,0.5,0.5,-19.39693016357422,-0.2,-0.02275,-0.5,-0.03202643224817643,10,1,100,0.059071052124826384,-10,-1,-100,15031.640057323966,-0.002831571680271214,0.0008335149191475371,0.9999956437178609,17.78455715663305,0.013522126387628723,9.9668080455722,-4.9404397572322285,-9.85986328125,5356.25390625,True
1599564259.162864,0.0,10,0.5,0.5,-17.58430500869751,-0.2,-0.02275,-0.5,0.010304893255879207,10,1,100,0.030441920444279208,-10,-1,-100,15031.640057323966,-0.002831571680271214,0.0008335149191475371,0.9999956437178609,17.78455715663305,0.013522126387628723,9.9668080455722,-4.9404397572322285,-9.85986328125,5356.25390625,True
1599564259.2137258,0.0,10,0.5,0.5,-18.677087883758546,-0.2,-0.02275,-0.5,-0.012001685676640624,10,1,100,0.04523294054229291,-10,-1,-100,15031.40958925453,-0.002964752177757709,0.0006328259320295019,0.9999954048773744,17.649282532351545,0.013514675841944466,10.635303397703874,-5.312004991806865,-8.38226318359375,5356.25390625,True
1599564259.2665908,0.0,10,0.5,0.5,-19.18556202697754,-0.2,-0.02275,-0.5,-0.020722233189067834,10,1,100,0.055980081095946196,-10,-1,-100,15031.096113113803,-0.003182206617820223,0.0003732470200997886,0.9999948671106784,17.515601747376557,0.013544142324142585,11.662949662219361,-5.86936930290097,-6.682220458984375,5356.25390625,True
1599564259.3144622,0.0,10,0.5,0.5,-18.68405687637329,-0.2,-0.02275,-0.5,-0.0041557672396929386,10,1,100,0.04180426431165753,-10,-1,-100,15030.948653735803,-0.0032497488045761837,0.00028985974504465954,0.9999946775428534,17.491996204680184,0.013566628366122126,12.016190800642502,-6.055161711599297,-6.25335693359375,5356.25390625,True
1599564259.366324,0.0,10,0.5,0.5,-19.122637912750246,-0.2,-0.02275,-0.5,-0.019622103645188137,10,1,100,0.059481964230427495,-10,-1,-100,15030.573654453387,-0.0034706691590369347,7.525261278356118e-05,0.9999939743781623,17.49038514609694,0.013679363150478931,13.122039733613377,-6.612550275707177,-5.37982177734375,5356.25390625,True
1599564259.4161897,0.0,10,0.5,0.5,-18.829682779693606,-0.2,-0.02275,-0.5,-0.00524860058452036,10,1,100,0.04577856884385511,-10,-1,-100,15030.4261950223,-0.003545685641509582,1.2577920626869064e-05,0.9999937139578066,17.51375678915693,0.01373378070737029,13.50911466323594,-6.798349692961612,-5.22637939453125,5356.25390625,True
1599564259.4670622,0.0,10,0.5,0.5,-18.856540984344484,-0.2,-0.02275,-0.5,-0.012316452190305924,10,1,100,0.05452330311349043,-10,-1,-100,15030.132251368137,-0.0036921384096158813,-0.00010695971159047528,0.9999931783135245,17.59743368837502,0.013871320661362433,14.316367769340777,-7.169952327453439,-5.12615966796875,5356.25390625,True
1599564259.5129373,0.0,10,0.5,0.5,-18.393076250457764,-0.2,-0.02275,-0.5,-0.019750405525929816,10,1,100,0.07425017722828232,-10,-1,-100,15029.54436373501,-0.004003440823472463,-0.00028175190568078146,0.9999919465062889,17.912693340767905,0.014277332905162199,16.08529010986278,-7.913167991455996,-5.7518310546875,5356.25390625,True
1599564259.574322,0.0,10,0.5,0.5,-18.215673791503907,-0.2,-0.02275,-0.5,-0.008818021497049796,10,1,100,0.06098528861351375,-10,-1,-100,15029.18792013079,-0.004164525871508365,-0.0003398672273852602,0.9999912705691651,18.14205787597198,0.014554445310856466,17.057378198689342,-8.284778107659731,-6.477813720703125,5356.25390625,True
1599564259.629174,0.0,10,0.5,0.5,-18.59496322784424,-0.2,-0.02275,-0.5,-0.003166450851430308,10,1,100,0.04503888980166763,-10,-1,-100,15029.18792013079,-0.004164525871508365,-0.0003398672273852602,0.9999912705691651,18.14205787597198,0.014554445310856466,17.057378198689342,-8.284778107659731,-6.477813720703125,5356.25390625,True
1599564259.6810362,0.0,10,0.5,0.5,-17.008153606414798,-0.2,-0.02275,-0.5,-0.008411132687460356,10,1,100,0.08142480795951645,-10,-1,-100,15028.538509723498,-0.004494095169133139,-0.000386479442125049,0.9999898268193791,18.731015965735978,0.015274974046992797,19.193580501569926,-9.027994726831531,-8.75567626953125,5356.25390625,True
1599564259.730934,0.0,10,0.5,0.5,-17.063131452178954,-0.2,-0.02275,-0.5,-0.0035868207882851612,10,1,100,0.0668903767183782,-10,-1,-100,15028.12054337922,-0.004660061043428166,-0.0003838877161130165,0.9999890681708941,19.083169826370206,0.01572384011012149,20.360780195801524,-9.399598016462992,-10.307769775390625,5356.25390625,True
1599564259.7837632,0.0,10,0.5,0.5,-17.834797677612304,-0.2,-0.02275,-0.5,-0.003947664754302661,10,1,100,0.05046332017544258,-10,-1,-100,15028.12054337922,-0.004660061043428166,-0.0003838877161130165,0.9999890681708941,19.083169826370206,0.01572384011012149,20.360780195801524,-9.399598016462992,-10.307769775390625,5356.25390625,True
1599564259.8336315,0.0,10,0.5,0.5,-15.07568285369873,-0.2,-0.02275,-0.5,0.00628004522194715,10,1,100,0.08674077183030901,-10,-1,-100,15027.345156832598,-0.004988512554449126,-0.0002902202302050975,0.9999875151794205,19.912800225366734,0.016831472592853978,22.929277554868783,-10.14278443551857,-14.237579345703125,5356.25390625,True
1599564259.8885155,0.0,10,0.5,0.5,-17.022423532867432,-0.2,-0.02275,-0.5,-0.0031447113663697276,10,1,100,0.054069497103200276,-10,-1,-100,15027.345156832598,-0.004988512554449126,-0.0002902202302050975,0.9999875151794205,19.912800225366734,0.016831472592853978,22.929277554868783,-10.14278443551857,-14.237579345703125,5356.25390625,True
1599564259.9383857,0.0,10,0.5,0.5,-15.33765726623535,-0.2,-0.02275,-0.5,0.004909368149346286,10,1,100,0.07205294694196536,-10,-1,-100,15026.92523697752,-0.00515061860444207,-0.0002166690774776895,0.9999867120029656,20.396261559644948,0.017501104374839187,24.348329548566213,-10.514362415169341,-16.6156005859375,5356.25390625,True
1599564259.9872177,0.0,10,0.5,0.5,-14.64360408782959,-0.2,-0.02275,-0.5,0.00970999383752122,10,1,100,0.07232966063476452,-10,-1,-100,15026.506293531042,-0.005299044289858437,-0.00010595393510745143,0.9999859543530488,20.889946204450453,0.018216977824286325,25.821070139983657,-10.8859275501691,-19.2686767578125,5356.25390625,True
1599564260.4260457,0.0,10,0.5,0.5,-13.887977102661132,-0.2,-0.02275,-0.5,0.011918703869982105,10,1,100,0.07425296529983574,-10,-1,-100,15026.023874284467,-0.0054500004954828336,1.4774462091061219e-05,0.9999851485278742,21.40093139394446,0.01898032317854981,27.35784818858836,-11.257477279538957,-22.197235107421875,5356.25390625,True
1599564260.4669354,0.0,10,0.5,0.5,-14.217610927581788,-0.2,-0.02275,-0.5,0.007897385875452436,10,1,100,0.06678428049206038,-10,-1,-100,15025.813913493883,-0.005518021220823409,8.770054471419223e-05,0.9999847717592609,21.669993971343978,0.019383544639236607,28.160142254777412,-11.44324569986352,-23.76470947265625,5356.25390625,True
1599564260.5158045,0.0,10,0.5,0.5,-13.816616369628907,-0.2,-0.02275,-0.5,0.009295525088172416,10,1,100,0.06739672314086292,-10,-1,-100,15025.603954252554,-0.0055841954539863955,0.00016631864196712983,0.9999843944278536,21.93521801824011,0.019787610238309574,28.96878892485911,-11.629009573603026,-25.4010009765625,5356.25390625,True
1599564260.562203,0.0,10,0.5,0.5,-9.528354326629639,-0.2,-0.02275,-0.5,0.04149371891595898,10,1,100,0.08653040060333858,-10,-1,-100,15024.639114420745,-0.005817005761445728,0.0005300403234775397,0.999982940605102,22.91482383761276,0.021327209572160815,32.201738776195306,-12.372014852162232,-32.634368896484375,5356.25390625,True
1599564260.6190395,0.0,10,0.5,0.5,-10.269971463012697,-0.2,-0.02275,-0.5,0.028616625961644666,10,1,100,0.07368230459535174,-10,-1,-100,15024.095170928282,-0.005910647976706774,0.0007427987163881435,0.9999822560878581,23.323865280712848,0.021981557954361467,33.76371135716308,-12.743486753366552,-36.66400146484375,5356.25390625,True
1599564260.681877,0.0,10,0.5,0.5,-12.224827320098878,-0.2,-0.02275,-0.5,0.007453455313834407,10,1,100,0.06444314176257496,-10,-1,-100,15024.095170928282,-0.005910647976706774,0.0007427987163881435,0.9999822560878581,23.323865280712848,0.021981557954361467,33.76371135716308,-12.743486753366552,-36.66400146484375,5356.25390625,True
1599564260.7287514,0.0,10,0.5,0.5,-9.151414744567871,-0.2,-0.02275,-0.5,0.03264150180111875,10,1,100,0.07114947932667087,-10,-1,-100,15023.613727039192,-0.005970477784622848,0.0009707566967884547,0.9999817053458825,23.652134066594858,0.022497311397570184,35.24012136958331,-13.11493917232251,-40.96893310546875,5356.25390625,True
1599564260.777626,0.0,10,0.5,0.5,-4.63805574874878,-0.2,-0.02275,-0.5,0.06527924977102198,10,1,100,0.07293715475249508,-10,-1,-100,15022.522909628344,-0.006040227418208431,0.001473551681490591,0.9999806719623026,23.97831641066247,0.022927266421116786,37.756698534168564,-13.857798204797737,-50.4046630859375,5356.25390625,True
1599564260.831482,0.0,10,0.5,0.5,-9.27364062347412,-0.2,-0.02275,-0.5,0.015176128491977922,10,1,100,0.06606736288031267,-10,-1,-100,15022.522909628344,-0.006040227418208431,0.001473551681490591,0.9999806719623026,23.97831641066247,0.022927266421116786,37.756698534168564,-13.857798204797737,-50.4046630859375,5356.25390625,True
1599564260.8823476,0.0,10,0.5,0.5,-5.605104856872559,-0.2,-0.02275,-0.5,0.04428562048622425,10,1,100,0.06492805183428692,-10,-1,-100,15021.915488706552,-0.0060290613097775,0.0017366468625664956,0.9999803170449894,23.93094381040082,0.02277041560683861,38.69574306521525,-14.229214874095662,-55.535614013671875,5356.25390625,True
1599564260.9332137,0.0,10,0.5,0.5,-0.32640006484985395,-0.2,-0.02275,-0.5,0.0769580398659147,10,1,100,0.0547255190756049,-10,-1,-100,15020.761192942271,-0.005925496352470527,0.0022711712026348,0.9999798649344621,23.402086224945922,0.02174593621560099,39.82401568283992,-14.972054609677706,-66.62371826171875,5356.25390625,True
1599564260.9888706,0.0,10,0.5,0.5,-5.769381939697266,-0.2,-0.02275,-0.5,0.02373124553313861,10,1,100,0.06512956439200096,-10,-1,-100,15020.761192942271,-0.005925496352470527,0.0022711712026348,0.9999798649344621,23.402086224945922,0.02174593621560099,39.82401568283992,-14.972054609677706,-66.62371826171875,5356.25390625,True
1599564261.0387368,0.0,10,0.5,0.5,2.795007681274414,-0.2,-0.02275,-0.5,0.07860640285777595,10,1,100,0.041137453490763434,-10,-1,-100,15019.546349276672,-0.005707015821430507,0.00276805129589703,0.9999798837288865,22.22022971008275,0.01996829933367224,39.69760518288033,-15.714942179083245,-78.71926879882812,5356.25390625,True
1599564261.0877726,0.0,10,0.5,0.5,1.304499489593506,-0.2,-0.02275,-0.5,0.05645638538827805,10,1,100,0.04670253575561778,-10,-1,-100,15018.876426781644,-0.005558877158922397,0.00301603146490914,0.9999800010194877,21.320138993201702,0.01890325128018587,38.99438525636231,-16.08641354445064,-85.05636596679688,5356.25390625,True
1599564261.139636,0.0,10,0.5,0.5,-1.7447890510559083,-0.2,-0.02275,-0.5,0.031906967601210215,10,1,100,0.061490589146176444,-10,-1,-100,15018.876426781644,-0.005558877158922397,0.00301603146490914,0.9999800010194877,21.320138993201702,0.01890325128018587,38.99438525636231,-16.08641354445064,-85.05636596679688,5356.25390625,True
1599564261.188092,0.0,10,0.5,0.5,2.789025654602051,-0.2,-0.02275,-0.5,0.05441087085991507,10,1,100,0.04349973277090052,-10,-1,-100,15018.26802796917,-0.005395643710799693,0.0032185458283987105,0.9999802638010896,20.215808473958724,0.01781838527679147,37.83290312217688,-16.457902504335557,-91.37596893310547,5356.25390625,True
1599564261.2429109,0.0,10,0.5,0.5,4.013321430397034,-0.2,-0.02275,-0.5,0.0559318356127783,10,1,100,0.03936553797552342,-10,-1,-100,15017.597128724796,-0.005210134263699176,0.0034142260683134307,0.999980598592447,20.723050278995046,0.0183467741325412,39.6623315719252,-16.829386817572825,-97.46115112304688,5356.25390625,True
1599564261.3037477,0.0,10,0.5,0.5,9.60235529499054,-0.2,-0.02275,-0.5,0.07215705841367942,10,1,100,0.011630400339926246,-10,-1,-100,15016.192829416483,-0.004790042918303208,0.0037373978851790728,0.9999815435026232,23.11333644674383,0.02108801401707919,46.20104479963096,-17.57224972572093,-109.60844421386719,5356.25390625,True
1599564261.3506227,0.0,10,0.5,0.5,3.6633973516464238,-0.2,-0.02275,-0.5,0.040066261347484054,10,1,100,0.05351451642953252,-10,-1,-100,15016.192829416483,-0.004790042918303208,0.0037373978851790728,0.9999815435026232,23.11333644674383,0.02108801401707919,46.20104479963096,-17.57224972572093,-109.60844421386719,5356.25390625,True
1599564261.3994915,0.0,10,0.5,0.5,7.86565568637848,-0.2,-0.02275,-0.5,0.05400412699695299,10,1,100,0.02888367166209584,-10,-1,-100,15015.458452654304,-0.004567262679053698,0.0038620477127163464,0.9999821121895558,24.000398128617956,0.02230763378826142,48.99397000569683,-17.943623505542785,-115.41925811767578,5356.25390625,True
1599564261.453349,0.0,10,0.5,0.5,8.975317795562745,-0.2,-0.02275,-0.5,0.05278323127775707,10,1,100,0.027382563885838766,-10,-1,-100,15014.724076458719,-0.004352417662343373,0.003962334503166496,0.9999826780328634,24.74308769167455,0.023388795747022007,51.56151671498619,-18.314961998872214,-120.96044921875,5356.25390625,True
1599564261.5042117,0.0,10,0.5,0.5,13.508839101409912,-0.2,-0.02275,-0.5,0.05700986712846651,10,1,100,-0.00132020440081132,-10,-1,-100,15013.25629956543,-0.0038975998251736467,0.004090390853763507,0.9999840385817499,25.778275335638526,0.024894193134521004,55.91002287717094,-19.057553202837138,-131.2183074951172,5356.25390625,True
1599564261.5530815,0.0,10,0.5,0.5,11.827883466720582,-0.2,-0.02275,-0.5,0.047587563604575514,10,1,100,0.019983260483377785,-10,-1,-100,15012.462351933238,-0.0036796404689913393,0.004119494577133482,0.9999847448888648,26.049826197658643,0.02523226840693419,57.606544268347854,-19.428819686337377,-135.93405151367188,5356.25390625,True
1599564261.6099296,0.0,10,0.5,0.5,11.17831534690857,-0.2,-0.02275,-0.5,0.045925415292883395,10,1,100,0.030391085641700347,-10,-1,-100,15012.061959501472,-0.0035779552605853006,0.004129613483471498,0.999985072152895,26.144855461401136,0.025313233446864536,58.372615998578425,-19.614448402055956,-138.18853759765625,5356.25390625,True
1599564261.6627882,0.0,10,0.5,0.5,11.701862851333619,-0.2,-0.02275,-0.5,0.045590468665429804,10,1,100,0.02937203269876467,-10,-1,-100,15011.665475203656,-0.003478050882460702,0.004134755172603241,0.9999854033743301,26.226018980489425,0.025348883164420216,59.11156984599918,-19.800074787317484,-140.37413024902344,5356.25390625,True
1599564261.7106593,0.0,10,0.5,0.5,16.372383921813963,-0.2,-0.02275,-0.5,0.04124808231446671,10,1,100,-0.003279396031458673,-10,-1,-100,15010.069768596673,-0.00309228921050582,0.004098936174343621,0.9999868181479581,26.301062597006897,0.024964580157350605,61.51914613485696,-20.542567549522143,-148.4276580810547,5356.25390625,True
1599564261.7695029,0.0,10,0.5,0.5,15.004762879371643,-0.2,-0.02275,-0.5,0.04004345099145727,10,1,100,0.015960860709602412,-10,-1,-100,15009.211367980228,-0.002918602165011295,0.004054621899947567,0.9999875208234603,26.22396585399466,0.024526750293094125,62.455479043213366,-20.913812077815948,-152.041015625,5356.25390625,True
1599564261.8136406,0.0,10,0.5,0.5,14.514504886054993,-0.2,-0.02275,-0.5,0.042136052290050255,10,1,100,0.024291388823031446,-10,-1,-100,15008.813905697316,-0.0028385201356826164,0.004032777666091424,0.9999878396799309,26.164884201163108,0.024265250508730487,62.872041769557775,-21.09943484592674,-153.74423217773438,5356.25390625,True
1599564261.8665004,0.0,10,0.5,0.5,16.00312181148529,-0.2,-0.02275,-0.5,0.03808871083469989,10,1,100,0.015415042460743676,-10,-1,-100,15007.95257588639,-0.0026867983446199474,0.003975856731372733,0.9999884867726763,26.016869020703744,0.023683969932362603,63.62502157140216,-21.470681950487858,-156.9439697265625,5356.25390625,True
1599564261.9153936,0.0,10,0.5,0.5,17.50894855976105,-0.2,-0.02275,-0.5,0.030904953128347873,10,1,100,0.007925715198351016,-10,-1,-100,15006.632261288818,-0.002482696690880936,0.0038585867580741835,0.9999894737072845,25.74910688278679,0.022737013123303892,64.6170916945631,-22.027557847814553,-161.22683715820312,5356.25390625,True
1599564261.974242,0.0,10,0.5,0.5,16.374530125808718,-0.2,-0.02275,-0.5,0.03802902774689644,10,1,100,0.021450007716793153,-10,-1,-100,15006.17132245202,-0.002421992906729648,0.0038167451524756184,0.9999897831512085,25.654439369168394,0.022417540850122597,64.92674615346579,-22.213184376175143,-162.5165557861328,5356.25390625,True
1599564262.028096,0.0,10,0.5,0.5,17.485098100280762,-0.2,-0.02275,-0.5,0.0321607569814797,10,1,100,0.015073516526993624,-10,-1,-100,15005.309992781491,-0.002310594478280857,0.003725491767110126,0.9999903908859574,25.466586563781547,0.02179285676312483,65.53816307054997,-22.584438740532015,-164.88925170898438,5356.25390625,True
1599564262.0809467,0.0,10,0.5,0.5,17.133435643386843,-0.2,-0.02275,-0.5,0.035847121989206567,10,1,100,0.02048651089436552,-10,-1,-100,15004.850031607086,-0.002259974951527967,0.003676378279654153,0.9999906883346281,25.376149178812085,0.021492786212480335,65.84711423427831,-22.770066316533516,-165.97222900390625,5356.25390625,True
1599564262.132787,0.0,10,0.5,0.5,19.210238073349,-0.2,-0.02275,-0.5,0.015917709330729227,10,1,100,0.007053682350678988,-10,-1,-100,15003.003348753089,-0.0020931311818258836,0.0034509560089784554,0.9999918548190679,25.064519029348478,0.020415628693191325,67.17994162874284,-23.512575610424538,-169.61502075195312,5356.25390625,True
1599564262.1833785,0.0,10,0.5,0.5,17.460337448501587,-0.2,-0.02275,-0.5,0.038392070650849666,10,1,100,0.023589576913011404,-10,-1,-100,15003.003348753089,-0.0020931311818258836,0.0034509560089784554,0.9999918548190679,25.064519029348478,0.020415628693191325,67.17994162874284,-23.512575610424538,-169.61502075195312,5356.25390625,True
1599564262.2342422,0.0,10,0.5,0.5,18.932777832794187,-0.2,-0.02275,-0.5,0.01744469280055448,10,1,100,0.013327601489593425,-10,-1,-100,15001.559986750595,-0.0020010995140681154,0.0032611469368517944,0.9999926802339061,24.9107980261803,0.01976397269748018,68.36549015210589,-24.069451555914924,-171.62347412109375,5356.25390625,True
1599564262.2891352,0.0,10,0.5,0.5,18.677412327957153,-0.2,-0.02275,-0.5,0.021258681293248018,10,1,100,0.01754090604283104,-10,-1,-100,15000.572680616751,-0.001956729120859975,0.0031240274841588546,0.9999932058086324,24.858012459136827,0.019408055079792513,69.28401827102766,-24.44069630967348,-172.61788940429688,5356.25390625,True
1599564262.3489785,0.0,10,0.5,0.5,18.909371810531617,-0.2,-0.02275,-0.5,0.010926827047122261,10,1,100,0.01667131777807394,-10,-1,-100,14999.063890314428,-0.0019093614819403752,0.002906293483487574,0.9999939538801819,24.864237358431588,0.018984503491234924,70.89775115260426,-24.997551257503773,-173.59268188476562,5356.25390625,True
1599564262.4038284,0.0,10,0.5,0.5,18.598124445724487,-0.2,-0.02275,-0.5,0.024129739639838707,10,1,100,0.020261499448315175,-10,-1,-100,14998.600998741924,-0.0018997826968826976,0.002829404037522563,0.9999941926323858,24.890529483757202,0.018869751086507208,71.50564592024361,-25.183165518524035,-173.77981567382812,5356.25390625,True
1599564262.4536948,0.0,10,0.5,0.5,18.62563803138733,-0.2,-0.02275,-0.5,0.02302982057181545,10,1,100,0.020329264850833577,-10,-1,-100,14998.07560820668,-0.001892406228351101,0.0027505475066576597,0.999994426628009,24.929583929003357,0.018766811223432767,72.15172013749542,-25.36877744319356,-173.8980712890625,5356.25390625,True
1599564262.5085492,0.0,10,0.5,0.5,18.61616552848816,-0.2,-0.02275,-0.5,0.01310219628936176,10,1,100,0.019712968897753275,-10,-1,-100,14997.030684664613,-0.001880634285078492,0.00258961592989582,0.999994878538896,25.045986417278723,0.018591354906935302,73.56170702010893,-25.73999353805338,-173.92782592773438,5356.25390625,True
1599564262.930426,0.0,10,0.5,0.5,18.45521820907593,-0.2,-0.02275,-0.5,0.010294895050928968,10,1,100,0.021183966754023925,-10,-1,-100,14995.980879350565,-0.001883797370452809,0.002418909148147104,0.9999953000819555,25.21407326149707,0.0184483750205775,75.13614910290867,-26.11119804711195,-173.68206787109375,5356.25390625,True
1599564262.9763033,0.0,10,0.5,0.5,18.43976349182129,-0.2,-0.02275,-0.5,0.01752148379854115,10,1,100,0.021267632538160074,-10,-1,-100,14995.457440191298,-0.0018878214980196332,0.0023306052284619845,0.9999955021945152,25.317369317330396,0.018385693479059304,75.98673128651222,-26.29679537787348,-173.45587158203125,5356.25390625,True
1599564263.0311568,0.0,10,0.5,0.5,17.8055863861084,-0.2,-0.02275,-0.5,-0.004106429463567731,10,1,100,0.02328599326887693,-10,-1,-100,14993.88419728051,-0.001910166851044634,0.002054934974593788,0.9999960642446806,25.703079014782418,0.01821635410534278,78.79819271983696,-26.853565617803465,-172.364013671875,5356.25390625,True
1599564263.0790274,0.0,10,0.5,0.5,18.357769300079347,-0.2,-0.02275,-0.5,0.02332099381981344,10,1,100,0.021033161533298712,-10,-1,-100,14993.88419728051,-0.001910166851044634,0.002054934974593788,0.9999960642446806,25.703079014782418,0.01821635410534278,78.79819271983696,-26.853565617803465,-172.364013671875,5356.25390625,True
1599564263.1259031,0.0,10,0.5,0.5,16.670088627624512,-0.2,-0.02275,-0.5,-0.02061923418304734,10,1,100,0.026775850372141786,-10,-1,-100,14991.725016315817,-0.001962539444425736,0.0016567474664172215,0.9999967018079419,26.381542036506854,0.017979533785554842,83.14305554171166,-27.59586695465043,-169.94410705566406,5356.25390625,True
1599564263.179758,0.0,10,0.5,0.5,16.740088563156128,-0.2,-0.02275,-0.5,-0.004387280706239921,10,1,100,0.026154139932685987,-10,-1,-100,14990.551187412464,-0.0020045340344768143,0.0014437805810189872,0.999996948665814,26.782323880470514,0.017831845438156357,85.55645619018811,-27.966988189764002,-168.32106018066406,5356.25390625,True
1599564263.230022,0.0,10,0.5,0.5,17.541836714172362,-0.2,-0.02275,-0.5,0.01674138314326952,10,1,100,0.021959461418939837,-10,-1,-100,14990.551187412464,-0.0020045340344768143,0.0014437805810189872,0.999996948665814,26.782323880470514,0.017831845438156357,85.55645619018811,-27.966988189764002,-168.32106018066406,5356.25390625,True
1599564263.2798874,0.0,10,0.5,0.5,16.200948205947878,-0.2,-0.02275,-0.5,-0.00765734905968625,10,1,100,0.024882153830095316,-10,-1,-100,14989.438882093062,-0.002031017444985013,0.0012233034818125426,0.9999971892444146,27.2168102974409,0.01765274156721905,88.1138177309076,-28.338087563955284,-166.42263793945312,5356.25390625,True
1599564263.3297892,0.0,10,0.5,0.5,14.778761713027954,-0.2,-0.02275,-0.5,-0.024256912803642186,10,1,100,0.028658478694732634,-10,-1,-100,14987.7406384598,-0.0020893041944454395,0.0008734247217304571,0.9999974359653322,27.91543029276914,0.01731349322304252,92.17542150960828,-28.894691505552252,-163.058837890625,5356.25390625,True
1599564263.3796208,0.0,10,0.5,0.5,13.647783792495728,-0.2,-0.02275,-0.5,-0.030015305347066916,10,1,100,0.028581375825455342,-10,-1,-100,14985.979896947858,-0.00214141221517413,0.0005047105737928157,0.999997579807552,28.64400027182033,0.01689030079207607,96.42872140381945,-29.451236813286837,-159.07566833496094,5356.25390625,True
1599564263.4374669,0.0,10,0.5,0.5,15.6055799118042,-0.2,-0.02275,-0.5,0.006647618911086924,10,1,100,0.023396651545595868,-10,-1,-100,14985.979896947858,-0.00214141221517413,0.0005047105737928157,0.999997579807552,28.64400027182033,0.01689030079207607,96.42872140381945,-29.451236813286837,-159.07566833496094,5356.25390625,True
1599564263.4883633,0.0,10,0.5,0.5,13.472724193191528,-0.2,-0.02275,-0.5,-0.021671212682594466,10,1,100,0.026317023873059998,-10,-1,-100,14984.80606857792,-0.00216772685920133,0.00024900683073603424,0.9999976194750978,29.128292273278717,0.01657290490921407,99.31200598514658,-29.82223265036339,-156.07620239257812,5356.25390625,True
1599564263.538196,0.0,10,0.5,0.5,12.640625631332398,-0.2,-0.02275,-0.5,-0.025042917684734833,10,1,100,0.025780454601845127,-10,-1,-100,14983.569741036277,-0.002186516900977575,-1.2210618973474086e-05,0.999997609494514,29.596431063482324,0.016244464844536167,102.1814590941261,-30.19320045098575,-152.80149841308594,5356.25390625,True
1599564263.587065,0.0,10,0.5,0.5,11.748641661071778,-0.2,-0.02275,-0.5,-0.02915346120742212,10,1,100,0.02654584511547855,-10,-1,-100,14982.331459503272,-0.0022103056253981626,-0.0002851703820123959,0.9999975166103642,30.034082690166564,0.015926870650119083,104.98488650260691,-30.56414048259323,-149.25173950195312,5356.25390625,True
1599564263.6369307,0.0,10,0.5,0.5,7.923438556671144,-0.2,-0.02275,-0.5,-0.0628147143115932,10,1,100,0.02439495222986308,-10,-1,-100,14979.857827596017,-0.002212105313389144,-0.0008371996444887837,0.9999972028395069,30.75391587335976,0.015434197965290334,110.14875521062719,-31.305942880041126,-141.3267364501953,5356.25390625,True
1599564263.6838062,0.0,10,0.5,0.5,8.758239434051514,-0.2,-0.02275,-0.5,-0.038681740058465613,10,1,100,0.02277584469905973,-10,-1,-100,14978.621500007343,-0.0021987953559473115,-0.0011173865288835161,0.9999969583685382,31.000267176235862,0.015315628404495353,112.36606071684821,-31.676811127600125,-136.95159912109375,5356.25390625,True
1599564263.7336736,0.0,10,0.5,0.5,10.874442574691772,-0.2,-0.02275,-0.5,-0.010919168329982614,10,1,100,0.02412626657539002,-10,-1,-100,14978.621500007343,-0.0021987953559473115,-0.0011173865288835161,0.9999969583685382,31.000267176235862,0.015315628404495353,112.36606071684821,-31.676811127600125,-136.95159912109375,5356.25390625,True
1599564263.7855344,0.0,10,0.5,0.5,7.547814294433593,-0.2,-0.02275,-0.5,-0.04081409130670437,10,1,100,0.020335551414964147,-10,-1,-100,14977.32169642218,-0.002164157707833012,-0.001386830222208348,0.9999966965562187,31.14512176651774,0.015311212556238291,114.23280228997788,-32.047663140200235,-132.3012237548828,5356.25390625,True
1599564263.835402,0.0,10,0.5,0.5,4.551592190933228,-0.2,-0.02275,-0.5,-0.059195365717681636,10,1,100,0.0166232744606086,-10,-1,-100,14975.371501608752,-0.0020987999279051006,-0.0017965086801452423,0.9999961837904306,31.127487751071644,0.015525044858762247,116.18075672717862,-32.603924483669914,-124.81010437011719,5356.25390625,True
1599564263.8879411,0.0,10,0.5,0.5,6.365970975494386,-0.2,-0.02275,-0.5,-0.033400805681861274,10,1,100,0.020055847381342827,-10,-1,-100,14974.720135728247,-0.0020705803402196197,-0.0019320204293968922,0.9999959899890174,31.048998251794465,0.01564570969743984,116.55740429760753,-32.78934395920119,-122.17558288574219,5356.25390625,True
1599564263.9368112,0.0,10,0.5,0.5,-0.25904269790649437,-0.2,-0.02275,-0.5,-0.0748533595282917,10,1,100,0.006422373936172142,-10,-1,-100,14972.059004825074,-0.0019210498945266804,-0.002429839117317587,0.9999952027130763,30.319534274795803,0.016201280195199827,116.43713770463839,-33.531042437961304,-110.94940185546875,5356.25390625,True
1599564263.9866781,0.0,10,0.5,0.5,1.0266963336944581,-0.2,-0.02275,-0.5,-0.05181644211276123,10,1,100,0.011668316404354747,-10,-1,-100,14970.694748060894,-0.0018330038411717114,-0.0026703072664760233,0.9999947547642541,29.796020384211847,0.01643703613543505,115.7149306212473,-33.90191452393612,-104.92388153076172,5356.25390625,True
1599564264.0355465,0.0,10,0.5,0.5,3.9230849660873415,-0.2,-0.02275,-0.5,-0.028061558606638812,10,1,100,0.02043944943804868,-10,-1,-100,14970.694748060894,-0.0018330038411717114,-0.0026703072664760233,0.9999947547642541,29.796020384211847,0.01643703613543505,115.7149306212473,-33.90191452393612,-104.92388153076172,5356.25390625,True
1599564264.0913973,0.0,10,0.5,0.5,-0.47253018531799285,-0.2,-0.02275,-0.5,-0.050870412249960056,10,1,100,0.00989606921222173,-10,-1,-100,14969.331468200195,-0.0017374763055367445,-0.002875244029917578,0.9999943570580068,29.064986863841497,0.016463813070467365,114.13379464615683,-34.27280846516218,-98.80003356933594,5356.25390625,True
1599564264.140301,0.0,10,0.5,0.5,-6.4602852638244626,-0.2,-0.02275,-0.5,-0.07307098107177622,10,1,100,-0.0036413505538534716,-10,-1,-100,14966.6058841357,-0.0015279954837405104,-0.003261018919019224,0.9999935154716812,27.12942558087926,0.015600665024306177,108.88426889026887,-35.01467229878173,-86.035888671875,5356.25390625,True
1599564264.193133,0.0,10,0.5,0.5,-4.804713605117798,-0.2,-0.02275,-0.5,-0.052167694805654946,10,1,100,0.0057250525676229656,-10,-1,-100,14965.181080634007,-0.001423329410329764,-0.0034194900164427723,0.9999931405871828,28.626386794396094,0.016151233618953126,116.1336905199928,-35.385578958715385,-79.46343994140625,5356.25390625,True
1599564264.2529764,0.0,10,0.5,0.5,-6.128416037368774,-0.2,-0.02275,-0.5,-0.05162945982932554,10,1,100,0.005497779607332529,-10,-1,-100,14963.757253612042,-0.001326817285722461,-0.003556568783872495,0.9999927951612331,29.9345106944352,0.016348995412031917,122.7388176393663,-35.75642672813305,-73.06466674804688,5356.25390625,True
1599564264.3023891,0.0,10,0.5,0.5,-7.371570698165893,-0.2,-0.02275,-0.5,-0.051953845037653,10,1,100,0.004416065890596859,-10,-1,-100,14962.267996537383,-0.0012300379369002475,-0.003681917363197957,0.9999924652172156,31.014923374121924,0.016282429422168454,128.51382291388245,-36.12721873968082,-66.92581176757812,5356.25390625,True
1599564264.3532565,0.0,10,0.5,0.5,-8.556536332702638,-0.2,-0.02275,-0.5,-0.0510876085849674,10,1,100,0.004548759955971255,-10,-1,-100,14960.840262789861,-0.001144112220175214,-0.003785909297432154,0.999992178918425,31.87371781013634,0.016076136496890013,133.45455563299754,-36.49796139772594,-61.060577392578125,5356.25390625,True
1599564264.404119,0.0,10,0.5,0.5,-9.681540871810913,-0.2,-0.02275,-0.5,-0.05030452081416095,10,1,100,0.00481132743222347,-10,-1,-100,14959.351982492022,-0.001069252807216322,-0.0038715198937129226,0.999991933983543,32.52708935001801,0.015846053056874802,137.60078914660232,-36.86866244381696,-55.471160888671875,5356.25390625,True
1599564264.4539492,0.0,10,0.5,0.5,-7.038585179901124,-0.2,-0.02275,-0.5,-0.0419374111325157,10,1,100,0.012197135974812357,-10,-1,-100,14959.351982492022,-0.001069252807216322,-0.0038715198937129226,0.999991933983543,32.52708935001801,0.015846053056874802,137.60078914660232,-36.86866244381696,-55.471160888671875,5356.25390625,True
1599564264.5008242,0.0,10,0.5,0.5,-14.409930624389649,-0.2,-0.02275,-0.5,-0.05570814629595274,10,1,100,-0.0002947650219411839,-10,-1,-100,14956.375420818338,-0.0009564644318706628,-0.003995397776311082,0.999991560950591,33.29772587662512,0.015637833136803742,143.74975072567815,-37.60997453553756,-45.1209716796875,5356.25390625,True
1599564264.5546806,0.0,10,0.5,0.5,-9.370887639808656,-0.2,-0.02275,-0.5,-0.04345286708712033,10,1,100,0.010896418571694624,-10,-1,-100,14956.375420818338,-0.0009564644318706628,-0.003995397776311082,0.999991560950591,33.29772587662512,0.015637833136803742,143.74975072567815,-37.60997453553756,-45.1209716796875,5356.25390625,True
1599564264.6135232,0.0,10,0.5,0.5,-15.978521290969848,-0.2,-0.02275,-0.5,-0.05090320627172587,10,1,100,0.004771973026340567,-10,-1,-100,14953.334405745612,-0.0009015845081940814,-0.004061923504798555,0.999991343923944,33.49809076095511,0.015980062509252907,147.52382764831947,-38.35122009150367,-35.8758544921875,5356.25390625,True
