Timestamp,Input Throttle,horizon,dT,dt,Input Roll,Roll P,Roll I,Roll D,Input Pitch,Pitch P,Pitch I,Pitch D,Input Yaw,Yaw P,Yaw I,Yaw D,Altitude,Direction X,Direction Y,Direction Z,Drag X,Drag Y,Drag Z,Vertical Velocity,Roll,Mass,Has Fuel
1599558840.4799209,0.0,10,0.5,0.5,-0.05851531982421875,-0.001,-0.0155,-0.2505,-0.0002792052871515974,10,1,100,0.17496792310203413,-10,-1,-100,14993.923618518747,-0.01681197697121171,-7.39514000337064e-05,0.9998586659931042,28.644396090797628,0.02727512844846871,-87.50331536459824,27.008979213968477,-31.79046630859375,5356.25390625,True
1599558840.5069227,0.0,10,0.5,0.5,-0.14877201843261717,-0.001,-0.0155,-0.2505,-0.00020698158505577885,10,1,100,0.1777795630162995,-10,-1,-100,14995.009558706544,-0.01688450965854863,-6.90429677129368e-05,0.9998574441222403,28.499114269774388,0.027602452677697002,-85.86380102692362,26.63704806715215,-31.78912353515625,5356.25390625,True
1599558840.5398393,0.0,10,0.5,0.5,-0.23851668395996095,-0.001,-0.0155,-0.2505,0.003513472489233325,10,1,100,0.17839329236720702,-10,-1,-100,14996.026163850445,-0.016940678268719037,-3.0695680411688096e-05,0.999856495942078,28.35403331683687,0.027923816856965936,-84.2370756317467,26.26513253505619,-31.789703369140625,5356.25390625,True
1599558840.5748243,0.0,10,0.5,0.5,-0.3288878921508789,-0.001,-0.0155,-0.2505,-0.0003243258089327141,10,1,100,0.1744704991770383,-10,-1,-100,14996.026163850445,-0.016940678268719037,-3.0695680411688096e-05,0.999856495942078,28.35403331683687,0.027923816856965936,-84.2370756317467,26.26513253505619,-31.789703369140625,5356.25390625,True
1599558840.6097794,0.0,10,0.5,0.5,-0.4170185302734375,-0.001,-0.0155,-0.2505,0.003620403939531374,10,1,100,0.1782791200096452,-10,-1,-100,14996.56815746508,-0.016959901477862083,5.193404283814241e-06,0.9998561705139843,28.282211176161947,0.028082776288645625,-83.43039603692498,26.07918070181008,-31.79803466796875,5356.25390625,True
1599558840.6406538,0.0,10,0.5,0.5,-0.4972838989257813,-0.001,-0.0155,-0.2505,0.00963893278792096,10,1,100,0.18141403629449876,-10,-1,-100,14997.58378424286,-0.01699045826923819,9.252902226119097e-05,0.9998556474642635,28.141748042005233,0.02839834565116123,-81.83532474461835,25.707288579897515,-31.84588623046875,5356.25390625,True
1599558840.6752527,0.0,10,0.5,0.5,-0.5451845092773436,-0.001,-0.0155,-0.2505,0.025272193896426768,10,1,100,0.17974022767060813,-10,-1,-100,14999.126752469805,-0.016987574857299976,0.000313961476843167,0.9998556514460769,27.943711863213768,0.02886764974017169,-79.50081268442615,25.149478970181217,-32.061492919921875,5356.25390625,True
1599558840.7085073,0.0,10,0.5,0.5,-0.6889986709594725,-0.001,-0.0155,-0.2505,0.003160344585913485,10,1,100,0.18172732635015962,-10,-1,-100,14999.126752469805,-0.016987574857299976,0.000313961476843167,0.9998556514460769,27.943711863213768,0.02886764974017169,-79.50081268442615,25.149478970181217,-32.061492919921875,5356.25390625,True
1599558840.7438416,0.0,10,0.5,0.5,-0.708951626586914,-0.001,-0.0155,-0.2505,0.026688839940171374,10,1,100,0.1788307895630116,-10,-1,-100,15000.142375826486,-0.016945799454819267,0.0005275714696301994,0.9998562704454984,27.822949421430092,0.029177503087914846,-77.98986375135938,24.777624210423177,-32.3392333984375,5356.25390625,True
1599558840.7738142,0.0,10,0.5,0.5,-0.7633946777343751,-0.001,-0.0155,-0.2505,0.0341640057533386,10,1,100,0.17591810550382378,-10,-1,-100,15001.088662129943,-0.01686593759797617,0.0007892388145839035,0.9998574484650472,27.712846368438974,0.02948342428592935,-76.51845266584573,24.405783522543246,-32.7547607421875,5356.25390625,True
1599558840.8089418,0.0,10,0.5,0.5,-0.8095265319824219,-0.001,-0.0155,-0.2505,0.04312442590019796,10,1,100,0.17383903759058927,-10,-1,-100,15002.035923119169,-0.016759102622000335,0.0011078590942272797,0.9998589426151733,27.614223090722135,0.02978270479492731,-75.08746101282912,24.03395640910898,-33.3380126953125,5356.25390625,True
1599558840.8408756,0.0,10,0.5,0.5,-0.6418814666748046,-0.001,-0.0155,-0.2505,0.07293225671492022,10,1,100,0.1577993166227542,-10,-1,-100,15003.50857168308,-0.016516212338995813,0.0016674198008603141,0.9998622077272352,27.48831526315849,0.030209548391778855,-73.01491375548386,23.476239922383826,-34.57598876953125,5356.25390625,True
1599558840.8767185,0.0,10,0.5,0.5,-0.817427182006836,-0.001,-0.0155,-0.2505,0.040117188272513815,10,1,100,0.1708644133836713,-10,-1,-100,15003.926536679035,-0.01641451141347236,0.0018762139458061297,0.9998635125037251,27.451627807544245,0.030342452146841153,-72.3414788448022,23.290340570143897,-35.0938720703125,5356.25390625,True
1599558840.9076872,0.0,10,0.5,0.5,-0.9420354873657226,-0.001,-0.0155,-0.2505,0.019428464740554045,10,1,100,0.1809818892504919,-10,-1,-100,15003.926536679035,-0.01641451141347236,0.0018762139458061297,0.9998635125037251,27.451627807544245,0.030342452146841153,-72.3414788448022,23.290340570143897,-35.0938720703125,5356.25390625,True
1599558840.9414499,0.0,10,0.5,0.5,-0.2835651031494141,-0.001,-0.0155,-0.2505,0.12249551906677164,10,1,100,0.12398975563561873,-10,-1,-100,15005.801520749344,-0.015896879441387374,0.00281145361274791,0.9998696839851728,27.32106604947752,0.030793227272816685,-69.70428633893576,22.546772509408907,-37.691680908203125,5356.25390625,True
1599558840.974399,0.0,10,0.5,0.5,-0.7264862411499025,-0.001,-0.0155,-0.2505,0.058213908987417615,10,1,100,0.15850163614560397,-10,-1,-100,15006.20581332047,-0.01574101567325223,0.0030747420726931606,0.999871374921175,27.289636216742274,0.030877808313856725,-69.0514379164216,22.360887726328812,-38.481719970703125,5356.25390625,True
1599558841.0094578,0.0,10,0.5,0.5,-0.9141054840087891,-0.001,-0.0155,-0.2505,0.032183284297935745,10,1,100,0.17396306869951988,-10,-1,-100,15006.20581332047,-0.01574101567325223,0.0030747420726931606,0.999871374921175,27.289636216742274,0.030877808313856725,-69.0514379164216,22.360887726328812,-38.481719970703125,5356.25390625,True
1599558841.0404499,0.0,10,0.5,0.5,-0.4656332427978515,-0.001,-0.0155,-0.2505,0.09062222442269202,10,1,100,0.13444953572307228,-10,-1,-100,15007.079827062204,-0.015382934972724567,0.0036034953641947177,0.9998751822766606,27.224312126979875,0.031000964313832095,-67.74352048079571,21.98912701676851,-40.225341796875,5356.25390625,True
1599558841.075454,0.0,10,0.5,0.5,-0.14603248443603511,-0.001,-0.0155,-0.2505,0.13428147211992025,10,1,100,0.10186353389709363,-10,-1,-100,15008.414772262331,-0.014762629446449228,0.004478091941091525,0.9998809986515366,27.106459092208905,0.031040728111509826,-65.74364298127094,21.431508696861123,-43.1824951171875,5356.25390625,True
1599558841.1074011,0.0,10,0.5,0.5,-0.8699923355102539,-0.001,-0.0155,-0.2505,0.04721686647738567,10,1,100,0.16367576952379054,-10,-1,-100,15008.414772262331,-0.014762629446449228,0.004478091941091525,0.9998809986515366,27.106459092208905,0.031040728111509826,-65.74364298127094,21.431508696861123,-43.1824951171875,5356.25390625,True
1599558841.143415,0.0,10,0.5,0.5,0.003924726867675643,-0.001,-0.0155,-0.2505,0.14629704435268764,10,1,100,0.08156749861686302,-10,-1,-100,15009.696006531245,-0.014018102718342184,0.005375467328024718,0.9998872922220702,26.944616324424953,0.030861267203454355,-63.65459758772384,20.873920229826567,-46.593048095703125,5356.25390625,True
1599558841.174612,0.0,10,0.5,0.5,-0.22469393920898428,-0.001,-0.0155,-0.2505,0.1258127435536684,10,1,100,0.09391318953752154,-10,-1,-100,15010.50068318611,-0.013455985610163274,0.006001162574123993,0.9998914553585395,26.803228961191163,0.030602119112557218,-62.19548267477216,20.502212976238955,-48.99932861328125,5356.25390625,True
1599558841.2076743,0.0,10,0.5,0.5,-0.8051110321044922,-0.001,-0.0155,-0.2505,0.06367659322106722,10,1,100,0.14981887768252924,-10,-1,-100,15010.50068318611,-0.013455985610163274,0.006001162574123993,0.9998914553585395,26.803228961191163,0.030602119112557218,-62.19548267477216,20.502212976238955,-48.99932861328125,5356.25390625,True
1599558841.2276206,0.0,10,0.5,0.5,0.5299097717285156,-0.001,-0.0155,-0.2505,0.19827123807149982,10,1,100,0.00776137815438932,-10,-1,-100,15012.09929352859,-0.012167243365183192,0.007221000301284,0.999899902662032,26.410398563160776,0.029718146492045877,-59.06674196132876,19.758849811941047,-54.22186279296875,5356.25390625,True
1599558841.2764897,0.0,10,0.5,0.5,-0.748686654663086,-0.001,-0.0155,-0.2505,0.07682194399104687,10,1,100,0.13621087584756858,-10,-1,-100,15012.09929352859,-0.012167243365183192,0.007221000301284,0.999899902662032,26.410398563160776,0.029718146492045877,-59.06674196132876,19.758849811941047,-54.22186279296875,5356.25390625,True
1599558841.3074415,0.0,10,0.5,0.5,-0.020794410705566424,-0.001,-0.0155,-0.2505,0.14643579074912605,10,1,100,0.05555674557760218,-10,-1,-100,15012.850259583094,-0.011437414577343683,0.007849844774822414,0.999903778113073,26.151862912339514,0.029095444415367638,-57.39082420424968,19.38719765678505,-57.014190673828125,5356.25390625,True
1599558841.420648,0.0,10,0.5,0.5,0.016533351135253893,-0.001,-0.0155,-0.2505,0.14254018776923447,10,1,100,0.044291692957141096,-10,-1,-100,15013.640288216295,-0.010675436656481673,0.008381765993947295,0.9999078862830396,25.84420447628109,0.028354693328769987,-55.63092573428719,19.015567929456076,-59.829620361328125,5356.25390625,True
1599558841.4405973,0.0,10,0.5,0.5,0.42020919036865223,-0.001,-0.0155,-0.2505,0.1800515012741968,10,1,100,-0.01740975395317451,-10,-1,-100,15014.766250448884,-0.009426412282892222,0.009201518112359341,0.9999132336437503,25.304073832134126,0.027072889371034217,-52.87529181267258,18.458169350484305,-64.10736083984375,5356.25390625,True
1599558841.474682,0.0,10,0.5,0.5,-0.6143476699829101,-0.001,-0.0155,-0.2505,0.0986360917078087,10,1,100,0.10689703113678733,-10,-1,-100,15014.766250448884,-0.009426412282892222,0.009201518112359341,0.9999132336437503,25.304073832134126,0.027072889371034217,-52.87529181267258,18.458169350484305,-64.10736083984375,5356.25390625,True
1599558841.5115068,0.0,10,0.5,0.5,0.13922190399169931,-0.001,-0.0155,-0.2505,0.15231626537578985,10,1,100,0.010040712132849017,-10,-1,-100,15015.501593285007,-0.008550751398459653,0.009685225667367108,0.9999165370441145,24.88632726746816,0.02612538592022324,-50.9580085272876,18.086603238121196,-66.97470092773438,5356.25390625,True
1599558841.5605824,0.0,10,0.5,0.5,-0.5421688690185547,-0.001,-0.0155,-0.2505,0.10446622324764071,10,1,100,0.09698561277130698,-10,-1,-100,15015.501593285007,-0.008550751398459653,0.009685225667367108,0.9999165370441145,24.88632726746816,0.02612538592022324,-50.9580085272876,18.086603238121196,-66.97470092773438,5356.25390625,True
1599558841.5825424,0.0,10,0.5,0.5,0.2064678588867187,-0.001,-0.0155,-0.2505,0.153596015112881,10,1,100,-0.004036646189354551,-10,-1,-100,15016.184202335891,-0.007637337545471714,0.010127942176742618,0.9999195446947124,24.42797326233608,0.025133466611843357,-48.99441057755545,17.71506493313132,-69.82577514648438,5356.25390625,True
1599558841.6086788,0.0,10,0.5,0.5,0.24593639678955076,-0.001,-0.0155,-0.2505,0.15178935551719117,10,1,100,-0.01554207611675365,-10,-1,-100,15016.904898708104,-0.006707656178019679,0.010510235934757157,0.9999222681234743,23.947808382229155,0.02413715713092925,-47.0265107425159,17.343554807968864,-72.694091796875,5356.25390625,True
1599558841.6446676,0.0,10,0.5,0.5,-0.07068076019287112,-0.001,-0.0155,-0.2505,0.13492486717426003,10,1,100,0.022706602260802004,-10,-1,-100,15017.237903764355,-0.00621634140143392,0.010700363026779515,0.9999234267336055,23.702530215166938,0.023646303744601947,-46.047597299581305,17.15781037652517,-74.14605712890625,5356.25390625,True
1599558841.675715,0.0,10,0.5,0.5,0.7150408065795898,-0.001,-0.0155,-0.2505,0.16723247305212316,10,1,100,-0.09058695325825396,-10,-1,-100,15018.237895454746,-0.004745160101604312,0.011163748288666328,0.9999264243831931,22.87946657491244,0.022166587132042448,-43.00869257998838,16.600620096358607,-78.59359741210938,5356.25390625,True
1599558841.7088764,0.0,10,0.5,0.5,-0.361291845703125,-0.001,-0.0155,-0.2505,0.1212882216621801,10,1,100,0.055788968398348994,-10,-1,-100,15018.237895454746,-0.004745160101604312,0.011163748288666328,0.9999264243831931,22.87946657491244,0.022166587132042448,-43.00869257998838,16.600620096358607,-78.59359741210938,5356.25390625,True
1599558841.7426798,0.0,10,0.5,0.5,0.40824349975585933,-0.001,-0.0155,-0.2505,0.14912921970279047,10,1,100,-0.0555017992935984,-10,-1,-100,15018.889258619398,-0.003739509717564553,0.011413835631295655,0.999927867610086,22.277337233734325,0.021217751973512635,-40.94215843997303,16.229195301614755,-81.5203857421875,5356.25390625,True
1599558841.7784283,0.0,10,0.5,0.5,0.4184881637573243,-0.001,-0.0155,-0.2505,0.14403873020506947,10,1,100,-0.06254027403703788,-10,-1,-100,15019.555271701887,-0.0027676013498052474,0.011592154156763627,0.999928978650371,21.6416761099452,0.020325776529605856,-38.865923668746184,15.857797108069398,-84.34259033203125,5356.25390625,True
1599558841.8096454,0.0,10,0.5,0.5,0.795072023010254,-0.001,-0.0155,-0.2505,0.14706682041639318,10,1,100,-0.1326406205189365,-10,-1,-100,15020.484957074164,-0.0012528258755823338,0.011779616694524358,0.9999298330672286,20.644099083084303,0.019130222557147924,-35.77511623380167,15.300745508325338,-88.52621459960938,5356.25390625,True
1599558841.8424416,0.0,10,0.5,0.5,0.46776029663085933,-0.001,-0.0155,-0.2505,0.13401327351562203,10,1,100,-0.08870701495762309,-10,-1,-100,15021.066011634772,-0.0002825842099437249,0.011829024849225135,0.9999299947082698,20.476700809185594,0.01892183738692902,-34.62578364636658,14.929401487849155,-91.24127197265625,5356.25390625,True
1599558841.8754942,0.0,10,0.5,0.5,0.15257846069335937,-0.001,-0.0155,-0.2505,0.1297880539012602,10,1,100,-0.043852850180078375,-10,-1,-100,15021.34433134133,0.00018417201794231668,0.011833581357748136,0.9999299637639215,20.68264579473172,0.019120282770218145,-34.54005823366108,14.743731317431617,-92.54277038574219,5356.25390625,True
1599558841.9124753,0.0,10,0.5,0.5,-0.13381638412475585,-0.001,-0.0155,-0.2505,0.12954723861799824,10,1,100,0.0019492802668855814,-10,-1,-100,15021.34433134133,0.00018417201794231668,0.011833581357748136,0.9999299637639215,20.68264579473172,0.019120282770218145,-34.54005823366108,14.743731317431617,-92.54277038574219,5356.25390625,True
1599558841.9443889,0.0,10,0.5,0.5,1.1160061035156248,-0.001,-0.0155,-0.2505,0.11814977539142882,10,1,100,-0.20050038499785505,-10,-1,-100,15022.524021146237,0.0020175130571095825,0.011728417474614772,0.99992918442488,21.349820959358567,0.019963374295888098,-33.862058573728916,14.001059247753709,-97.37223815917969,5356.25390625,True
1599558841.9773014,0.0,10,0.5,0.5,0.24000608978271484,-0.001,-0.0155,-0.2505,0.12228043864112478,10,1,100,-0.06742339789349971,-10,-1,-100,15022.783787964145,0.0024664639651901126,0.011669257990818171,0.9999288699569845,21.487099028143934,0.020188019892951655,-33.62878346199448,13.815392892330038,-98.54730987548828,5356.25390625,True
1599558842.0092573,0.0,10,0.5,0.5,0.28038463401794433,-0.001,-0.0155,-0.2505,0.12048295384027627,10,1,100,-0.07191675232895067,-10,-1,-100,15023.051366427797,0.002907556371615945,0.011598255057391694,0.9999285107424278,21.617351830920594,0.020420113803821447,-33.3788639174779,13.629727067783415,-99.72787475585938,5356.25390625,True
1599558842.045128,0.0,10,0.5,0.5,0.8607571208953857,-0.001,-0.0155,-0.2505,0.09867695431492043,10,1,100,-0.16265518110183988,-10,-1,-100,15023.824808191857,0.004126487260417313,0.011335075570620093,0.9999272414354446,21.997693232334793,0.021178005190786695,-32.58065334537891,13.0727309473649,-103.08113861083984,5356.25390625,True
1599558842.0771482,0.0,10,0.5,0.5,0.5953086807250977,-0.001,-0.0155,-0.2505,0.09985293303734125,10,1,100,-0.1274173959636244,-10,-1,-100,15024.352154362714,0.004906197615014759,0.011106356455320687,0.9999262863187715,22.217736544384703,0.021696043385419708,-31.973480735124557,12.701401110665055,-105.21469116210938,5356.25390625,True
1599558842.1093938,0.0,10,0.5,0.5,0.3525241729736328,-0.001,-0.0155,-0.2505,0.10965803670533725,10,1,100,-0.08956176744627828,-10,-1,-100,15024.614850441343,0.005263023398734219,0.010987846819462986,0.9999257811492691,22.31423101596703,0.021951346999885452,-31.643726982620766,12.515736426908218,-106.22838592529297,5356.25390625,True
1599558842.14326,0.0,10,0.5,0.5,0.6043650180816651,-0.001,-0.0155,-0.2505,0.09234241675251526,10,1,100,-0.1307060728272597,-10,-1,-100,15025.126571511617,0.005954149046716705,0.010723245430327877,0.9999247772290525,22.46601952960181,0.022433517116926645,-30.915260122113768,12.144407869368305,-108.10452270507812,5356.25390625,True
1599558842.1794362,0.0,10,0.5,0.5,0.16473913230895995,-0.001,-0.0155,-0.2505,0.11869691853960654,10,1,100,-0.062314205521241006,-10,-1,-100,15025.126571511617,0.005954149046716705,0.010723245430327877,0.9999247772290525,22.46601952960181,0.022433517116926645,-30.915260122113768,12.144407869368305,-108.10452270507812,5356.25390625,True
1599558842.2103539,0.0,10,0.5,0.5,0.4128316005706787,-0.001,-0.0155,-0.2505,0.10234250478751616,10,1,100,-0.09982814042134627,-10,-1,-100,15025.32090938685,0.006289515061029789,0.01057557419568969,0.9999242967498733,22.54641772246844,0.02268298180861581,-30.552297133694207,11.958744090511646,-108.98704528808594,5356.25390625,True
1599558842.2442636,0.0,10,0.5,0.5,0.6381431789398193,-0.001,-0.0155,-0.2505,0.08353891585235562,10,1,100,-0.13472383889158793,-10,-1,-100,15025.77696659416,0.006906076566459255,0.010271529544028112,0.9999233979597059,22.684944418833506,0.02316255702865237,-29.78689766930948,11.587417579143102,-110.66058349609375,5356.25390625,True
1599558842.2761786,0.0,10,0.5,0.5,0.6444344112396241,-0.001,-0.0155,-0.2505,0.0761034391121185,10,1,100,-0.13777262618313735,-10,-1,-100,15026.233999481658,0.007488192451728749,0.009928950119255178,0.9999226684715851,22.790704144057216,0.023607296494851465,-28.968082516122244,11.216092947410694,-112.2408218383789,5356.25390625,True
1599558842.3130803,0.0,10,0.5,0.5,0.46258350677490234,-0.001,-0.0155,-0.2505,0.09114622470830458,10,1,100,-0.10933291919082616,-10,-1,-100,15026.482046547462,0.007753872575321261,0.009755902754295437,0.999922346895765,22.834815235548444,0.023818321379883683,-28.544334635816668,11.030431289599004,-113.00007629394531,5356.25390625,True
1599558842.3439965,0.0,10,0.5,0.5,0.8188680728912354,-0.001,-0.0155,-0.2505,0.04851003763378706,10,1,100,-0.16265411038570143,-10,-1,-100,15027.13341645815,0.008475331327076837,0.009212724681142353,0.9999216441616042,22.928076454153288,0.024395334457171857,-27.215413681953414,10.473450028385594,-115.08387756347656,5356.25390625,True
1599558842.376908,0.0,10,0.5,0.5,0.619161217880249,-0.001,-0.0155,-0.2505,0.060416140120636015,10,1,100,-0.13723580146717146,-10,-1,-100,15027.519159186631,0.008895065770363033,0.008829332392134766,0.9999214572627443,22.953839611916607,0.024725429146918363,-26.28110461019966,10.102132573531659,-116.27069091796875,5356.25390625,True
1599558842.410819,0.0,10,0.5,0.5,0.3423082786560058,-0.001,-0.0155,-0.2505,0.09850479470354616,10,1,100,-0.09573921498954646,-10,-1,-100,15027.519159186631,0.008895065770363033,0.008829332392134766,0.9999214572627443,22.953839611916607,0.024725429146918363,-26.28110461019966,10.102132573531659,-116.27069091796875,5356.25390625,True
1599558842.4467227,0.0,10,0.5,0.5,0.7329572700500488,-0.001,-0.0155,-0.2505,0.03514773208514294,10,1,100,-0.153542214413756,-10,-1,-100,15028.083611045498,0.009416921339532803,0.008255429117479451,0.999921581666568,22.945208840503653,0.025142275783296277,-24.82423664108819,9.545162134115765,-117.75582885742188,5356.25390625,True
1599558842.4776397,0.0,10,0.5,0.5,0.48095235862731933,-0.001,-0.0155,-0.2505,0.07099559371722006,10,1,100,-0.11800565931022283,-10,-1,-100,15028.279900220106,0.00956449963061793,0.008062072535086215,0.9999217586057696,22.92990218418777,0.02526011179507405,-24.32561979338408,9.359506870704642,-118.1620101928711,5356.25390625,True
1599558842.5135438,0.0,10,0.5,0.5,0.5765928939819336,-0.001,-0.0155,-0.2505,0.04528270620229419,10,1,100,-0.132272087636662,-10,-1,-100,15028.650015831925,0.009825074379495764,0.007654959549043257,0.9999224317454529,22.883772555859757,0.025467156611433374,-23.314437213079366,8.988198812277922,-118.88487243652344,5356.25390625,True
1599558842.5454578,0.0,10,0.5,0.5,0.6104923774719238,-0.001,-0.0155,-0.2505,0.022848124866146458,10,1,100,-0.1376793240206462,-10,-1,-100,15029.161730473745,0.010107598186209307,0.007083695445840393,0.999923825957626,22.782902471975127,0.02571375794055708,-21.77449217965919,8.431242504293866,-119.67321014404297,5356.25390625,True
1599558842.5803647,0.0,10,0.5,0.5,0.4295773372650146,-0.001,-0.0155,-0.2505,0.07962534731144792,10,1,100,-0.10980875166180987,-10,-1,-100,15029.161730473745,0.010107598186209307,0.007083695445840393,0.999923825957626,22.782902471975127,0.02571375794055708,-21.77449217965919,8.431242504293866,-119.67321014404297,5356.25390625,True
1599558842.613278,0.0,10,0.5,0.5,0.4893676788330078,-0.001,-0.0155,-0.2505,0.05838982626140218,10,1,100,-0.11784611166873384,-10,-1,-100,15029.340440203436,0.010177754621163389,0.006893543285474694,0.9999244433315164,22.739807873669854,0.025778112209485383,-21.25510802803345,8.245591712214935,-119.85540008544922,5356.25390625,True
1599558842.6441946,0.0,10,0.5,0.5,0.5429077590942383,-0.001,-0.0155,-0.2505,-0.005932797164460879,10,1,100,-0.1281367157756922,-10,-1,-100,15029.96152532415,0.010332639088303598,0.006138686023846921,0.9999277739433841,22.52603091006834,0.025955442729820945,-19.160272170214988,7.502993705523283,-120.20281982421875,5356.25390625,True
1599558842.6791012,0.0,10,0.5,0.5,0.4677993713378906,-0.001,-0.0155,-0.2505,0.048964535256842565,10,1,100,-0.1138484281286536,-10,-1,-100,15030.085545680602,0.010341205292082545,0.005954807186861203,0.9999287973373276,22.463293607555045,0.025981466543278275,-18.634422716591477,7.3173451501770534,-120.20582580566406,5356.25390625,True
1599558842.7146287,0.0,10,0.5,0.5,0.4749853927612304,-0.001,-0.0155,-0.2505,0.06702662720598623,10,1,100,-0.11317839514725951,-10,-1,-100,15030.085545680602,0.010341205292082545,0.005954807186861203,0.9999287973373276,22.463293607555045,0.025981466543278275,-18.634422716591477,7.3173451501770534,-120.20582580566406,5356.25390625,True
1599558842.7445486,0.0,10,0.5,0.5,0.43163948211669917,-0.001,-0.0155,-0.2505,0.007688642544588863,10,1,100,-0.10896249251336533,-10,-1,-100,15030.524013291346,0.010301564232209216,0.005417984167398748,0.9999322593165657,22.25257985367072,0.026016520157073012,-17.055342344575077,6.760399681251644,-120.00922393798828,5356.25390625,True
1599558842.7784588,0.0,10,0.5,0.5,0.41170039405822756,-0.001,-0.0155,-0.2505,0.021330726756092218,10,1,100,-0.10355314195512516,-10,-1,-100,15030.755451153265,0.01021507235592051,0.005057083413650853,0.9999350369919592,22.092370869351925,0.026003331936167207,-16.00300409495468,6.389101413196529,-119.7110824584961,5356.25390625,True
1599558842.8110917,0.0,10,0.5,0.5,0.4395556488037109,-0.001,-0.0155,-0.2505,0.037443142552592124,10,1,100,-0.10563438590291822,-10,-1,-100,15030.936110873125,0.010154638185168544,0.004878375913578973,0.9999365403723249,22.006189449054325,0.025985626597395207,-15.477587328110804,6.203451479424452,-119.51283264160156,5356.25390625,True
1599558842.847993,0.0,10,0.5,0.5,0.3685428066253662,-0.001,-0.0155,-0.2505,0.01799447566998697,10,1,100,-0.09627236795346927,-10,-1,-100,15031.127509168233,0.010014052286258538,0.004542002756964042,0.9999395426563367,21.821175330490345,0.025927465510872223,-14.42920986889403,5.83214931693522,-119.02468872070312,5356.25390625,True
1599558842.8789113,0.0,10,0.5,0.5,0.33893879356384277,-0.001,-0.0155,-0.2505,0.014144098137390461,10,1,100,-0.08986741168708356,-10,-1,-100,15031.359922571573,0.00982784825036706,0.0042040355068287535,0.9999428681100861,21.61924285594516,0.025838993069902456,-13.38585360603055,5.460843162695088,-118.41991424560547,5356.25390625,True
1599558842.9128199,0.0,10,0.5,0.5,0.306909160232544,-0.001,-0.0155,-0.2505,0.011515655841256633,10,1,100,-0.08403555724212465,-10,-1,-100,15031.592334900517,0.009605809313635038,0.0038755154948672856,0.9999463529645374,21.398634461624617,0.025717772655233884,-12.348642483839367,5.089531267421005,-117.69791412353516,5356.25390625,True
1599558842.9477265,0.0,10,0.5,0.5,0.27692049903869626,-0.001,-0.0155,-0.2505,0.00907675461418267,10,1,100,-0.07817879558479351,-10,-1,-100,15031.769083325518,0.009351168618696165,0.0035576056364297996,0.9999499482912132,21.158557365102403,0.0255620832745792,-11.31951327653002,4.718212196519605,-116.87171936035156,5356.25390625,True
1599558842.983631,0.0,10,0.5,0.5,0.36662253036499026,-0.001,-0.0155,-0.2505,0.023353157395538303,10,1,100,-0.08831142045682441,-10,-1,-100,15031.880407127319,0.009212543291226987,0.00340141482463445,0.9999517785489949,21.031024573877822,0.025470726852571894,-10.808649144978153,4.532549536250121,-116.42386627197266,5356.25390625,True
1599558843.0121202,0.0,10,0.5,0.5,0.2316852725982666,-0.001,-0.0155,-0.2505,0.005026626892790938,10,1,100,-0.06904248936764426,-10,-1,-100,15032.041530373972,0.008912366434350711,0.00309530678315844,0.9999554934098108,20.761190017342248,0.025260382041168462,-9.796003679118243,4.161216417581249,-115.46455383300781,5356.25390625,True
1599558843.0789413,0.0,10,0.5,0.5,0.46464406700134275,-0.001,-0.0155,-0.2505,0.03535148100002165,10,1,100,-0.09891729116949866,-10,-1,-100,15032.041530373972,0.008912366434350711,0.00309530678315844,0.9999554934098108,20.761190017342248,0.025260382041168462,-9.796003679118243,4.161216417581249,-115.46455383300781,5356.25390625,True
1599558843.117552,0.0,10,0.5,0.5,-0.23315176582336428,-0.001,-0.0155,-0.2505,-0.0455728053650261,10,1,100,-0.003109025752525141,-10,-1,-100,15032.36474690854,0.008042681147703436,0.0023622309983886446,0.9999648669551678,20.001355684937877,0.024566018140542895,-7.332230872869179,3.232829389671309,-112.71923828125,5356.25390625,True
1599558843.1514592,0.0,10,0.5,0.5,0.1288100631713867,-0.001,-0.0155,-0.2505,-0.0043035614976889534,10,1,100,-0.04492651468673233,-10,-1,-100,15032.52879945247,0.007634270680230074,0.0020737513684546322,0.9999687082436343,19.66976510014267,0.02422596212515435,-6.382418729168281,2.8614490163435775,-111.46897888183594,5356.25390625,True
1599558843.1813793,0.0,10,0.5,0.5,0.4292247821807861,-0.001,-0.0155,-0.2505,0.024246068291192666,10,1,100,-0.08550948126649946,-10,-1,-100,15032.52879945247,0.007634270680230074,0.0020737513684546322,0.9999687082436343,19.66976510014267,0.02422596212515435,-6.382418729168281,2.8614490163435775,-111.46897888183594,5356.25390625,True
1599558843.2171001,0.0,10,0.5,0.5,-0.06382977333068851,-0.001,-0.0155,-0.2505,-0.020291465078339902,10,1,100,-0.019433382333086974,-10,-1,-100,15032.676247340045,0.007035870114930814,0.0016714143601362674,0.9999738511109992,19.135682367766062,0.023638915772415357,-5.00035544755837,2.304348477218247,-109.55809783935547,5356.25390625,True
1599558843.2490153,0.0,10,0.5,0.5,0.07252350387573236,-0.001,-0.0155,-0.2505,-0.010018917335190274,10,1,100,-0.030256765428544982,-10,-1,-100,15032.713347553858,0.006592971431136857,0.001401649866963503,0.9999772837946663,18.763759661810003,0.02320159142096649,-4.112912264123351,1.9329265147787673,-108.25531768798828,5356.25390625,True
1599558843.312358,0.0,10,0.5,0.5,0.03543915939331049,-0.001,-0.0155,-0.2505,-0.011960910571921356,10,1,100,-0.025143315458193538,-10,-1,-100,15032.806112854858,0.006146791152338456,0.0011413025579633121,0.999980457002536,18.373503078459233,0.022718454788880887,-3.2534945924164584,1.5614876032352303,-106.87290954589844,5356.25390625,True
1599558843.3460658,0.0,10,0.5,0.5,0.18861850929260257,-0.001,-0.0155,-0.2505,-0.0003171144773263142,10,1,100,-0.044466923078276994,-10,-1,-100,15032.85786598816,0.005919986439214574,0.0010129615260384608,0.9999819636720986,18.186454080500575,0.022479017554647252,-2.8373555111651463,1.3757625622023633,-106.1717758178711,5356.25390625,True
1599558843.3829677,0.0,10,0.5,0.5,-0.00905515975952148,-0.001,-0.0155,-0.2505,-0.015665996203914047,10,1,100,-0.015297076201917163,-10,-1,-100,15032.882272525458,0.005451739166752757,0.0007590658850563359,0.9999848510647749,17.81621806413255,0.02199252439906394,-2.029120134231844,1.0043027320338394,-104.7533950805664,5356.25390625,True
1599558843.4128878,0.0,10,0.5,0.5,-0.21527089691162105,-0.001,-0.0155,-0.2505,-0.0316303438098251,10,1,100,0.017645019054846653,-10,-1,-100,15032.90374721773,0.004730005147748229,0.00038552336860028384,0.9999887391481138,17.262296451702824,0.021245667375179075,-0.8752566474042,0.4470961358910719,-102.59263610839844,5356.25390625,True
1599558843.5365582,0.0,10,0.5,0.5,0.30604775314331056,-0.001,-0.0155,-0.2505,0.005452929494324289,10,1,100,-0.05411014671694589,-10,-1,-100,15032.90374721773,0.004730005147748229,0.00038552336860028384,0.9999887391481138,17.262296451702824,0.021245667375179075,-0.8752566474042,0.4470961358910719,-102.59263610839844,5356.25390625,True
1599558843.5624874,0.0,10,0.5,0.5,-0.08154248657226565,-0.001,-0.0155,-0.2505,-0.0213624646162661,10,1,100,-0.0004235077603648371,-10,-1,-100,15032.927178616868,0.0042457469402216765,0.00014421049797178772,0.9999909763774131,16.939052610887348,0.020801213207074707,-0.14526532803010464,0.075619023070717,-101.13085174560547,5356.25390625,True
1599558843.6237073,0.0,10,0.5,0.5,0.26667249717712405,-0.001,-0.0155,-0.2505,0.0025470203965418273,10,1,100,-0.04846963509227194,-10,-1,-100,15032.927178616868,0.0042457469402216765,0.00014421049797178772,0.9999909763774131,16.939052610887348,0.020801213207074707,-0.14526532803010464,0.075619023070717,-101.13085174560547,5356.25390625,True
1599558843.7125247,0.0,10,0.5,0.5,-0.6651011840820312,-0.001,-0.0155,-0.2505,-0.061756224335041264,10,1,100,0.0873146344246629,-10,-1,-100,15032.888104135054,0.0030144249661950037,-0.0004386103260694378,0.9999953604207897,16.47186643128945,0.02014103649262236,1.5936227223637054,-0.8530702135884167,-97.48970031738281,5356.25390625,True
1599558843.7543128,0.0,10,0.5,0.5,-0.14740147018432617,-0.001,-0.0155,-0.2505,-0.029220085850189082,10,1,100,0.0215508746246448,-10,-1,-100,15032.839272594894,0.0024970935750018614,-0.0006703803965223284,0.9999966575513148,16.314485843336918,0.019929209313889765,2.2657457888276027,-1.2245393732259258,-96.00762939453125,5356.25390625,True
1599558843.7792125,0.0,10,0.5,0.5,0.020027661514282258,-0.001,-0.0155,-0.2505,-0.017551065557019106,10,1,100,-0.004649131409652656,-10,-1,-100,15032.822670425172,0.002269100343810735,-0.000772869553580994,0.9999971269240141,16.22876837421504,0.019818144087468625,2.5957173546525087,-1.41027272716993,-95.28068542480469,5356.25390625,True
1599558843.8155315,0.0,10,0.5,0.5,0.008283196258544928,-0.001,-0.0155,-0.2505,-0.018758154794341213,10,1,100,-0.001499823838975626,-10,-1,-100,15032.73770787369,0.002037134493073853,-0.0008750382172276688,0.9999975421925673,16.14336414958746,0.01970941607310957,2.9221398085559485,-1.596005634117796,-94.58989715576172,5356.25390625,True
1599558843.8454518,0.0,10,0.5,0.5,-0.31365611534118654,-0.001,-0.0155,-0.2505,-0.042427605806879216,10,1,100,0.05465794226418043,-10,-1,-100,15032.661534339422,0.001319467352065509,-0.0011812626108611813,0.9999984318110459,15.899981105351205,0.019406724623268857,3.8829940801327476,-2.1532057989789197,-92.69747924804688,5356.25390625,True
1599558843.8793616,0.0,10,0.5,0.5,-0.16947953796386717,-0.001,-0.0155,-0.2505,-0.03318563628935117,10,1,100,0.03452924406095427,-10,-1,-100,15032.558994444786,0.0008542131339846608,-0.00137363576933512,0.9999986917214918,15.733031449999379,0.019201304806631545,4.50517586479621,-2.5246784969543,-91.4688949584961,5356.25390625,True
1599558843.9144807,0.0,10,0.5,0.5,0.11768985137939454,-0.001,-0.0155,-0.2505,-0.014161590607396458,10,1,100,-0.011536425143853751,-10,-1,-100,15032.558994444786,0.0008542131339846608,-0.00137363576933512,0.9999986917214918,15.733031449999379,0.019201304806631545,4.50517586479621,-2.5246784969543,-91.4688949584961,5356.25390625,True
1599558843.951382,0.0,10,0.5,0.5,-0.3399513347625732,-0.001,-0.0155,-0.2505,-0.043126253398585085,10,1,100,0.06124534172092675,-10,-1,-100,15032.35586905037,0.00019608415522644136,-0.0016353516500387116,0.9999986435870726,15.469785808020697,0.01887023286414693,5.407681331766495,-3.0819055686551318,-89.71780395507812,5356.25390625,True
1599558843.980305,0.0,10,0.5,0.5,-0.06390975456237792,-0.001,-0.0155,-0.2505,-0.026845196429895544,10,1,100,0.020987801250201756,-10,-1,-100,15032.325596331153,-3.211552937214752e-05,-0.0017234284100369455,0.9999985143804505,15.478008456889045,0.01887294878997633,5.73672158556324,-3.2676542530848702,-89.15060424804688,5356.25390625,True
1599558844.013217,0.0,10,0.5,0.5,-0.2249218719482422,-0.001,-0.0155,-0.2505,-0.0358166375341902,10,1,100,0.04586385321884287,-10,-1,-100,15032.151769308839,-0.00046182674920433494,-0.0018833588937943744,0.9999981198358979,15.770397795835219,0.01920625116630281,6.509801545928589,-3.6391625244650467,-88.019287109375,5356.25390625,True
1599558844.046256,0.0,10,0.5,0.5,-0.09783085670471192,-0.001,-0.0155,-0.2505,-0.02820812531783913,10,1,100,0.026034017430877666,-10,-1,-100,15032.123449024162,-0.0006679224658071617,-0.00195773870488724,0.9999978605670831,15.920192356595338,0.01937238582842656,6.907175470255732,-3.824921999145102,-87.47860717773438,5356.25390625,True
1599558844.0821586,0.0,10,0.5,0.5,-0.11130987358093261,-0.001,-0.0155,-0.2505,-0.02923208705070546,10,1,100,0.029348800404743514,-10,-1,-100,15032.037513033603,-0.0008820690102703281,-0.002033284432198795,0.9999975438513231,16.06632031356527,0.019530499086954898,7.309216314928456,-4.010685062961034,-86.94818115234375,5356.25390625,True
1599558844.114105,0.0,10,0.5,0.5,-0.24890775871276855,-0.001,-0.0155,-0.2505,-0.03703481125263841,10,1,100,0.052976923910440635,-10,-1,-100,15031.849038145156,-0.0012884768438474784,-0.002171657218830803,0.9999968118610914,16.353638653904113,0.019829317504540943,8.129388806919065,-4.382221148994957,-85.9285888671875,5356.25390625,True
1599558844.1469836,0.0,10,0.5,0.5,-0.13188057441711426,-0.001,-0.0155,-0.2505,-0.030648374505603603,10,1,100,0.034963603463305126,-10,-1,-100,15031.763100933633,-0.0014909468910457848,-0.0022381205201911754,0.9999963839404148,16.49549216896734,0.0199706456396601,8.547657294250032,-4.56799352565318,-85.43600463867188,5356.25390625,True
1599558844.179994,0.0,10,0.5,0.5,-0.3810611885070801,-0.001,-0.0155,-0.2505,-0.043780569712845975,10,1,100,0.07914842295009242,-10,-1,-100,15031.475996224908,-0.002073483400756748,-0.002416686130309205,0.9999949301345155,16.917550081701194,0.020366243347330015,9.836450321526984,-5.12532427090029,-84.01101684570312,5356.25390625,True
1599558844.2159238,0.0,10,0.5,0.5,-0.25990778884887694,-0.001,-0.0155,-0.2505,-0.03748081910963263,10,1,100,0.06227288747887012,-10,-1,-100,15031.23478829267,-0.0024465635864348557,-0.002520624930824158,0.9999938303692556,17.190109191628164,0.02059838415923128,10.719935981784735,-5.496888294908379,-83.126953125,5356.25390625,True
1599558844.247631,0.0,10,0.5,0.5,-0.15854824790954591,-0.001,-0.0155,-0.2505,-0.03248508406783686,10,1,100,0.045478430304296644,-10,-1,-100,15031.135180018726,-0.002630049802082086,-0.0025686562589473457,0.9999932423986982,17.323315582092228,0.020704364319931452,11.16835852676485,-5.682673091839358,-82.70083618164062,5356.25390625,True
1599558844.2805438,0.0,10,0.5,0.5,-0.16759902038574218,-0.001,-0.0155,-0.2505,-0.03222507575235542,10,1,100,0.04623978683685404,-10,-1,-100,15030.991627507145,-0.0028006093639336652,-0.002608871008473492,0.9999926751627992,17.45515561418527,0.020804405091016782,11.62151713149332,-5.868459434352989,-82.29446411132812,5356.25390625,True
1599558844.313618,0.0,10,0.5,0.5,-0.267768359375,-0.001,-0.0155,-0.2505,-0.03659696246077308,10,1,100,0.06677163644819976,-10,-1,-100,15030.735771225183,-0.0031395924225208257,-0.002684289278702481,0.9999914687388533,17.709893565321508,0.020981116025429056,12.538272287239641,-6.240036177577631,-81.53717041015625,5356.25390625,True
1599558844.3496146,0.0,10,0.5,0.5,-0.3492725357055664,-0.001,-0.0155,-0.2505,-0.03895673862089933,10,1,100,0.08647712338838726,-10,-1,-100,15030.380306677427,-0.0036240746507898137,-0.002773430343213014,0.9999895870293134,18.072999525324004,0.02119272302523363,13.939276146299576,-6.797409476644414,-80.5057373046875,5356.25390625,True
1599558844.3815465,0.0,10,0.5,0.5,-0.10254454498291016,-0.001,-0.0155,-0.2505,-0.03013163931478791,10,1,100,0.03834512535164701,-10,-1,-100,15030.380306677427,-0.0036240746507898137,-0.002773430343213014,0.9999895870293134,18.072999525324004,0.02119272302523363,13.939276146299576,-6.797409476644414,-80.5057373046875,5356.25390625,True
1599558844.4134626,0.0,10,0.5,0.5,-0.3379126434326172,-0.001,-0.0155,-0.2505,-0.0356610801321952,10,1,100,0.08611609966865044,-10,-1,-100,15029.911562245921,-0.004055668824412588,-0.002822956449154602,0.9999877911591084,18.418683404732818,0.021348169537134094,15.37199230192618,-7.354788613057748,-79.61285400390625,5356.25390625,True
1599558844.4463732,0.0,10,0.5,0.5,-0.12561513366699217,-0.001,-0.0155,-0.2505,-0.03078743673973195,10,1,100,0.043274042287787244,-10,-1,-100,15029.911562245921,-0.004055668824412588,-0.002822956449154602,0.9999877911591084,18.418683404732818,0.021348169537134094,15.37199230192618,-7.354788613057748,-79.61285400390625,5356.25390625,True
1599558844.4830146,0.0,10,0.5,0.5,-0.26012604980468745,-0.001,-0.0155,-0.2505,-0.03262708374522602,10,1,100,0.07331159030164001,-10,-1,-100,15029.641057133907,-0.004326221813647099,-0.0028390884226315266,0.9999866116012492,18.63358645397093,0.021415075288184905,16.337984150558796,-7.726375758401883,-79.116943359375,5356.25390625,True
1599558844.5129347,0.0,10,0.5,0.5,-0.2519116683959961,-0.001,-0.0155,-0.2505,-0.030630917251177624,10,1,100,0.0725709044667297,-10,-1,-100,15029.329536785837,-0.00456286804634056,-0.0028350605504806176,0.9999855712293386,18.837292008577304,0.02145508917078977,17.311971451175197,-8.097962898243871,-78.69461059570312,5356.25390625,True
1599558844.545967,0.0,10,0.5,0.5,-0.20126071014404295,-0.001,-0.0155,-0.2505,-0.030568464946819057,10,1,100,0.06238926407227127,-10,-1,-100,15029.16059216531,-0.004683177540979917,-0.0028304507599218303,0.9999850280862286,18.934103774101768,0.02146434444250586,17.80073130638083,-8.283756117267622,-78.50811767578125,5356.25390625,True
1599558844.5788746,0.0,10,0.5,0.5,-0.2463682388305664,-0.001,-0.0155,-0.2505,-0.028333020912438747,10,1,100,0.07437870885494854,-10,-1,-100,15028.775829107384,-0.004899511475990449,-0.002805656162893023,0.9999840614133768,19.12147530441086,0.02146614009281857,18.78448742870273,-8.655341553824337,-78.17147827148438,5356.25390625,True
1599558844.6150453,0.0,10,0.5,0.5,-0.23745402069091798,-0.001,-0.0155,-0.2505,-0.026425414663152094,10,1,100,0.0742032483855361,-10,-1,-100,15028.450636014226,-0.00509252044748363,-0.0027655582906879143,0.9999832088204443,19.29985863314033,0.021445461374086754,19.77501863291803,-9.02692508951349,-77.8995361328125,5356.25390625,True
1599558844.645967,0.0,10,0.5,0.5,-0.24978024291992185,-0.001,-0.0155,-0.2505,-0.02075327159028077,10,1,100,0.08337745831385153,-10,-1,-100,15027.884233194287,-0.005349301501749798,-0.0026773982995824267,0.9999821080958343,19.54845593133348,0.02137206445063553,21.26873499482674,-9.584295314163498,-77.60675048828125,5356.25390625,True
1599558844.6790166,0.0,10,0.5,0.5,-0.21168756408691408,-0.001,-0.0155,-0.2505,-0.021072387691317352,10,1,100,0.07358618854086146,-10,-1,-100,15027.502398970653,-0.005491718453983469,-0.0026001601731133342,0.999981539927361,19.701744817427706,0.021296651535132976,22.26820446430137,-9.95587138331813,-77.49081420898438,5356.25390625,True
1599558844.7120397,0.0,10,0.5,0.5,-0.19563086700439455,-0.001,-0.0155,-0.2505,-0.02407521023601457,10,1,100,0.0662528612940298,-10,-1,-100,15027.276812886354,-0.005552823941221798,-0.0025573995996114973,0.9999813127521763,19.7743656260669,0.0212511101744101,22.76823164905533,-10.14165791091829,-77.457763671875,5356.25390625,True
1599558844.7480855,0.0,10,0.5,0.5,-0.19207606658935547,-0.001,-0.0155,-0.2505,-0.02832966451183811,10,1,100,0.06033518749924016,-10,-1,-100,15027.276812886354,-0.005552823941221798,-0.0025573995996114973,0.9999813127521763,19.7743656260669,0.0212511101744101,22.76823164905533,-10.14165791091829,-77.457763671875,5356.25390625,True
1599558844.7789695,0.0,10,0.5,0.5,-0.19612257232666017,-0.001,-0.0155,-0.2505,-0.011673672788433639,10,1,100,0.07741576923415025,-10,-1,-100,15026.641072695726,-0.005706740906887517,-0.0024062229083528595,0.9999808214158594,19.993884559410144,0.021103719497035427,24.28902066547101,-10.69901088863777,-77.4549560546875,5356.25390625,True
1599558844.8125348,0.0,10,0.5,0.5,-0.18154092254638673,-0.001,-0.0155,-0.2505,-0.013749887052173325,10,1,100,0.070653736042723,-10,-1,-100,15026.188924602233,-0.005783691417495674,-0.002288043076461551,0.999980656699152,20.131687071836843,0.020987013211633106,25.307847779776537,-11.070573726972063,-77.5234375,5356.25390625,True
1599558844.8465781,0.0,10,0.5,0.5,-0.20116545867919922,-0.001,-0.0155,-0.2505,-0.025512765706687167,10,1,100,0.0631044319422922,-10,-1,-100,15026.188924602233,-0.005783691417495674,-0.002288043076461551,0.999980656699152,20.131687071836843,0.020987013211633106,25.307847779776537,-11.070573726972063,-77.5234375,5356.25390625,True
1599558844.881664,0.0,10,0.5,0.5,-0.17232614440917968,-0.001,-0.0155,-0.2505,-0.011283243774738251,10,1,100,0.06899048233705135,-10,-1,-100,15025.77779160405,-0.005836091127110616,-0.002159181074783851,0.9999806388012931,20.26080651456005,0.02085479751088257,26.327246000401622,-11.44213133141292,-77.64532470703125,5356.25390625,True
1599558844.9126756,0.0,10,0.5,0.5,-0.1337842010498047,-0.001,-0.0155,-0.2505,-0.00029812252075565177,10,1,100,0.06847868837558688,-10,-1,-100,15025.031696830993,-0.005878026451123495,-0.0019427793070271346,0.9999808370231922,20.43832649847384,0.02062996654532141,27.855190725742727,-11.999457742687863,-77.92529296875,5356.25390625,True
1599558844.9467187,0.0,10,0.5,0.5,-0.14075509796142577,-0.001,-0.0155,-0.2505,-0.004527278953390442,10,1,100,0.06448220238082039,-10,-1,-100,15024.551227266085,-0.005878928223023569,-0.0017852817374139503,0.9999811253079064,20.545461935180153,0.020463688387324312,28.87085312876125,-12.371001513353429,-78.17794799804688,5356.25390625,True
1599558844.9796314,0.0,10,0.5,0.5,-0.12914913635253905,-0.001,-0.0155,-0.2505,-0.0023517396459344087,10,1,100,0.062047987586392926,-10,-1,-100,15024.028765455005,-0.005856903874096531,-0.0016232156591098861,0.9999815307534103,20.64399991609666,0.020286220010652375,29.883361552096492,-12.74253949683333,-78.47402954101562,5356.25390625,True
1599558845.015532,0.0,10,0.5,0.5,-0.20197328033447268,-0.001,-0.0155,-0.2505,-0.01845292921229357,10,1,100,0.06430118271633133,-10,-1,-100,15024.028765455005,-0.005856903874096531,-0.0016232156591098861,0.9999815307534103,20.64399991609666,0.020286220010652375,29.883361552096492,-12.74253949683333,-78.47402954101562,5356.25390625,True
1599558845.0455935,0.0,10,0.5,0.5,-0.1595559860229492,-0.001,-0.0155,-0.2505,-0.008978063399763706,10,1,100,0.0623568188676098,-10,-1,-100,15023.788530964055,-0.0058388958523625965,-0.0015379686467359814,0.9999817708076817,20.690550794289837,0.020194192127877885,30.38883725346678,-12.928306196949372,-78.63662719726562,5356.25390625,True
1599558845.0790899,0.0,10,0.5,0.5,-0.10950422973632815,-0.001,-0.0155,-0.2505,0.0017410934137347504,10,1,100,0.058420933046766516,-10,-1,-100,15023.25337310473,-0.005786484077950316,-0.0013639512380486962,0.9999823279633676,20.778043367603814,0.020004180545463025,31.397400321111622,-13.299835015225327,-78.99032592773438,5356.25390625,True
1599558845.1120882,0.0,10,0.5,0.5,-0.040185276794433594,-0.001,-0.0155,-0.2505,0.015158838168081818,10,1,100,0.05069052656587063,-10,-1,-100,15022.422315526986,-0.0056683481694430726,-0.0010848590490767024,0.9999833463162642,20.893768194598838,0.01970547648718572,32.900160336056324,-13.85711662658995,-79.60879516601562,5356.25390625,True
1599558845.1479938,0.0,10,0.5,0.5,-0.1917733703613281,-0.001,-0.0155,-0.2505,-0.012618244343189942,10,1,100,0.06250027814285053,-10,-1,-100,15022.422315526986,-0.0056683481694430726,-0.0010848590490767024,0.9999833463162642,20.893768194598838,0.01970547648718572,32.900160336056324,-13.85711662658995,-79.60879516601562,5356.25390625,True
1599558845.1789093,0.0,10,0.5,0.5,-0.07069649200439453,-0.001,-0.0155,-0.2505,0.008399132987134876,10,1,100,0.05107012361255986,-10,-1,-100,15021.887157111894,-0.005564542531211387,-0.0008948857860986448,0.9999841173967955,20.95899573225561,0.019498111191863798,33.89120002354755,-14.228629625914728,-80.07736206054688,5356.25390625,True
1599558845.213206,0.0,10,0.5,0.5,0.004303854370117238,-0.001,-0.0155,-0.2505,0.02155405329044959,10,1,100,0.040375956393001636,-10,-1,-100,15020.984810410417,-0.0053731532934468565,-0.0006038591418069705,0.9999853821820707,21.043812817780875,0.019183214129826966,35.36671102913907,-14.785886833013226,-80.8265380859375,5356.25390625,True
1599558845.2461874,0.0,10,0.5,0.5,-0.1784338592529297,-0.001,-0.0155,-0.2505,-0.0073930789454201605,10,1,100,0.059468586386088304,-10,-1,-100,15020.984810410417,-0.0053731532934468565,-0.0006038591418069705,0.9999853821820707,21.043812817780875,0.019183214129826966,35.36671102913907,-14.785886833013226,-80.8265380859375,5356.25390625,True
1599558845.2810688,0.0,10,0.5,0.5,0.10406543579101565,-0.001,-0.0155,-0.2505,0.03556478388055668,10,1,100,0.02458780425078285,-10,-1,-100,15019.770938812522,-0.005056514249632877,-0.00021455031626647203,0.9999871927338895,21.131370814877922,0.01876291931929393,37.30668141435644,-15.52887319195846,-81.93191528320312,5356.25390625,True
1599558845.3126516,0.0,10,0.5,0.5,-0.09455928955078126,-0.001,-0.0155,-0.2505,0.008085709148553132,10,1,100,0.0459722071249658,-10,-1,-100,15019.476015174878,-0.0049638118849976405,-0.00011187091008527618,0.9999876739522692,21.150190125537456,0.018660351640022714,37.7886767732319,-15.714615434642507,-82.22000122070312,5356.25390625,True
1599558845.3466475,0.0,10,0.5,0.5,-0.010723141479492188,-0.001,-0.0155,-0.2505,0.019104899867890813,10,1,100,0.034207392345973614,-10,-1,-100,15018.802184360684,-0.004773396048237587,8.027451593794932e-05,0.9999886040581507,21.18151127801011,0.018457215379733646,38.743712226507164,-16.086094816568938,-82.81719970703125,5356.25390625,True
1599558845.379446,0.0,10,0.5,0.5,-0.15358944854736326,-0.001,-0.0155,-0.2505,6.070628307304634e-05,10,1,100,0.05314062523939309,-10,-1,-100,15018.802184360684,-0.004773396048237587,8.027451593794932e-05,0.9999886040581507,21.18151127801011,0.018457215379733646,38.743712226507164,-16.086094816568938,-82.81719970703125,5356.25390625,True
1599558845.4174168,0.0,10,0.5,0.5,0.00634780578613281,-0.001,-0.0155,-0.2505,0.02172774035420434,10,1,100,0.03001514028795813,-10,-1,-100,15018.19768974348,-0.004564133003046473,0.00027577642280034837,0.9999895462640073,21.20807860220248,0.01826120251494657,39.69278675776333,-16.45756733237456,-83.4273681640625,5356.25390625,True
1599558845.4533193,0.0,10,0.5,0.5,-0.06152711334228518,-0.001,-0.0155,-0.2505,0.012671816169385251,10,1,100,0.0389679073777528,-10,-1,-100,15017.830501868273,-0.004456393891029871,0.0003696881840306749,0.9999900018920862,21.21910929386539,0.018165877797550127,40.16401101364344,-16.643301016286696,-83.73788452148438,5356.25390625,True
1599558845.480248,0.0,10,0.5,0.5,0.1066076858520508,-0.001,-0.0155,-0.2505,0.03415316207406528,10,1,100,0.011413446101611185,-10,-1,-100,15016.845145503641,-0.004109055917848411,0.000649025159525238,0.9999913471754674,21.24520383578287,0.01789438651173771,41.56722862035249,-17.200491295126316,-84.69024658203125,5356.25390625,True
1599558845.5142796,0.0,10,0.5,0.5,0.03800149841308595,-0.001,-0.0155,-0.2505,0.026178998531200384,10,1,100,0.018869705854922012,-10,-1,-100,15016.114674947457,-0.003862495842033178,0.0008288992103046127,0.9999921969955413,21.256585085655633,0.01772702659667521,42.492890071806514,-17.571942622735882,-85.334716796875,5356.25390625,True
1599558845.5484872,0.0,10,0.5,0.5,-0.11528939056396484,-0.001,-0.0155,-0.2505,0.008363971952903235,10,1,100,0.043355508767527515,-10,-1,-100,15016.114674947457,-0.003862495842033178,0.0008288992103046127,0.9999921969955413,21.256585085655633,0.01772702659667521,42.492890071806514,-17.571942622735882,-85.334716796875,5356.25390625,True
1599558845.6527889,0.0,10,0.5,0.5,0.05425840606689453,-0.001,-0.0155,-0.2505,0.027371376162691016,10,1,100,0.015217718011483989,-10,-1,-100,15015.423266599304,-0.003608071069206795,0.0010003912864371275,0.9999929904956502,21.26475266777835,0.017573190683914174,43.41325028778399,-17.943386581931378,-85.9810791015625,5356.25390625,True
1599558845.6866944,0.0,10,0.5,0.5,-0.019544703674316405,-0.001,-0.0155,-0.2505,0.01955034705948019,10,1,100,0.02609299870634143,-10,-1,-100,15015.058031695778,-0.0034772466295217323,0.001083734499775457,0.9999933671157082,21.268430198895103,0.017502281244433007,43.87296322101385,-18.129105781675364,-86.29965209960938,5356.25390625,True
1599558845.7215388,0.0,10,0.5,0.5,0.22694011688232424,-0.001,-0.0155,-0.2505,0.04614616725360854,10,1,100,-0.02103823474574862,-10,-1,-100,15013.567793865921,-0.0029312852598982306,0.001400100982015067,0.9999947236280625,21.279388896384496,0.017259655902162333,45.70607307249556,-18.871964190545487,-87.57009887695312,5356.25390625,True
1599558845.7783854,0.0,10,0.5,0.5,-0.004274571228027338,-0.001,-0.0155,-0.2505,0.022687205319163774,10,1,100,0.017972586747402063,-10,-1,-100,15013.186932895798,-0.002791448325291962,0.0014730690647451234,0.9999950189294833,21.28103547586571,0.01720962106727972,46.16246109638222,-19.05767416674109,-87.8831787109375,5356.25390625,True
1599558845.8132906,0.0,10,0.5,0.5,0.07997474517822266,-0.001,-0.0155,-0.2505,0.03060736185532497,10,1,100,0.0011434580687716654,-10,-1,-100,15012.385173930787,-0.0025131335310468465,0.0016101389316022698,0.9999955457963181,21.284117623868735,0.01712362810053414,47.075212961586715,-19.429088716145316,-88.498779296875,5356.25390625,True
1599558845.8464491,0.0,10,0.5,0.5,0.08484541778564453,-0.001,-0.0155,-0.2505,0.031559798966148044,10,1,100,-0.0031502933758162065,-10,-1,-100,15011.641032017185,-0.0022231407617979344,0.0017420156348292816,0.9999960115053865,21.2899695506692,0.0170588695428074,47.994783158465815,-19.80049561543764,-89.09628295898438,5356.25390625,True
1599558845.8804169,0.0,10,0.5,0.5,-0.056042431640625,-0.001,-0.0155,-0.2505,0.018518752564649764,10,1,100,0.025614884324950158,-10,-1,-100,15011.641032017185,-0.0022231407617979344,0.0017420156348292816,0.9999960115053865,21.2899695506692,0.0170588695428074,47.994783158465815,-19.80049561543764,-89.09628295898438,5356.25390625,True
1599558845.916626,0.0,10,0.5,0.5,0.10121512756347656,-0.001,-0.0155,-0.2505,0.031734314923575466,10,1,100,-0.006164572625585497,-10,-1,-100,15010.825601149467,-0.0019362668378196393,0.0018609095404096983,0.9999963939367057,21.29518849662974,0.01701285436656558,48.91371338746763,-20.171894979713915,-89.68853759765625,5356.25390625,True
1599558845.9495409,0.0,10,0.5,0.5,0.17639971542358396,-0.001,-0.0155,-0.2505,0.03764223759196321,10,1,100,-0.025462975532903432,-10,-1,-100,15009.575600713957,-0.0015020075978455978,0.002021601583940071,0.9999968285450769,21.32411943576809,0.016997295942930476,50.343364554104696,-20.72898005313999,-90.54657745361328,5356.25390625,True
1599558845.9815125,0.0,10,0.5,0.5,0.10903534660339355,-0.001,-0.0155,-0.2505,0.031720172821875635,10,1,100,-0.01339545205383281,-10,-1,-100,15008.745522229932,-0.001219077127900918,0.0021127640325363083,0.9999970250351244,21.557786137952487,0.017181977698231134,51.81418755419119,-21.100357078873746,-91.10123443603516,5356.25390625,True
1599558846.01465,0.0,10,0.5,0.5,-0.020968125152587894,-0.001,-0.0155,-0.2505,0.02273231444447505,10,1,100,0.01463325306922194,-10,-1,-100,15008.745522229932,-0.001219077127900918,0.0021127640325363083,0.9999970250351244,21.557786137952487,0.017181977698231134,51.81418755419119,-21.100357078873746,-91.10123443603516,5356.25390625,True
1599558846.0508335,0.0,10,0.5,0.5,0.053579005050659184,-0.001,-0.0155,-0.2505,0.027353251997724586,10,1,100,-0.000780019534735393,-10,-1,-100,15008.30997467949,-0.0010811282805388567,0.0021537613077966685,0.9999970962327192,21.672448706499914,0.01727967021403092,52.551932895898645,-21.286041287383124,-91.3660888671875,5356.25390625,True
1599558846.080751,0.0,10,0.5,0.5,0.12046753883361817,-0.001,-0.0155,-0.2505,0.03161525111204853,10,1,100,-0.017579054050759466,-10,-1,-100,15007.43985719583,-0.0008051800312903847,0.002228804252883558,0.9999971920544175,21.90828688050632,0.01749380963924252,54.05841863242861,-21.657400479674834,-91.8646240234375,5356.25390625,True
1599558846.1135762,0.0,10,0.5,0.5,0.18424999885559082,-0.001,-0.0155,-0.2505,0.03469744963823161,10,1,100,-0.036185975978893836,-10,-1,-100,15006.10489701596,-0.0003870969737438321,0.0023242917320452413,0.9999972239080852,22.253795402987738,0.017840912841325808,56.33564939299944,-22.214416672793554,-92.58831787109375,5356.25390625,True
1599558846.147448,0.0,10,0.5,0.5,0.010257655715942383,-0.001,-0.0155,-0.2505,0.025233823988793282,10,1,100,0.005381894640606608,-10,-1,-100,15006.10489701596,-0.0003870969737438321,0.0023242917320452413,0.9999972239080852,22.253795402987738,0.017840912841325808,56.33564939299944,-22.214416672793554,-92.58831787109375,5356.25390625,True
1599558846.1825101,0.0,10,0.5,0.5,0.13403231163024903,-0.001,-0.0155,-0.2505,0.030685725168493327,10,1,100,-0.02419124794343344,-10,-1,-100,15005.218178140349,-0.00012018298348647078,0.00237320524022393,0.9999971767224837,22.480835910411393,0.018091267183326775,57.8703352503504,-22.585745619974567,-93.05525970458984,5356.25390625,True
1599558846.214425,0.0,10,0.5,0.5,0.13108775482177734,-0.001,-0.0155,-0.2505,0.029997146200498398,10,1,100,-0.02561035314725827,-10,-1,-100,15004.33438928402,0.0001334552751656185,0.0024108384483087887,0.9999970850195844,22.70225105081698,0.01835389100807731,59.410053386893935,-22.957062334139792,-93.48423767089844,5356.25390625,True
1599558846.2474403,0.0,10,0.5,0.5,0.1812088363647461,-0.001,-0.0155,-0.2505,0.030713284890633106,10,1,100,-0.04264805400710769,-10,-1,-100,15002.930092421477,0.0005167813399052729,0.002450952786647631,0.9999968628788215,23.02182528783293,0.018766893350632544,61.72215588670331,-23.51401395572701,-94.08375549316406,5356.25390625,True
1599558846.280471,0.0,10,0.5,0.5,0.037842209625244136,-0.001,-0.0155,-0.2505,0.026760855381372683,10,1,100,-0.004560752350914737,-10,-1,-100,15002.930092421477,0.0005167813399052729,0.002450952786647631,0.9999968628788215,23.02182528783293,0.018766893350632544,61.72215588670331,-23.51401395572701,-94.08375549316406,5356.25390625,True
1599558846.3155386,0.0,10,0.5,0.5,0.13501434593200684,-0.001,-0.0155,-0.2505,0.028218375429183352,10,1,100,-0.030844939385152974,-10,-1,-100,15001.974038270768,0.0007538932320913015,0.0024638126496252665,0.9999966806306019,23.229252984404823,0.01905631718063407,63.271486286257144,-23.88529979385364,-94.44832611083984,5356.25390625,True
1599558846.3466573,0.0,10,0.5,0.5,0.09087977104187012,-0.001,-0.0155,-0.2505,0.027355987000893853,10,1,100,-0.019637877837898707,-10,-1,-100,15001.467203381239,0.0008657735105944776,0.0024673444042413134,0.9999965813180659,23.330588058421323,0.019204344023593035,64.0464178703031,-24.070937995810123,-94.6153335571289,5356.25390625,True
1599558846.3806791,0.0,10,0.5,0.5,0.13097433738708497,-0.001,-0.0155,-0.2505,0.026879276025557817,10,1,100,-0.03320690325114385,-10,-1,-100,15000.5140788774,0.0010889423124100523,0.002465899008324024,0.9999963667667604,23.52728966040115,0.019505170728996,65.59294003134373,-24.442205277447126,-94.91944122314453,5356.25390625,True
1599558846.4145613,0.0,10,0.5,0.5,0.12893444137573243,-0.001,-0.0155,-0.2505,0.025850279258728945,10,1,100,-0.03360307123134386,-10,-1,-100,14999.485758831026,0.001293451776977894,0.0024549467344275643,0.9999961501021051,23.71822732153104,0.01981328283210143,67.14037934056118,-24.813460415803682,-95.19232940673828,5356.25390625,True
1599558846.4496307,0.0,10,0.5,0.5,0.09712342491149903,-0.001,-0.0155,-0.2505,0.026005135374682332,10,1,100,-0.024410594135050027,-10,-1,-100,14999.038493081927,0.0013938936513384714,0.0024461923205925918,0.9999960365939554,23.811487135159442,0.019969710476319638,67.91408085918759,-24.999083398529763,-95.317138671875,5356.25390625,True
1599558846.4805465,0.0,10,0.5,0.5,0.12750057334899903,-0.001,-0.0155,-0.2505,0.02423165686441963,10,1,100,-0.035216747332742215,-10,-1,-100,14998.013103274512,0.0015818231201679413,0.0024220004119324583,0.999995815866057,23.994439908857892,0.020287449174882337,69.46344789618502,-25.37032028762836,-95.54541778564453,5356.25390625,True
1599558846.5136738,0.0,10,0.5,0.5,0.12380443038940428,-0.001,-0.0155,-0.2505,0.023106178981179636,10,1,100,-0.03566531709899883,-10,-1,-100,14996.989666443551,0.0017549560714389635,0.002389687324502985,0.9999956047521802,24.172286137818897,0.020610597383010187,71.01390589710587,-25.7415451361832,-95.7398681640625,5356.25390625,True
1599558846.5465589,0.0,10,0.5,0.5,0.10073088188171388,-0.001,-0.0155,-0.2505,0.02421810572290685,10,1,100,-0.027734811259021927,-10,-1,-100,14996.484784410917,0.0018385494839992613,0.002370405231688003,0.9999955004472934,24.259160004004734,0.02077374318203916,71.78894596362892,-25.9271531085415,-95.82525634765625,5356.25390625,True
1599558846.5825744,0.0,10,0.5,0.5,0.1203823413848877,-0.001,-0.0155,-0.2505,0.021229000776007798,10,1,100,-0.03644118019417181,-10,-1,-100,14995.39005849231,0.0019921422182746823,0.002325739132535865,0.9999953111424421,24.429395393599915,0.0211030628864579,73.33997775636772,-26.298359836672937,-95.97401428222656,5356.25390625,True
1599558846.6144886,0.0,10,0.5,0.5,0.1151353588104248,-0.001,-0.0155,-0.2505,0.020025658813197608,10,1,100,-0.03636811619581998,-10,-1,-100,14994.363691569772,0.0021297665213778944,0.0022743079460575666,0.9999951457971838,24.594812739106686,0.02143547455603013,74.89138000631267,-26.669554922952596,-96.08966827392578,5356.25390625,True
1599558846.6466212,0.0,10,0.5,0.5,0.11849449310302734,-0.001,-0.0155,-0.2505,0.015056572968957762,10,1,100,-0.04273730181649016,-10,-1,-100,14992.748457123642,0.002311314861494659,0.002182539400530197,0.9999949471599225,24.833893707496973,0.021937500210521932,77.21781809336235,-27.226325342792478,-96.20585632324219,5356.25390625,True
1599558846.6804945,0.0,10,0.5,0.5,0.10169984703063964,-0.001,-0.0155,-0.2505,0.016684195253055492,10,1,100,-0.035724533394681235,-10,-1,-100,14991.654707406065,0.0024111905290121792,0.002114165719223563,0.9999948582185532,24.987739835421824,0.022273350757681845,78.76898854726213,-27.597490944178258,-96.24397277832031,5356.25390625,True
1599558846.7164395,0.0,10,0.5,0.5,0.09467606582641601,-0.001,-0.0155,-0.2505,0.023486245515217115,10,1,100,-0.02589150834477099,-10,-1,-100,14991.654707406065,0.0024111905290121792,0.002114165719223563,0.9999948582185532,24.987739835421824,0.022273350757681845,78.76898854726213,-27.597490944178258,-96.24397277832031,5356.25390625,True
1599558846.7483332,0.0,10,0.5,0.5,0.09605559349060058,-0.001,-0.0155,-0.2505,0.01123880680711734,10,1,100,-0.039017747415678185,-10,-1,-100,14989.96818462084,0.002529317931278061,0.0020031451248672927,0.9999947949666594,25.209903743929,0.022775778255110315,81.09372338052114,-28.1542172063582,-96.24129486083984,5356.25390625,True
1599558846.7822568,0.0,10,0.5,0.5,0.09448210334777832,-0.001,-0.0155,-0.2505,0.01771188566412263,10,1,100,-0.031037193005062795,-10,-1,-100,14989.393965387251,0.002563032469464813,0.0019614742119794227,0.9999947917281751,25.281708536237414,0.022942364645996676,81.86795329275496,-28.33978687734468,-96.22590637207031,5356.25390625,True
