Timestamp,Input Throttle,horizon,dT,dt,Input Roll,Roll P,Roll I,Roll D,Input Pitch,Pitch P,Pitch I,Pitch D,Input Yaw,Yaw P,Yaw I,Yaw D,Altitude,Direction X,Direction Y,Direction Z,Drag X,Drag Y,Drag Z,Vertical Velocity,Roll,Mass,Has Fuel
1599560497.4726548,0.0,10,0.5,0.5,-2.954492500305176,-0.05075,-0.03,-0.37525,-0.00025217429546315674,10,1,100,0.17495201051885134,-10,-1,-100,14994.519322118722,-0.01681061778675193,-7.318372314033183e-05,0.9998586889024721,28.576476827222805,0.027199477177158402,-86.69256165004745,26.823329828178043,-31.791748046875,5356.25390625,True
1599560497.4985907,0.0,10,0.5,0.5,-3.1292005615234375,-0.05075,-0.03,-0.37525,-0.00021563012853887276,10,1,100,0.17774676795714672,-10,-1,-100,14995.586708014482,-0.016882977135033315,-6.84244006387093e-05,0.9998574700431855,28.431355718018786,0.027525337638953238,-85.05951400169644,26.45140676805878,-31.790557861328125,5356.25390625,True
1599560497.5320578,0.0,10,0.5,0.5,-3.3033822708129885,-0.05075,-0.03,-0.37525,-0.0006984048187649971,10,1,100,0.17219913084251168,-10,-1,-100,14995.586708014482,-0.016882977135033315,-6.84244006387093e-05,0.9998574700431855,28.431355718018786,0.027525337638953238,-85.05951400169644,26.45140676805878,-31.790557861328125,5356.25390625,True
1599560497.5662813,0.0,10,0.5,0.5,-3.4193263931274416,-0.05075,-0.03,-0.37525,0.0074730714824400085,10,1,100,0.18215754443856016,-10,-1,-100,14997.184368719347,-0.016958160006692816,5.923951554644123e-06,0.9998562000478339,28.217382499066293,0.028005580347649772,-82.64363063008537,25.893551025329323,-31.928314208984375,5356.25390625,True
1599560497.602099,0.0,10,0.5,0.5,-3.4781912460327153,-0.05075,-0.03,-0.37525,0.009553928689402278,10,1,100,0.17975482364783116,-10,-1,-100,14998.187300092774,-0.01698924864646147,9.242486092866364e-05,0.9998556680281779,28.09345592822044,0.028331156626953395,-81.10203461319345,25.521665907617436,-32.3204345703125,5356.25390625,True
1599560497.632064,0.0,10,0.5,0.5,-3.5156904907226565,-0.05075,-0.03,-0.37525,0.015743165750750434,10,1,100,0.17838564739330204,-10,-1,-100,14999.192183152423,-0.016989619217895015,0.00022724382013463855,0.9998556401796597,27.989806734347944,0.028659616122239835,-79.62849096522359,25.149794638178033,-32.9840087890625,5356.25390625,True
1599560497.6653984,0.0,10,0.5,0.5,-3.9357446899414064,-0.05075,-0.03,-0.37525,0.0022839942121664052,10,1,100,0.18004755217173696,-10,-1,-100,14999.192183152423,-0.016989619217895015,0.00022724382013463855,0.9998556401796597,27.989806734347944,0.028659616122239835,-79.62849096522359,25.149794638178033,-32.9840087890625,5356.25390625,True
1599560497.6983037,0.0,10,0.5,0.5,-3.9216527099609375,-0.05075,-0.03,-0.37525,0.011743260182058414,10,1,100,0.18047436698866426,-10,-1,-100,14999.662885668455,-0.01697805424421445,0.0003130305618426253,0.9998558134480929,27.94516321325569,0.028822459641095824,-78.91524180612554,24.963863876970166,-33.418609619140625,5356.25390625,True
1599560497.7349987,0.0,10,0.5,0.5,-3.221371040344239,-0.05075,-0.03,-0.37525,0.05526416980536421,10,1,100,0.16899849951945856,-10,-1,-100,15001.663857295061,-0.016847779969108235,0.0007863785685509909,0.9998577568428718,27.803250810393045,0.029430750682117094,-76.1812797557761,24.22017105262191,-35.84375,5356.25390625,True
1599560497.7664452,0.0,10,0.5,0.5,-4.293873718261719,-0.05075,-0.03,-0.37525,0.008008006991382753,10,1,100,0.1837107050269909,-10,-1,-100,15001.663857295061,-0.016847779969108235,0.0007863785685509909,0.9998577568428718,27.803250810393045,0.029430750682117094,-76.1812797557761,24.22017105262191,-35.84375,5356.25390625,True
1599560497.7993236,0.0,10,0.5,0.5,-3.374155822753907,-0.05075,-0.03,-0.37525,0.06039602753927142,10,1,100,0.16303023284333157,-10,-1,-100,15003.068146685255,-0.016644459512921234,0.0012619184111967506,0.9998606750590034,27.71667428557498,0.029789705425644096,-74.19941844925391,23.662430975706652,-38.38409423828125,5356.25390625,True
1599560497.8323317,0.0,10,0.5,0.5,-4.307642959594727,-0.05075,-0.03,-0.37525,0.01297555348812916,10,1,100,0.18334566263464866,-10,-1,-100,15003.068146685255,-0.016644459512921234,0.0012619184111967506,0.9998606750590034,27.71667428557498,0.029789705425644096,-74.19941844925391,23.662430975706652,-38.38409423828125,5356.25390625,True
1599560497.8673675,0.0,10,0.5,0.5,-2.9422598114013674,-0.05075,-0.03,-0.37525,0.07688141410265462,10,1,100,0.1509038081742616,-10,-1,-100,15004.474386280635,-0.01634975039748327,0.0018416713778634953,0.9998646377927745,27.62072391240713,0.029996322583865923,-72.20379931495502,23.104716200998567,-41.54278564453125,5356.25390625,True
1599560497.8972826,0.0,10,0.5,0.5,-4.0983020782470705,-0.05075,-0.03,-0.37525,0.019097127013830373,10,1,100,0.1803213970443028,-10,-1,-100,15004.474386280635,-0.01634975039748327,0.0018416713778634953,0.9998646377927745,27.62072391240713,0.029996322583865923,-72.20379931495502,23.104716200998567,-41.54278564453125,5356.25390625,True
1599560497.9291978,0.0,10,0.5,0.5,-3.0260004730224614,-0.05075,-0.03,-0.37525,0.06700096322866882,10,1,100,0.15209027332931627,-10,-1,-100,15005.407971242443,-0.016093656917900857,0.002275491936701746,0.9998678994464494,27.53648150182594,0.03001346479999405,-70.82787832924306,22.732921444418857,-43.992218017578125,5356.25390625,True
1599560497.9531372,0.0,10,0.5,0.5,-2.1251935806274416,-0.05075,-0.03,-0.37525,0.10019276897146263,10,1,100,0.12425542697451158,-10,-1,-100,15006.743893903913,-0.015608614780262766,0.002969633345056669,0.9998737682439905,27.352877820149867,0.02980254545551886,-68.63357597089856,22.17525489464566,-48.182220458984375,5356.25390625,True
1599560497.9771073,0.0,10,0.5,0.5,-3.6518973617553714,-0.05075,-0.03,-0.37525,0.03105286708846251,10,1,100,0.1726215402945575,-10,-1,-100,15006.743893903913,-0.015608614780262766,0.002969633345056669,0.9998737682439905,27.352877820149867,0.02980254545551886,-68.63357597089856,22.17525489464566,-48.182220458984375,5356.25390625,True
1599560498.0060313,0.0,10,0.5,0.5,-2.9527941818237307,-0.05075,-0.03,-0.37525,0.05905135290149591,10,1,100,0.1519534575459402,-10,-1,-100,15007.152091205586,-0.015421978577491365,0.003221671952879771,0.9998758840009011,27.27044062097226,0.029658819203772932,-67.8544388072355,21.989373924391572,-49.716278076171875,5356.25390625,True
1599560498.032649,0.0,10,0.5,0.5,-2.084421897888183,-0.05075,-0.03,-0.37525,0.08775915537794812,10,1,100,0.12443183610586886,-10,-1,-100,15008.020243036211,-0.01500352735794101,0.003709133763058486,0.9998805611139499,27.063547934022147,0.02924781912439154,-66.20377991289112,21.617625560252566,-52.991241455078125,5356.25390625,True
1599560498.0685928,0.0,10,0.5,0.5,-1.7497836380004885,-0.05075,-0.03,-0.37525,0.0982864272956665,10,1,100,0.11419608983059915,-10,-1,-100,15008.891324203461,-0.014531741512766568,0.0042453262850233875,0.9998853962796636,26.788803742157228,0.02866280633560083,-64.40741297473052,21.245897858298676,-56.54083251953125,5356.25390625,True
1599560498.100426,0.0,10,0.5,0.5,-1.3901172332763674,-0.05075,-0.03,-0.37525,0.10208430143617078,10,1,100,0.10313424587942716,-10,-1,-100,15009.753615103662,-0.01400438856164855,0.00476415566289018,0.9998905839749839,26.43121886422395,0.027899392002641656,-62.43850590557145,20.874194296203317,-60.3660888671875,5356.25390625,True
1599560498.133369,0.0,10,0.5,0.5,-2.759598693847656,-0.05075,-0.03,-0.37525,0.05055158737466087,10,1,100,0.15560553389610168,-10,-1,-100,15009.753615103662,-0.01400438856164855,0.00476415566289018,0.9998905839749839,26.43121886422395,0.027899392002641656,-62.43850590557145,20.874194296203317,-60.3660888671875,5356.25390625,True
1599560498.1693587,0.0,10,0.5,0.5,-0.9467510986328129,-0.05075,-0.03,-0.37525,0.1075272914853046,10,1,100,0.09161198825361952,-10,-1,-100,15010.560242048465,-0.01342502912030896,0.005278932757303584,0.9998959453173428,25.975035111581413,0.02696206541354951,-60.27095841178526,20.502518924383196,-64.466796875,5356.25390625,True
1599560498.2003126,0.0,10,0.5,0.5,0.42357693481445313,-0.05075,-0.03,-0.37525,0.1399841311363647,10,1,100,0.04250610498080856,-10,-1,-100,15011.768228276982,-0.012454580435953938,0.006038849329616824,0.9999042032739629,25.06962048655793,0.0252682773853174,-56.59252509276607,19.945068484151648,-71.13427734375,5356.25390625,True
1599560498.2337313,0.0,10,0.5,0.5,-1.989620635986328,-0.05075,-0.03,-0.37525,0.06441219170021599,10,1,100,0.13916145642015793,-10,-1,-100,15011.768228276982,-0.012454580435953938,0.006038849329616824,0.9999042032739629,25.06962048655793,0.0252682773853174,-56.59252509276607,19.945068484151648,-71.13427734375,5356.25390625,True
1599560498.266642,0.0,10,0.5,0.5,0.1290990600585935,-0.05075,-0.03,-0.37525,0.11565029663917303,10,1,100,0.06181076675554409,-10,-1,-100,15012.56801844621,-0.011754700599441037,0.006501229049613783,0.9999097764471861,24.29490625140962,0.02399399200137484,-53.82468711310718,19.573481897305538,-75.91665649414062,5356.25390625,True
1599560498.3025472,0.0,10,0.5,0.5,1.530382499694824,-0.05075,-0.03,-0.37525,0.13985835289208381,10,1,100,0.007583599400171129,-10,-1,-100,15013.710574404686,-0.01062897551227212,0.007138436946724247,0.9999180304392542,22.885605596946537,0.022017543729094546,-49.26287695777855,19.016177560256754,-83.223388671875,5356.25390625,True
1599560498.333475,0.0,10,0.5,0.5,0.9921935729980467,-0.05075,-0.03,-0.37525,0.1169375969503248,10,1,100,0.03339458352630244,-10,-1,-100,15014.448841599864,-0.009844761324417925,0.007505556523170798,0.9999233707118476,21.83811107731911,0.020784132029706075,-46.092397859134664,18.64468908641359,-88.1495361328125,5356.25390625,True
1599560498.3673828,0.0,10,0.5,0.5,-0.7410434875488281,-0.05075,-0.03,-0.37525,0.08065402776269881,10,1,100,0.1112582805864145,-10,-1,-100,15014.448841599864,-0.009844761324417925,0.007505556523170798,0.9999233707118476,21.83811107731911,0.020784132029706075,-46.092397859134664,18.64468908641359,-88.1495361328125,5356.25390625,True
1599560498.4002967,0.0,10,0.5,0.5,1.4018094177246092,-0.05075,-0.03,-0.37525,0.11590186378753672,10,1,100,0.02379078011879386,-10,-1,-100,15015.190039322595,-0.00905429201656094,0.007822540102705586,0.9999284112687369,21.375817215569203,0.0202903885034022,-44.22035924296663,18.27322882396488,-92.93211364746094,5356.25390625,True
1599560498.4358351,0.0,10,0.5,0.5,0.6952805671691895,-0.05075,-0.03,-0.37525,0.10059649524168356,10,1,100,0.057336629412383204,-10,-1,-100,15015.526947080623,-0.008645625320720135,0.007968315266577018,0.9999308771683302,21.76594087906029,0.02069708998398176,-44.57104804128712,18.087499175764748,-95.23014068603516,5356.25390625,True
1599560498.466761,0.0,10,0.5,0.5,1.913719549179077,-0.05075,-0.03,-0.37525,0.11497061887351984,10,1,100,0.003569954187112201,-10,-1,-100,15016.257402997464,-0.007790193789035965,0.008228599121655297,0.9999357994577575,22.484873266795425,0.021560459394706,-45.100247239944814,17.71603604565805,-99.86906433105469,5356.25390625,True
1599560498.4994822,0.0,10,0.5,0.5,3.174694667816162,-0.05075,-0.03,-0.37525,0.12103144117725287,10,1,100,-0.0493416888248983,-10,-1,-100,15017.331604241044,-0.006537163091734454,0.008517169698616064,0.9999423599983337,23.456568558588273,0.022962676363557186,-45.57327221561615,17.158825556225963,-106.63719177246094,5356.25390625,True
1599560498.5333986,0.0,10,0.5,0.5,0.7614660301208496,-0.05075,-0.03,-0.37525,0.09249820717530736,10,1,100,0.07527259430239537,-10,-1,-100,15017.331604241044,-0.006537163091734454,0.008517169698616064,0.9999423599983337,23.456568558588273,0.022962676363557186,-45.57327221561615,17.158825556225963,-106.63719177246094,5356.25390625,True
1599560498.5693393,0.0,10,0.5,0.5,2.666852336883545,-0.05075,-0.03,-0.37525,0.10791606493950734,10,1,100,-0.016979972512489172,-10,-1,-100,15018.004445005208,-0.005703882863730248,0.0086550790234097,0.9999462762205653,23.932199516346248,0.02380646630839344,-45.493113098328195,16.787341371693188,-110.85990905761719,5356.25390625,True
1599560498.6002874,0.0,10,0.5,0.5,3.688161968231201,-0.05075,-0.03,-0.37525,0.10846142963693198,10,1,100,-0.06975254169411041,-10,-1,-100,15018.949744470068,-0.004472741752595526,0.00878303060711342,0.9999514252975337,24.5053311665161,0.024945166486335837,-45.03970517876207,16.23010343439112,-116.69725036621094,5356.25390625,True
1599560498.6339955,0.0,10,0.5,0.5,1.6200414237976077,-0.05075,-0.03,-0.37525,0.0958944514223101,10,1,100,0.05263337353467723,-10,-1,-100,15018.949744470068,-0.004472741752595526,0.00878303060711342,0.9999514252975337,24.5053311665161,0.024945166486335837,-45.03970517876207,16.23010343439112,-116.69725036621094,5356.25390625,True
1599560498.6673312,0.0,10,0.5,0.5,3.9588285789489746,-0.05075,-0.03,-0.37525,0.10143277305416268,10,1,100,-0.0758762190440167,-10,-1,-100,15019.892115661525,-0.003310069305298015,0.008831883900438998,0.9999555196447305,24.891275539945404,0.02581451394500016,-44.181427910721254,15.67285893349109,-121.95162963867188,5356.25390625,True
1599560498.7022743,0.0,10,0.5,0.5,2.088529037475586,-0.05075,-0.03,-0.37525,0.09668007645933162,10,1,100,0.03973755648382247,-10,-1,-100,15019.892115661525,-0.003310069305298015,0.008831883900438998,0.9999555196447305,24.891275539945404,0.02581451394500016,-44.181427910721254,15.67285893349109,-121.95162963867188,5356.25390625,True
1599560498.7329602,0.0,10,0.5,0.5,3.536688400268555,-0.05075,-0.03,-0.37525,0.09501181322288026,10,1,100,-0.04444721282827168,-10,-1,-100,15020.558125604293,-0.0025506938497509043,0.00881551211885556,0.9999578894668352,25.03641974852174,0.026201187740125656,-43.38768034127612,15.301364233803227,-125.11302185058594,5356.25390625,True
1599560498.7670193,0.0,10,0.5,0.5,3.6763098716735843,-0.05075,-0.03,-0.37525,0.09391301753311966,10,1,100,-0.04595429424127106,-10,-1,-100,15021.161636116798,-0.0018525641483779095,0.008789736927494475,0.9999596534514889,25.107943741838312,0.026440151276047485,-42.45712489465984,14.929874274331908,-127.99891662597656,5356.25390625,True
1599560498.7999272,0.0,10,0.5,0.5,3.2624836235046386,-0.05075,-0.03,-0.37525,0.09234720121170155,10,1,100,-0.01633276805112812,-10,-1,-100,15021.436047871597,-0.0014933628953786157,0.00875132349455249,0.9999605913256564,25.120066375915552,0.0265080044526089,-41.950076268108454,14.744131792051437,-129.3388214111328,5356.25390625,True
1599560499.0371907,0.0,10,0.5,0.5,3.9015946922302245,-0.05075,-0.03,-0.37525,0.08744225482938799,10,1,100,-0.05521085834600375,-10,-1,-100,15021.979012618423,-0.0008191035089655313,0.0086713365662452,0.9999620677763715,25.105913452214434,0.02655066940479957,-40.871871861342925,14.37265351489919,-131.81182861328125,5356.25390625,True
1599560499.0651546,0.0,10,0.5,0.5,4.409298736572266,-0.05075,-0.03,-0.37525,0.07831481920101514,10,1,100,-0.09252020407022608,-10,-1,-100,15022.851078719366,0.00012783720382768566,0.00851550433764643,0.9999637342641607,25.009415510737096,0.026414072039147852,-39.13886042604239,13.815456068103835,-135.00473022460938,5356.25390625,True
1599560499.1000988,0.0,10,0.5,0.5,4.699017707824707,-0.05075,-0.03,-0.37525,0.06406944457080507,10,1,100,-0.124899468831831,-10,-1,-100,15023.926269904478,0.0012769902584765075,0.008244336783519247,0.9999651994979024,24.792614559615195,0.02595794811873079,-36.716351150063595,13.072568959630008,-138.29757690429688,5356.25390625,True
1599560499.1664069,0.0,10,0.5,0.5,4.070857719421387,-0.05075,-0.03,-0.37525,0.07600300850644426,10,1,100,-0.06709589549589373,-10,-1,-100,15024.405761316186,0.0017898415749921825,0.00810668117212752,0.9999655384999575,24.66516326911841,0.02565456187253388,-35.491258743285016,12.701144829685521,-139.53036499023438,5356.25390625,True
1599560499.1933377,0.0,10,0.5,0.5,3.67675333404541,-0.05075,-0.03,-0.37525,0.08970093470211843,10,1,100,-0.01643702217708501,-10,-1,-100,15024.405761316186,0.0017898415749921825,0.00810668117212752,0.9999655384999575,24.66516326911841,0.02565456187253388,-35.491258743285016,12.701144829685521,-139.53036499023438,5356.25390625,True
1599560499.216311,0.0,10,0.5,0.5,4.152850486755371,-0.05075,-0.03,-0.37525,0.07569083661127393,10,1,100,-0.06869632605523403,-10,-1,-100,15024.938964126632,0.0022592328981320938,0.007979931507151648,0.9999656076885111,24.545653885019714,0.025335308840199737,-34.28791008490815,12.329733398951038,-140.48716735839844,5356.25390625,True
1599560499.2402508,0.0,10,0.5,0.5,4.009232013702392,-0.05075,-0.03,-0.37525,0.08030800181894977,10,1,100,-0.04695736753337989,-10,-1,-100,15025.144042569213,0.0024832623851484027,0.00790745327032817,0.9999656522054665,24.494707665664635,0.02517837430062544,-33.702097673283845,12.144032207625044,-140.86231994628906,5356.25390625,True
1599560499.2673063,0.0,10,0.5,0.5,4.055602474212647,-0.05075,-0.03,-0.37525,0.07992984074463502,10,1,100,-0.04850952179869622,-10,-1,-100,15025.414550332003,0.0026957693833111534,0.00783896652765861,0.9999656411253389,24.443688867188506,0.025018393593700304,-33.11831118264403,11.958333877253065,-141.16845703125,5356.25390625,True
1599560499.3037553,0.0,10,0.5,0.5,4.089982635498047,-0.05075,-0.03,-0.37525,0.07838371722170731,10,1,100,-0.050421675499654935,-10,-1,-100,15025.619628638611,0.0029015712668923133,0.007763537952833484,0.9999656535914812,24.39292732671365,0.02485666432421162,-32.536995078286765,11.772638411328128,-141.40576171875,5356.25390625,True
1599560499.3345068,0.0,10,0.5,0.5,4.1680588531494145,-0.05075,-0.03,-0.37525,0.06381376913605838,10,1,100,-0.09084179866181938,-10,-1,-100,15026.354980443139,0.003451797612153708,0.007563445355827161,0.999965439096569,24.245967842768902,0.02437406433557988,-30.812508331106446,11.215568378912373,-141.7036590576172,5356.25390625,True
1599560499.3674161,0.0,10,0.5,0.5,4.0933673896789555,-0.05075,-0.03,-0.37525,0.08370424102281811,10,1,100,-0.03631368018643315,-10,-1,-100,15026.354980443139,0.003451797612153708,0.007563445355827161,0.999965439096569,24.245967842768902,0.02437406433557988,-30.812508331106446,11.215568378912373,-141.7036590576172,5356.25390625,True
1599560499.4011292,0.0,10,0.5,0.5,3.8811232948303225,-0.05075,-0.03,-0.37525,0.0543513922987534,10,1,100,-0.10349117730372631,-10,-1,-100,15027.171387627837,0.004058619494018992,0.007297608450345135,0.9999651356515927,24.06680374850056,0.02377271056537788,-28.561670520943,10.47284234942866,-141.13577270507812,5356.25390625,True
1599560499.4362164,0.0,10,0.5,0.5,4.112615776062012,-0.05075,-0.03,-0.37525,0.08081329325822591,10,1,100,-0.043202067346217045,-10,-1,-100,15027.171387627837,0.004058619494018992,0.007297608450345135,0.9999651356515927,24.06680374850056,0.02377271056537788,-28.561670520943,10.47284234942866,-141.13577270507812,5356.25390625,True
1599560499.467098,0.0,10,0.5,0.5,3.9873033370971678,-0.05075,-0.03,-0.37525,0.07242470977666408,10,1,100,-0.058072868574679554,-10,-1,-100,15027.374512515962,0.0041912798422454305,0.007222209262633822,0.9999651358255701,24.024556983107235,0.02363475827020587,-28.006585144603225,10.287166291643567,-140.82162475585938,5356.25390625,True
1599560499.5000112,0.0,10,0.5,0.5,3.7531727676391604,-0.05075,-0.03,-0.37525,0.06553705679628256,10,1,100,-0.07062055941642381,-10,-1,-100,15027.78076316684,0.004423766949860547,0.007091853584810518,0.9999650673392072,23.94135980499718,0.02337729407967727,-26.903139211060637,9.915820111550683,-139.9862060546875,5356.25390625,True
1599560499.5345418,0.0,10,0.5,0.5,3.5947873840332036,-0.05075,-0.03,-0.37525,0.06256837173835722,10,1,100,-0.06977490679745016,-10,-1,-100,15028.185060007498,0.004625036637179194,0.006947282947705754,0.9999651715413638,23.85671614687005,0.023146083006427502,-25.805043962036038,9.544481267653742,-138.87530517578125,5356.25390625,True
1599560499.5695615,0.0,10,0.5,0.5,3.726130310058594,-0.05075,-0.03,-0.37525,0.06946088869331164,10,1,100,-0.05939239438411023,-10,-1,-100,15028.384278129903,0.004711471873039376,0.0068794531122550505,0.9999652369745989,23.812374768993962,0.023040596916775794,-25.256493586256312,9.358814457123485,-138.21641540527344,5356.25390625,True
1599560499.6004782,0.0,10,0.5,0.5,3.315969089508057,-0.05075,-0.03,-0.37525,0.06128090945739702,10,1,100,-0.06716035698336675,-10,-1,-100,15028.730957309715,0.0048586415570074275,0.006744360723480708,0.9999654530035786,23.715893434605253,0.022849277915047848,-24.15698349451366,8.987485865972351,-136.69183349609375,5356.25390625,True
1599560499.6344032,0.0,10,0.5,0.5,2.6802577209472656,-0.05075,-0.03,-0.37525,0.05195926200059088,10,1,100,-0.07010357013003524,-10,-1,-100,15029.272948177997,0.005017222414517464,0.006537802307536866,0.9999660417335337,23.537807177273386,0.022605543962427796,-22.490907357212823,8.430504897271671,-133.88812255859375,5356.25390625,True
1599560499.6683116,0.0,10,0.5,0.5,3.7097973327636717,-0.05075,-0.03,-0.37525,0.0724925300304454,10,1,100,-0.054457049493794124,-10,-1,-100,15029.272948177997,0.005017222414517464,0.006537802307536866,0.9999660417335337,23.537807177273386,0.022605543962427796,-22.490907357212823,8.430504897271671,-133.88812255859375,5356.25390625,True
1599560499.7032301,0.0,10,0.5,0.5,2.743308303833008,-0.05075,-0.03,-0.37525,0.057165917340814526,10,1,100,-0.061656956076225164,-10,-1,-100,15029.547360863071,0.005081252997264688,0.0063994018676750315,0.9999666137045345,23.38401528907417,0.022463119223885816,-21.360544607596108,8.059191632918612,-131.67440795898438,5356.25390625,True
1599560499.734249,0.0,10,0.5,0.5,2.4834281234741216,-0.05075,-0.03,-0.37525,0.056032647781418726,10,1,100,-0.058975147453013146,-10,-1,-100,15029.889155721641,0.005113601216473773,0.006264339056795358,0.9999673040348771,23.18990765734083,0.02232505915968235,-20.207912884009655,7.687883936621612,-129.18499755859375,5356.25390625,True
1599560499.7672327,0.0,10,0.5,0.5,1.570921539306641,-0.05075,-0.03,-0.37525,0.04524892740948286,10,1,100,-0.054675856740062756,-10,-1,-100,15030.30223808519,0.005102965153162069,0.006044460197517647,0.9999687116343022,22.79654286357594,0.022093811965062233,-18.426829982083095,7.130930835536041,-124.93428039550781,5356.25390625,True
1599560499.8011842,0.0,10,0.5,0.5,3.1173986778259275,-0.05075,-0.03,-0.37525,0.06711149851197123,10,1,100,-0.05584389763714743,-10,-1,-100,15030.30223808519,0.005102965153162069,0.006044460197517647,0.9999687116343022,22.79654286357594,0.022093811965062233,-18.426829982083095,7.130930835536041,-124.93428039550781,5356.25390625,True
1599560499.8379753,0.0,10,0.5,0.5,0.9947644615173343,-0.05075,-0.03,-0.37525,0.042258046994548396,10,1,100,-0.047797615172364194,-10,-1,-100,15030.714343126747,0.005028988325926843,0.005819590410145727,0.9999704203844609,22.24810707707031,0.021783946077667194,-16.57965838031002,6.573984550271423,-120.0634536743164,5356.25390625,True
1599560499.8688905,0.0,10,0.5,0.5,1.2327627162933348,-0.05075,-0.03,-0.37525,0.04679414042067624,10,1,100,-0.04588614223388633,-10,-1,-100,15030.97801120556,0.004943809436839505,0.005657557146567566,0.9999717749993675,21.804411162497683,0.021524042178514426,-15.331672042203943,6.2026878621788235,-116.47187805175781,5356.25390625,True
1599560499.90181,0.0,10,0.5,0.5,2.5132911872863772,-0.05075,-0.03,-0.37525,0.0628684941983785,10,1,100,-0.05443590842258612,-10,-1,-100,15030.97801120556,0.004943809436839505,0.005657557146567566,0.9999717749993675,21.804411162497683,0.021524042178514426,-15.331672042203943,6.2026878621788235,-116.47187805175781,5356.25390625,True
1599560499.9357662,0.0,10,0.5,0.5,-0.06645786666870057,-0.05075,-0.03,-0.37525,0.03493819293168546,10,1,100,-0.036147026216936856,-10,-1,-100,15031.32761478133,0.004777335655366512,0.005404756131384618,0.9999739824991429,20.948036166337644,0.020947772854978394,-13.407409658564998,5.645738221672367,-110.56925964355469,5356.25390625,True
1599560499.971243,0.0,10,0.5,0.5,0.24735300827026396,-0.05075,-0.03,-0.37525,0.039575086513483765,10,1,100,-0.037139765008324985,-10,-1,-100,15031.534641825128,0.004635094666586992,0.005218308427045646,0.9999756422806468,20.307147788696245,0.020473446652782026,-12.142682584628478,5.274430818292508,-106.29043579101562,5356.25390625,True
1599560500.0011635,0.0,10,0.5,0.5,1.7701885986328125,-0.05075,-0.03,-0.37525,0.058087907559331825,10,1,100,-0.051325651111483864,-10,-1,-100,15031.534641825128,0.004635094666586992,0.005218308427045646,0.9999756422806468,20.307147788696245,0.020473446652782026,-12.142682584628478,5.274430818292508,-106.29043579101562,5356.25390625,True
1599560500.0361168,0.0,10,0.5,0.5,-0.18885118103027332,-0.05075,-0.03,-0.37525,0.03685420198943997,10,1,100,-0.03440730983800526,-10,-1,-100,15031.743621489266,0.004481638952962578,0.005026474279937985,0.9999773244772145,19.54953980603218,0.019851373145597487,-10.866929365301479,4.903112745903499,-101.88610076904297,5356.25390625,True
1599560500.0688872,0.0,10,0.5,0.5,-1.4943948879241942,-0.05075,-0.03,-0.37525,0.020546913482116298,10,1,100,-0.02005590178753226,-10,-1,-100,15032.022911432665,0.004212211516521813,0.0047050796393987475,0.9999800595510527,18.17923176727327,0.01860207707430437,-8.957465448274318,4.346109098487912,-95.15158081054688,5356.25390625,True
1599560500.104794,0.0,10,0.5,0.5,-1.0213443374633786,-0.05075,-0.03,-0.37525,0.027451350152537288,10,1,100,-0.025715014128431368,-10,-1,-100,15032.163531634375,0.004019543404401974,0.004477087808109992,0.9999818993139719,17.22439666788005,0.017661317059887577,-7.76191677816321,3.974753016296356,-90.56947326660156,5356.25390625,True
1599560500.1358411,0.0,10,0.5,0.5,-0.362066349029541,-0.05075,-0.03,-0.37525,0.03724344450273776,10,1,100,-0.034030159240432886,-10,-1,-100,15032.236770870513,0.003920967732355553,0.004360266430476044,0.9999828068965471,16.741081252631997,0.017163019843603668,-7.191727982663464,3.7890677006780686,-88.32284545898438,5356.25390625,True
1599560500.1683407,0.0,10,0.5,0.5,-1.4655495529174805,-0.05075,-0.03,-0.37525,0.02159575091463072,10,1,100,-0.02091722802111349,-10,-1,-100,15032.3725083397,0.0037132195625202724,0.004113344503432429,0.9999846460808668,17.272385354444147,0.017665152373316832,-6.692773265405179,3.4176806290733226,-84.0113525390625,5356.25390625,True
1599560500.2024074,0.0,10,0.5,0.5,0.044181861877441386,-0.05075,-0.03,-0.37525,0.04611731902832092,10,1,100,-0.041560468128300894,-10,-1,-100,15032.3725083397,0.0037132195625202724,0.004113344503432429,0.9999846460808668,17.272385354444147,0.017665152373316832,-6.692773265405179,3.4176806290733226,-84.0113525390625,5356.25390625,True
1599560500.238415,0.0,10,0.5,0.5,-2.6648418045043942,-0.05075,-0.03,-0.37525,0.0020875823219834236,10,1,100,-0.005426677152150297,-10,-1,-100,15032.584415359539,0.003385849271713739,0.0037144779994140293,0.9999873692591826,18.334134285239543,0.018651982762069464,-5.946243926506009,2.860569362565144,-77.8807373046875,5356.25390625,True
1599560500.2693348,0.0,10,0.5,0.5,-0.4801018600463868,-0.05075,-0.03,-0.37525,0.04177992480910805,10,1,100,-0.03800791021629106,-10,-1,-100,15032.584415359539,0.003385849271713739,0.0037144779994140293,0.9999873692591826,18.334134285239543,0.018651982762069464,-5.946243926506009,2.860569362565144,-77.8807373046875,5356.25390625,True
1599560500.302322,0.0,10,0.5,0.5,-2.2160859451293944,-0.05075,-0.03,-0.37525,0.010283140117849695,10,1,100,-0.01293592552942193,-10,-1,-100,15032.6635121695,0.0031591871258182494,0.003429680209613472,0.9999891283560857,18.90084016095581,0.019170180214237373,-5.3341799285051215,2.4891521518663056,-74.03585815429688,5356.25390625,True
1599560500.335393,0.0,10,0.5,0.5,-2.4285833129882812,-0.05075,-0.03,-0.37525,0.007635173061608276,10,1,100,-0.010724062318178844,-10,-1,-100,15032.800226913532,0.002934364516302657,0.0031483267258448,0.9999907387289708,19.369636635827455,0.019600878169421743,-4.650859467556787,2.1177323284052294,-70.37734985351562,5356.25390625,True
1599560500.3712878,0.0,10,0.5,0.5,-1.9105403900146485,-0.05075,-0.03,-0.37525,0.018300257760456667,10,1,100,-0.020052000349464374,-10,-1,-100,15032.807060719235,0.002816325880800427,0.002991387948500266,0.9999915599177199,19.56363959489265,0.01977924688630344,-4.28553706692919,1.932021839255384,-68.6236572265625,5356.25390625,True
1599560500.4022071,0.0,10,0.5,0.5,-2.790277572631836,-0.05075,-0.03,-0.37525,-0.00035287074250882344,10,1,100,-0.005947014033949347,-10,-1,-100,15032.883228206192,0.0025823048029956835,0.0026809925157341287,0.9999930719665188,19.892851378067494,0.020083729465996788,-3.5199604613934334,1.5605985034330523,-65.24801635742188,5356.25390625,True
1599560500.435162,0.0,10,0.5,0.5,-2.944269020080566,-0.05075,-0.03,-0.37525,-0.004107914374985481,10,1,100,-0.0033241125559703433,-10,-1,-100,15032.955490291817,0.0023471955431129494,0.002366518168491184,0.9999944451169919,20.123789956144144,0.020300046687779752,-2.7133716001568997,1.1891693154114056,-62.123626708984375,5356.25390625,True
1599560500.4690738,0.0,10,0.5,0.5,-2.4793437118530273,-0.05075,-0.03,-0.37525,0.00902586411321707,10,1,100,-0.013549292847180011,-10,-1,-100,15032.958418420982,0.002227936353013542,0.0022019490841990925,0.9999950938478837,20.203896553882036,0.020377143977255454,-2.2987436993963293,1.0034515195462297,-60.66314697265625,5356.25390625,True
1599560500.504976,0.0,10,0.5,0.5,-4.210021255493164,-0.05075,-0.03,-0.37525,-0.0472419526728135,10,1,100,0.027219321486886987,-10,-1,-100,15032.976966997609,0.001750434260231055,0.0015427773252844378,0.9999972779053077,20.330248767451966,0.02050973713298079,-0.6006302643272488,0.2605505189161281,-55.508819580078125,5356.25390625,True
1599560500.5357919,0.0,10,0.5,0.5,-2.361367500305176,-0.05075,-0.03,-0.37525,0.018418166500837163,10,1,100,-0.02033460926113278,-10,-1,-100,15032.976966997609,0.001750434260231055,0.0015427773252844378,0.9999972779053077,20.330248767451966,0.02050973713298079,-0.6006302643272488,0.2605505189161281,-55.508819580078125,5356.25390625,True
1599560500.5688617,0.0,10,0.5,0.5,-3.7854573745727538,-0.05075,-0.03,-0.37525,-0.03651728064792363,10,1,100,0.019639301683599,-10,-1,-100,15032.989659503568,0.0013888194200992107,0.0010457010486394742,0.9999984888438259,20.319660832841702,0.020512499968544533,0.6835395684283609,-0.29666310910932325,-52.366607666015625,5356.25390625,True
1599560500.6027975,0.0,10,0.5,0.5,-2.6828847427368165,-0.05075,-0.03,-0.37525,0.012923469321495275,10,1,100,-0.016322479344423966,-10,-1,-100,15032.989659503568,0.0013888194200992107,0.0010457010486394742,0.9999984888438259,20.319660832841702,0.020512499968544533,0.6835395684283609,-0.29666310910932325,-52.366607666015625,5356.25390625,True
1599560500.6382172,0.0,10,0.5,0.5,-3.504966133117676,-0.05075,-0.03,-0.37525,-0.023942347486141873,10,1,100,0.010563254346044404,-10,-1,-100,15032.933993425686,0.001146219140960057,0.000712983420343477,0.9999990889177467,20.3757273757992,0.02057986109631695,1.543766957851186,-0.6681545980593577,-50.61651611328125,5356.25390625,True
1599560500.6686518,0.0,10,0.5,0.5,-3.247297653198242,-0.05075,-0.03,-0.37525,-0.008185216676708807,10,1,100,-4.6791997472209884e-05,-10,-1,-100,15032.936922773952,0.001023958370306303,0.0005562292172412983,0.9999993210589264,20.394744756777772,0.02060480128645671,1.9748015254092202,-0.8539045229187026,-49.844696044921875,5356.25390625,True
1599560500.703558,0.0,10,0.5,0.5,-4.040796501159668,-0.05075,-0.03,-0.37525,-0.06202447154751135,10,1,100,0.042212341831353445,-10,-1,-100,15032.8275462772,0.0005303750041281082,-7.336592303288407e-05,0.9999998566598878,20.437440921640796,0.02067369229228636,3.701067485474218,-1.5969311353830955,-47.446746826171875,5356.25390625,True
1599560500.7355146,0.0,10,0.5,0.5,-3.2044967880249025,-0.05075,-0.03,-0.37525,0.0006285670927535715,10,1,100,-0.006917399698798799,-10,-1,-100,15032.8275462772,0.0005303750041281082,-7.336592303288407e-05,0.9999998566598878,20.437440921640796,0.02067369229228636,3.701067485474218,-1.5969311353830955,-47.446746826171875,5356.25390625,True
1599560500.7715447,0.0,10,0.5,0.5,-3.4398684310913086,-0.05075,-0.03,-0.37525,-0.016865071877419754,10,1,100,0.006987115387512664,-10,-1,-100,15032.824616309605,0.0004058357122515199,-0.00022989504236285339,0.9999998912228162,20.44444865994969,0.020687980771263874,4.1330582415985155,-1.7826939023778219,-47.01959228515625,5356.25390625,True
1599560500.8024354,0.0,10,0.5,0.5,-3.6008781585693357,-0.05075,-0.03,-0.37525,-0.03379988934037507,10,1,100,0.022457667935951383,-10,-1,-100,15032.70449911221,0.00015374165995141634,-0.0005237867521343701,0.9999998510054592,20.4620938385292,0.020721172042309395,4.9988640612915765,-2.1542259377037762,-46.371734619140625,5356.25390625,True
1599560500.835381,0.0,10,0.5,0.5,-3.559093757629395,-0.05075,-0.03,-0.37525,-0.03855588943088087,10,1,100,0.02531629646872172,-10,-1,-100,15032.645906215184,-9.953665180744265e-05,-0.0008317194565345895,0.9999996491675386,20.494304067211655,0.020770369083966244,5.870401404521119,-2.5257662018298905,-45.999786376953125,5356.25390625,True
1599560500.8696275,0.0,10,0.5,0.5,-3.46572794342041,-0.05075,-0.03,-0.37525,-0.05494724049494464,10,1,100,0.04268766467268542,-10,-1,-100,15032.460360522382,-0.00048602939988604037,-0.0012585119276791695,0.999999089961161,20.55569426773724,0.020859480326050707,7.1875126893808705,-3.0830897328240083,-45.958282470703125,5356.25390625,True
1599560500.9055295,0.0,10,0.5,0.5,-3.343873146057129,-0.05075,-0.03,-0.37525,-0.04221721572868221,10,1,100,0.03306267607348446,-10,-1,-100,15032.337315256358,-0.0007478533984555595,-0.001528230958796435,0.9999985526116681,20.613912175414054,0.020936679389411902,8.076775842184416,-3.454646330085289,-46.2750244140625,5356.25390625,True
1599560500.9365602,0.0,10,0.5,0.5,-3.3695651245117193,-0.05075,-0.03,-0.37525,-0.02928615138048527,10,1,100,0.021597450961433076,-10,-1,-100,15032.21036271844,-0.0008797034663014236,-0.001653535009367217,0.9999982459703538,20.649089026135417,0.020980965621408856,8.525785101115854,-3.6404264325559272,-46.53662109375,5356.25390625,True
1599560500.9693487,0.0,10,0.5,0.5,-3.174312561035156,-0.05075,-0.03,-0.37525,-0.04365053078413968,10,1,100,0.037906238198428636,-10,-1,-100,15032.086341112852,-0.0011457665729645318,-0.0018955791989575075,0.9999975469962218,20.72460612452962,0.02107251918729069,9.430667737318823,-4.011989460684838,-47.266448974609375,5356.25390625,True
1599560501.002262,0.0,10,0.5,0.5,-3.4582306747436524,-0.05075,-0.03,-0.37525,-0.019706968087040734,10,1,100,0.011529126103510272,-10,-1,-100,15032.086341112852,-0.0011457665729645318,-0.0018955791989575075,0.9999975469962218,20.72460612452962,0.02107251918729069,9.430667737318823,-4.011989460684838,-47.266448974609375,5356.25390625,True
1599560501.0394714,0.0,10,0.5,0.5,-3.037703330993653,-0.05075,-0.03,-0.37525,-0.044963355836450794,10,1,100,0.04129370756779406,-10,-1,-100,15031.898843265139,-0.0014143811999641383,-0.0021229538072101454,0.9999967462911836,20.803799966629313,0.02116233715252752,10.343837030914571,-4.383555254405475,-48.271759033203125,5356.25390625,True
1599560501.0719569,0.0,10,0.5,0.5,-3.154385200500488,-0.05075,-0.03,-0.37525,-0.03372491009373049,10,1,100,0.02944832106353735,-10,-1,-100,15031.832438131678,-0.0015491230233759083,-0.0022256270462476524,0.9999963233942961,20.843315795461816,0.02120406719144583,10.802919297700205,-4.569338852701515,-48.877593994140625,5356.25390625,True
1599560501.1028392,0.0,10,0.5,0.5,-2.7731955337524417,-0.05075,-0.03,-0.37525,-0.04559665062820096,10,1,100,0.046103137045112964,-10,-1,-100,15031.643964191666,-0.0018211325553759285,-0.002424934667392195,0.9999954015734644,20.919052858156952,0.021275449571706392,11.72430963665124,-4.940906837821439,-50.295989990234375,5356.25390625,True
1599560501.3114345,0.0,10,0.5,0.5,-2.574144340515137,-0.05075,-0.03,-0.37525,-0.044712978943728776,10,1,100,0.04896488883260511,-10,-1,-100,15031.39006067405,-0.002092405356837123,-0.002596094544369278,0.9999944410510188,20.984370128444983,0.0213204126235906,12.645909320989443,-5.312474887769912,-51.989593505859375,5356.25390625,True
1599560501.339288,0.0,10,0.5,0.5,-1.8905695724487304,-0.05075,-0.03,-0.37525,-0.05310748738461066,10,1,100,0.0669060994950212,-10,-1,-100,15031.073658094509,-0.0025000769578085477,-0.00282612422945443,0.9999928812931844,21.04323651699518,0.021306363603549518,14.012794068977147,-5.8698250334366255,-55.0465087890625,5356.25390625,True
1599560501.3744366,0.0,10,0.5,0.5,-3.010536865234375,-0.05075,-0.03,-0.37525,-0.030303959353387457,10,1,100,0.026378993428478853,-10,-1,-100,15031.073658094509,-0.0025000769578085477,-0.00282612422945443,0.9999928812931844,21.04323651699518,0.021306363603549518,14.012794068977147,-5.8698250334366255,-55.0465087890625,5356.25390625,True
1599560501.442265,0.0,10,0.5,0.5,-1.9685190734863283,-0.05075,-0.03,-0.37525,-0.04406836377756971,10,1,100,0.055937380758142224,-10,-1,-100,15030.813895382104,-0.0027669586175710125,-0.002949830076672655,0.9999918211878174,21.040812548947656,0.021219088132116093,14.898822751843015,-6.241389813047791,-57.428558349609375,5356.25390625,True
1599560501.4971178,0.0,10,0.5,0.5,-1.0869221420288087,-0.05075,-0.03,-0.37525,-0.04742269498874144,10,1,100,0.07251184761226406,-10,-1,-100,15030.431087101228,-0.003158419729466074,-0.00309149149504726,0.9999902334848819,20.943953080026866,0.020931373491747517,16.155794036615262,-6.798734110781892,-61.51776123046875,5356.25390625,True
1599560501.5335886,0.0,10,0.5,0.5,-0.5705807647705081,-0.05075,-0.03,-0.37525,-0.04346595470299472,10,1,100,0.07494314496809219,-10,-1,-100,15029.984802068444,-0.003534324610548054,-0.0031829970032576766,0.9999886884758369,20.694371122664936,0.02041654751173043,17.273319739413985,-7.356077611553188,-66.22637939453125,5356.25390625,True
1599560501.5575247,0.0,10,0.5,0.5,-1.55336262512207,-0.05075,-0.03,-0.37525,-0.03628729225275969,10,1,100,0.05052723739860736,-10,-1,-100,15029.853944090311,-0.0036519221081385525,-0.0031997528813520093,0.999988212453734,20.56915748531167,0.02018985906928035,17.60291649774639,-7.541859578310389,-67.93353271484375,5356.25390625,True
1599560501.5864475,0.0,10,0.5,0.5,-0.5970940093994141,-0.05075,-0.03,-0.37525,-0.036893647445537754,10,1,100,0.06381364442109225,-10,-1,-100,15029.528751386213,-0.0038773361193023465,-0.0032193122052972083,0.99998730106614,20.24550151596922,0.019651981842949442,18.180607817974195,-7.913426099810767,-71.53652954101562,5356.25390625,True
1599560501.610383,0.0,10,0.5,0.5,-1.8793242568969726,-0.05075,-0.03,-0.37525,-0.03504735089082656,10,1,100,0.04151853879664667,-10,-1,-100,15029.528751386213,-0.0038773361193023465,-0.0032193122052972083,0.99998730106614,20.24550151596922,0.019651981842949442,18.180607817974195,-7.913426099810767,-71.53652954101562,5356.25390625,True
1599560501.6363142,0.0,10,0.5,0.5,-1.0067212295532229,-0.05075,-0.03,-0.37525,-0.035601150931305975,10,1,100,0.054001983162982305,-10,-1,-100,15029.399846000946,-0.003988705419818192,-0.003223443400975158,0.9999868497343927,20.046497422985034,0.019343756933633938,18.42509628391745,-8.099211216241818,-73.42532348632812,5356.25390625,True
1599560501.6725335,0.0,10,0.5,0.5,0.9218182907104489,-0.05075,-0.03,-0.37525,-0.032837023900869886,10,1,100,0.076698672594571,-10,-1,-100,15028.883247831953,-0.004294313257970274,-0.0032013446888297086,0.9999856550300239,19.277516006442173,0.018270869711481324,18.93944810252763,-8.656578013200997,-79.45330810546875,5356.25390625,True
1599560501.702454,0.0,10,0.5,0.5,-1.2577917938232424,-0.05075,-0.03,-0.37525,-0.035107420129860865,10,1,100,0.046358079569476136,-10,-1,-100,15028.883247831953,-0.004294313257970274,-0.0032013446888297086,0.9999856550300239,19.277516006442173,0.018270869711481324,18.93944810252763,-8.656578013200997,-79.45330810546875,5356.25390625,True
1599560501.737359,0.0,10,0.5,0.5,1.5948679962158203,-0.05075,-0.03,-0.37525,-0.028338221723440457,10,1,100,0.07537009697131436,-10,-1,-100,15028.30707812903,-0.00455642774680502,-0.003139465411990091,0.9999846912443786,18.26105064761575,0.017057928493142107,19.097946548015898,-9.213967555277534,-85.97781372070312,5356.25390625,True
1599560501.7703302,0.0,10,0.5,0.5,1.1605663375854491,-0.05075,-0.03,-0.37525,-0.027958461334550485,10,1,100,0.06693616248443293,-10,-1,-100,15027.915478420095,-0.004716172104238597,-0.003079474301161861,0.9999841371535408,17.508460359198466,0.016277463719458103,19.050714846288592,-9.585573389258354,-90.48773193359375,5356.25390625,True
1599560501.8052387,0.0,10,0.5,0.5,0.5318252716064453,-0.05075,-0.03,-0.37525,-0.030320180448466058,10,1,100,0.058365876595203585,-10,-1,-100,15027.727002368309,-0.004781710545197339,-0.0030462892430586216,0.9999839275538931,17.35841996443915,0.016135544262282555,19.254275344783753,-9.771378351767,-92.75164794921875,5356.25390625,True
1599560501.8362396,0.0,10,0.5,0.5,-0.22400755310058593,-0.05075,-0.03,-0.37525,-0.033634166033591144,10,1,100,0.051974361580902496,-10,-1,-100,15027.727002368309,-0.004781710545197339,-0.0030462892430586216,0.9999839275538931,17.35841996443915,0.016135544262282555,19.254275344783753,-9.771378351767,-92.75164794921875,5356.25390625,True
1599560501.8699863,0.0,10,0.5,0.5,1.7167701568603515,-0.05075,-0.03,-0.37525,-0.0253752026688546,10,1,100,0.06520930599934738,-10,-1,-100,15027.335401670658,-0.004900894234515339,-0.002971332037706652,0.9999835760759394,18.334807250586273,0.017111702561090007,21.112327077774946,-10.142980599097353,-97.12066650390625,5356.25390625,True
1599560501.9038959,0.0,10,0.5,0.5,2.820831100463867,-0.05075,-0.03,-0.37525,-0.01827009942128071,10,1,100,0.06905327790397028,-10,-1,-100,15026.749464566936,-0.005043052812913386,-0.002838804931357504,0.9999832542622341,19.657127137516014,0.01860488373847781,23.88165340817179,-10.700357703532747,-103.3553466796875,5356.25390625,True
1599560501.9398372,0.0,10,0.5,0.5,0.5767238159179688,-0.05075,-0.03,-0.37525,-0.031484759328801556,10,1,100,0.05495399173352667,-10,-1,-100,15026.749464566936,-0.005043052812913386,-0.002838804931357504,0.9999832542622341,19.657127137516014,0.01860488373847781,23.88165340817179,-10.700357703532747,-103.3553466796875,5356.25390625,True
1599560501.9697654,0.0,10,0.5,0.5,2.416264022827148,-0.05075,-0.03,-0.37525,-0.020993122198163558,10,1,100,0.062112812687629415,-10,-1,-100,15026.295363666723,-0.005107073260956492,-0.002743772327691649,0.99998319461685,20.455568262252417,0.01960708667409725,25.716770652045156,-11.071920469008564,-107.4494400024414,5356.25390625,True
1599560502.0036736,0.0,10,0.5,0.5,2.633837392807007,-0.05075,-0.03,-0.37525,-0.02012923341824533,10,1,100,0.060262649203529015,-10,-1,-100,15025.839308486087,-0.005147437302193731,-0.002649961581880964,0.9999832406559794,21.14026459725716,0.02054575404152775,27.471764041794625,-11.443463937788648,-111.3269271850586,5356.25390625,True
1599560502.036782,0.0,10,0.5,0.5,2.0655628986358643,-0.05075,-0.03,-0.37525,-0.023707466266360458,10,1,100,0.057766149298544706,-10,-1,-100,15025.585402413737,-0.0051606608641420705,-0.002597709732587705,0.9999833096025106,21.43879562502371,0.020982752701260647,28.313171660584164,-11.629228365804286,-113.18404388427734,5356.25390625,True
1599560502.0725017,0.0,10,0.5,0.5,4.400913400650024,-0.05075,-0.03,-0.37525,-0.007407678621759353,10,1,100,0.055695600306657086,-10,-1,-100,15024.610791716143,-0.005153071522708699,-0.002402576922784952,0.9999838366083783,22.576145230783755,0.02268357973235794,31.725702071865346,-12.372235574699761,-120.06442260742188,5356.25390625,True
1599560502.1034205,0.0,10,0.5,0.5,1.9213111114501955,-0.05075,-0.03,-0.37525,-0.026847270753114126,10,1,100,0.05651419882758462,-10,-1,-100,15024.610791716143,-0.005153071522708699,-0.002402576922784952,0.9999838366083783,22.576145230783755,0.02268357973235794,31.725702071865346,-12.372235574699761,-120.06442260742188,5356.25390625,True
1599560502.1373236,0.0,10,0.5,0.5,2.672113800048828,-0.05075,-0.03,-0.37525,-0.021498230924580274,10,1,100,0.05482859991917624,-10,-1,-100,15024.351025432697,-0.005137350714979104,-0.002354564649233169,0.9999840316989785,22.80311568731507,0.023042351548441264,32.52718262037712,-12.557975260926398,-121.61858367919922,5356.25390625,True
1599560502.1701407,0.0,10,0.5,0.5,3.411865350723267,-0.05075,-0.03,-0.37525,-0.01638708276299569,10,1,100,0.05148493029550935,-10,-1,-100,15023.886180619593,-0.005092338765764518,-0.0022650809850751656,0.999984468626401,23.197078691015204,0.023675451068174355,34.07099581544012,-12.929441155790723,-124.52081298828125,5356.25390625,True
1599560502.2065585,0.0,10,0.5,0.5,3.5370828247070314,-0.05075,-0.03,-0.37525,-0.015522425718184567,10,1,100,0.04843226866691462,-10,-1,-100,15023.30903047917,-0.00502338495329079,-0.002176581870213228,0.9999850139351956,23.52144624954883,0.02419765469763594,35.54317517331397,-13.300890353534527,-127.14750671386719,5356.25390625,True
1599560502.2374692,0.0,10,0.5,0.5,3.643067142486572,-0.05075,-0.03,-0.37525,-0.015502001326746371,10,1,100,0.045812327489940435,-10,-1,-100,15022.782661481993,-0.004936770666961476,-0.0020966649532961137,0.9999856160422786,23.788589700133855,0.024614867629465333,36.95411936889373,-13.672324456404986,-129.4986114501953,5356.25390625,True
1599560502.2704556,0.0,10,0.5,0.5,4.121424541473389,-0.05075,-0.03,-0.37525,-0.011602708060685613,10,1,100,0.03668714474645664,-10,-1,-100,15021.94086250232,-0.004775170820035839,-0.0019892397627509677,0.9999866202448939,24.10686700694432,0.025065457474788666,38.98005450750855,-14.229450899086755,-132.5084228515625,5356.25390625,True
1599560502.3034043,0.0,10,0.5,0.5,3.4481328887939453,-0.05075,-0.03,-0.37525,-0.01868692867488939,10,1,100,0.045956931918771524,-10,-1,-100,15021.676212602644,-0.004712776189845285,-0.001956754836174148,0.999986980340792,24.196219937591515,0.025175102071802756,39.63704396320552,-14.415153732112294,-133.37387084960938,5356.25390625,True
1599560502.339333,0.0,10,0.5,0.5,3.2011468200683595,-0.05075,-0.03,-0.37525,-0.02185671958341962,10,1,100,0.05215696523071586,-10,-1,-100,15021.676212602644,-0.004712776189845285,-0.001956754836174148,0.999986980340792,24.196219937591515,0.025175102071802756,39.63704396320552,-14.415153732112294,-133.37387084960938,5356.25390625,True
1599560502.3703516,0.0,10,0.5,0.5,3.9165970382690434,-0.05075,-0.03,-0.37525,-0.015279819715477162,10,1,100,0.03733166795875181,-10,-1,-100,15021.088320146664,-0.004578395906565928,-0.0018975950253253136,0.9999877186366054,24.356824174027878,0.025343738893296323,40.93213745413079,-14.786551073792609,-134.8980712890625,5356.25390625,True
1599560502.4032667,0.0,10,0.5,0.5,3.941678382873535,-0.05075,-0.03,-0.37525,-0.015464023676136062,10,1,100,0.03395867361800341,-10,-1,-100,15020.439880771213,-0.004426097759539324,-0.0018461244284753292,0.9999885006754916,24.49996973676702,0.02545636108408607,42.211008255299944,-15.157937727264578,-136.1466522216797,5356.25390625,True
1599560502.4372008,0.0,10,0.5,0.5,3.743319911956787,-0.05075,-0.03,-0.37525,-0.01811958437701656,10,1,100,0.04005356467476309,-10,-1,-100,15020.176207693992,-0.00434371388436129,-0.0018239803036145385,0.9999889025611948,24.567212126364762,0.02549589767494692,42.84753701995404,-15.343627254685302,-136.6676025390625,5356.25390625,True
1599560502.4735162,0.0,10,0.5,0.5,3.9534272079467776,-0.05075,-0.03,-0.37525,-0.01580765167611147,10,1,100,0.02919079122390646,-10,-1,-100,15019.52874488593,-0.004170802746135605,-0.00178335770793211,0.9999897119669474,24.696497201481986,0.025549185592569197,44.12005361420514,-15.714998880599104,-137.50277709960938,5356.25390625,True
1599560502.5036457,0.0,10,0.5,0.5,3.9260574874877934,-0.05075,-0.03,-0.37525,-0.01605893404126608,10,1,100,0.026110602143546977,-10,-1,-100,15018.875422718935,-0.00398648776335339,-0.0017492317396688543,0.9999905240069195,24.82276793426098,0.025577970987072037,45.39828936041512,-16.08636061217404,-138.06234741210938,5356.25390625,True
1599560502.5377462,0.0,10,0.5,0.5,3.894144493103027,-0.05075,-0.03,-0.37525,-0.015193962075381272,10,1,100,0.011091432515157085,-10,-1,-100,15017.893973632017,-0.0036833961014772973,-0.0017108137045082203,0.9999917528208061,25.013799314428226,0.02559802861744168,47.339316752711994,-16.643384233341866,-138.38497924804688,5356.25390625,True
1599560502.5703547,0.0,10,0.5,0.5,3.80678931427002,-0.05075,-0.03,-0.37525,-0.01898918877487418,10,1,100,0.04126659981758504,-10,-1,-100,15017.893973632017,-0.0036833961014772973,-0.0017108137045082203,0.9999917528208061,25.013799314428226,0.02559802861744168,47.339316752711994,-16.643384233341866,-138.38497924804688,5356.25390625,True
1599560502.607254,0.0,10,0.5,0.5,3.706693656921387,-0.05075,-0.03,-0.37525,-0.015416310578290533,10,1,100,0.005607367770109853,-10,-1,-100,15016.913501895266,-0.0033603606961052357,-0.0016786837674927215,0.9999929449735137,25.211637845145486,0.025616364237767954,49.31860581314389,-17.200384232473194,-138.08743286132812,5356.25390625,True
1599560502.6371765,0.0,10,0.5,0.5,3.8350849685668944,-0.05075,-0.03,-0.37525,-0.018598248680314577,10,1,100,0.03776942729492295,-10,-1,-100,15016.913501895266,-0.0033603606961052357,-0.0016786837674927215,0.9999929449735137,25.211637845145486,0.025616364237767954,49.31860581314389,-17.200384232473194,-138.08743286132812,5356.25390625,True
1599560502.670382,0.0,10,0.5,0.5,3.617979469299317,-0.05075,-0.03,-0.37525,-0.016908173697870524,10,1,100,0.012381658610551134,-10,-1,-100,15016.19572652597,-0.0031307922676052555,-0.0016635722413511223,0.9999937153138387,25.34709862496394,0.025639278059643545,50.65961453895856,-17.571704010643426,-137.5446014404297,5356.25390625,True
1599560502.7046902,0.0,10,0.5,0.5,3.485483554840088,-0.05075,-0.03,-0.37525,-0.016108144725332407,10,1,100,0.009847939322620458,-10,-1,-100,15015.4808810174,-0.002900498051735213,-0.0016428280292855248,0.9999944440981249,25.483365375887665,0.02567729575342518,52.014059596032034,-17.943012604301277,-136.72604370117188,5356.25390625,True
1599560502.7406383,0.0,10,0.5,0.5,3.579788063049316,-0.05075,-0.03,-0.37525,-0.017642294520359952,10,1,100,0.01907504911587382,-10,-1,-100,15015.087325132568,-0.002776547851660051,-0.0016381480773589045,0.9999948036129509,25.550750922907685,0.025703327944630705,52.694190274660784,-18.128662706438114,-136.2135009765625,5356.25390625,True
1599560502.7705526,0.0,10,0.5,0.5,3.2475425567626957,-0.05075,-0.03,-0.37525,-0.016519078230718496,10,1,100,0.004016029632881283,-10,-1,-100,15014.371503038332,-0.0025284652652989527,-0.0016238715878389787,0.9999954849420413,25.681516277706397,0.025771862909706664,54.05483401077079,-18.499954775515203,-134.98162841796875,5356.25390625,True
1599560502.8046117,0.0,10,0.5,0.5,3.062546691894531,-0.05075,-0.03,-0.37525,-0.01611689460771894,10,1,100,0.0009009199692572752,-10,-1,-100,15013.642009050702,-0.002276266688591429,-0.0016074186632624825,0.9999961174000644,25.80226487548896,0.025864436718372998,55.405388804804865,-18.871235981483686,-133.47412109375,5356.25390625,True
1599560502.8374205,0.0,10,0.5,0.5,2.4327639007568362,-0.05075,-0.03,-0.37525,-0.015023393206483503,10,1,100,-0.01753665859117592,-10,-1,-100,15012.468179006828,-0.0018811032101784186,-0.0015826804818586816,0.9999969782820372,25.950094927743006,0.02605286156274744,57.377459221952535,-19.428138846106403,-130.6962127685547,5356.25390625,True
1599560502.8738143,0.0,10,0.5,0.5,3.453075595855713,-0.05075,-0.03,-0.37525,-0.017480556221082574,10,1,100,0.021769150794807627,-10,-1,-100,15012.468179006828,-0.0018811032101784186,-0.0015826804818586816,0.9999969782820372,25.950094927743006,0.02605286156274744,57.377459221952535,-19.428138846106403,-130.6962127685547,5356.25390625,True
1599560502.9038658,0.0,10,0.5,0.5,2.494305652618408,-0.05075,-0.03,-0.37525,-0.015012160234747912,10,1,100,-0.007755056633802909,-10,-1,-100,15011.683998000808,-0.0016143397725467763,-0.0015603570030944115,0.9999974795933846,26.01464569781138,0.026211555581150375,58.62644845655023,-19.799396096756407,-128.49972534179688,5356.25390625,True
1599560502.9378166,0.0,10,0.5,0.5,2.7769940719604493,-0.05075,-0.03,-0.37525,-0.015601711224834173,10,1,100,0.004211950621620615,-10,-1,-100,15011.290442465339,-0.0014824994918663432,-0.0015455592647653264,0.9999977067182781,26.033208943532838,0.026299919409682442,59.22194586641322,-19.9850219936237,-127.29811096191406,5356.25390625,True
1599560502.9707744,0.0,10,0.5,0.5,2.083746395111084,-0.05075,-0.03,-0.37525,-0.013925823417900444,10,1,100,-0.012754915878959404,-10,-1,-100,15010.445715188514,-0.0012101075968827119,-0.0015169924539510582,0.9999981171849768,26.036568450607025,0.026490763513951483,60.337345962256265,-20.356268899148528,-124.68828582763672,5356.25390625,True
1599560503.006835,0.0,10,0.5,0.5,1.7936701679229734,-0.05075,-0.03,-0.37525,-0.012511003877328675,10,1,100,-0.015165060127252364,-10,-1,-100,15009.653722298215,-0.0009425229747305861,-0.001478307622217927,0.9999984631273271,25.985470297545188,0.026691518094706983,61.32492761985131,-20.72751145930258,-121.80280303955078,5356.25390625,True
1599560503.0379114,0.0,10,0.5,0.5,2.170604452133179,-0.05075,-0.03,-0.37525,-0.014148109926615353,10,1,100,-0.003671475817063865,-10,-1,-100,15009.202549859183,-0.0008057406931329805,-0.0014581907980168987,0.999998612229803,25.93684358807239,0.02679175999937517,61.762300488444936,-20.91313197391913,-120.25675201416016,5356.25390625,True
1599560503.0715425,0.0,10,0.5,0.5,-0.226614496231079,-0.05075,-0.03,-0.37525,-0.004893389078182509,10,1,100,-0.0490997627329255,-10,-1,-100,15007.501377030276,-0.00027031306277150793,-0.0013559368021495459,0.9999990441826614,25.546639446968644,0.02711432330544713,63.00963581841669,-21.65561666144282,-113.38359069824219,5356.25390625,True
1599560503.1045773,0.0,10,0.5,0.5,1.4786985588073729,-0.05075,-0.03,-0.37525,-0.01182128002024009,10,1,100,-0.010623464471504659,-10,-1,-100,15007.102939354954,-0.00013562359644571202,-0.0013262160065390298,0.9999991113782771,25.392293490763056,0.027154182243741713,63.170119470881914,-21.84124061087924,-111.49309539794922,5356.25390625,True
1599560503.14065,0.0,10,0.5,0.5,2.1176413211822513,-0.05075,-0.03,-0.37525,-0.014763594023161701,10,1,100,0.0026061979941896084,-10,-1,-100,15007.102939354954,-0.00013562359644571202,-0.0013262160065390298,0.9999991113782771,25.392293490763056,0.027154182243741713,63.170119470881914,-21.84124061087924,-111.49309539794922,5356.25390625,True
1599560503.1705735,0.0,10,0.5,0.5,0.3745865039825442,-0.05075,-0.03,-0.37525,-0.007381432036055135,10,1,100,-0.025687487784841815,-10,-1,-100,15006.189852816751,0.00011964568964353207,-0.0012593610817987187,0.9999991998469672,25.04833394005184,0.027194674100236717,63.3825351646026,-22.21249417724755,-107.55621337890625,5356.25390625,True
1599560503.2054448,0.0,10,0.5,0.5,0.030321174621582125,-0.05075,-0.03,-0.37525,-0.006088001320976,10,1,100,-0.028735741391950006,-10,-1,-100,15005.274813676951,0.00037760121078944485,-0.0011871193431704982,0.9999992240821944,24.655786467342793,0.027153541654555757,63.4411765177156,-22.583756191949824,-103.44316101074219,5356.25390625,True
1599560503.2384126,0.0,10,0.5,0.5,0.5750052299499513,-0.05075,-0.03,-0.37525,-0.008912539205902773,10,1,100,-0.017252279983291485,-10,-1,-100,15004.812899885932,0.0005056577586424991,-0.0011474822534975305,0.9999992137970455,24.419608327654355,0.027066515324743808,63.35462625248973,-22.76939090435181,-101.2906265258789,5356.25390625,True
1599560503.2746112,0.0,10,0.5,0.5,-0.6084894733428952,-0.05075,-0.03,-0.37525,-0.0036192930937884015,10,1,100,-0.03157820321037791,-10,-1,-100,15003.897860876052,0.0007503811973631621,-0.0010637034570934263,0.9999991527311483,23.852930030136843,0.02671653044439367,62.90296963501543,-23.140668831147607,-96.8079833984375,5356.25390625,True
1599560503.3056698,0.0,10,0.5,0.5,-0.9646678924560546,-0.05075,-0.03,-0.37525,-0.0022555038533166333,10,1,100,-0.03300452639338173,-10,-1,-100,15002.977939565782,0.0009837937336008636,-0.0009755808816378354,0.9999990401954558,23.2143874924931,0.02615837659859231,62.2108517452364,-23.511957575140794,-92.23798370361328,5356.25390625,True
1599560503.338585,0.0,10,0.5,0.5,-0.33393172645568847,-0.05075,-0.03,-0.37525,-0.0058919313519200794,10,1,100,-0.022701786184013348,-10,-1,-100,15002.517001768225,0.0011003312179768037,-0.0009290200735494325,0.9999989630959193,22.88176762388673,0.025807173194071633,61.808446616570926,-23.697605238563252,-89.92153930664062,5356.25390625,True
1599560503.3724291,0.0,10,0.5,0.5,-3.4893243255615234,-0.05075,-0.03,-0.37525,0.010645662152110899,10,1,100,-0.05810809802467216,-10,-1,-100,15000.556065585697,0.0015262928076039135,-0.000736849659385756,0.9999985637403911,24.148464782201106,0.026913129429778054,67.29511204475479,-24.440153519716944,-80.69854736328125,5356.25390625,True
1599560503.408372,0.0,10,0.5,0.5,-1.0844584197998046,-0.05075,-0.03,-0.37525,-0.003023269340382867,10,1,100,-0.026810153479330853,-10,-1,-100,15000.09219897294,0.0016268838173066043,-0.0006870680611129308,0.9999984405920463,24.63968595566457,0.027293040112536367,69.19095214619733,-24.625768699087036,-78.49810791015625,5356.25390625,True
1599560503.5988238,0.0,10,0.5,0.5,-0.3633999633789063,-0.05075,-0.03,-0.37525,-0.007934542293561726,10,1,100,-0.016940772197069583,-10,-1,-100,15000.09219897294,0.0016268838173066043,-0.0006870680611129308,0.9999984405920463,24.63968595566457,0.027293040112536367,69.19095214619733,-24.625768699087036,-78.49810791015625,5356.25390625,True
1599560503.6217623,0.0,10,0.5,0.5,-1.3875776748657227,-0.05075,-0.03,-0.37525,-0.0023665784863559688,10,1,100,-0.027768333844713215,-10,-1,-100,14999.569738036254,0.0017237139164544989,-0.0006370312519069022,0.9999983114993336,25.10156710571175,0.02761114777831188,71.02484018334135,-24.811374888477765,-76.3262939453125,5356.25390625,True
1599560503.6487253,0.0,10,0.5,0.5,-1.580715789794922,-0.05075,-0.03,-0.37525,-0.0023940028393694725,10,1,100,-0.027792226638470783,-10,-1,-100,14999.10880121321,0.0018102681797022898,-0.0005924190874330281,0.9999981859827259,25.53604317529523,0.027874694466369074,72.80040752215312,-24.99697212735967,-74.20748901367188,5356.25390625,True
1599560503.6716282,0.0,10,0.5,0.5,-3.455057914733887,-0.05075,-0.03,-0.37525,0.009374194888622348,10,1,100,-0.047855239610669606,-10,-1,-100,14997.538489624392,0.00206980797104749,-0.00044548526946991304,0.9999977587164072,26.661184586325557,0.028377656246384775,77.7192096286536,-25.553712729126225,-68.17608642578125,5356.25390625,True
1599560503.7055385,0.0,10,0.5,0.5,-1.2975753173828126,-0.05075,-0.03,-0.37525,-0.005245023500319099,10,1,100,-0.022070481152175376,-10,-1,-100,14997.538489624392,0.00206980797104749,-0.00044548526946991304,0.9999977587164072,26.661184586325557,0.028377656246384775,77.7192096286536,-25.553712729126225,-68.17608642578125,5356.25390625,True
1599560503.740721,0.0,10,0.5,0.5,-3.7315986251831053,-0.05075,-0.03,-0.37525,0.009646480844523653,10,1,100,-0.04689822553075633,-10,-1,-100,14996.023842141381,0.002294092783386949,-0.0003107461363204586,0.9999973202839797,27.542033381596692,0.02858352858868569,82.05509214825985,-26.110383173903,-62.69561767578125,5356.25390625,True
1599560503.7716064,0.0,10,0.5,0.5,-3.188085807800293,-0.05075,-0.03,-0.37525,0.005698128465167455,10,1,100,-0.03945916537057696,-10,-1,-100,14994.976968135801,0.0024289568735248045,-0.00022483463447034994,0.9999970248045209,28.00778951021894,0.028629382243657166,84.64170177145138,-26.481462660646343,-59.384124755859375,5356.25390625,True
1599560503.805516,0.0,10,0.5,0.5,-2.044009666442871,-0.05075,-0.03,-0.37525,-0.002817947095126661,10,1,100,-0.02611727267078379,-10,-1,-100,14994.976968135801,0.0024289568735248045,-0.00022483463447034994,0.9999970248045209,28.00778951021894,0.028629382243657166,84.64170177145138,-26.481462660646343,-59.384124755859375,5356.25390625,True
1599560503.838533,0.0,10,0.5,0.5,-4.031197105407715,-0.05075,-0.03,-0.37525,0.009064341691296204,10,1,100,-0.04525165100656926,-10,-1,-100,14993.339273854275,0.002601697925981447,-0.00011745399590203214,0.9999966086804799,28.557363800165053,0.028654284707116284,88.13689976531175,-27.038038457953064,-54.934417724609375,5356.25390625,True
