Timestamp,Input Throttle,horizon,dT,dt,Input Roll,Roll P,Roll I,Roll D,Input Pitch,Pitch P,Pitch I,Pitch D,Input Yaw,Yaw P,Yaw I,Yaw D,Altitude,Direction X,Direction Y,Direction Z,Drag X,Drag Y,Drag Z,Vertical Velocity,Roll,Mass,Has Fuel
1599559708.2827172,0.0,10,0.5,0.5,-2.9541091766357424,-0.05075,-0.00825,-0.12575,-0.0005445968027359641,10,1,100,0.17111848429566662,-10,-1,-100,14994.049594614888,-0.016775293720590462,-7.687838718011469e-05,0.9998592819043597,28.64907925514867,0.027034315211763763,-87.51377766246026,27.00929795168834,-31.792388916015625,5356.25390625,True
1599559708.3086605,0.0,10,0.5,0.5,-3.0022622230529787,-0.05075,-0.00825,-0.12575,-0.00026440074755117805,10,1,100,0.17716302517360225,-10,-1,-100,14995.122839951771,-0.01684558970782354,-7.22231966076785e-05,0.9998581003778514,28.50391160941423,0.027363213720848604,-85.87449856869942,26.637366941075584,-31.791229248046875,5356.25390625,True
1599559708.3426614,0.0,10,0.5,0.5,-3.0431363723754883,-0.05075,-0.00825,-0.12575,0.0033974413872805503,10,1,100,0.17781184889973348,-10,-1,-100,14996.187296106713,-0.01690007937581133,-3.463607377371383e-05,0.9998571828603491,28.358876258669145,0.027686088587569043,-84.24779416186715,26.2654517082604,-31.830902099609375,5356.25390625,True
1599559708.3760638,0.0,10,0.5,0.5,-3.07879222946167,-0.05075,-0.00825,-0.12575,0.0035478601541452702,10,1,100,0.17606183645024737,-10,-1,-100,14996.727336228709,-0.016918342525008706,9.329685684548978e-07,0.999856874600228,28.289826843620993,0.027847986084399968,-83.44923381520874,26.079499810722915,-31.929046630859375,5356.25390625,True
1599559708.412122,0.0,10,0.5,0.5,-3.1390424407958983,-0.05075,-0.00825,-0.12575,-8.950783214756235e-06,10,1,100,0.17592735578301047,-10,-1,-100,14996.727336228709,-0.016918342525008706,9.329685684548978e-07,0.999856874600228,28.289826843620993,0.027847986084399968,-83.44923381520874,26.079499810722915,-31.929046630859375,5356.25390625,True
1599559708.4421773,0.0,10,0.5,0.5,-3.1177363471984867,-0.05075,-0.00825,-0.12575,0.009481671070443839,10,1,100,0.18070152016547014,-10,-1,-100,14997.738079747302,-0.01694636370800833,8.721050090301626e-05,0.9998563962646859,28.165789778194824,0.028176400631401154,-81.90168042928369,25.707607087171954,-32.321197509765625,5356.25390625,True
1599559708.476494,0.0,10,0.5,0.5,-3.0975080963134767,-0.05075,-0.00825,-0.12575,0.01549848011313239,10,1,100,0.17980312598330486,-10,-1,-100,14998.745892931474,-0.0169482645057083,0.00022026360295805615,0.9998563435885127,28.062070292265602,0.028507558256611602,-80.42272986144857,25.335728207096107,-32.98480224609375,5356.25390625,True
1599559708.509987,0.0,10,0.5,0.5,-2.961504138183594,-0.05075,-0.00825,-0.12575,0.034777596600167,10,1,100,0.17503910430907116,-10,-1,-100,15000.218546575983,-0.016891275702482774,0.0005162854241602633,0.9998571989311791,27.939895846749703,0.028989852133152322,-78.3141615386264,24.77793362431051,-34.494659423828125,5356.25390625,True
1599559708.6486561,0.0,10,0.5,0.5,-3.1971605842590334,-0.05075,-0.00825,-0.12575,0.005227043022362307,10,1,100,0.18242711220187197,-10,-1,-100,15000.218546575983,-0.016891275702482774,0.0005162854241602633,0.9998571989311791,27.939895846749703,0.028989852133152322,-78.3141615386264,24.77793362431051,-34.494659423828125,5356.25390625,True
1599559708.6685715,0.0,10,0.5,0.5,-3.1298714050292973,-0.05075,-0.00825,-0.12575,0.018854079442581623,10,1,100,0.1799952021640772,-10,-1,-100,15000.751748620765,-0.016853811724227837,0.0006396982230493842,0.9998577597921354,27.906149677783766,0.029140845582758104,-77.63410638409817,24.59200802065989,-35.135345458984375,5356.25390625,True
1599559708.6915483,0.0,10,0.5,0.5,-3.130495249176026,-0.05075,-0.00825,-0.12575,0.021493005272372932,10,1,100,0.1803280879369657,-10,-1,-100,15001.220496673835,-0.016807458149454856,0.0007753003675620973,0.9998584441109124,27.87491008717589,0.029284094399286427,-76.96237044298911,24.406085364863515,-35.8447265625,5356.25390625,True
1599559708.7255013,0.0,10,0.5,0.5,-2.929571176147461,-0.05075,-0.00825,-0.12575,0.04175169649704386,10,1,100,0.17157823053935495,-10,-1,-100,15002.222445227904,-0.016685745137474898,0.0010819702566572612,0.9998601978524653,27.816793093964804,0.02953890646417886,-75.63463936402948,24.03424829657319,-37.469573974609375,5356.25390625,True
1599559708.8242278,0.0,10,0.5,0.5,-2.967625914001465,-0.05075,-0.00825,-0.12575,0.03002740638940881,10,1,100,0.17537686528423102,-10,-1,-100,15002.694121857174,-0.016609775301146854,0.0012531273426259417,0.9998612628941621,27.78816987062801,0.02964590077473149,-74.9737512932131,23.8483340169534,-38.38507080078125,5356.25390625,True
1599559708.8491538,0.0,10,0.5,0.5,-2.7177926460266115,-0.05075,-0.00825,-0.12575,0.054310206406924466,10,1,100,0.16256088716672298,-10,-1,-100,15003.632592164096,-0.01642446683439371,0.001628306726923612,0.9998637834757337,27.726934954622966,0.029806567601741153,-73.644933536399,23.47651381723037,-40.42218017578125,5356.25390625,True
1599559708.906037,0.0,10,0.5,0.5,-2.5588714736938476,-0.05075,-0.00825,-0.12575,0.061995659620132135,10,1,100,0.15536244321358772,-10,-1,-100,15004.565201603691,-0.016191013170217452,0.002037767220261241,0.9998668404329039,27.652713570408157,0.029877903701160665,-72.28724938409364,23.104705352969557,-42.7342529296875,5356.25390625,True
1599559708.9401453,0.0,10,0.5,0.5,-2.1376035713195805,-0.05075,-0.00825,-0.12575,0.0966781347962038,10,1,100,0.13028450323945248,-10,-1,-100,15005.910890224273,-0.01575146250243307,0.002723447593758198,0.9998722289684011,27.49468631778006,0.029768366058188053,-70.14320480308763,22.547017136425726,-46.717803955078125,5356.25390625,True
1599559708.9600914,0.0,10,0.5,0.5,-2.6266579124450686,-0.05075,-0.00825,-0.12575,0.02837372115579361,10,1,100,0.17412007989733297,-10,-1,-100,15005.910890224273,-0.01575146250243307,0.002723447593758198,0.9998722289684011,27.49468631778006,0.029768366058188053,-70.14320480308763,22.547017136425726,-46.717803955078125,5356.25390625,True
1599559708.9820595,0.0,10,0.5,0.5,-2.085898208618164,-0.05075,-0.00825,-0.12575,0.08199333119016902,10,1,100,0.13444666050496368,-10,-1,-100,15006.779043909046,-0.015391883055232692,0.0032086229722608833,0.9998763896975645,27.3411613996257,0.029519451923879027,-68.60400777144652,22.17524369463465,-49.7174072265625,5356.25390625,True
1599559709.0129774,0.0,10,0.5,0.5,-2.4505395530700684,-0.05075,-0.00825,-0.12575,0.03374502709471054,10,1,100,0.17025466596027664,-10,-1,-100,15006.779043909046,-0.015391883055232692,0.0032086229722608833,0.9998763896975645,27.3411613996257,0.029519451923879027,-68.60400777144652,22.17524369463465,-49.7174072265625,5356.25390625,True
1599559709.0440562,0.0,10,0.5,0.5,-1.5527768371582034,-0.05075,-0.00825,-0.12575,0.11729318506880211,10,1,100,0.09958878145688355,-10,-1,-100,15008.112033514422,-0.014750829007608436,0.003965704101527079,0.9998833363120756,27.00588650753628,0.02883833781884776,-66.0626105245575,21.61761778628471,-54.73272705078125,5356.25390625,True
1599559709.0770242,0.0,10,0.5,0.5,-1.5164363288879394,-0.05075,-0.00825,-0.12575,0.09942663040643636,10,1,100,0.10876471147066799,-10,-1,-100,15008.982137521729,-0.014253381948726808,0.004488512807676225,0.9998883409440272,26.6914489974838,0.02816430621860574,-64.17329105788924,21.245894471607446,-58.420257568359375,5356.25390625,True
1599559709.111565,0.0,10,0.5,0.5,-1.9615184783935549,-0.05075,-0.00825,-0.12575,0.0475170810355332,10,1,100,0.15825400973875803,-10,-1,-100,15008.982137521729,-0.014253381948726808,0.004488512807676225,0.9998883409440272,26.6914489974838,0.02816430621860574,-64.17329105788924,21.245894471607446,-58.420257568359375,5356.25390625,True
1599559709.146947,0.0,10,0.5,0.5,-1.600541781616211,-0.05075,-0.00825,-0.12575,0.07481370182707964,10,1,100,0.12864975623405933,-10,-1,-100,15009.381544897333,-0.013986463610673863,0.00473356704891663,0.999890980146666,26.501188083640653,0.027760536523235214,-63.15982007904648,21.06004229852252,-60.367523193359375,5356.25390625,True
1599559709.1768672,0.0,10,0.5,0.5,-0.33108083419799805,-0.05075,-0.00825,-0.12575,0.16182987774329308,10,1,100,0.021697650962073628,-10,-1,-100,15011.0514378777,-0.012773903538780837,0.005744235740458674,0.9999019107613204,25.47349051024528,0.02573109447152873,-58.57301457568605,20.316710089277667,-68.84454345703125,5356.25390625,True
1599559709.2098134,0.0,10,0.5,0.5,-1.3736176826477053,-0.05075,-0.00825,-0.12575,0.06117460149044216,10,1,100,0.14258860182181493,-10,-1,-100,15011.0514378777,-0.012773903538780837,0.005744235740458674,0.9999019107613204,25.47349051024528,0.02573109447152873,-58.57301457568605,20.316710089277667,-68.84454345703125,5356.25390625,True
1599559709.2436237,0.0,10,0.5,0.5,-0.9476208671569826,-0.05075,-0.00825,-0.12575,0.08799705423763567,10,1,100,0.10538605491129761,-10,-1,-100,15011.4508446689,-0.01243880503016835,0.005984706703142072,0.9999047251689026,25.13949542405683,0.025134179572919132,-57.277773933890536,20.13089867138415,-71.13607788085938,5356.25390625,True
1599559709.2796,0.0,10,0.5,0.5,-0.3750797721862794,-0.05075,-0.00825,-0.12575,0.1137479508757595,10,1,100,0.06223447234753493,-10,-1,-100,15012.249657778651,-0.011744894414915759,0.006434450948555937,0.9999103236271606,24.364534562746606,0.023863560376854623,-54.49022536147031,19.75930510613785,-75.8984375,5356.25390625,True
1599559709.3105311,0.0,10,0.5,0.5,-0.07031880645751953,-0.05075,-0.00825,-0.12575,0.12000307178466517,10,1,100,0.046792906245399266,-10,-1,-100,15012.991830558516,-0.010977331043837186,0.006896800449599687,0.9999159626422174,23.44596769632322,0.022539282892336112,-51.45269710721518,19.38775194966026,-80.88174438476562,5356.25390625,True
1599559709.3436153,0.0,10,0.5,0.5,-0.2142863059997559,-0.05075,-0.00825,-0.12575,0.09700141443087648,10,1,100,0.07998875923300941,-10,-1,-100,15013.392214173218,-0.010585339871845298,0.007104659313261982,0.9999187338958301,22.925795144202567,0.021868837715699824,-49.83052292176748,19.201990754718043,-83.4708251953125,5356.25390625,True
1599559709.377597,0.0,10,0.5,0.5,1.392813063812256,-0.05075,-0.00825,-0.12575,0.15740050841383435,10,1,100,-0.06166320434769794,-10,-1,-100,15014.865819014143,-0.008945608722194777,0.007839162737944593,0.9999292593039556,21.60748551507008,0.020373420081987476,-45.153156629341915,18.459030772833046,-94.2630615234375,5356.25390625,True
1599559709.4125218,0.0,10,0.5,0.5,0.5518387786865235,-0.05075,-0.00825,-0.12575,0.10201439924571709,10,1,100,0.054040118625240864,-10,-1,-100,15015.257414124324,-0.008512069904344123,0.007999861714640066,0.9999317711116545,22.049452892403778,0.020848445988452573,-45.6144368090091,18.273295468315546,-97.00264739990234,5356.25390625,True
1599559709.4435062,0.0,10,0.5,0.5,0.23916632633209234,-0.05075,-0.00825,-0.12575,0.08629563646686611,10,1,100,0.09681986920586802,-10,-1,-100,15015.257414124324,-0.008512069904344123,0.007999861714640066,0.9999317711116545,22.049452892403778,0.020848445988452573,-45.6144368090091,18.273295468315546,-97.00264739990234,5356.25390625,True
1599559709.477542,0.0,10,0.5,0.5,1.2368344444274904,-0.05075,-0.00825,-0.12575,0.11678230299415254,10,1,100,0.0034145462538724553,-10,-1,-100,15015.989823548589,-0.007668149979366329,0.008273821093154521,0.9999363696557959,22.95513496405754,0.021939066883958736,-46.52532736180602,17.90181659974279,-102.47481536865234,5356.25390625,True
1599559709.4984858,0.0,10,0.5,0.5,1.5233111463546753,-0.05075,-0.00825,-0.12575,0.11530596884577379,10,1,100,-0.009506333940833014,-10,-1,-100,15016.660710609984,-0.006789231421826747,0.008506235441324003,0.9999407733937634,23.690279839699187,0.02298274791112108,-47.02150332381348,17.530324460780736,-107.79981994628906,5356.25390625,True
1599559709.5184329,0.0,10,0.5,0.5,1.8068383047103884,-0.05075,-0.00825,-0.12575,0.11196204468683438,10,1,100,-0.020406080918879632,-10,-1,-100,15017.385309324716,-0.005896566553460297,0.008684610993032386,0.9999449024995228,24.255167784616585,0.023914584365469886,-47.12492789646378,17.158819825045114,-113.01799774169922,5356.25390625,True
1599559709.5463777,0.0,10,0.5,0.5,1.6371670455932619,-0.05075,-0.00825,-0.12575,0.10237352663369714,10,1,100,0.021449942540593514,-10,-1,-100,15017.721241934109,-0.005471814465472663,0.008756929171145511,0.999946686297798,24.48361828473903,0.024327894462937108,-47.05498858646369,16.973063461614792,-115.56797790527344,5356.25390625,True
1599559709.5784585,0.0,10,0.5,0.5,2.2201856735229493,-0.05075,-0.00825,-0.12575,0.10823425842444376,10,1,100,-0.030467251003486157,-10,-1,-100,15018.387248516898,-0.004620035344687449,0.008873432147102409,0.9999499574855456,24.928834840479816,0.025110437951559574,-46.86419009119542,16.601544001841187,-120.48028564453125,5356.25390625,True
1599559709.6105473,0.0,10,0.5,0.5,2.055045177459717,-0.05075,-0.00825,-0.12575,0.10115711322941849,10,1,100,0.0065082632872476495,-10,-1,-100,15018.717322879238,-0.0041883088730441335,0.00891278900420068,0.9999515089547845,25.09273036105163,0.02541534983368414,-46.6455482354934,16.415782296632145,-122.83610534667969,5356.25390625,True
1599559709.644323,0.0,10,0.5,0.5,1.79341319770813,-0.05075,-0.00825,-0.12575,0.09742302637505143,10,1,100,0.049002008234499926,-10,-1,-100,15018.717322879238,-0.0041883088730441335,0.00891278900420068,0.9999515089547845,25.09273036105163,0.02541534983368414,-46.6455482354934,16.415782296632145,-122.83610534667969,5356.25390625,True
1599559709.6772373,0.0,10,0.5,0.5,3.3680857742309573,-0.05075,-0.00825,-0.12575,0.10511708036938489,10,1,100,-0.1331627175773593,-10,-1,-100,15019.98098169954,-0.0025380813938443232,0.008981091195339222,0.9999564481235065,25.40648934596463,0.026026584099817007,-45.09503953190368,15.67273750161519,-131.57376098632812,5356.25390625,True
1599559709.7132323,0.0,10,0.5,0.5,2.6553206954956057,-0.05075,-0.00825,-0.12575,0.09714569502297159,10,1,100,-0.013350152876153442,-10,-1,-100,15020.30910387705,-0.0021329047530630496,0.008969678840081962,0.9999574968861527,25.411082601313737,0.026032263561467536,-44.56958304299414,15.48698014698868,-133.5863037109375,5356.25390625,True
1599559709.7451138,0.0,10,0.5,0.5,3.106324996376038,-0.05075,-0.00825,-0.12575,0.09622055590076092,10,1,100,-0.057129451660601245,-10,-1,-100,15020.906756221666,-0.001372367968086258,0.008950011964077591,0.999959006105752,25.348290105589207,0.025884326762859997,-43.39481910246185,15.115474198967958,-137.40443420410156,5356.25390625,True
1599559709.7774804,0.0,10,0.5,0.5,3.284852465820313,-0.05075,-0.00825,-0.12575,0.09141799026416032,10,1,100,-0.06425181336358857,-10,-1,-100,15021.50538519863,-0.0006227127862040699,0.008887609525332305,0.9999603105252283,25.203178548946447,0.025547805326489408,-42.08782550673374,14.743983580773591,-140.94735717773438,5356.25390625,True
1599559709.8115013,0.0,10,0.5,0.5,2.871069748878479,-0.05075,-0.00825,-0.12575,0.09771961298190672,10,1,100,0.01000916110531401,-10,-1,-100,15021.50538519863,-0.0006227127862040699,0.008887609525332305,0.9999603105252283,25.203178548946447,0.025547805326489408,-42.08782550673374,14.743983580773591,-140.94735717773438,5356.25390625,True
1599559709.8469918,0.0,10,0.5,0.5,3.4750578245162966,-0.05075,-0.00825,-0.12575,0.09071955201880452,10,1,100,-0.06750222243042425,-10,-1,-100,15022.098156733788,7.633022899753005e-05,0.008823625903773186,0.9999610681419585,24.992664170416404,0.02505806471803244,-40.68653480726719,14.372511231473432,-144.21444702148438,5356.25390625,True
1599559709.8779206,0.0,10,0.5,0.5,3.863767139434815,-0.05075,-0.00825,-0.12575,0.08137013209400507,10,1,100,-0.10737263505259367,-10,-1,-100,15022.89796012349,0.0010688522695801086,0.00868033787130241,0.9999617539132513,24.624240229175815,0.02415133971596423,-38.53534716410554,13.8153403137187,-148.5986328125,5356.25390625,True
1599559709.911491,0.0,10,0.5,0.5,3.573279858016968,-0.05075,-0.00825,-0.12575,0.0911836937426207,10,1,100,-0.042346013319763794,-10,-1,-100,15023.159678583266,0.0013740478664157694,0.008639359848861704,0.9999617359948644,24.498918579660383,0.023824003647771774,-37.8247166233668,13.629626957185717,-149.9219970703125,5356.25390625,True
1599559709.9444518,0.0,10,0.5,0.5,3.4311562145233157,-0.05075,-0.00825,-0.12575,0.09525808875686724,10,1,100,-0.012425861957308031,-10,-1,-100,15023.159678583266,0.0013740478664157694,0.008639359848861704,0.9999617359948644,24.498918579660383,0.023824003647771774,-37.8247166233668,13.629626957185717,-149.9219970703125,5356.25390625,True
1599559709.9793596,0.0,10,0.5,0.5,3.8841490402221686,-0.05075,-0.00825,-0.12575,0.0858778303639749,10,1,100,-0.07731247554562512,-10,-1,-100,15023.693858768907,0.001958869483819143,0.008554333344522082,0.999961492364269,24.23040247225752,0.023130642909485695,-36.39239364901793,13.258215752528532,-152.36192321777344,5356.25390625,True
1599559710.010491,0.0,10,0.5,0.5,3.983716873931885,-0.05075,-0.00825,-0.12575,0.08253314115473823,10,1,100,-0.08021654628484581,-10,-1,-100,15024.219250317663,0.0025113377987634315,0.008446956125638163,0.9999611703034634,23.948239116362295,0.022408274780537953,-34.96268246261431,12.886824665642328,-154.52639770507812,5356.25390625,True
1599559710.0445554,0.0,10,0.5,0.5,3.9032373901367188,-0.05075,-0.00825,-0.12575,0.08698220444504587,10,1,100,-0.054319283559942505,-10,-1,-100,15024.479993244284,0.002773561679220384,0.008390272079355308,0.9999609545827506,23.805572179621418,0.022043678463981035,-34.25442332056963,12.701136425060273,-155.5052490234375,5356.25390625,True
1599559710.0774882,0.0,10,0.5,0.5,4.3675081802368165,-0.05075,-0.00825,-0.12575,0.07206730042662345,10,1,100,-0.13238726741455548,-10,-1,-100,15025.462418903015,0.003717195545193837,0.008203677825076805,0.9999594402411636,23.2529123767385,0.02061595560098351,-31.505599572847753,11.958427477681479,-158.73062133789062,5356.25390625,True
1599559710.1135821,0.0,10,0.5,0.5,4.091418576431274,-0.05075,-0.00825,-0.12575,0.08533468078090725,10,1,100,-0.061984832886775684,-10,-1,-100,15025.72218572686,0.003930395506268724,0.008155337719079838,0.9999590203892618,23.124332182236763,0.020275120604007543,-30.845652364751334,11.772760136138565,-159.36465454101562,5356.25390625,True
1599559710.1449401,0.0,10,0.5,0.5,4.026883171463013,-0.05075,-0.00825,-0.12575,0.09009546419997873,10,1,100,-0.0411201476085343,-10,-1,-100,15025.72218572686,0.003930395506268724,0.008155337719079838,0.9999590203892618,23.124332182236763,0.020275120604007543,-30.845652364751334,11.772760136138565,-159.36465454101562,5356.25390625,True
1599559710.178623,0.0,10,0.5,0.5,4.304678287124633,-0.05075,-0.00825,-0.12575,0.07822681505661461,10,1,100,-0.105126210303843,-10,-1,-100,15026.381369361421,0.004508129614142009,0.008048106610327666,0.9999574514684968,22.774913943627503,0.019308855502790868,-28.94427296932433,11.215777939430348,-160.85247802734375,5356.25390625,True
1599559710.3422184,0.0,10,0.5,0.5,4.194506240463257,-0.05075,-0.00825,-0.12575,0.08511220701297215,10,1,100,-0.06694986111275439,-10,-1,-100,15026.577659798553,0.004682255811030423,0.008013923274059347,0.9999569258294467,22.672782523773083,0.019007617502590377,-28.33815086329532,11.030122930115894,-161.2105255126953,5356.25390625,True
1599559710.367152,0.0,10,0.5,0.5,4.210914191436768,-0.05075,-0.00825,-0.12575,0.0847888285463308,10,1,100,-0.06799087962011666,-10,-1,-100,15026.839380117948,0.004846731245958229,0.007980513541025266,0.999956409349853,22.578679385574112,0.018717335314452667,-27.74616360069556,10.844470378306136,-161.4996337890625,5356.25390625,True
1599559710.3910544,0.0,10,0.5,0.5,4.249592263793946,-0.05075,-0.00825,-0.12575,0.0834709696131577,10,1,100,-0.08475377913943472,-10,-1,-100,15027.233914475655,0.005145487379359541,0.007938759471881652,0.9999552490275134,22.416291149467902,0.018170074889865075,-26.60462461179761,10.473171681161617,-161.87063598632812,5356.25390625,True
1599559710.4109979,0.0,10,0.5,0.5,4.229601784515381,-0.05075,-0.00825,-0.12575,0.08347174588607478,10,1,100,-0.08413644246220846,-10,-1,-100,15027.627472146414,0.005408043131283274,0.007901445193665776,0.9999541590659751,22.289966410877994,0.01766648883868548,-25.517923273815185,10.10187982556123,-161.96585083007812,5356.25390625,True
1599559710.444996,0.0,10,0.5,0.5,4.215689346694946,-0.05075,-0.00825,-0.12575,0.08572813749334417,10,1,100,-0.07102569726241847,-10,-1,-100,15027.881379423663,0.005524405973354518,0.007888629308218207,0.9999536241577802,22.240733747728644,0.01743059442517826,-24.99417092089983,9.916235952344318,-161.90997314453125,5356.25390625,True
1599559710.4780636,0.0,10,0.5,0.5,4.172541576766968,-0.05075,-0.00825,-0.12575,0.08576705080849444,10,1,100,-0.08217008529045701,-10,-1,-100,15028.210483784205,0.0057287638407881895,0.007877839830510347,0.999952559326922,22.1700078395414,0.016989013353118927,-23.982804109109413,9.544950949313312,-161.5911865234375,5356.25390625,True
1599559710.51326,0.0,10,0.5,0.5,4.112680654525757,-0.05075,-0.00825,-0.12575,0.08713234840302764,10,1,100,-0.08027694457029749,-10,-1,-100,15028.598181891255,0.00589464680267047,0.00788090885822518,0.9999515710346377,22.13534408394557,0.016585435871786673,-23.01477354083353,9.173668555974412,-160.9964599609375,5356.25390625,True
1599559710.5442739,0.0,10,0.5,0.5,4.189336836624146,-0.05075,-0.00825,-0.12575,0.08679316873485911,10,1,100,-0.0639063935078171,-10,-1,-100,15028.598181891255,0.00589464680267047,0.00788090885822518,0.9999515710346377,22.13534408394557,0.016585435871786673,-23.01477354083353,9.173668555974412,-160.9964599609375,5356.25390625,True
1599559710.5781834,0.0,10,0.5,0.5,4.037007744979859,-0.05075,-0.00825,-0.12575,0.08907665210558288,10,1,100,-0.07800465078616946,-10,-1,-100,15028.986856385367,0.00602102709493149,0.007901917278741628,0.9999506522504208,22.13450915432047,0.01621706059911344,-22.08330207516628,8.802386889333507,-160.1257781982422,5356.25390625,True
1599559710.6110952,0.0,10,0.5,0.5,3.8253028053283695,-0.05075,-0.00825,-0.12575,0.09311345207852989,10,1,100,-0.07832455077681039,-10,-1,-100,15029.440960793756,0.006136925877275823,0.007957944406638225,0.9999495033558433,22.188609428666766,0.0157249087890036,-20.737761514406653,8.245462899178236,-158.30242919921875,5356.25390625,True
1599559710.6470802,0.0,10,0.5,0.5,4.0524851516723635,-0.05075,-0.00825,-0.12575,0.08750172306850132,10,1,100,-0.06689755216869048,-10,-1,-100,15029.440960793756,0.006136925877275823,0.007957944406638225,0.9999495033558433,22.188609428666766,0.0157249087890036,-20.737761514406653,8.245462899178236,-158.30242919921875,5356.25390625,True
1599559710.6780124,0.0,10,0.5,0.5,3.774657528305054,-0.05075,-0.00825,-0.12575,0.09379037495269814,10,1,100,-0.06989452333346123,-10,-1,-100,15029.765181024326,0.006162848642349879,0.008015164859101306,0.9999488869081723,22.25423043468634,0.015434187107324065,-19.863192181772444,7.874177726965402,-156.74192810058594,5356.25390625,True
1599559710.7110968,0.0,10,0.5,0.5,3.6428497497558596,-0.05075,-0.00825,-0.12575,0.09554939232481482,10,1,100,-0.0656495382128088,-10,-1,-100,15030.081588737317,0.006146627548232734,0.008083143018070553,0.9999484395551267,22.335679715234733,0.015171360787215779,-18.996464972649637,7.502889553917999,-154.90557861328125,5356.25390625,True
1599559710.7350645,0.0,10,0.5,0.5,3.290588681030274,-0.05075,-0.00825,-0.12575,0.10155128266221757,10,1,100,-0.05657873378224976,-10,-1,-100,15030.527878761524,0.006048509113149454,0.008199372726067904,0.9999480915649608,22.469582724991483,0.014827424033699226,-17.692583916705583,6.945950779885175,-151.6339874267578,5356.25390625,True
1599559710.7569726,0.0,10,0.5,0.5,3.693467485427857,-0.05075,-0.00825,-0.12575,0.0899581046157227,10,1,100,-0.06645462388876443,-10,-1,-100,15030.527878761524,0.006048509113149454,0.008199372726067904,0.9999480915649608,22.469582724991483,0.014827424033699226,-17.692583916705583,6.945950779885175,-151.6339874267578,5356.25390625,True
1599559710.7809103,0.0,10,0.5,0.5,3.2391964088439944,-0.05075,-0.00825,-0.12575,0.09921753280313053,10,1,100,-0.0534359582472546,-10,-1,-100,15030.787644397351,0.005929681149917733,0.008283266851937202,0.9999481118396694,22.552387311183733,0.014632251641668424,-16.80901395208079,6.574654296699912,-149.10824584960938,5356.25390625,True
1599559710.8108299,0.0,10,0.5,0.5,3.5465099861145024,-0.05075,-0.00825,-0.12575,0.09086866291834335,10,1,100,-0.06533884630133967,-10,-1,-100,15030.787644397351,0.005929681149917733,0.008283266851937202,0.9999481118396694,22.552387311183733,0.014632251641668424,-16.80901395208079,6.574654296699912,-149.10824584960938,5356.25390625,True
1599559710.8448894,0.0,10,0.5,0.5,3.295560592651367,-0.05075,-0.00825,-0.12575,0.09541653982375536,10,1,100,-0.05708876440793095,-10,-1,-100,15030.912644269294,0.005854648556025611,0.008324245407446664,0.9999482136734293,22.587465279680654,0.014544807399515719,-16.3600049743631,6.38900506653962,-147.74200439453125,5356.25390625,True
1599559710.8785965,0.0,10,0.5,0.5,2.9376574508666993,-0.05075,-0.00825,-0.12575,0.10071928461719526,10,1,100,-0.044779269384169686,-10,-1,-100,15031.16361996776,0.005674568968859165,0.008409302377350882,0.9999485401262126,22.636597792377433,0.014389175222542568,-15.443159450959804,6.017704655261256,-144.8027801513672,5356.25390625,True
1599559710.9123416,0.0,10,0.5,0.5,3.0169892707824713,-0.05075,-0.00825,-0.12575,0.09698508324815724,10,1,100,-0.05112416902025429,-10,-1,-100,15031.286666258355,0.005568856120968686,0.008452218351091998,0.9999487726111019,22.646884031825007,0.014319877885268643,-14.973717127855451,5.832053620326752,-143.2297821044922,5356.25390625,True
1599559710.948287,0.0,10,0.5,0.5,2.610624924087525,-0.05075,-0.00825,-0.12575,0.10156153442551903,10,1,100,-0.035033906191502366,-10,-1,-100,15031.478070728364,0.005326994842403512,0.008532387634337708,0.9999494094639021,22.628526640498706,0.014193624164865744,-14.009380064111193,5.46074993116931,-139.87718200683594,5356.25390625,True
1599559710.9782684,0.0,10,0.5,0.5,1.6877021484375003,-0.05075,-0.00825,-0.12575,0.10738439803385938,10,1,100,0.006857292926658064,-10,-1,-100,15031.910683010938,0.004727028170847234,0.008657681703520811,0.9999513486926215,22.372192514014152,0.013944861650964969,-11.967653144283853,4.718133530910996,-132.34567260742188,5356.25390625,True
1599559711.012244,0.0,10,0.5,0.5,2.6146625446319582,-0.05075,-0.00825,-0.12575,0.094919242799991,10,1,100,-0.05299579218181947,-10,-1,-100,15031.910683010938,0.004727028170847234,0.008657681703520811,0.9999513486926215,22.372192514014152,0.013944861650964969,-11.967653144283853,4.718133530910996,-132.34567260742188,5356.25390625,True
1599559711.0451236,0.0,10,0.5,0.5,2.2333524944305423,-0.05075,-0.00825,-0.12575,0.09715351627056285,10,1,100,-0.0339454600212236,-10,-1,-100,15031.973181406967,0.004555133877912168,0.008677470972630146,0.9999519749732351,22.249282057763054,0.013871685886371086,-11.433689305423858,4.532476302712775,-130.2907257080078,5356.25390625,True
1599559711.0813422,0.0,10,0.5,0.5,1.3131794498443607,-0.05075,-0.00825,-0.12575,0.09831919591426165,10,1,100,0.011029144317608833,-10,-1,-100,15032.220246050041,0.0039913639132865735,0.008705623670175383,0.9999541395137205,21.70021724422653,0.013584906331304538,-9.781438468728807,3.9754917330069763,-123.71296691894531,5356.25390625,True
1599559711.1125627,0.0,10,0.5,0.5,1.2825935749053956,-0.05075,-0.00825,-0.12575,0.09458131288602804,10,1,100,0.000801825404207264,-10,-1,-100,15032.4018821012,0.0035736915221122865,0.008696776048647013,0.9999557964306545,21.156463553122606,0.013308241842936696,-8.645735008992322,3.6041534288119954,-118.9837646484375,5356.25390625,True
1599559711.1455433,0.0,10,0.5,0.5,0.9691974399566652,-0.05075,-0.00825,-0.12575,0.0902002072308101,10,1,100,0.006037380521419465,-10,-1,-100,15032.51906501595,0.0031485352014590105,0.008648528605667687,0.9999576439425033,20.45787993478167,0.012938483911976188,-7.498973129163406,3.2327979213248743,-113.97956848144531,5356.25390625,True
1599559711.1790524,0.0,10,0.5,0.5,1.109659686279297,-0.05075,-0.00825,-0.12575,0.09142771764476691,10,1,100,-0.011662880837559751,-10,-1,-100,15032.576679396327,0.0029254692368089878,0.00861549442330997,0.999958606586086,20.051685392685936,0.012714188082368544,-6.9279570040341545,3.047112258549406,-111.37427520751953,5356.25390625,True
1599559711.2140508,0.0,10,0.5,0.5,0.45142193660736085,-0.05075,-0.00825,-0.12575,0.08450711891228879,10,1,100,0.016252048613866747,-10,-1,-100,15032.69190856989,0.002471572800586196,0.008522284042675096,0.9999606302263042,19.270453226345037,0.012271666783546088,-5.846619167513537,2.675722638575314,-105.95869445800781,5356.25390625,True
1599559711.245645,0.0,10,0.5,0.5,1.100384845161438,-0.05075,-0.00825,-0.12575,0.09383945514230863,10,1,100,-0.028817295391585146,-10,-1,-100,15032.69190856989,0.002471572800586196,0.008522284042675096,0.9999606302263042,19.270453226345037,0.012271666783546088,-5.846619167513537,2.675722638575314,-105.95869445800781,5356.25390625,True
1599559711.2782862,0.0,10,0.5,0.5,-0.9731272298812866,-0.05075,-0.00825,-0.12575,0.06169128546050039,10,1,100,0.07353853410957534,-10,-1,-100,15032.855959495297,0.0015438809717759937,0.0082299642585754,0.9999649414453725,17.16369245311521,0.010958656833975131,-3.7617559798668996,1.9328507157789563,-94.38496398925781,5356.25390625,True
1599559711.3121955,0.0,10,0.5,0.5,-0.08781980495452879,-0.05075,-0.00825,-0.12575,0.08026430957030548,10,1,100,0.00773631079491946,-10,-1,-100,15032.912597232498,0.0013021659883277975,0.008133339604370052,0.9999660759998906,16.561467304926374,0.010573385695652113,-3.280986924530161,1.7471169366952357,-91.36763763427734,5356.25390625,True
1599559711.3481703,0.0,10,0.5,0.5,0.2578021053314209,-0.05075,-0.00825,-0.12575,0.08987434078092518,10,1,100,-0.01609270133164822,-10,-1,-100,15032.912597232498,0.0013021659883277975,0.008133339604370052,0.9999660759998906,16.561467304926374,0.010573385695652113,-3.280986924530161,1.7471169366952357,-91.36763763427734,5356.25390625,True
1599559711.378093,0.0,10,0.5,0.5,-1.4004519437789917,-0.05075,-0.00825,-0.12575,0.05316119941217641,10,1,100,0.060013127164327607,-10,-1,-100,15033.015127570834,0.0006134083312575804,0.007800060448380655,0.9999693909251526,16.588811409076065,0.01057834911543677,-2.2382956029469048,1.189903973949117,-82.16397094726562,5356.25390625,True
1599559711.412427,0.0,10,0.5,0.5,-1.360383733177185,-0.05075,-0.00825,-0.12575,0.056742211136506966,10,1,100,0.04226233291499074,-10,-1,-100,15033.002426532446,0.00015221925032104047,0.007530431695451707,0.999971634311584,17.7015763079825,0.011297242380186928,-1.64281835249832,0.8184310101215546,-76.05865478515625,5356.25390625,True
1599559711.4450648,0.0,10,0.5,0.5,-0.6319550333023072,-0.05075,-0.00825,-0.12575,0.08358756723192934,10,1,100,-0.0034726607123666932,-10,-1,-100,15033.002426532446,0.00015221925032104047,0.007530431695451707,0.999971634311584,17.7015763079825,0.011297242380186928,-1.64281835249832,0.8184310101215546,-76.05865478515625,5356.25390625,True
1599559711.4810784,0.0,10,0.5,0.5,-2.7848511590957643,-0.05075,-0.00825,-0.12575,0.017024777257696258,10,1,100,0.09095566282975749,-10,-1,-100,15033.026829381939,-0.0007031096252693692,0.0069263757360070385,0.9999757651843462,19.333009633755346,0.012383672608350861,-0.16551277127686764,0.0754959816312537,-64.06158447265625,5356.25390625,True
1599559711.5125592,0.0,10,0.5,0.5,-1.3174019041061402,-0.05075,-0.00825,-0.12575,0.07725815791519706,10,1,100,0.005807939753389366,-10,-1,-100,15033.026829381939,-0.0007031096252693692,0.0069263757360070385,0.9999757651843462,19.333009633755346,0.012383672608350861,-0.16551277127686764,0.0754959816312537,-64.06158447265625,5356.25390625,True
1599559711.5456254,0.0,10,0.5,0.5,-1.8617178329467774,-0.05075,-0.00825,-0.12575,0.05783328045876419,10,1,100,0.02909769637693998,-10,-1,-100,15033.077607894083,-0.0009115359774270308,0.0067513215033915604,0.9999767941108032,19.589936956367954,0.012549361387639664,0.2449001663160273,-0.11024128795318688,-61.19879150390625,5356.25390625,True
1599559711.5787046,0.0,10,0.5,0.5,-3.459885078811646,-0.05075,-0.00825,-0.12575,-0.0037174728772564475,10,1,100,0.09206375231129407,-10,-1,-100,15032.977012206451,-0.0016703576162662938,0.006034238954813014,0.9999803987407303,20.334742883712305,0.013036614599093077,1.9675567775532037,-0.8532199757623569,-50.3135986328125,5356.25390625,True
1599559711.6016393,0.0,10,0.5,0.5,-2.587854691314697,-0.05075,-0.00825,-0.12575,0.04724523523498916,10,1,100,0.035766725678924,-10,-1,-100,15032.971150793135,-0.0018446389272651208,0.005847904934478261,0.999981199480823,20.412623450102522,0.013091193967839445,2.4051089571463677,-1.0389723687955683,-47.759063720703125,5356.25390625,True
1599559711.6225836,0.0,10,0.5,0.5,-2.74381748085022,-0.05075,-0.00825,-0.12575,0.04472842312262747,10,1,100,0.03722697564360067,-10,-1,-100,15032.95747690904,-0.002013271009761987,0.00565779576890165,0.9999819678808607,20.451614192871915,0.013122493506931314,2.8405576043522136,-1.2247277247530184,-45.273345947265625,5356.25390625,True
1599559711.646104,0.0,10,0.5,0.5,-2.469266261482239,-0.05075,-0.00825,-0.12575,0.06349178529674177,10,1,100,0.02069531109372304,-10,-1,-100,15032.95747690904,-0.002013271009761987,0.00565779576890165,0.9999819678808607,20.451614192871915,0.013122493506931314,2.8405576043522136,-1.2247277247530184,-45.273345947265625,5356.25390625,True
1599559711.6790159,0.0,10,0.5,0.5,-2.933920104980469,-0.05075,-0.00825,-0.12575,0.0440206552454029,10,1,100,0.03896290769409677,-10,-1,-100,15032.939896975178,-0.0021763260361307574,0.005483035990103541,0.9999825998092744,20.455232952290505,0.013132504546414533,3.2720077927219497,-1.4104858854996851,-42.856201171875,5356.25390625,True
1599559711.712991,0.0,10,0.5,0.5,-3.479050286102295,-0.05075,-0.00825,-0.12575,0.018459723886143344,10,1,100,0.05707627918196217,-10,-1,-100,15032.85590915184,-0.002486688769658063,0.005093897746528606,0.9999839341632998,20.373677142945933,0.013100051974209702,4.117469622291449,-1.7820091895261705,-38.229248046875,5356.25390625,True
1599559711.7498877,0.0,10,0.5,0.5,-3.3184944557189944,-0.05075,-0.00825,-0.12575,0.03544312228516929,10,1,100,0.04220920000520993,-10,-1,-100,15032.8451652386,-0.0026312824366942484,0.004896745268677923,0.9999845489998894,20.302379843168378,0.013067454007039894,4.530836062727458,-1.9677737142708116,-36.019195556640625,5356.25390625,True
1599559711.7798102,0.0,10,0.5,0.5,-4.512345376586914,-0.05075,-0.00825,-0.12575,-0.028728087504640426,10,1,100,0.08617949887800509,-10,-1,-100,15032.601019395399,-0.003159930758582541,0.00413653536929428,0.9999864518645937,19.791520996708876,0.012822137251937439,6.08501971369396,-2.7108417552790285,-27.86773681640625,5356.25390625,True
1599559711.8130648,0.0,10,0.5,0.5,-3.517159364318848,-0.05075,-0.00825,-0.12575,0.04701391839705255,10,1,100,0.03356034880250715,-10,-1,-100,15032.601019395399,-0.003159930758582541,0.00413653536929428,0.9999864518645937,19.791520996708876,0.012822137251937439,6.08501971369396,-2.7108417552790285,-27.86773681640625,5356.25390625,True
1599559711.9623656,0.0,10,0.5,0.5,-3.876287019348145,-0.05075,-0.00825,-0.12575,0.02575253694428578,10,1,100,0.04681249489427203,-10,-1,-100,15032.58344040229,-0.003278171340204664,0.00394578630187523,0.9999868420949969,19.620947970863757,0.012742445910648258,6.446063742293498,-2.8966096782511563,-26.002197265625,5356.25390625,True
1599559711.986428,0.0,10,0.5,0.5,-4.292834783935547,-0.05075,-0.00825,-0.12575,0.005173507361876509,10,1,100,0.060692801406004256,-10,-1,-100,15032.430118533084,-0.003509695896001635,0.0035878464582010244,0.9999874046169331,19.246616611205546,0.012572573203872816,7.13432554238372,-3.268146183590889,-22.4775390625,5356.25390625,True
1599559712.0123246,0.0,10,0.5,0.5,-4.1653543426513675,-0.05075,-0.00825,-0.12575,0.02029610208194519,10,1,100,0.04905249923981434,-10,-1,-100,15032.353946013609,-0.003612679710415577,0.003402148727312927,0.9999876868888673,19.071342564765093,0.01250016174158347,7.471303708270845,-3.453914847435622,-20.8187255859375,5356.25390625,True
1599559712.0333037,0.0,10,0.5,0.5,-4.528117581939697,-0.05075,-0.00825,-0.12575,0.0001493875497774258,10,1,100,0.06113228529211115,-10,-1,-100,15032.20257778,-0.003814510286918995,0.0030524040727651002,0.9999880660991148,18.7523019222075,0.012383406487562339,8.136815422206446,-3.8254539470121602,-17.707489013671875,5356.25390625,True
1599559712.0542154,0.0,10,0.5,0.5,-4.415963318634034,-0.05075,-0.00825,-0.12575,0.016701791008550834,10,1,100,0.0520497870158883,-10,-1,-100,15032.119569418137,-0.003913786972795388,0.0028872993197978673,0.9999881728171436,18.604441458824784,0.012335524769490961,8.46481584831582,-4.0112248056575766,-16.255126953125,5356.25390625,True
1599559712.079499,0.0,10,0.5,0.5,-4.501442953491212,-0.05075,-0.00825,-0.12575,0.014722883781915691,10,1,100,0.05253428932027364,-10,-1,-100,15032.04437383241,-0.0040067153300292185,0.0027217326572665213,0.9999882691329965,18.45320487072784,0.012286725026262027,8.784994434095065,-4.196996801507254,-14.8717041015625,5356.25390625,True
1599559712.1132038,0.0,10,0.5,0.5,-4.802458172607422,-0.05075,-0.00825,-0.12575,-0.0037051044571481985,10,1,100,0.06337010234935576,-10,-1,-100,15031.884217554005,-0.004188039055693539,0.002406200619458205,0.9999883351956896,18.14859232444301,0.012188947681643308,9.405175865102516,-4.56854544967397,-12.3114013671875,5356.25390625,True
1599559712.14808,0.0,10,0.5,0.5,-4.709596240234376,-0.05075,-0.00825,-0.12575,0.010801204678015224,10,1,100,0.054834048796507384,-10,-1,-100,15031.802186287357,-0.004273731637375177,0.00225367221097674,0.9999883280216111,17.999272705789686,0.012141154039847798,9.707277439693085,-4.754322449575167,-11.134552001953125,5356.25390625,True
1599559712.179584,0.0,10,0.5,0.5,-4.961110255432129,-0.05075,-0.00825,-0.12575,-0.005915927378138914,10,1,100,0.06509655804018262,-10,-1,-100,15031.581483583897,-0.004443436387300367,0.001965438887353735,0.9999881963918635,17.744298603422862,0.012069629659515219,10.318052622994696,-5.125882669041277,-8.987396240234375,5356.25390625,True
1599559712.2125747,0.0,10,0.5,0.5,-4.706681699371338,-0.05075,-0.00825,-0.12575,0.022690295335967517,10,1,100,0.048254433610535385,-10,-1,-100,15031.581483583897,-0.004443436387300367,0.001965438887353735,0.9999881963918635,17.744298603422862,0.012069629659515219,10.318052622994696,-5.125882669041277,-8.987396240234375,5356.25390625,True
1599559712.246483,0.0,10,0.5,0.5,-5.199558837890626,-0.05075,-0.00825,-0.12575,-0.02142436781270801,10,1,100,0.07486878729595152,-10,-1,-100,15031.271914237528,-0.004684218233868952,0.0015663702191675399,0.999987802217544,17.457689316129724,0.012006267539429575,11.255884279812507,-5.6832401081647514,-6.28314208984375,5356.25390625,True
1599559712.2824728,0.0,10,0.5,0.5,-5.133191659545899,-0.05075,-0.00825,-0.12575,-0.008466733497966152,10,1,100,0.06782850270351606,-10,-1,-100,15031.046329151839,-0.004837830010005831,0.00132354030193475,0.9999874217418255,17.30937134947708,0.01197506582921431,11.890464361866199,-6.054823157560789,-4.82464599609375,5356.25390625,True
1599559712.3064094,0.0,10,0.5,0.5,-5.074845048522949,-0.05075,-0.00825,-0.12575,0.003594649708822284,10,1,100,0.06159332134730624,-10,-1,-100,15030.904728479218,-0.004919586217697445,0.0012144932301087143,0.9999871612564036,17.250436316134007,0.011964020432266046,12.213884310932022,-6.240617984243627,-4.1986083984375,5356.25390625,True
1599559712.32739,0.0,10,0.5,0.5,-5.108181828308106,-0.05075,-0.00825,-0.12575,0.002885331637045057,10,1,100,0.06252992570520292,-10,-1,-100,15030.756291648955,-0.0050012365311186266,0.0011108999600663472,0.9999868766811086,17.202415273419327,0.011956603825573366,12.542805489968995,-6.4264149199398855,-3.641387939453125,5356.25390625,True
1599559712.348333,0.0,10,0.5,0.5,-5.209943717956543,-0.05075,-0.00825,-0.12575,-0.008428711807259187,10,1,100,0.07177760849373746,-10,-1,-100,15030.471136748441,-0.005158455090266197,0.0009156343233638829,0.9999862758832581,17.141040454668733,0.011954837636726622,13.221400671508583,-6.798014307602945,-2.73358154296875,5356.25390625,True
1599559712.3803804,0.0,10,0.5,0.5,-5.106942338562011,-0.05075,-0.00825,-0.12575,0.010900685363343847,10,1,100,0.05618021939072754,-10,-1,-100,15030.471136748441,-0.005158455090266197,0.0009156343233638829,0.9999862758832581,17.141040454668733,0.011954837636726622,13.221400671508583,-6.798014307602945,-2.73358154296875,5356.25390625,True
1599559712.4153228,0.0,10,0.5,0.5,-5.17884009399414,-0.05075,-0.00825,-0.12575,0.0008950831340441331,10,1,100,0.06483464971991348,-10,-1,-100,15030.382270692266,-0.005236084693476762,0.000826316210673797,0.9999859502106031,17.128710907251612,0.011961809979184295,13.573350309746472,-6.983816486121911,-2.382965087890625,5356.25390625,True
1599559712.4473846,0.0,10,0.5,0.5,-5.230269968414307,-0.05075,-0.00825,-0.12575,-0.007771521184081668,10,1,100,0.07484367102890886,-10,-1,-100,15030.088327083271,-0.00539669539407925,0.0006677668729805611,0.9999852147738119,17.142156966202283,0.01199450956178332,14.307589552422405,-7.355424895502361,-1.88818359375,5356.25390625,True
1599559712.4804828,0.0,10,0.5,0.5,-5.215522299194336,-0.05075,-0.00825,-0.12575,-0.014121640743218825,10,1,100,0.08470861321570072,-10,-1,-100,15029.58930686186,-0.005631365538364434,0.0004673444839381872,0.9999840345282052,17.260071612290915,0.012100261262933858,15.499102250661679,-7.912845357492774,-1.662445068359375,5356.25390625,True
1599559712.5133898,0.0,10,0.5,0.5,-5.193178764343262,-0.05075,-0.00825,-0.12575,0.005770788720677012,10,1,100,0.06136039170228875,-10,-1,-100,15029.58930686186,-0.005631365538364434,0.0004673444839381872,0.9999840345282052,17.260071612290915,0.012100261262933858,15.499102250661679,-7.912845357492774,-1.662445068359375,5356.25390625,True
1599559712.550292,0.0,10,0.5,0.5,-5.129737901306153,-0.05075,-0.00825,-0.12575,-0.009901774754662335,10,1,100,0.08812370656926925,-10,-1,-100,15029.081497710315,-0.005873588465199653,0.00032622853816548,0.9999826971170462,17.496131191060588,0.012290165219959237,16.819445735617933,-8.470270893800372,-2.056121826171875,5356.25390625,True
1599559712.5811794,0.0,10,0.5,0.5,-5.182730045318603,-0.05075,-0.00825,-0.12575,0.004085805654508179,10,1,100,0.0640203509088804,-10,-1,-100,15029.081497710315,-0.005873588465199653,0.00032622853816548,0.9999826971170462,17.496131191060588,0.012290165219959237,16.819445735617933,-8.470270893800372,-2.056121826171875,5356.25390625,True
1599559712.6138954,0.0,10,0.5,0.5,-5.077944161987305,-0.05075,-0.00825,-0.12575,-0.0032032725895634277,10,1,100,0.08171225044737226,-10,-1,-100,15028.77583638404,-0.006033482316953948,0.0002608708375500738,0.9999817643524991,17.717587952903845,0.012472343369634466,17.780791417370033,-8.841888567458597,-2.662750244140625,5356.25390625,True
1599559712.6469436,0.0,10,0.5,0.5,-4.999856111907959,-0.05075,-0.00825,-0.12575,-0.00012975664655278784,10,1,100,0.08406192657942717,-10,-1,-100,15028.41353433486,-0.006199188423295391,0.00023026272955667276,0.9999807583358631,17.988462247156566,0.012705361426833886,18.81268830282195,-9.213505242669195,-3.5445556640625,5356.25390625,True
1599559712.6838446,0.0,10,0.5,0.5,-5.0147735916137695,-0.05075,-0.00825,-0.12575,0.0016397975713246969,10,1,100,0.07644357294841354,-10,-1,-100,15028.20552765089,-0.006279483530694601,0.0002193246126620214,0.9999802597968133,18.141639296928673,0.012842540632568497,19.356210022266335,-9.399312818235797,-4.0887451171875,5356.25390625,True
1599559712.7139523,0.0,10,0.5,0.5,-4.8535552398681645,-0.05075,-0.00825,-0.12575,0.0031948805470060114,10,1,100,0.0865353732763179,-10,-1,-100,15027.835413314751,-0.0064432036054562596,0.00022415099681917015,0.9999792172258528,18.48149566007456,0.013161243082443617,20.49996061091935,-9.770925143885957,-5.383544921875,5356.25390625,True
1599559712.746942,0.0,10,0.5,0.5,-4.737083802795411,-0.05075,-0.00825,-0.12575,0.006527698135921379,10,1,100,0.08809381540546116,-10,-1,-100,15027.410611429485,-0.006605039739581624,0.00025946558170357665,0.9999781528251758,18.86229931953414,0.013542136332012287,21.71976462456934,-10.142532304176346,-6.95355224609375,5356.25390625,True
1599559712.7804782,0.0,10,0.5,0.5,-4.773971698760987,-0.05075,-0.00825,-0.12575,0.0058390969908073175,10,1,100,0.0808412868711771,-10,-1,-100,15027.194792428636,-0.006684986915705642,0.0002858250581237913,0.9999776143764285,19.06632327143726,0.013756693723539248,22.357780423751066,-10.328333354503828,-7.841766357421875,5356.25390625,True
1599559712.8163974,0.0,10,0.5,0.5,-4.530780047607422,-0.05075,-0.00825,-0.12575,0.011585006401489963,10,1,100,0.09026720990739621,-10,-1,-100,15026.764131579432,-0.00684218520203708,0.0003623709784346075,0.9999765263189606,19.497828901884,0.014234859785827558,23.688326190988324,-10.699929072845492,-9.824615478515625,5356.25390625,True
1599559712.8473177,0.0,10,0.5,0.5,-4.157347007751465,-0.05075,-0.00825,-0.12575,0.022677873339320108,10,1,100,0.0992457017911195,-10,-1,-100,15026.11667474755,-0.007065614643405261,0.0005328978540660814,0.9999748962396947,20.213337286655367,0.015089881855829351,25.840165314216062,-11.257302282372985,-13.31494140625,5356.25390625,True
1599559712.8803492,0.0,10,0.5,0.5,-4.357011202239991,-0.05075,-0.00825,-0.12575,0.013394588287971224,10,1,100,0.0848917023851185,-10,-1,-100,15025.90280911827,-0.007136937550862652,0.0006034691920186788,0.9999743496446944,20.483176290532896,0.015422747038210376,26.618435445085314,-11.443086781477447,-14.615966796875,5356.25390625,True
1599559712.9132552,0.0,10,0.5,0.5,-3.7485045242309574,-0.05075,-0.00825,-0.12575,0.03516774427918227,10,1,100,0.09888377664294636,-10,-1,-100,15025.190898971981,-0.007327828733544476,0.0008653106985740012,0.9999727767111697,21.30116648818256,0.01649817565479058,29.033563266775687,-12.000416021390569,-18.93182373046875,5356.25390625,True
1599559712.9494085,0.0,10,0.5,0.5,-3.999095970916748,-0.05075,-0.00825,-0.12575,0.02002944317939657,10,1,100,0.08636726820407402,-10,-1,-100,15024.911603490938,-0.007386257695385163,0.0009652374380258711,0.9999722553720904,21.57110989572332,0.016875186530090024,29.858004692189393,-12.186183470226219,-20.508056640625,5356.25390625,True
1599559712.9812875,0.0,10,0.5,0.5,-4.182584881591797,-0.05075,-0.00825,-0.12575,0.010107205894257159,10,1,100,0.08065964955784843,-10,-1,-100,15024.911603490938,-0.007386257695385163,0.0009652374380258711,0.9999722553720904,21.57110989572332,0.016875186530090024,29.858004692189393,-12.186183470226219,-20.508056640625,5356.25390625,True
1599559713.0137732,0.0,10,0.5,0.5,-3.5757572601318364,-0.05075,-0.00825,-0.12575,0.034751132631191964,10,1,100,0.09166931667954228,-10,-1,-100,15024.409653205425,-0.0074852664244259345,0.0011886049768084883,0.9999712785899225,22.130799668396794,0.017667559286238144,31.569537261725745,-12.557703330220438,-23.86688232421875,5356.25390625,True
1599559713.0488157,0.0,10,0.5,0.5,-3.340405766296387,-0.05075,-0.00825,-0.12575,0.039936279159869616,10,1,100,0.09105758115669689,-10,-1,-100,15023.916491676704,-0.007568616961624649,0.001437922907449622,0.9999703237671609,22.689976320616633,0.018476098926887327,33.32786093699491,-12.929201157126057,-27.50091552734375,5356.25390625,True
1599559713.085247,0.0,10,0.5,0.5,-3.4402185363769533,-0.05075,-0.00825,-0.12575,0.029892724818885132,10,1,100,0.08676984356194975,-10,-1,-100,15023.687000782927,-0.007604387641529263,0.0015721671031956753,0.9999698503350973,22.95393349199907,0.018867193556568324,34.20154548176733,-13.114941441623223,-29.421142578125,5356.25390625,True
1599559713.1151674,0.0,10,0.5,0.5,-2.948883274841309,-0.05075,-0.00825,-0.12575,0.04811174114647818,10,1,100,0.08862370634267663,-10,-1,-100,15023.130362277268,-0.007652851241356476,0.0018586413372870313,0.9999689891792931,23.438577751699103,0.019596366605506732,35.916253483388324,-13.486404843571606,-33.467987060546875,5356.25390625,True
1599559713.14834,0.0,10,0.5,0.5,-2.274133572387696,-0.05075,-0.00825,-0.12575,0.07090615678792317,10,1,100,0.08622654083927475,-10,-1,-100,15022.277826273232,-0.007674236769054243,0.002324864586583979,0.999967850030523,24.018388422372738,0.020469237136877597,38.33072802082444,-14.043558550105436,-40.05438232421875,5356.25390625,True
1599559713.1822445,0.0,10,0.5,0.5,-3.077433219146729,-0.05075,-0.00825,-0.12575,0.02448008121904332,10,1,100,0.08417119322619976,-10,-1,-100,15022.277826273232,-0.007674236769054243,0.002324864586583979,0.999967850030523,24.018388422372738,0.020469237136877597,38.33072802082444,-14.043558550105436,-40.05438232421875,5356.25390625,True
1599559713.2181513,0.0,10,0.5,0.5,-1.3352953605651858,-0.05075,-0.00825,-0.12575,0.09770741859959897,10,1,100,0.07447263082863279,-10,-1,-100,15021.14111080044,-0.007585514727143953,0.002988938593014014,0.9999667625538418,24.39801922952901,0.020965041533228604,41.004047829255136,-14.786368789442015,-49.79986572265625,5356.25390625,True
1599559713.2480707,0.0,10,0.5,0.5,-2.5317631813049317,-0.05075,-0.00825,-0.12575,0.031538564896694994,10,1,100,0.0833896927372899,-10,-1,-100,15021.14111080044,-0.007585514727143953,0.002988938593014014,0.9999667625538418,24.39801922952901,0.020965041533228604,41.004047829255136,-14.786368789442015,-49.79986572265625,5356.25390625,True
1599559713.2815378,0.0,10,0.5,0.5,-1.573386173248291,-0.05075,-0.00825,-0.12575,0.07077325347555663,10,1,100,0.07376260816124325,-10,-1,-100,15020.514158693957,-0.007497761516458439,0.0033436870092814473,0.999966301096905,24.366336486474587,0.02084033058233114,41.98356253600514,-15.15775963909892,-55.085479736328125,5356.25390625,True
1599559713.3154986,0.0,10,0.5,0.5,-1.7247971237182618,-0.05075,-0.00825,-0.12575,0.05339518565974842,10,1,100,0.07523662341584417,-10,-1,-100,15020.228026368073,-0.007431284641948822,0.003506040907952443,0.9999662412730351,24.28501735532674,0.020677041850229828,42.358223570781476,-15.343454587921796,-57.831817626953125,5356.25390625,True
1599559713.3514023,0.0,10,0.5,0.5,-1.0334879920959472,-0.05075,-0.00825,-0.12575,0.07486531564492943,10,1,100,0.06530835693380459,-10,-1,-100,15019.59423772269,-0.007280553218061025,0.003846508539818697,0.9999660983837863,24.00455751477751,0.020172742537598976,42.88697633015174,-15.71484815299156,-63.530792236328125,5356.25390625,True
1599559713.3813236,0.0,10,0.5,0.5,-0.11741146087646492,-0.05075,-0.00825,-0.12575,0.09455736866204659,10,1,100,0.047921993187737884,-10,-1,-100,15018.609862343874,-0.006985652901568208,0.00433262695661362,0.9999662139278476,23.33668844374364,0.019090583306653527,43.17894890565289,-16.27195833375253,-72.595947265625,5356.25390625,True
1599559713.4143527,0.0,10,0.5,0.5,-1.220151304626465,-0.05075,-0.00825,-0.12575,0.046234997387470694,10,1,100,0.07735372843101394,-10,-1,-100,15018.609862343874,-0.006985652901568208,0.00433262695661362,0.9999662139278476,23.33668844374364,0.019090583306653527,43.17894890565289,-16.27195833375253,-72.595947265625,5356.25390625,True
1599559713.448377,0.0,10,0.5,0.5,-0.057066163635253964,-0.05075,-0.00825,-0.12575,0.07999279651875116,10,1,100,0.051098696444682776,-10,-1,-100,15017.968260086258,-0.006747533278728799,0.004637006530667608,0.9999664839208798,22.618031809502828,0.01815606586739618,42.809460162999684,-16.64338622926466,-78.98385620117188,5356.25390625,True
1599559713.6046226,0.0,10,0.5,0.5,-0.24724719238281262,-0.05075,-0.00825,-0.12575,0.06500788713482528,10,1,100,0.060832301196958045,-10,-1,-100,15017.618650191696,-0.006620371226588772,0.004774962998868834,0.9999666846516346,22.169157904492273,0.01764992385175506,42.43062439381016,-16.829108026301867,-82.2447509765625,5356.25390625,True
1599559713.631129,0.0,10,0.5,0.5,-0.043804098510742184,-0.05075,-0.00825,-0.12575,0.06616317834674752,10,1,100,0.058718719587266904,-10,-1,-100,15017.270993379294,-0.00648651304232107,0.0049086532551489825,0.9999669145885641,21.667458612094414,0.017137234527835842,41.93060766305913,-17.014834788065233,-85.52346801757812,5356.25390625,True
1599559713.6550307,0.0,10,0.5,0.5,0.1686455421447754,-0.05075,-0.00825,-0.12575,0.06823096710554592,10,1,100,0.05588205695468905,-10,-1,-100,15016.979977004696,-0.006340115690624026,0.005046639032603135,0.9999671666447374,21.11625043349146,0.016629428262130055,41.31251744030116,-17.20056619718146,-88.8505859375,5356.25390625,True
1599559713.6880407,0.0,10,0.5,0.5,1.5640955520629882,-0.05075,-0.00825,-0.12575,0.0927654135845977,10,1,100,0.019953755136974262,-10,-1,-100,15015.925286918413,-0.005881538444407961,0.005393250434244118,0.999968159670737,21.295728617208166,0.016864003794640234,43.02136313874967,-17.757759499147816,-98.94474029541016,5356.25390625,True
1599559713.7828708,0.0,10,0.5,0.5,0.3353001630783081,-0.05075,-0.00825,-0.12575,0.05834470460462243,10,1,100,0.06564108213030714,-10,-1,-100,15015.925286918413,-0.005881538444407961,0.005393250434244118,0.999968159670737,21.295728617208166,0.016864003794640234,43.02136313874967,-17.757759499147816,-98.94474029541016,5356.25390625,True
1599559713.8088367,0.0,10,0.5,0.5,2.7317594970703123,-0.05075,-0.00825,-0.12575,0.09732610492725402,10,1,100,-0.006379562394368425,-10,-1,-100,15014.452626433922,-0.00522827460606732,0.005745763561336257,0.9999698252176117,23.807257180554842,0.019574619912244184,50.11950467980606,-18.50055407284224,-112.3174057006836,5356.25390625,True
1599559713.828748,0.0,10,0.5,0.5,1.0950974325180054,-0.05075,-0.00825,-0.12575,0.06229876448337847,10,1,100,0.058726520436107536,-10,-1,-100,15014.452626433922,-0.00522827460606732,0.005745763561336257,0.9999698252176117,23.807257180554842,0.019574619912244184,50.11950467980606,-18.50055407284224,-112.3174057006836,5356.25390625,True
1599559713.8577034,0.0,10,0.5,0.5,2.273716986465454,-0.05075,-0.00825,-0.12575,0.07686737946858162,10,1,100,0.019596117951983745,-10,-1,-100,15013.685045456747,-0.004874409382222553,0.005876478920273088,0.9999708531395672,24.67663759066396,0.020716237975575025,52.99899967275188,-18.87188936981765,-118.76709747314453,5356.25390625,True
1599559713.8821228,0.0,10,0.5,0.5,2.058083995628357,-0.05075,-0.00825,-0.12575,0.06964961505976291,10,1,100,0.03740828140637423,-10,-1,-100,15013.323715878301,-0.004716561795148446,0.005928291522895801,0.9999713042905042,25.068618837495706,0.021239432729599092,54.37386218933052,-19.057543021152508,-121.92474365234375,5356.25390625,True
1599559713.9150462,0.0,10,0.5,0.5,2.248014358711243,-0.05075,-0.00825,-0.12575,0.06943564300815308,10,1,100,0.03372692118966205,-10,-1,-100,15012.911605335772,-0.004541659887753166,0.005971998084296103,0.9999718538860707,25.422701442404787,0.021710081483691423,55.68241180723847,-19.243188378361385,-125.01997375488281,5356.25390625,True
1599559713.950911,0.0,10,0.5,0.5,2.4313779256820682,-0.05075,-0.00825,-0.12575,0.06900631885797953,10,1,100,0.03182452723184539,-10,-1,-100,15012.556135263876,-0.004367369002678192,0.006006614746427865,0.9999724229533945,25.716580642881702,0.0221011293454272,56.87291422370964,-19.428826494834556,-128.04891967773438,5356.25390625,True
1599559713.9812047,0.0,10,0.5,0.5,3.1214650136947633,-0.05075,-0.00825,-0.12575,0.0711395060041294,10,1,100,0.012763027693387226,-10,-1,-100,15011.724100843887,-0.004037684567918515,0.006056357366287594,0.9999735084684902,26.133567490634874,0.022629986230685992,58.906650321463566,-19.800085863253997,-133.90267944335938,5356.25390625,True
1599559714.0147805,0.0,10,0.5,0.5,3.4099816915512084,-0.05075,-0.00825,-0.12575,0.06834886801000156,10,1,100,0.009664326680315541,-10,-1,-100,15010.951636901242,-0.003712027643903977,0.006075165126112423,0.9999746562885787,26.378096955445052,0.022851934318851408,60.58010496867468,-20.17133020545467,-139.48179626464844,5356.25390625,True
1599559714.0487309,0.0,10,0.5,0.5,3.2243121820449834,-0.05075,-0.00825,-0.12575,0.06646291900911322,10,1,100,0.024545064505693943,-10,-1,-100,15010.53073693451,-0.003553644500527583,0.0060741830749510015,0.9999752376487808,26.445765163194253,0.022855871420182076,61.2982340385753,-20.35694898260386,-142.16810607910156,5356.25390625,True
1599559714.0855973,0.0,10,0.5,0.5,3.83395898475647,-0.05075,-0.00825,-0.12575,0.06447891060654806,10,1,100,0.006826062400864488,-10,-1,-100,15009.693820036831,-0.003250694254635939,0.0060546348314712015,0.9999763869131711,26.461663698503155,0.0226515685271693,62.46155464078019,-20.728183897455153,-147.3340606689453,5356.25390625,True
1599559714.115517,0.0,10,0.5,0.5,3.661913300895691,-0.05075,-0.00825,-0.12575,0.06467405010268167,10,1,100,0.02092440582988431,-10,-1,-100,15009.276826125919,-0.003105843375170781,0.006038036437911482,0.9999769476607464,26.41649895506963,0.02245655402977709,62.917414498918895,-20.913801631098515,-149.8136749267578,5356.25390625,True
1599559714.1499958,0.0,10,0.5,0.5,4.621033834457398,-0.05075,-0.00825,-0.12575,0.057095823901403275,10,1,100,-0.00953769710134857,-10,-1,-100,15008.01314981049,-0.002699162031946608,0.005953788321139593,0.9999786332362068,26.10726668500404,0.02159502624810842,63.84942748067468,-21.47066262043189,-156.8391571044922,5356.25390625,True
1599559714.1825216,0.0,10,0.5,0.5,4.163309582710267,-0.05075,-0.00825,-0.12575,0.06165683243469469,10,1,100,0.0172186564079084,-10,-1,-100,15007.588343433803,-0.0025749904905307147,0.005918473724595249,0.9999791703294348,25.956744491250024,0.02124392515551047,64.03457785044505,-21.65628687487,-159.04312133789062,5356.25390625,True
1599559714.2190583,0.0,10,0.5,0.5,4.296234182739258,-0.05075,-0.00825,-0.12575,0.060570248883536806,10,1,100,0.016230956022716504,-10,-1,-100,15007.169396755984,-0.0024552185574615143,0.005876453336540481,0.9999797193933577,25.78747349349942,0.020874681715248596,64.16681754323935,-21.84191348956607,-161.17822265625,5356.25390625,True
1599559714.2499835,0.0,10,0.5,0.5,4.777305993652344,-0.05075,-0.00825,-0.12575,0.05519816243101409,10,1,100,0.003629729370793238,-10,-1,-100,15006.260214496753,-0.0022338341425971998,0.0057894629598189895,0.9999807458664692,25.403525721219495,0.020112450828033975,64.29519327190505,-22.213174064556263,-165.24154663085938,5356.25390625,True
1599559714.2834804,0.0,10,0.5,0.5,4.96804217414856,-0.05075,-0.00825,-0.12575,0.05232659222451978,10,1,100,0.0037087913569446365,-10,-1,-100,15005.35396187473,-0.0020353923523629774,0.005684441556489938,0.9999817719849512,24.976009663820797,0.019363297471060532,64.27929204886013,-22.584444201764825,-169.0291748046875,5356.25390625,True
1599559714.3163922,0.0,10,0.5,0.5,5.145401932907105,-0.05075,-0.00825,-0.12575,0.0503360620490118,10,1,100,0.00408313335428525,-10,-1,-100,15004.44966255338,-0.0018605138127170673,0.005571164709313398,0.9999827501572887,24.523379378661133,0.01867103610440332,64.16176430234611,-22.955722861711923,-172.54104614257812,5356.25390625,True
1599559714.3532941,0.0,10,0.5,0.5,5.02732636833191,-0.05075,-0.00825,-0.12575,0.05529816258777105,10,1,100,0.012629359136311191,-10,-1,-100,15003.96333295689,-0.0017812055299257499,0.00551373684646615,0.99998321286552,24.292847343143148,0.018356704232996162,64.07758414872342,-23.141364947331958,-174.19354248046875,5356.25390625,True
1599559714.3830001,0.0,10,0.5,0.5,5.65014425354004,-0.05075,-0.00825,-0.12575,0.04073856389718428,10,1,100,-0.0021485782274680634,-10,-1,-100,15002.560985611985,-0.0015765174987301756,0.005329680099672086,0.9999845544320229,23.606789672277458,0.017574776586397976,63.7816492048567,-23.698298993450443,-178.7373504638672,5356.25390625,True
1599559714.4162517,0.0,10,0.5,0.5,-57.95726216583252,-0.05075,-0.00825,-0.12575,0.04486856116513077,10,1,100,0.0063245827046558845,-10,-1,-100,15001.591257086955,-0.001469263594300596,0.005200578034999978,0.9999853975196799,23.17013027099059,0.017203746055912298,63.59288843840485,-24.069592324561132,178.57818603515625,5356.25390625,True
1599559714.45018,0.0,10,0.5,0.5,-13.293711054611206,-0.05075,-0.00825,-0.12575,0.05769336195269451,10,1,100,0.0168718300815803,-10,-1,-100,15001.591257086955,-0.001469263594300596,0.005200578034999978,0.9999853975196799,23.17013027099059,0.017203746055912298,63.59288843840485,-24.069592324561132,178.57818603515625,5356.25390625,True
