Timestamp,Input Throttle,horizon,dT,dt,Input Roll,Roll P,Roll I,Roll D,Input Pitch,Pitch P,Pitch I,Pitch D,Input Yaw,Yaw P,Yaw I,Yaw D,Altitude,Direction X,Direction Y,Direction Z,Drag X,Drag Y,Drag Z,Vertical Velocity,Roll,Mass,Has Fuel
1599564381.1224768,0.0,10,0.5,0.5,-11.64180842590332,-0.2,-0.03,-0.12575,-0.00028867536514082937,10,1,100,0.1749403987956373,-10,-1,-100,14994.54764188372,-0.01680917444430885,-7.430129396729151e-05,0.9998587130859132,28.576560165361684,0.027199633732194306,-86.69281372607057,26.823330013664503,-31.79168701171875,5356.25390625,True
1599564381.1726313,0.0,10,0.5,0.5,-11.81667523956299,-0.2,-0.03,-0.12575,-0.0002342657568385019,10,1,100,0.17768974673792245,-10,-1,-100,14995.574012169498,-0.016881147942948878,-6.96087729470084e-05,0.999857500846369,28.431451161406653,0.027525522456611023,-85.05979876869775,26.451406898488763,-31.790496826171875,5356.25390625,True
1599564381.2264886,0.0,10,0.5,0.5,-11.99135290527344,-0.2,-0.03,-0.12575,-0.00041060815229452256,10,1,100,0.1763295186264704,-10,-1,-100,14996.118936635205,-0.01691886618802393,-6.688267673003575e-05,0.9998568635027814,28.358882982259313,0.027686143520674167,-84.24781614057501,26.26545099051795,-31.789886474609375,5356.25390625,True
1599564381.2813418,0.0,10,0.5,0.5,-12.120833541870118,-0.2,-0.03,-0.12575,0.0071090054014862685,10,1,100,0.1783711064537447,-10,-1,-100,14997.148235935718,-0.016956334603623724,4.016518207701151e-06,0.9998562310155783,28.217432605890185,0.02800574991656757,-82.64377698341623,25.893551156367195,-31.928253173828125,5356.25390625,True
1599564381.3322053,0.0,10,0.5,0.5,-11.968565826416016,-0.2,-0.03,-0.12575,0.02439174437069217,10,1,100,0.18017905721729804,-10,-1,-100,14999.202925165882,-0.01699141786601618,0.00022558248921823588,0.9998556099914842,27.98983897100839,0.028659810353182626,-79.62858173982515,25.149794782073386,-32.983917236328125,5356.25390625,True
1599564381.3990283,0.0,10,0.5,0.5,-12.272363830566407,-0.2,-0.03,-0.12575,0.002257705518560519,10,1,100,0.17836987276465396,-10,-1,-100,14999.202925165882,-0.01699141786601618,0.00022558248921823588,0.9998556099914842,27.98983897100839,0.028659810353182626,-79.62858173982515,25.149794782073386,-32.983917236328125,5356.25390625,True
1599564381.8627858,0.0,10,0.5,0.5,-11.951595985412597,-0.2,-0.03,-0.12575,0.03472872954518327,10,1,100,0.17358691988958722,-10,-1,-100,15000.650187909603,-0.016932489732728286,0.0005205685417427898,0.9998564996037402,27.867827590337214,0.02913853055465401,-77.52756737025442,24.59201147354453,-34.49371337890625,5356.25390625,True
1599564381.9096632,0.0,10,0.5,0.5,-11.868217163085937,-0.2,-0.03,-0.12575,0.03391151566929676,10,1,100,0.1721684992488705,-10,-1,-100,15001.617958082352,-0.01685063079688484,0.0007808352192191044,0.9998577131462792,27.80302660619943,0.0294307509468228,-76.1806637722707,24.220170762720702,-35.84368896484375,5356.25390625,True
1599564381.9555387,0.0,10,0.5,0.5,-11.94699715423584,-0.2,-0.03,-0.12575,0.024406868705860132,10,1,100,0.17616605685911876,-10,-1,-100,15002.101355293998,-0.016797236260032253,0.0009303255579670399,0.9998584836607531,27.773501350495977,0.029563105440026254,-75.51704308650889,24.034254722815916,-36.621734619140625,5356.25390625,True
1599564382.0094368,0.0,10,0.5,0.5,-11.310282035827637,-0.2,-0.03,-0.12575,0.06487713615278565,10,1,100,0.1573926233606015,-10,-1,-100,15003.546658273437,-0.01656275797994335,0.0014332916376572434,0.9998618008120819,27.686901747212573,0.029879129397040582,-73.53875685917957,23.476523166705707,-39.3682861328125,5356.25390625,True
1599564382.0652897,0.0,10,0.5,0.5,-10.711420402526855,-0.2,-0.03,-0.12575,0.08091284141087365,10,1,100,0.1462247033363302,-10,-1,-100,15004.932390072965,-0.016233012308751023,0.0020350096745967217,0.9998661650676094,27.581178136721235,0.03001918331391347,-71.52163832660115,22.91881745715853,-42.733245849609375,5356.25390625,True
1599564382.1181796,0.0,10,0.5,0.5,-11.101739410400391,-0.2,-0.03,-0.12575,0.02095196881378222,10,1,100,0.17914165424200706,-10,-1,-100,15004.932390072965,-0.016233012308751023,0.0020350096745967217,0.9998661650676094,27.581178136721235,0.03001918331391347,-71.52163832660115,22.91881745715853,-42.733245849609375,5356.25390625,True
1599564382.1680465,0.0,10,0.5,0.5,-10.22612449645996,-0.2,-0.03,-0.12575,0.06848485827121836,10,1,100,0.1476048973647094,-10,-1,-100,15005.833748253877,-0.015946903733170315,0.0024652135619847378,0.9998698010158217,27.4841114305744,0.029978102358477934,-70.1164094087829,22.547029341194378,-45.320465087890625,5356.25390625,True
1599564382.219908,0.0,10,0.5,0.5,-8.556584342956544,-0.2,-0.03,-0.12575,0.13046309070937373,10,1,100,0.09633304964959165,-10,-1,-100,15007.575913320878,-0.015221580923827558,0.003417444576103697,0.9998783048685218,27.174520421802477,0.029476199922698336,-67.04550237953617,21.803497869900102,-51.31982421875,5356.25390625,True
1599564382.2697742,0.0,10,0.5,0.5,-8.141165412902833,-0.2,-0.03,-0.12575,0.08950230723804073,10,1,100,0.11957863435307821,-10,-1,-100,15008.478244251222,-0.014775097097802017,0.0039076352591470905,0.9998832066258697,26.935810853704005,0.02898015395809541,-65.32607198454359,21.431759475052296,-54.732452392578125,5356.25390625,True
1599564382.3201902,0.0,10,0.5,0.5,-8.50505780029297,-0.2,-0.03,-0.12575,0.04085144421069425,10,1,100,0.16400538487881086,-10,-1,-100,15008.478244251222,-0.014775097097802017,0.0039076352591470905,0.9998832066258697,26.935810853704005,0.02898015395809541,-65.32607198454359,21.431759475052296,-54.732452392578125,5356.25390625,True
1599564382.373639,0.0,10,0.5,0.5,-7.2383704833984375,-0.2,-0.03,-0.12575,0.09338928094217226,10,1,100,0.10906619352241319,-10,-1,-100,15009.321004276862,-0.01427766474071496,0.004381904636006046,0.9998884673808938,26.62191301182121,0.028307078101085337,-63.44755927473186,21.06004352408958,-58.420684814453125,5356.25390625,True
1599564382.4235063,0.0,10,0.5,0.5,-4.9585945892334,-0.2,-0.03,-0.12575,0.15514303451259484,10,1,100,0.030262974116087124,-10,-1,-100,15010.935232720221,-0.013111474080571048,0.005370946069159608,0.9998996160544101,25.706802027987546,0.026440000570713308,-59.10930078362254,20.316693948957063,-66.62265014648438,5356.25390625,True
1599564382.471378,0.0,10,0.5,0.5,-5.173554985046387,-0.2,-0.03,-0.12575,0.08170442328123266,10,1,100,0.11121951833818117,-10,-1,-100,15011.354169595288,-0.012790668570383176,0.005598278078241426,0.9999025242892836,25.406364250790464,0.0258752859024402,-57.88556635146666,20.13087692046773,-68.84552001953125,5356.25390625,True
1599564382.521245,0.0,10,0.5,0.5,-3.8408190689086914,-0.2,-0.03,-0.12575,0.10722973285257249,10,1,100,0.06917007018856888,-10,-1,-100,15012.130521348095,-0.012120401821297408,0.006032748216673192,0.9999083467041588,24.704463555262237,0.0246528129335905,-55.250107707519525,19.759270631026773,-73.49813842773438,5356.25390625,True
1599564382.5756168,0.0,10,0.5,0.5,-2.718137687683105,-0.2,-0.03,-0.12575,0.11023374993747265,10,1,100,0.05677466371917429,-10,-1,-100,15012.910779320518,-0.011402421405278255,0.0064508489918566015,0.9999141819843245,23.854186888850187,0.02334064822495065,-52.348094498555525,19.38770412258183,-78.42633056640625,5356.25390625,True
1599564382.6234918,0.0,10,0.5,0.5,-2.3944238204956054,-0.2,-0.03,-0.12575,0.09096044092342388,10,1,100,0.08637783543259389,-10,-1,-100,15013.3258117683,-0.011023223125295087,0.006651714306152658,0.9999171181896624,23.368280461745364,0.022665126221518724,-50.79180653057362,19.201936217980126,-80.99380493164062,5356.25390625,True
1599564382.6768389,0.0,10,0.5,0.5,0.96780961227417,-0.2,-0.03,-0.12575,0.14457878617997907,10,1,100,-0.047557735358581085,-10,-1,-100,15014.817969249794,-0.00946563749010285,0.007317561635452706,0.9999284249378139,21.113808230079307,0.02009084541567719,-44.12101871584699,18.4589625301952,-91.95408630371094,5356.25390625,True
1599564382.7367132,0.0,10,0.5,0.5,1.6494246788024904,-0.2,-0.03,-0.12575,0.10863735634684323,10,1,100,0.016294252869259868,-10,-1,-100,15015.531822093297,-0.008636015229493067,0.00759172589263018,0.9999338902842162,22.094934004504776,0.021112826611283317,-45.24474043013299,18.087498168747768,-97.84808349609375,5356.25390625,True
1599564382.7860944,0.0,10,0.5,0.5,1.047839309692383,-0.2,-0.03,-0.12575,0.08163835876074846,10,1,100,0.09859792236080465,-10,-1,-100,15015.531822093297,-0.008636015229493067,0.00759172589263018,0.9999338902842162,22.094934004504776,0.021112826611283317,-45.24474043013299,18.087498168747768,-97.84808349609375,5356.25390625,True
1599564382.8349302,0.0,10,0.5,0.5,3.096999216079712,-0.2,-0.03,-0.12575,0.10555024386345906,10,1,100,0.011571419647867232,-10,-1,-100,15016.24762922828,-0.007850446188346644,0.007805757492988019,0.9999387184445878,23.060236914432686,0.022292116327886788,-46.25423704486091,17.71602100051178,-103.7416000366211,5356.25390625,True
1599564382.8877885,0.0,10,0.5,0.5,4.3483233108520505,-0.2,-0.03,-0.12575,0.10405864897032605,10,1,100,-0.0009989451041117342,-10,-1,-100,15016.959531091503,-0.007028311608567774,0.007983227974072263,0.999943433853659,23.81586455920249,0.023379985858062308,-46.770709456162066,17.344528761861728,-109.40670013427734,5356.25390625,True
1599564382.9402277,0.0,10,0.5,0.5,7.216102041244507,-0.2,-0.03,-0.12575,0.10913968269512588,10,1,100,-0.09928956375863031,-10,-1,-100,15018.324742798228,-0.005393955778393311,0.008187482060430604,0.999951934034117,24.827512794072582,0.025115525085413933,-46.67334180455517,16.601506405907827,-119.92767333984375,5356.25390625,True
1599564382.9940512,0.0,10,0.5,0.5,7.632349943161011,-0.2,-0.03,-0.12575,0.09363630660513123,10,1,100,-0.02388120551367863,-10,-1,-100,15018.974147636443,-0.004600724206190795,0.008229667323582535,0.9999555519684472,25.150388890371158,0.025710848371437816,-46.224358885899214,16.22998412810312,-124.77600860595703,5356.25390625,True
1599564383.0419223,0.0,10,0.5,0.5,8.680015466690064,-0.2,-0.03,-0.12575,0.0926581811856083,10,1,100,-0.026695377197056475,-10,-1,-100,15019.625506490469,-0.003861466620125247,0.008256733341501954,0.9999584568521179,25.32536957465515,0.0260482282846974,-45.482482042751464,15.858461744800767,-129.34869384765625,5356.25390625,True
1599564383.0918226,0.0,10,0.5,0.5,8.272551963806153,-0.2,-0.03,-0.12575,0.09017397790614931,10,1,100,0.046404487889381084,-10,-1,-100,15019.625506490469,-0.003861466620125247,0.008256733341501954,0.9999584568521179,25.32536957465515,0.0260482282846974,-45.482482042751464,15.858461744800767,-129.34869384765625,5356.25390625,True
1599564383.1436498,0.0,10,0.5,0.5,11.135322853088379,-0.2,-0.03,-0.12575,0.0849169017646065,10,1,100,-0.11137085415171727,-10,-1,-100,15020.800298788934,-0.002434000742283583,0.008207300027170069,0.9999633572619802,25.308713566006315,0.02598735350168122,-43.32670199855808,15.115438586780236,-137.66796875,5356.25390625,True
1599564383.1955123,0.0,10,0.5,0.5,11.47966053390503,-0.2,-0.03,-0.12575,0.08160260031190791,10,1,100,-0.043944170750742285,-10,-1,-100,15021.453613791964,-0.0017570827227845805,0.00813081646846108,0.9999654006433729,25.1553641244567,0.025638244288874935,-42.00761649980771,14.743947894819705,-141.4145965576172,5356.25390625,True
1599564383.2423894,0.0,10,0.5,0.5,11.156903617858887,-0.2,-0.03,-0.12575,0.08933228166610768,10,1,100,0.022976775722426138,-10,-1,-100,15021.453613791964,-0.0017570827227845805,0.00813081646846108,0.9999654006433729,25.1553641244567,0.025638244288874935,-42.00761649980771,14.743947894819705,-141.4145965576172,5356.25390625,True
1599564383.295246,0.0,10,0.5,0.5,13.458814189910889,-0.2,-0.03,-0.12575,0.07526415968050512,10,1,100,-0.11024308467339705,-10,-1,-100,15022.563958598883,-0.0005522466578286501,0.008002434368068483,0.9999678275163725,24.66159529950954,0.024499786141214657,-39.111393700436125,14.001025313421438,-148.07986450195312,5356.25390625,True
1599564383.3580768,0.0,10,0.5,0.5,13.25810816192627,-0.2,-0.03,-0.12575,0.08212785701081178,10,1,100,-0.02224522179493742,-10,-1,-100,15022.856925631175,-0.000264270596374405,0.007947747244827602,0.9999683812375189,24.53187412544725,0.02417216829697049,-38.39047439421269,13.81530793448789,-149.57412719726562,5356.25390625,True
1599564383.4069467,0.0,10,0.5,0.5,13.671996364593506,-0.2,-0.03,-0.12575,0.08159862156817016,10,1,100,-0.0247854456433808,-10,-1,-100,15023.089347184054,1.3722243940782918e-05,0.00789309136535566,0.9999688489750059,24.39267063508819,0.023825472791207992,-37.66036351226299,13.629595997038624,-150.9994354248047,5356.25390625,True
1599564383.45781,0.0,10,0.5,0.5,15.249855945587159,-0.2,-0.03,-0.12575,0.06827755867777191,10,1,100,-0.10787957179155172,-10,-1,-100,15024.139149472234,0.001015442305708409,0.007722385572840017,0.9999696663589291,23.775936376325735,0.022328617444077856,-34.710885921815986,12.886802320995926,-156.0103759765625,5356.25390625,True
1599564383.5106697,0.0,10,0.5,0.5,15.409440757751465,-0.2,-0.03,-0.12575,0.07462444351399662,10,1,100,-0.058138848982120926,-10,-1,-100,15024.664539742866,0.0014680817926076965,0.007625320256780193,0.9999698491588793,23.45348977893117,0.021562148305395917,-33.25500508308347,12.515436333384587,-158.10235595703125,5356.25390625,True
1599564383.561533,0.0,10,0.5,0.5,15.837799125671388,-0.2,-0.03,-0.12575,0.07731401811856403,10,1,100,-0.05878522848077905,-10,-1,-100,15025.18700067408,0.0018799313161413967,0.0075620791450098776,0.9999696399477592,23.13629198211621,0.020812303693343102,-31.83339296778925,12.14408913618987,-159.91799926757812,5356.25390625,True
1599564383.6143937,0.0,10,0.5,0.5,15.701189895629884,-0.2,-0.03,-0.12575,0.08356866387594637,10,1,100,-0.01817441592103569,-10,-1,-100,15025.18700067408,0.0018799313161413967,0.0075620791450098776,0.9999696399477592,23.13629198211621,0.020812303693343102,-31.83339296778925,12.14408913618987,-159.91799926757812,5356.25390625,True
1599564383.6660392,0.0,10,0.5,0.5,16.294595359802248,-0.2,-0.03,-0.12575,0.07480864878542479,10,1,100,-0.06088341133330448,-10,-1,-100,15025.649892181857,0.0022629754581290525,0.007483074148001947,0.9999694408047535,22.833450715268274,0.020093823168487703,-30.45752472538487,11.772758867475172,-161.4581298828125,5356.25390625,True
1599564383.7198958,0.0,10,0.5,0.5,16.584064765930176,-0.2,-0.03,-0.12575,0.07602108365961552,10,1,100,-0.06106851421853263,-10,-1,-100,15026.114736867952,0.00260861018052862,0.007422931945832078,0.999969047138087,22.552629120764088,0.019416689981454197,-29.135479708832875,11.401443222974713,-162.72219848632812,5356.25390625,True
1599564383.7697613,0.0,10,0.5,0.5,17.043023654937745,-0.2,-0.03,-0.12575,0.0704676177713238,10,1,100,-0.09218991051811035,-10,-1,-100,15026.972161391051,0.003201776537339558,0.007318414694441027,0.9999680942076927,22.08232514054863,0.0182078666573051,-26.67226120314525,10.658847603031028,-164.42286682128906,5356.25390625,True
1599564383.820285,0.0,10,0.5,0.5,17.04037202072144,-0.2,-0.03,-0.12575,0.07692057649859907,10,1,100,-0.06044726721835486,-10,-1,-100,15027.370600523427,0.0034479411414788845,0.007282800819582592,0.9999675357300891,21.902025976466142,0.017678898893142544,-25.534107253955863,10.287563425367022,-164.85934448242188,5356.25390625,True
1599564383.8691595,0.0,10,0.5,0.5,17.088063880920412,-0.2,-0.03,-0.12575,0.07935432424265057,10,1,100,-0.05950612607319119,-10,-1,-100,15027.770992630161,0.0036595347822865045,0.00727320376151947,0.9999668536067687,21.761916044190965,0.01719816001886482,-24.45617419368969,9.916285669810348,-165.01971435546875,5356.25390625,True
1599564383.9259698,0.0,10,0.5,0.5,17.076626945495608,-0.2,-0.03,-0.12575,0.07950232666848196,10,1,100,-0.058467897686512324,-10,-1,-100,15028.169431951013,0.0038388871018884777,0.007266437861227197,0.9999662303431189,21.66328094029537,0.0167625402107945,-23.43478281104206,9.545012206095704,-164.90426635742188,5356.25390625,True
1599564383.9878013,0.0,10,0.5,0.5,17.08034515762329,-0.2,-0.03,-0.12575,0.08054894819889677,10,1,100,-0.0493091898616816,-10,-1,-100,15028.338377223932,0.003915196262339131,0.007270371468969018,0.999965905887261,21.629586844291854,0.016560490404036083,-22.94373008014687,9.359376449692306,-164.74305725097656,5356.25390625,True
1599564384.035676,0.0,10,0.5,0.5,16.83443255233765,-0.2,-0.03,-0.12575,0.08389343023401266,10,1,100,-0.06155835724338578,-10,-1,-100,15028.903810396441,0.004093288153531007,0.007304762780057065,0.9999649421018815,21.588887307210943,0.016010986844617135,-21.539156048303614,8.80247094838457,-163.84548950195312,5356.25390625,True
1599564384.08654,0.0,10,0.5,0.5,16.657291427612307,-0.2,-0.03,-0.12575,0.08417247748657154,10,1,100,-0.052485106753792234,-10,-1,-100,15029.241702484549,0.004170319226199205,0.007338855817411937,0.999964374181822,21.609390842938392,0.015687182245054034,-20.65101610343141,8.431199748486398,-162.90231323242188,5356.25390625,True
1599564384.1383986,0.0,10,0.5,0.5,16.59751867675781,-0.2,-0.03,-0.12575,0.08334699671344958,10,1,100,-0.0476822585123856,-10,-1,-100,15029.407718131086,0.004194603046511999,0.0073625480473676185,0.9999640984513056,21.632667975575195,0.015536748019093768,-20.218433466726186,8.245563264992489,-162.32723999023438,5356.25390625,True
1599564384.1908789,0.0,10,0.5,0.5,15.980314937591553,-0.2,-0.03,-0.12575,0.08977631693338356,10,1,100,-0.04781277586358745,-10,-1,-100,15029.851079804706,0.00421576152114331,0.007442716195779131,0.9999634159960183,21.746852840732473,0.015126884102178663,-18.953312139211477,7.688648844775909,-160.18833923339844,5356.25390625,True
1599564384.2380466,0.0,10,0.5,0.5,15.66868468093872,-0.2,-0.03,-0.12575,0.08849881983356139,10,1,100,-0.0426801707260512,-10,-1,-100,15030.185065372963,0.004186561191318705,0.00750401940974778,0.9999630805175207,21.852592416983878,0.0148858429212546,-18.126333831378908,7.317367270630705,-158.41769409179688,5356.25390625,True
1599564384.298029,0.0,10,0.5,0.5,15.211809379577637,-0.2,-0.03,-0.12575,0.08964782456224134,10,1,100,-0.038352898461141975,-10,-1,-100,15030.458503307658,0.004119242097241898,0.0075701213859219,0.9999628618637527,21.973210886363358,0.014668677506932164,-17.302079406686833,6.946080707726179,-156.37127685546875,5356.25390625,True
1599564384.350887,0.0,10,0.5,0.5,15.44499157714844,-0.2,-0.03,-0.12575,0.08306279761397738,10,1,100,-0.04517655442481289,-10,-1,-100,15030.458503307658,0.004119242097241898,0.0075701213859219,0.9999628618637527,21.973210886363358,0.014668677506932164,-17.302079406686833,6.946080707726179,-156.37127685546875,5356.25390625,True
1599564384.4012675,0.0,10,0.5,0.5,13.8169125289917,-0.2,-0.03,-0.12575,0.09767653482180486,10,1,100,-0.018832754431257218,-10,-1,-100,15031.004402274732,0.0038791427327952437,0.007702712341841842,0.9999628095455537,22.220994387766254,0.014301924082687054,-15.627462206501798,6.203493081912558,-151.45150756835938,5356.25390625,True
1599564384.4501388,0.0,10,0.5,0.5,13.458874465942383,-0.2,-0.03,-0.12575,0.09175457388561661,10,1,100,-0.02384738793642505,-10,-1,-100,15031.214362364612,0.003706258517026621,0.007769023103639784,0.9999629522776432,22.325523754886266,0.014152798631623071,-14.76159193193353,5.8321924513332295,-148.57815551757812,5356.25390625,True
1599564384.5005207,0.0,10,0.5,0.5,12.745527168273927,-0.2,-0.03,-0.12575,0.09050766182001206,10,1,100,-0.018321316133112185,-10,-1,-100,15031.428228973411,0.0034989746031930855,0.007817513154457497,0.9999633211597343,22.39887423494994,0.01402490912453819,-13.867549335525366,5.4608882947090684,-145.429443359375,5356.25390625,True
1599564384.551385,0.0,10,0.5,0.5,13.083536880493165,-0.2,-0.03,-0.12575,0.08571337090678963,10,1,100,-0.039008085350551155,-10,-1,-100,15031.428228973411,0.0034989746031930855,0.007817513154457497,0.9999633211597343,22.39887423494994,0.01402490912453819,-13.867549335525366,5.4608882947090684,-145.429443359375,5356.25390625,True
1599564384.615534,0.0,10,0.5,0.5,11.912832584381103,-0.2,-0.03,-0.12575,0.09051815540076741,10,1,100,-0.012548119245607652,-10,-1,-100,15031.63525869965,0.00325896974183027,0.007860726876789658,0.999963793389136,22.424523994536315,0.01391270234599757,-12.939741296705385,5.089581025033473,-142.0051727294922,5356.25390625,True
1599564384.6634042,0.0,10,0.5,0.5,9.780720302581788,-0.2,-0.03,-0.12575,0.09089136259548915,10,1,100,0.026781576835817642,-10,-1,-100,15031.992677194183,0.002684069312109634,0.007902930443353296,0.9999651691245727,22.25642091690829,0.013687711544172738,-10.969317586211686,4.346954886476752,-134.33050537109375,5356.25390625,True
1599564384.719269,0.0,10,0.5,0.5,10.66181951904297,-0.2,-0.03,-0.12575,0.08672504417872398,10,1,100,-0.030557412762805714,-10,-1,-100,15031.992677194183,0.002684069312109634,0.007902930443353296,0.9999651691245727,22.25642091690829,0.013687711544172738,-10.969317586211686,4.346954886476752,-134.33050537109375,5356.25390625,True
1599564384.7721272,0.0,10,0.5,0.5,7.725605360031128,-0.2,-0.03,-0.12575,0.0808034272140246,10,1,100,0.04306028428247069,-10,-1,-100,15032.349117626552,0.0020162099682516973,0.007848679185267325,0.9999671660271703,21.668836294042197,0.013348750217428883,-8.855486761910491,3.604299993363025,-125.55493927001953,5356.25390625,True
1599564384.8259833,0.0,10,0.5,0.5,8.730544532775879,-0.2,-0.03,-0.12575,0.08626301900017365,10,1,100,-0.02350861498101628,-10,-1,-100,15032.349117626552,0.0020162099682516973,0.007848679185267325,0.9999671660271703,21.668836294042197,0.013348750217428883,-8.855486761910491,3.604299993363025,-125.55493927001953,5356.25390625,True
1599564384.8761203,0.0,10,0.5,0.5,6.25876753616333,-0.2,-0.03,-0.12575,0.0751508903681252,10,1,100,0.03829683358184546,-10,-1,-100,15032.537588362582,0.0014562541014338543,0.007747406599703843,0.9999689280247517,20.863324571753754,0.012922914380813326,-7.208783980504598,3.0472745328327373,-118.25078582763672,5356.25390625,True
1599564384.931935,0.0,10,0.5,0.5,5.36467251777649,-0.2,-0.03,-0.12575,0.07351416805105412,10,1,100,0.025144200564898397,-10,-1,-100,15032.62352254393,0.0010691936026587959,0.00764030015066023,0.9999702408765212,20.128439319950036,0.012518330291834714,-6.107357467751328,2.6758995847897635,-113.03749084472656,5356.25390625,True
1599564384.9928138,0.0,10,0.5,0.5,3.1896477146148685,-0.2,-0.03,-0.12575,0.05985987497321826,10,1,100,0.051108501664094745,-10,-1,-100,15032.74851765472,0.00048383582026162734,0.007418857452814057,0.9999723628465907,18.86948960974676,0.011782551076862914,-4.533463223326836,2.1187900299952043,-104.70178985595703,5356.25390625,True
1599564385.0347443,0.0,10,0.5,0.5,3.1563036479949953,-0.2,-0.03,-0.12575,0.07222405742291078,10,1,100,0.014590709044202519,-10,-1,-100,15032.791483859415,0.00028660178980573523,0.007330265900360946,0.9999730921686063,18.37790576304621,0.01147710411874155,-4.0283619427624835,1.9330712781208947,-101.78565979003906,5356.25390625,True
1599564385.085607,0.0,10,0.5,0.5,0.407863977432251,-0.2,-0.03,-0.12575,0.04668179063661407,10,1,100,0.05853445669334015,-10,-1,-100,15032.9155022169,-0.0002892701503159748,0.007017968652122781,0.9999753319151318,16.674022969117754,0.010400815314821458,-2.601424257332367,1.3758754359414591,-92.6246109008789,5356.25390625,True
1599564385.1374679,0.0,10,0.5,0.5,1.4014513778686524,-0.2,-0.03,-0.12575,0.07783156101019709,10,1,100,0.001326087156520051,-10,-1,-100,15032.9155022169,-0.0002892701503159748,0.007017968652122781,0.9999753319151318,16.674022969117754,0.010400815314821458,-2.601424257332367,1.3758754359414591,-92.6246109008789,5356.25390625,True
1599564385.6062162,0.0,10,0.5,0.5,-3.0122105007171633,-0.2,-0.03,-0.12575,0.02175695632505909,10,1,100,0.081541667174081,-10,-1,-100,15032.959439289873,-0.0010152770233009414,0.006508965662462133,0.9999783010538633,16.926723523043893,0.010551495304797827,-1.2148475622140074,0.6329182758978371,-79.5301513671875,5356.25390625,True
1599564385.6520946,0.0,10,0.5,0.5,-2.6355430679321294,-0.2,-0.03,-0.12575,0.056068080375400106,10,1,100,0.02901577698411624,-10,-1,-100,15032.999475797871,-0.001194412136709949,0.0063594222221199995,0.9999790653451945,17.526282112983502,0.01093601657443363,-0.888745846275702,0.44718132576909486,-76.13626098632812,5356.25390625,True
1599564385.6980026,0.0,10,0.5,0.5,-5.800597579956055,-0.2,-0.03,-0.12575,0.022065502377958943,10,1,100,0.06380066282644471,-10,-1,-100,15033.001424376387,-0.0016699625825131062,0.005915762483851534,0.9999811073111371,19.00949620745354,0.011905414756234991,0.23718302515895845,-0.11002695186998324,-65.64584350585938,5356.25390625,True
1599564385.7438464,0.0,10,0.5,0.5,-6.8968587951660165,-0.2,-0.03,-0.12575,0.02998497892573536,10,1,100,0.04954174251055744,-10,-1,-100,15032.959428450675,-0.0019693035553253967,0.005586187887406729,0.9999824580203361,19.75491102523135,0.012375117683968751,1.0786992140153049,-0.4815084645737706,-58.7825927734375,5356.25390625,True
1599564385.7927194,0.0,10,0.5,0.5,-6.234122055053712,-0.2,-0.03,-0.12575,0.0627161894404298,10,1,100,0.020006196581686102,-10,-1,-100,15032.959428450675,-0.0019693035553253967,0.005586187887406729,0.9999824580203361,19.75491102523135,0.012375117683968751,1.0786992140153049,-0.4815084645737706,-58.7825927734375,5356.25390625,True
1599564385.8385935,0.0,10,0.5,0.5,-10.626619026184084,-0.2,-0.03,-0.12575,-0.00777712181697144,10,1,100,0.07652169318397517,-10,-1,-100,15032.877390971058,-0.0024799666538400616,0.0049473043475324425,0.9999846868552981,20.45039997752673,0.012821546672119327,2.8398962104791985,-1.2245097779725225,-45.84600830078125,5356.25390625,True
1599564385.89284,0.0,10,0.5,0.5,-9.201417976379396,-0.2,-0.03,-0.12575,0.055841932590144444,10,1,100,0.02581029935815856,-10,-1,-100,15032.877390971058,-0.0024799666538400616,0.0049473043475324425,0.9999846868552981,20.45039997752673,0.012821546672119327,2.8398962104791985,-1.2245097779725225,-45.84600830078125,5356.25390625,True
1599564385.9526622,0.0,10,0.5,0.5,-11.35080677032471,-0.2,-0.03,-0.12575,0.018132697635785393,10,1,100,0.050177351309682455,-10,-1,-100,15032.833443259005,-0.0026987909420592773,0.00460673998713398,0.9999857471354988,20.44333170157515,0.012831734996259402,3.7003296679280044,-1.5960289702975323,-39.789764404296875,5356.25390625,True
1599564386.0000892,0.0,10,0.5,0.5,-12.658444091796875,-0.2,-0.03,-0.12575,0.01870160859457204,10,1,100,0.051054775556171335,-10,-1,-100,15032.729925213032,-0.0029029847038340405,0.004304783873590917,0.9999865206669593,20.250589890005063,0.012734306114088404,4.518798870650145,-1.9675561740383967,-34.008575439453125,5356.25390625,True
1599564386.054123,0.0,10,0.5,0.5,-15.604179458618164,-0.2,-0.03,-0.12575,-0.021420273078857972,10,1,100,0.06791747453020208,-10,-1,-100,15032.582460463047,-0.00323953655561727,0.0036680004685919797,0.9999880255160395,19.396692113404136,0.01228436468912761,5.963154541276275,-2.7106166014254143,-23.27374267578125,5356.25390625,True
1599564386.102994,0.0,10,0.5,0.5,-16.076155250549316,-0.2,-0.03,-0.12575,0.009104569623829585,10,1,100,0.05036898671296983,-10,-1,-100,15032.417419622769,-0.003383279016713275,0.003369650459693315,0.9999885993744502,18.88792078098498,0.012027725878685398,6.602815466444595,-3.0821441433612535,-18.319549560546875,5356.25390625,True
1599564386.1558526,0.0,10,0.5,0.5,-15.636797271728515,-0.2,-0.03,-0.12575,0.038625638993419156,10,1,100,0.036231540802710537,-10,-1,-100,15032.417419622769,-0.003383279016713275,0.003369650459693315,0.9999885993744502,18.88792078098498,0.012027725878685398,6.602815466444595,-3.0821441433612535,-18.319549560546875,5356.25390625,True
1599564386.2067568,0.0,10,0.5,0.5,-17.334387199401856,-0.2,-0.03,-0.12575,0.008192992046201851,10,1,100,0.0523612467764944,-10,-1,-100,15032.310973349726,-0.0035279228284022164,0.0030957080072299093,0.9999889851155617,18.359434963349745,0.011765523828332304,7.1919141327019425,-3.4536703108210074,-13.64068603515625,5356.25390625,True
1599564386.2576196,0.0,10,0.5,0.5,-19.01991757965088,-0.2,-0.03,-0.12575,-0.008331533689563193,10,1,100,0.05792753682826216,-10,-1,-100,15032.060971500003,-0.0037083307847301525,0.0026990101387349688,0.9999894817582143,17.41665342393516,0.011270193033872828,7.92386479157308,-4.010963296334193,-7.139129638671875,5356.25390625,True
1599564386.308493,0.0,10,0.5,0.5,-20.27329524993897,-0.2,-0.03,-0.12575,-0.00786329985598816,10,1,100,0.058638634592164424,-10,-1,-100,15031.808041591896,-0.0038772216090370197,0.002345257091089043,0.999989733408184,16.49649426462881,0.01073765286153871,8.548476983309996,-4.5682774283962235,-1.25726318359375,5356.25390625,True
1599564386.3583589,0.0,10,0.5,0.5,-19.706226531982423,-0.2,-0.03,-0.12575,0.02718791182897266,10,1,100,0.04194034396684886,-10,-1,-100,15031.808041591896,-0.0038772216090370197,0.002345257091089043,0.999989733408184,16.49649426462881,0.01073765286153871,8.548476983309996,-4.5682774283962235,-1.25726318359375,5356.25390625,True
1599564386.4138029,0.0,10,0.5,0.5,-22.080607597351076,-0.2,-0.03,-0.12575,-0.018223684505206065,10,1,100,0.06647414718653283,-10,-1,-100,15031.409603907727,-0.004098985951983968,0.0019347898946478212,0.9999897273983512,17.006789124394455,0.01099530837393412,10.247263298257646,-5.31140330626286,5.621063232421875,5356.25390625,True
1599564386.4636686,0.0,10,0.5,0.5,-22.35574925994873,-0.2,-0.03,-0.12575,0.0024293548557769162,10,1,100,0.055160945442880624,-10,-1,-100,15031.179135373095,-0.004196270775813315,0.00175213145066736,0.9999896606200264,17.733015181451893,0.011355469126639648,11.432805728427299,-5.682977118505757,8.64697265625,5356.25390625,True
1599564386.511125,0.0,10,0.5,0.5,-22.579760643005372,-0.2,-0.03,-0.12575,0.01158466037075241,10,1,100,0.05229617739130275,-10,-1,-100,15031.096127460478,-0.004257306833522237,0.0016719034685816877,0.9999895399839526,18.06110564464697,0.01149627940068166,12.025275430758752,-5.868765976453966,10.056671142578125,5356.25390625,True
1599564386.5719624,0.0,10,0.5,0.5,-23.777692253112793,-0.2,-0.03,-0.12575,-0.0048690716699452165,10,1,100,0.06508674004483657,-10,-1,-100,15030.719175743521,-0.004427840799080939,0.001451783084865652,0.9999891432169314,18.921964132926867,0.011782695795895727,13.79593071758857,-6.426137272120412,13.87249755859375,5356.25390625,True
1599564386.6238227,0.0,10,0.5,0.5,-23.409290802001955,-0.2,-0.03,-0.12575,0.01692134496328573,10,1,100,0.04815217391331273,-10,-1,-100,15030.719175743521,-0.004427840799080939,0.001451783084865652,0.9999891432169314,18.921964132926867,0.011782695795895727,13.79593071758857,-6.426137272120412,13.87249755859375,5356.25390625,True
1599564386.671332,0.0,10,0.5,0.5,-24.849173137664796,-0.2,-0.03,-0.12575,-0.008149228243849293,10,1,100,0.07493951327170176,-10,-1,-100,15030.132263752399,-0.004670412464355051,0.0012256122987779042,0.9999883424930043,19.82713858887891,0.011907105037833118,16.129377491480838,-7.16930128199764,17.996231079101562,5356.25390625,True
1599564386.7241905,0.0,10,0.5,0.5,-24.439560989379885,-0.2,-0.03,-0.12575,0.014253446548833947,10,1,100,0.05081106008905479,-10,-1,-100,15030.132263752399,-0.004670412464355051,0.0012256122987779042,0.9999883424930043,19.82713858887891,0.011907105037833118,16.129377491480838,-7.16930128199764,17.996231079101562,5356.25390625,True
1599564386.7750552,0.0,10,0.5,0.5,-25.07151487350464,-0.2,-0.03,-0.12575,0.004444688797474861,10,1,100,0.06426200842417822,-10,-1,-100,15029.837343183113,-0.004791655185914397,0.0011381418607732325,0.999987872263301,20.193230645632763,0.011883273488492115,17.279591529085064,-7.540880397460727,19.644866943359375,5356.25390625,True
1599564386.8279133,0.0,10,0.5,0.5,-25.39189548110962,-0.2,-0.03,-0.12575,0.0062626935743949055,10,1,100,0.06788889089941193,-10,-1,-100,15029.544375742436,-0.004933862660378488,0.0010765695680845875,0.9999872489173118,20.51073583664677,0.011813660715071578,18.417228176619464,-7.912456218671567,21.018142700195312,5356.25390625,True
1599564386.8927395,0.0,10,0.5,0.5,-25.911511440277103,-0.2,-0.03,-0.12575,0.004388979734825298,10,1,100,0.08507634747483298,-10,-1,-100,15028.894965345156,-0.005218431205075724,0.0010047143466651906,0.9999858791627207,21.023243678560846,0.011562818614104634,20.65304242346345,-8.6555947476373,22.938262939453125,5356.25390625,True
1599564386.9436035,0.0,10,0.5,0.5,-25.920817253112794,-0.2,-0.03,-0.12575,0.011135449671593547,10,1,100,0.07385169452250338,-10,-1,-100,15028.538522556657,-0.005373868301055634,0.0010019416382040173,0.9999850587145972,21.227293214528377,0.011391185939118215,21.750162985257823,-9.027156347734035,23.4852294921875,5356.25390625,True
1599564386.9924736,0.0,10,0.5,0.5,-25.905628707885743,-0.2,-0.03,-0.12575,0.011319435692066492,10,1,100,0.05843547315941952,-10,-1,-100,15028.538522556657,-0.005373868301055634,0.0010019416382040173,0.9999850587145972,21.227293214528377,0.011391185939118215,21.750162985257823,-9.027156347734035,23.4852294921875,5356.25390625,True
1599564387.041384,0.0,10,0.5,0.5,-26.037426345825196,-0.2,-0.03,-0.12575,0.018957863134169205,10,1,100,0.09586998092949675,-10,-1,-100,15027.763136620633,-0.00571311146485157,0.0010720638784162814,0.9999831053755012,21.544540684908466,0.010968427424393176,23.895867400023498,-9.770263362426201,23.753173828125,5356.25390625,True
1599564387.0922422,0.0,10,0.5,0.5,-26.044821853637696,-0.2,-0.03,-0.12575,0.011885655153926257,10,1,100,0.06209124501303605,-10,-1,-100,15027.763136620633,-0.00571311146485157,0.0010720638784162814,0.9999831053755012,21.544540684908466,0.010968427424393176,23.895867400023498,-9.770263362426201,23.753173828125,5356.25390625,True
1599564387.1400785,0.0,10,0.5,0.5,-25.904471054077153,-0.2,-0.03,-0.12575,0.024573614350975423,10,1,100,0.09226718830918201,-10,-1,-100,15027.135210932232,-0.005986269794211288,0.0011877541613044096,0.9999813767335886,21.706230906115675,0.010584719069325416,25.451413261954325,-10.327579887405669,23.2313232421875,5356.25390625,True
1599564387.194933,0.0,10,0.5,0.5,-25.772735893249514,-0.2,-0.03,-0.12575,0.024982959748618944,10,1,100,0.08618308362621016,-10,-1,-100,15026.716268868186,-0.006177868751970259,0.0012968884938390683,0.9999800758104723,21.775877081004126,0.010296685898001279,26.45373792232494,-10.699118522675548,22.539276123046875,5356.25390625,True
1599564387.2548113,0.0,10,0.5,0.5,-25.727027122497557,-0.2,-0.03,-0.12575,0.020895320927835283,10,1,100,0.07786318691898753,-10,-1,-100,15026.506310406607,-0.006275043783242195,0.001358876373958851,0.999979388427841,21.798454530301917,0.010142885066040204,26.94205094726519,-10.884886336733109,22.0899658203125,5356.25390625,True
1599564387.307667,0.0,10,0.5,0.5,-25.43592135620117,-0.2,-0.03,-0.12575,0.03221551354108362,10,1,100,0.09020049809192653,-10,-1,-100,15026.022915965295,-0.00647408333931714,0.0015180186850289284,0.9999778906876828,21.81646580881625,0.009815567383158866,27.887006956967234,-11.256419511747389,20.98516845703125,5356.25390625,True
1599564387.357531,0.0,10,0.5,0.5,-24.590059028625486,-0.2,-0.03,-0.12575,0.059637951631075346,10,1,100,0.1153528017883313,-10,-1,-100,15025.121557731298,-0.006882156216485857,0.0019116430624341457,0.9999744904479382,21.727879612391067,0.00908735970799769,29.612357784359844,-11.999479722307246,17.949676513671875,5356.25390625,True
1599564387.4093587,0.0,10,0.5,0.5,-24.96256674194336,-0.2,-0.03,-0.12575,0.020359021239988576,10,1,100,0.07474034342707025,-10,-1,-100,15025.121557731298,-0.006882156216485857,0.0019116430624341457,0.9999744904479382,21.727879612391067,0.00908735970799769,29.612357784359844,-11.999479722307246,17.949676513671875,5356.25390625,True
1599564387.511506,0.0,10,0.5,0.5,-23.600373023986815,-0.2,-0.03,-0.12575,0.07997894217149717,10,1,100,0.11878007073918961,-10,-1,-100,15024.095201312914,-0.0072810048965856605,0.0024528178629789794,0.9999704848905425,21.491911505834146,0.008311239606145703,31.110386412487177,-12.742539434329885,13.81390380859375,5356.25390625,True
1599564387.586307,0.0,10,0.5,0.5,-23.698570091247557,-0.2,-0.03,-0.12575,0.04231896776987808,10,1,100,0.09031366542998194,-10,-1,-100,15023.88426590187,-0.00738307534241493,0.002601112572346132,0.9999693617365853,21.40154985815916,0.008115368089491032,31.432747281883497,-12.928305315795939,12.607879638671875,5356.25390625,True
1599564387.6420898,0.0,10,0.5,0.5,-22.504763832092284,-0.2,-0.03,-0.12575,0.08593297707184457,10,1,100,0.11007866956091333,-10,-1,-100,15023.06591673533,-0.0076537219606851335,0.0031309631463940185,0.9999658082204232,21.02483005562899,0.007541028844539239,32.215436545157225,-13.485607270544342,8.57769775390625,5356.25390625,True
1599564387.6989377,0.0,10,0.5,0.5,-21.978821792602538,-0.2,-0.03,-0.12575,0.07679027400995388,10,1,100,0.10160832826459502,-10,-1,-100,15022.521978083416,-0.007820997046877122,0.0035276582774494748,0.9999631931387626,20.674865822825414,0.007188744429788613,32.55538982128773,-13.857146475539345,5.547119140625,5356.25390625,True
1599564387.7517967,0.0,10,0.5,0.5,-21.22853846740723,-0.2,-0.03,-0.12575,0.08605453372274517,10,1,100,0.09986537183495456,-10,-1,-100,15021.91456379462,-0.007955303988980356,0.0039702783990715985,0.9999604742327951,20.23477233797172,0.006881788550657684,32.72022320763727,-14.228689572903981,2.24163818359375,5356.25390625,True
1599564387.80665,0.0,10,0.5,0.5,-21.581233642578127,-0.2,-0.03,-0.12575,0.04207077398430952,10,1,100,0.08663158104410801,-10,-1,-100,15021.91456379462,-0.007955303988980356,0.0039702783990715985,0.9999604742327951,20.23477233797172,0.006881788550657684,32.72022320763727,-14.228689572903981,2.24163818359375,5356.25390625,True
1599564387.8734715,0.0,10,0.5,0.5,-20.35400104522705,-0.2,-0.03,-0.12575,0.0947930080872752,10,1,100,0.09939884923115135,-10,-1,-100,15021.368672798155,-0.00806975421319256,0.004447141081911984,0.9999575501005712,19.695738643614398,0.00663902788165876,32.68382743285177,-14.600236315245962,-1.338836669921875,5356.25390625,True
1599564387.9263294,0.0,10,0.5,0.5,-18.132502433776857,-0.2,-0.03,-0.12575,0.1636254483911717,10,1,100,0.10417113687880583,-10,-1,-100,15020.153845737455,-0.008215552749791466,0.005503594555704164,0.9999511063746975,21.015828030933736,0.00731077888842687,36.65762993733652,-15.343293027885391,-9.32489013671875,5356.25390625,True
1599564387.994177,0.0,10,0.5,0.5,-17.610701248168944,-0.2,-0.03,-0.12575,0.12166161426119644,10,1,100,0.09076577088535134,-10,-1,-100,15019.546433417709,-0.00822464675638591,0.006078894152633029,0.9999476997481486,21.885030643013916,0.007895802630074411,39.10256766837107,-15.714785299090728,-13.73046875,5356.25390625,True
1599564388.043559,0.0,10,0.5,0.5,-16.544876358032226,-0.2,-0.03,-0.12575,0.1297359397689904,10,1,100,0.0842203008907752,-10,-1,-100,15018.876520402264,-0.008172189316484802,0.006671508335284489,0.9999443516007817,22.727131116916087,0.008573741671818751,41.57187868890936,-16.086247814700478,-18.41131591796875,5356.25390625,True
1599564388.0954554,0.0,10,0.5,0.5,-17.024409912109377,-0.2,-0.03,-0.12575,0.07095050803112943,10,1,100,0.08959504819088585,-10,-1,-100,15018.876520402264,-0.008172189316484802,0.006671508335284489,0.9999443516007817,22.727131116916087,0.008573741671818751,41.57187868890936,-16.086247814700478,-18.41131591796875,5356.25390625,True
1599564388.1438382,0.0,10,0.5,0.5,-13.60920583343506,-0.2,-0.03,-0.12575,0.20755995300449676,10,1,100,0.06376598070500605,-10,-1,-100,15017.597242897144,-0.007936569444413259,0.007909577207340278,0.9999372227564365,24.19077550652407,0.010020580765965887,46.30320069427859,-16.829075058990504,-28.598663330078125,5356.25390625,True
1599564388.2026806,0.0,10,0.5,0.5,-13.880992446899416,-0.2,-0.03,-0.12575,0.11965592684544069,10,1,100,0.07785799731943238,-10,-1,-100,15017.260332714533,-0.007849975626204824,0.008231140976276854,0.9999353110081155,24.527200887051777,0.010373192523118155,47.467870787406085,-17.014761073551785,-31.317474365234375,5356.25390625,True
1599564388.2590706,0.0,10,0.5,0.5,-11.311467826843263,-0.2,-0.03,-0.12575,0.18955760404765412,10,1,100,0.04388106003694246,-10,-1,-100,15016.19296482089,-0.0074621943128422305,0.009154304942757607,0.999930254746326,25.315712121669076,0.011233197447374249,50.60645806600257,-17.57177415523539,-39.88763427734375,5356.25390625,True
1599564388.3049145,0.0,10,0.5,0.5,-11.277470161437988,-0.2,-0.03,-0.12575,0.13230966210852857,10,1,100,0.0664529731164448,-10,-1,-100,15015.857031043386,-0.007315191240266289,0.009467993943143233,0.9999284199720553,25.492427066729725,0.011425579512777418,51.50106627592761,-17.757432586126246,-42.881927490234375,5356.25390625,True
1599564388.3557792,0.0,10,0.5,0.5,-8.45753816986084,-0.2,-0.03,-0.12575,0.19711084806894452,10,1,100,0.020297044227447603,-10,-1,-100,15014.724231996574,-0.0067625346505233806,0.010337269529002973,0.9999237015811684,25.711476484608053,0.011630900033819376,53.58198131707518,-18.314384621385386,-52.27899169921875,5356.25390625,True
1599564388.408637,0.0,10,0.5,0.5,-7.322722785949708,-0.2,-0.03,-0.12575,0.17191470354348246,10,1,100,0.027742516287940625,-10,-1,-100,15013.989865040756,-0.006328890014341997,0.010892676028525871,0.9999206442313929,25.604465826079142,0.011446715610917545,54.447122054675965,-18.685679108694643,-58.888153076171875,5356.25390625,True
1599564388.4674811,0.0,10,0.5,0.5,-6.870905006408691,-0.2,-0.03,-0.12575,0.1437100282937259,10,1,100,0.04502032351059927,-10,-1,-100,15013.654906675918,-0.0060933211963820465,0.011135325312233798,0.9999194347381135,25.473193370259036,0.011263102443109676,54.70943472790798,-18.871327930260314,-62.2965087890625,5356.25390625,True
1599564388.5193412,0.0,10,0.5,0.5,-6.0078521194458006,-0.2,-0.03,-0.12575,0.14565775494271924,10,1,100,0.04134300324504833,-10,-1,-100,15013.2554964273,-0.005847666842689273,0.011368502420816825,0.9999182776333296,25.275477422172962,0.011020350231092707,54.822187276842335,-19.056979540456297,-65.77383422851562,5356.25390625,True
1599564388.569208,0.0,10,0.5,0.5,-1.53342147064209,-0.2,-0.03,-0.12575,0.21371423383770827,10,1,100,-0.05283168529717148,-10,-1,-100,15011.664686685079,-0.004770372061597205,0.01219436813833022,0.999914266792959,23.781864701209066,0.009670524455618196,53.60658953769409,-19.79963638457632,-80.3726806640625,5356.25390625,True
1599564388.6230628,0.0,10,0.5,0.5,-0.6706594314575196,-0.2,-0.03,-0.12575,0.1671512447571689,10,1,100,-0.009315697321695834,-10,-1,-100,15010.8668388027,-0.004189705621522274,0.012516834471880178,0.9999128838161895,22.633922318185203,0.008977260188643197,51.983068028652845,-20.17100350999245,-88.08621215820312,5356.25390625,True
1599564388.6729305,0.0,10,0.5,0.5,-0.14146517181396479,-0.2,-0.03,-0.12575,0.1491510936413328,10,1,100,0.017914586351161242,-10,-1,-100,15010.468401746126,-0.003912995512748276,0.01264103401393018,0.9999124425294327,21.944254343514665,0.00866901688006609,50.86663675917738,-20.35669659814333,-92.0467529296875,5356.25390625,True
1599564388.7267864,0.0,10,0.5,0.5,3.540950538635254,-0.2,-0.03,-0.12575,0.17066933431473105,10,1,100,-0.048761074718056324,-10,-1,-100,15009.212545376853,-0.0030589562895350863,0.01294526173390963,0.999911527578845,23.14944686295151,0.009448580329252925,55.14030596366048,-20.913750529302256,-104.29574584960938,5356.25390625,True
1599564388.7736614,0.0,10,0.5,0.5,2.2195744934082033,-0.2,-0.03,-0.12575,0.14071797439254935,10,1,100,0.03616374566959567,-10,-1,-100,15009.212545376853,-0.0030589562895350863,0.01294526173390963,0.999911527578845,23.14944686295151,0.009448580329252925,55.14030596366048,-20.913750529302256,-104.29574584960938,5356.25390625,True
1599564388.8275163,0.0,10,0.5,0.5,7.809444839477539,-0.2,-0.03,-0.12575,0.16199129052904687,10,1,100,-0.08243405475964903,-10,-1,-100,15007.492818019935,-0.0019847974111085955,0.013135209192613106,0.9999117595361617,25.702008427665422,0.011454102835392832,63.41150824170199,-21.656310774763725,-120.86257934570312,5356.25390625,True
1599564388.8763862,0.0,10,0.5,0.5,8.559874412536622,-0.2,-0.03,-0.12575,0.14405278947503572,10,1,100,-0.03255206524863659,-10,-1,-100,15006.632464610622,-0.0014666077843020421,0.013141477586171192,0.9999125714923576,26.509968018610795,0.012214228554357071,66.53491968241292,-22.027524058953833,-128.84344482421875,5356.25390625,True
1599564388.9242575,0.0,10,0.5,0.5,9.052808212280272,-0.2,-0.03,-0.12575,0.1434064310455978,10,1,100,-0.005343911595980688,-10,-1,-100,15006.171524912468,-0.0012476876357440667,0.013138750859995317,0.9999129044578846,26.836329607682433,0.012497819643839404,67.9260484557168,-22.213118398832517,-132.732421875,5356.25390625,True
1599564388.9761195,0.0,10,0.5,0.5,12.451709465026857,-0.2,-0.03,-0.12575,0.13574126204532466,10,1,100,-0.05274423074463288,-10,-1,-100,15004.853161787847,-0.00062237660150234,0.013064546777258886,0.9999144614740157,27.307367007183384,0.012779514606847887,70.86501018985943,-22.76987488106483,-143.98770141601562,5356.25390625,True
1599564389.0349634,0.0,10,0.5,0.5,13.613599040985108,-0.2,-0.03,-0.12575,0.1328448485492171,10,1,100,-0.03033417972377121,-10,-1,-100,15003.927376961336,-0.00026261334746758517,0.012969003650747492,0.9999158644498729,27.237528749005612,0.012518803450524871,71.84594966133662,-23.14104125814241,-151.14707946777344,5356.25390625,True
1599564389.4919004,0.0,10,0.5,0.5,14.101783016204834,-0.2,-0.03,-0.12575,0.1375467677738583,10,1,100,-0.012085097137850772,-10,-1,-100,15003.466436911607,-0.00010653391594001355,0.012923435982115754,0.9999164832389457,27.101241409062016,0.012281440346448307,72.06490725085848,-23.326627609387707,-154.62322998046875,5356.25390625,True
1599564389.5347567,0.0,10,0.5,0.5,16.08476983642578,-0.2,-0.03,-0.12575,0.1300962428660695,10,1,100,-0.02756689403136514,-10,-1,-100,15002.482057890738,0.00017186023162094838,0.012813615995249016,0.9999178874833609,26.65120619137844,0.011663198915708464,72.00651374263211,-23.697812072881412,-161.3687744140625,5356.25390625,True
1599564389.5796347,0.0,10,0.5,0.5,16.521345527648926,-0.2,-0.03,-0.12575,0.13445661599551345,10,1,100,-0.013382317768386266,-10,-1,-100,15002.02014263696,0.00029203006714643016,0.012753149597889318,0.9999186326365629,26.34783351116757,0.011313354482510935,71.74984347757417,-23.883411704528726,-164.63809204101562,5356.25390625,True
1599564389.6275072,0.0,10,0.5,0.5,20.363185249328613,-0.2,-0.03,-0.12575,0.11265965797910228,10,1,100,-0.040046742491081505,-10,-1,-100,15000.113884523395,0.0006398564827578297,0.012499924058700438,0.9999216681731665,24.72465990204441,0.009982129347156457,69.4447918642862,-24.625865278061163,-177.02545166015625,5356.25390625,True
1599564389.6863525,0.0,10,0.5,0.5,-96.36363073730469,-0.2,-0.03,-0.12575,0.12393318685133692,10,1,100,-0.016080520920291018,-10,-1,-100,14999.06407573435,0.0007348250165134676,0.012372610501617415,0.9999231863206146,23.731310020281153,0.009512037238060394,67.6707715938395,-24.997122505366416,177.1949462890625,5356.25390625,True
1599564389.7322352,0.0,10,0.5,0.5,-52.664887771606445,-0.2,-0.03,-0.12575,0.13660727743640994,10,1,100,-0.006963045675332079,-10,-1,-100,14999.06407573435,0.0007348250165134676,0.012372610501617415,0.9999231863206146,23.731310020281153,0.009512037238060394,67.6707715938395,-24.997122505366416,177.1949462890625,5356.25390625,True
1599564389.778112,0.0,10,0.5,0.5,-51.7663716506958,-0.2,-0.03,-0.12575,0.12477559545806163,10,1,100,-0.013336034744081302,-10,-1,-100,14998.077744141803,0.0007902888967497132,0.012265743027896972,0.9999244606426194,24.153035268354564,0.009834772526116002,69.90785700547949,-25.368373983652155,171.69168090820312,5356.25390625,True
1599564389.8284855,0.0,10,0.5,0.5,-49.69578244018555,-0.2,-0.03,-0.12575,0.11481052725995283,10,1,100,-0.003005802871938977,-10,-1,-100,14995.982034788816,0.0007447476829622319,0.012078795372312193,0.9999267713454034,26.261316486824526,0.011575093414993036,78.2604369553505,-26.110759553311144,160.44308471679688,5356.25390625,True
1599564389.8743637,0.0,10,0.5,0.5,-50.03269050979615,-0.2,-0.03,-0.12575,0.12674627653561396,10,1,100,0.001627677402495903,-10,-1,-100,14994.934180976474,0.0006594127267344716,0.012018313365639025,0.9999275600355765,27.16615079118865,0.012577316960813947,82.12105579975898,-26.481888930172403,154.4350128173828,5356.25390625,True
1599564389.9247367,0.0,10,0.5,0.5,-50.67148948669434,-0.2,-0.03,-0.12575,0.1300264061227693,10,1,100,-0.0005724863991949198,-10,-1,-100,14994.410741891013,0.0006006717198807544,0.011994100204375394,0.9999278877767998,27.564377599085386,0.01307041523407458,83.91548106468665,-26.66743790954094,151.32838439941406,5356.25390625,True
1599564389.9775958,0.0,10,0.5,0.5,-50.935247570037845,-0.2,-0.03,-0.12575,0.13044881961495072,10,1,100,0.001048412882645679,-10,-1,-100,14993.884374994319,0.0005317505519357803,0.011976814638106808,0.999928133993876,27.941370826595286,0.0135495255718915,85.66187838425816,-26.85297690521888,148.15316772460938,5356.25390625,True
1599564390.0279715,0.0,10,0.5,0.5,-47.8819527168274,-0.2,-0.03,-0.12575,0.1330238143864904,10,1,100,0.03560829493784474,-10,-1,-100,14991.72519486025,0.00015433394014956165,0.01198537009518937,0.9999281609619345,29.131341997527645,0.015032234805944747,91.80707480657401,-27.595044018286455,134.76588439941406,5356.25390625,True
1599564390.0778706,0.0,10,0.5,0.5,-50.45380757141114,-0.2,-0.03,-0.12575,0.13208544408822814,10,1,100,-0.002131613611629987,-10,-1,-100,14991.72519486025,0.00015433394014956165,0.01198537009518937,0.9999281609619345,29.131341997527645,0.015032234805944747,91.80707480657401,-27.595044018286455,134.76588439941406,5356.25390625,True
1599564390.1269422,0.0,10,0.5,0.5,-46.63345599365234,-0.2,-0.03,-0.12575,0.14767312740913188,10,1,100,0.05534698687222304,-10,-1,-100,14989.441019962309,-0.00036807361322455963,0.012127774288563677,0.9999263880969543,29.34171631295416,0.01515861376873957,94.98661309802108,-28.337033143736527,120.28065490722656,5356.25390625,True
1599564390.1778407,0.0,10,0.5,0.5,-49.34689192199707,-0.2,-0.03,-0.12575,0.13339549309468754,10,1,100,0.003207024544409151,-10,-1,-100,14989.441019962309,-0.00036807361322455963,0.012127774288563677,0.9999263880969543,29.34171631295416,0.01515861376873957,94.98661309802108,-28.337033143736527,120.28065490722656,5356.25390625,True
1599564390.2312133,0.0,10,0.5,0.5,-44.100262603759774,-0.2,-0.03,-0.12575,0.16819581269093226,10,1,100,0.0738553158166761,-10,-1,-100,14987.156851166976,-0.001009328171490861,0.012444363408723224,0.9999220565004022,28.33817324840642,0.013904579972432931,94.17185386622141,-29.079052286755623,104.69850158691406,5356.25390625,True
1599564390.281079,0.0,10,0.5,0.5,-44.517458038330076,-0.2,-0.03,-0.12575,0.14846219043177122,10,1,100,0.02826977198411026,-10,-1,-100,14986.567987018148,-0.001176287232175078,0.012552709903869433,0.9999205197526536,27.877694633384714,0.01347266721580323,93.24094594332149,-29.264573656223412,100.63166809082031,5356.25390625,True
1599564390.3379624,0.0,10,0.5,0.5,-43.46857861709594,-0.2,-0.03,-0.12575,0.15087685518110314,10,1,100,0.030785166804286813,-10,-1,-100,14985.980101668392,-0.001349147625590585,0.012672897336381756,0.9999187854389905,27.33032268522529,0.013034493640982364,91.99803590482252,-29.45010388352263,96.49627685546875,5356.25390625,True
1599564390.3887913,0.0,10,0.5,0.5,-41.035717258453374,-0.2,-0.03,-0.12575,0.17125946805848222,10,1,100,0.05639178888404296,-10,-1,-100,14984.806284768856,-0.0017371773700492355,0.012966915026674524,0.9999144170025133,25.972942127252296,0.012222135986263264,88.54694205620984,-29.821192905636472,88.02030944824219,5356.25390625,True
1599564390.44165,0.0,10,0.5,0.5,-36.112554225921635,-0.2,-0.03,-0.12575,0.22433270238924108,10,1,100,0.10078748358328964,-10,-1,-100,14982.331706024474,-0.002491350189462266,0.013715825419346635,0.9999028299326387,27.765160996478347,0.013762284827122863,97.04897286151996,-30.56333658509838,70.24664306640625,5356.25390625,True
1599564390.4965413,0.0,10,0.5,0.5,-35.07577122497558,-0.2,-0.03,-0.12575,0.20218904416550154,10,1,100,0.06698482278848314,-10,-1,-100,14981.157897701487,-0.0028668539981491956,0.014193781860455492,0.9998951533559162,29.200490097639683,0.015143085105279104,103.32368932270509,-30.93431087351061,60.94940185546875,5356.25390625,True
1599564390.5433779,0.0,10,0.5,0.5,-34.43563751220703,-0.2,-0.03,-0.12575,0.1850464831956062,10,1,100,0.04979937233635512,-10,-1,-100,14980.507518011262,-0.0030489000887087996,0.014470430827898725,0.9998906494411797,29.773283043336896,0.015763505168187864,105.99157527756566,-31.11977558355369,56.1983642578125,5356.25390625,True
1599564390.5982652,0.0,10,0.5,0.5,-31.635203147888184,-0.2,-0.03,-0.12575,0.2229321084357873,10,1,100,0.06898265881074489,-10,-1,-100,14979.27023919893,-0.0033858780171402937,0.015064085518000847,0.9998807974741587,30.67899639030259,0.01674638690759176,110.53700182016807,-31.490669149415794,46.490997314453125,5356.25390625,True
1599564390.6471007,0.0,10,0.5,0.5,-27.68076247406006,-0.2,-0.03,-0.12575,0.27457797082822827,10,1,100,0.08348735671713145,-10,-1,-100,14977.322043639724,-0.0038208641039930843,0.016070480607640592,0.9998635610174713,31.259028718463426,0.017184616307597433,114.64680110604345,-32.04695703288827,31.4171142578125,5356.25390625,True
1599564390.698005,0.0,10,0.5,0.5,-27.62840404510498,-0.2,-0.03,-0.12575,0.2146282817667614,10,1,100,0.053517887761724274,-10,-1,-100,14976.66971610242,-0.003940717382909403,0.016436803782827865,0.9998571409095965,31.1799192117911,0.017003288159482044,115.02880556135929,-32.232385924529574,26.255767822265625,5356.25390625,True
1599564390.7448394,0.0,10,0.5,0.5,-22.817904083251953,-0.2,-0.03,-0.12575,0.3101498828270582,10,1,100,0.06651876222954275,-10,-1,-100,14974.720554583007,-0.004164616819113783,0.017634285743096934,0.9998358304907264,30.07172080392824,0.015750375105219726,112.88776659108522,-32.78871752623697,10.361785888671875,5356.25390625,True
1599564390.7959006,0.0,10,0.5,0.5,-22.763131591796874,-0.2,-0.03,-0.12575,0.2359234343265898,10,1,100,0.04932468902644798,-10,-1,-100,14974.071159615181,-0.004208983560500883,0.018043401700306036,0.9998283453235705,29.407377676716987,0.015222191224402262,111.02952453661487,-32.974184286028624,4.926849365234375,5356.25390625,True
1599564390.847763,0.0,10,0.5,0.5,-19.55174535369873,-0.2,-0.03,-0.12575,0.2889256506133862,10,1,100,0.04476913897483636,-10,-1,-100,14972.770420192974,-0.004205145873721481,0.018892172089652062,0.9998126837472686,27.672650194096448,0.01425465975342174,105.67730556968847,-33.34515861527541,-6.14825439453125,5356.25390625,True
1599564390.899625,0.0,10,0.5,0.5,-15.057540252685545,-0.2,-0.03,-0.12575,0.34577066752139707,10,1,100,0.0250887215187066,-10,-1,-100,14970.695290884585,-0.004020147819549817,0.020174900529354667,0.9997883835093002,29.77050013217973,0.016194453135508297,115.62162221699008,-33.90156849209607,-23.2747802734375,5356.25390625,True
1599564390.9464989,0.0,10,0.5,0.5,-13.046233963012696,-0.2,-0.03,-0.12575,0.30875994570037957,10,1,100,0.014613590788243945,-10,-1,-100,14969.33205265121,-0.003754663881435461,0.02099800347116353,0.999772467289114,31.303691710162642,0.017906852923212143,122.93046023236214,-34.27240485895494,-35.03558349609375,5356.25390625,True
1599564391.0093315,0.0,10,0.5,0.5,-10.288617553710939,-0.2,-0.03,-0.12575,0.3100674639360646,10,1,100,0.0007586966264406109,-10,-1,-100,14967.969788469025,-0.003386212796504223,0.02175154524035798,0.9997576725599827,32.17084866406329,0.019096519033474108,127.72696690090848,-34.64317957548291,-47.07147216796875,5356.25390625,True
1599564391.0661788,0.0,10,0.5,0.5,-11.478067932128907,-0.2,-0.03,-0.12575,0.23546906335460974,10,1,100,0.037655740999399945,-10,-1,-100,14967.969788469025,-0.003386212796504223,0.02175154524035798,0.9997576725599827,32.17084866406329,0.019096519033474108,127.72696690090848,-34.64317957548291,-47.07147216796875,5356.25390625,True
1599564391.1162133,0.0,10,0.5,0.5,-5.119277359008789,-0.2,-0.03,-0.12575,0.3456083728640051,10,1,100,-0.03797251338321893,-10,-1,-100,14965.895622415817,-0.00269837656329151,0.022746192495522975,0.9997376303265169,32.33443172396283,0.01939725504211654,130.47447372419742,-35.19929608160791,-65.640869140625,5356.25390625,True
1599564391.1640851,0.0,10,0.5,0.5,-0.8673272476196292,-0.2,-0.03,-0.12575,0.3338797026202567,10,1,100,-0.059925884800496126,-10,-1,-100,14963.756993978168,-0.0018741197942627498,0.0235368092643866,0.999721214281586,30.631363758346303,0.01793285509833446,125.59363256634813,-35.755477979597515,-84.82937622070312,5356.25390625,True
1599564391.213952,0.0,10,0.5,0.5,1.3478802814483646,-0.2,-0.03,-0.12575,0.2944105363161704,10,1,100,-0.03822331944996141,-10,-1,-100,14962.330257053021,-0.0013238612749775839,0.0238899536072648,0.9997137177752276,28.566874298306647,0.016710077950154632,118.36921454817323,-36.126347936790324,-97.96651458740234,5356.25390625,True
1599564391.2727947,0.0,10,0.5,0.5,2.2400562744140626,-0.2,-0.03,-0.12575,0.27588525986408485,10,1,100,-0.012866780274261209,-10,-1,-100,14961.554874011665,-0.0010565192100501,0.024035806724112894,0.9997105399875905,28.462343635804128,0.01686354562253982,118.55425656716874,-36.311790059391335,-104.63268280029297,5356.25390625,True
1599564391.3246584,0.0,10,0.5,0.5,6.124066961288452,-0.2,-0.03,-0.12575,0.28563971749458283,10,1,100,-0.04309272040496098,-10,-1,-100,14960.130081036477,-0.0005415252385724474,0.024251257789723858,0.9997057483309938,30.91386176602714,0.019119902119912855,130.10801537023738,-36.68259450648704,-118.07028198242188,5356.25390625,True
1599564391.3720796,0.0,10,0.5,0.5,6.973522033691407,-0.2,-0.03,-0.12575,0.27241988270733514,10,1,100,-0.018219178407927455,-10,-1,-100,14959.35176496103,-0.0003028060629493666,0.024321298573041192,0.9997041476077856,31.822077381565684,0.020134225823536404,134.6210097667667,-36.86796053035064,-124.73257446289062,5356.25390625,True
1599564391.426897,0.0,10,0.5,0.5,10.771170520782473,-0.2,-0.03,-0.12575,0.2740083453992323,10,1,100,-0.04216002911231578,-10,-1,-100,14957.86544088542,0.00012830788510171702,0.024394477012816572,0.9997024022319629,32.939014242983085,0.02155773968977866,140.7751865291137,-37.23864163616076,-137.87049865722656,5356.25390625,True
1599564391.47776,0.0,10,0.5,0.5,13.654727798461915,-0.2,-0.03,-0.12575,0.26852997522990796,10,1,100,-0.036342402074628764,-10,-1,-100,14956.376182774315,0.0004635708141649551,0.02440736352336082,0.999701988448527,33.349068856202244,0.022055122226790333,143.9748466251561,-37.60928908147725,-150.7388458251953,5356.25390625,True
1599564391.526154,0.0,10,0.5,0.5,20.497922534942628,-0.2,-0.03,-0.12575,0.2577677842718753,10,1,100,-0.0478650356956554,-10,-1,-100,14953.336136016645,0.0008692717510539587,0.024318141015098754,0.9997038923522267,31.70848679332764,0.020454145132096042,139.6498197468555,-38.35065134438029,-175.64837646484375,5356.25390625,True
1599564391.5770504,0.0,10,0.5,0.5,17.75127976989746,-0.2,-0.03,-0.12575,0.2669466946755562,10,1,100,-0.007720490461510852,-10,-1,-100,14953.336136016645,0.0008692717510539587,0.024318141015098754,0.9997038923522267,31.70848679332764,0.020454145132096042,139.6498197468555,-38.35065134438029,-175.64837646484375,5356.25390625,True
1599564391.6418796,0.0,10,0.5,0.5,-91.37973590850831,-0.2,-0.03,-0.12575,0.25886059175010045,10,1,100,-0.010192751720676694,-10,-1,-100,14950.232613252825,0.0008878782310940499,0.024242297719617573,0.999705718035823,30.7291979527597,0.020432850800012763,138.01644814588317,-39.092185181816674,160.55038452148438,5356.25390625,True
1599564391.6937056,0.0,10,0.5,0.5,-46.04028031921387,-0.2,-0.03,-0.12575,0.26745507754350856,10,1,100,0.006005190816723185,-10,-1,-100,14948.68378492759,0.0007542789582501469,0.024250120862552852,0.9997056380262166,32.56053450676657,0.02263533174740824,147.66101054437743,-39.46285522022242,149.06600952148438,5356.25390625,True
1599564391.7405794,0.0,10,0.5,0.5,-44.444077484130865,-0.2,-0.03,-0.12575,0.27432045745486744,10,1,100,0.015070339882386728,-10,-1,-100,14947.067577234935,0.0005480251743837367,0.024318996890235308,0.9997040992507037,33.729822816870595,0.024417631028792956,154.43303365175348,-39.833449219073934,137.57852172851562,5356.25390625,True
