Timestamp,Input Throttle,horizon,dT,dt,Input Roll,Roll P,Roll I,Roll D,Input Pitch,Pitch P,Pitch I,Pitch D,Input Yaw,Yaw P,Yaw I,Yaw D,Altitude,Direction X,Direction Y,Direction Z,Drag X,Drag Y,Drag Z,Vertical Velocity,Roll,Mass,Has Fuel
1599561833.490456,0.0,10,0.5,0.5,-8.745716789245606,-0.15025,-0.001,-0.12575,-0.0005203060856622418,10,1,100,0.17112982648196898,-10,-1,-100,14993.395298657008,-0.016777398394128937,-7.675960240730216e-05,0.9998592465997843,28.717138183428464,0.027109127413606656,-88.32795058669157,27.194949218224757,-31.792694091796875,5356.25390625,True
1599561833.521406,0.0,10,0.5,0.5,-8.751956968688965,-0.15025,-0.001,-0.12575,-8.377539215041817e-06,10,1,100,0.18126249476984932,-10,-1,-100,14995.009560774197,-0.01688476903948482,-6.978783472458661e-05,0.9998574396903497,28.499230693215072,0.027602380953211214,-85.8641454910135,26.637046911350822,-31.790924072265625,5356.25390625,True
1599561833.5533273,0.0,10,0.5,0.5,-8.74642870941162,-0.15025,-0.001,-0.12575,0.003168881434779513,10,1,100,0.17419474585823336,-10,-1,-100,14995.487101645558,-0.016902776664212308,-3.450224812696327e-05,0.9998571372704375,28.426625181937382,0.02776375695180294,-85.04906345539783,26.45108716603217,-31.83123779296875,5356.25390625,True
1599561833.5858798,0.0,10,0.5,0.5,-8.730227145385742,-0.15025,-0.001,-0.12575,0.0033838882052943794,10,1,100,0.17617299937483338,-10,-1,-100,14996.024211762822,-0.01692176519442074,-4.384694443278402e-07,0.9998568166805247,28.35749106150296,0.027926368484045446,-84.24733957234788,26.265131301260823,-31.92938232421875,5356.25390625,True
1599561833.6137636,0.0,10,0.5,0.5,-8.640142239379882,-0.15025,-0.001,-0.12575,0.009699109948912168,10,1,100,0.17910163134034815,-10,-1,-100,14997.098431764985,-0.016950267998665433,8.794010745408822e-05,0.9998563300201239,28.233297926518567,0.028256244536596198,-82.69380594682377,25.893230673780582,-32.321533203125,5356.25390625,True
1599561833.6457188,0.0,10,0.5,0.5,-8.392101477050781,-0.15025,-0.001,-0.12575,0.024788363948911766,10,1,100,0.17705100920918682,-10,-1,-100,14998.587690165266,-0.016942128284969445,0.00030537935908223177,0.9998564252094511,28.084541962935152,0.028753553749002736,-80.49055449174388,25.335405592604076,-33.4197998046875,5356.25390625,True
1599561833.6736052,0.0,10,0.5,0.5,-8.396965277099609,-0.15025,-0.001,-0.12575,0.01389988962260741,10,1,100,0.1773821328754936,-10,-1,-100,14999.12479796086,-0.016922336825589544,0.00040378765817861156,0.9998567254721491,28.04394138677774,0.028915546343516025,-79.78583557816665,25.149470167361315,-33.923065185546875,5356.25390625,True
1599561833.7080226,0.0,10,0.5,0.5,-8.131159739685058,-0.15025,-0.001,-0.12575,0.029650453441888686,10,1,100,0.17371456763124538,-10,-1,-100,15000.136514412588,-0.01685561914500048,0.0006360696123886243,0.9998577316392001,27.973272294218855,0.029224975183439635,-78.41098510997894,24.777608583220832,-35.1357421875,5356.25390625,True
1599561833.7369456,0.0,10,0.5,0.5,-8.0933511138916,-0.15025,-0.001,-0.12575,0.021415199704892682,10,1,100,0.17704334536079566,-10,-1,-100,15000.611122493516,-0.016809905033692694,0.0007717908371410461,0.9998584056913568,27.94195723908846,0.029368837724510335,-77.7369416701228,24.591682088032197,-35.845123291015625,5356.25390625,True
1599561833.7688606,0.0,10,0.5,0.5,-7.739488121032714,-0.15025,-0.001,-0.12575,0.04125401001220392,10,1,100,0.1697501778203097,-10,-1,-100,15001.560336675262,-0.01668676349574148,0.001074824961675949,0.9998601885640508,27.883769720479975,0.029624883344858098,-76.40491737511277,24.219837506550157,-37.470062255859375,5356.25390625,True
1599561833.8022807,0.0,10,0.5,0.5,-7.696400065612793,-0.15025,-0.001,-0.12575,0.029689482434285326,10,1,100,0.17532963045200917,-10,-1,-100,15002.035919297603,-0.01661036915471424,0.001244201346943259,0.9998612641759619,27.855163987955216,0.029732492518308104,-75.74203754511616,24.033919408402106,-38.38555908203125,5356.25390625,True
1599561833.8392205,0.0,10,0.5,0.5,-7.810864505004883,-0.15025,-0.001,-0.12575,0.012883940002489384,10,1,100,0.18295236163079154,-10,-1,-100,15002.035919297603,-0.01661036915471424,0.001244201346943259,0.9998612641759619,27.855163987955216,0.029732492518308104,-75.74203754511616,24.033919408402106,-38.38555908203125,5356.25390625,True
1599561833.8731303,0.0,10,0.5,0.5,-7.247929162597655,-0.15025,-0.001,-0.12575,0.05342207865151326,10,1,100,0.1623119620358753,-10,-1,-100,15002.985131460475,-0.01642297861283752,0.0016115353444965052,0.999863835093217,27.79385040567464,0.02989411734813318,-74.40884703580383,23.662091683817767,-40.42279052734375,5356.25390625,True
1599561833.9080033,0.0,10,0.5,0.5,-6.151131500244141,-0.15025,-0.001,-0.12575,0.11178238280237236,10,1,100,0.12492704524635033,-10,-1,-100,15004.88062209473,-0.015913196874909708,0.0024745271640139723,0.9998703150311719,27.622394816207454,0.029926229087311698,-71.63112543247246,22.918472484288795,-45.32177734375,5356.25390625,True
1599561833.9369256,0.0,10,0.5,0.5,-6.765839852905273,-0.15025,-0.001,-0.12575,0.02573069741397148,10,1,100,0.17580436220718057,-10,-1,-100,15004.88062209473,-0.015913196874909708,0.0024745271640139723,0.9998703150311719,27.622394816207454,0.029926229087311698,-71.63112543247246,22.918472484288795,-45.32177734375,5356.25390625,True
1599561833.9728308,0.0,10,0.5,0.5,-5.551118563842773,-0.15025,-0.001,-0.12575,0.10339818484311647,10,1,100,0.11838612179699246,-10,-1,-100,15006.239005242125,-0.015392155663111412,0.0031784256069547815,0.9998764819489975,27.40791978435969,0.029607662178317465,-69.34936043499266,22.360795133266084,-49.718231201171875,5356.25390625,True
1599561834.0087345,0.0,10,0.5,0.5,-6.102342793273926,-0.15025,-0.001,-0.12575,0.033295645173822816,10,1,100,0.17033524571463624,-10,-1,-100,15006.239005242125,-0.015392155663111412,0.0031784256069547815,0.9998764819489975,27.40791978435969,0.029607662178317465,-69.34936043499266,22.360795133266084,-49.718231201171875,5356.25390625,True
1599561834.0386832,0.0,10,0.5,0.5,-4.716593965148926,-0.15025,-0.001,-0.12575,0.11835480024982808,10,1,100,0.10022495498977227,-10,-1,-100,15007.536838312051,-0.014756180457578538,0.003949168254965033,0.9998833227974138,27.072504841552874,0.028924495509642493,-66.79627012968001,21.803158163959402,-54.73333740234375,5356.25390625,True
1599561834.0765886,0.0,10,0.5,0.5,-5.345283810424804,-0.15025,-0.001,-0.12575,0.04161184531306058,10,1,100,0.16361253167431747,-10,-1,-100,15007.536838312051,-0.014756180457578538,0.003949168254965033,0.9998833227974138,27.072504841552874,0.028924495509642493,-66.79627012968001,21.803158163959402,-54.73333740234375,5356.25390625,True
1599561834.1144524,0.0,10,0.5,0.5,-4.32563656616211,-0.15025,-0.001,-0.12575,0.09940463920292925,10,1,100,0.10898025347520243,-10,-1,-100,15008.421590683865,-0.01426139040538305,0.004471668765402181,0.9998883022228822,26.757866274897733,0.02824804259377825,-64.8969921558077,21.4314276043074,-58.420867919921875,5356.25390625,True
1599561834.1573422,0.0,10,0.5,0.5,-3.6933727157592777,-0.15025,-0.001,-0.12575,0.10170582593498242,10,1,100,0.0982142465283488,-10,-1,-100,15009.24481933983,-0.013715913361225173,0.004964501068996684,0.9998936080652797,26.352603176938015,0.02739442253359695,-62.808249442823545,21.05972328267797,-62.384185791015625,5356.25390625,True
1599561834.195237,0.0,10,0.5,0.5,-1.7736946701049807,-0.15025,-0.001,-0.12575,0.163569855073734,10,1,100,0.013694022157605928,-10,-1,-100,15010.889321762137,-0.01245429078661443,0.005971548610142107,0.9999046110745761,25.205374916013092,0.025209320734338476,-57.959051862168224,20.316410452173518,-71.1365966796875,5356.25390625,True
1599561834.2381217,0.0,10,0.5,0.5,-2.2195529357910155,-0.15025,-0.001,-0.12575,0.08930384322449743,10,1,100,0.10156019175532026,-10,-1,-100,15011.298494257499,-0.012109922786373066,0.0062076032241328875,0.9999074034290975,24.836182802691464,0.02458342238441235,-56.58923574203024,20.130605166985557,-73.49703979492188,5356.25390625,True
1599561834.2780144,0.0,10,0.5,0.5,-1.8425701339721678,-0.15025,-0.001,-0.12575,0.09146704109117873,10,1,100,0.09627221376061436,-10,-1,-100,15011.709619389498,-0.011752709400589468,0.006437685519385576,0.9999102109824155,24.429950039039785,0.023935496028637336,-55.1513310226022,19.944809832760182,-75.9263916015625,5356.25390625,True
1599561834.3169453,0.0,10,0.5,0.5,0.7274780975341798,-0.15025,-0.001,-0.12575,0.15696333228863096,10,1,100,-0.03332318868750865,-10,-1,-100,15013.226192241185,-0.010253612198052642,0.007238669200178157,0.9999212294501514,22.407276311247376,0.021252597437039084,-48.705882836739455,19.201731458736464,-86.33392333984375,5356.25390625,True
1599561834.3568046,0.0,10,0.5,0.5,0.18854520874023437,-0.15025,-0.001,-0.12575,0.09667175082034517,10,1,100,0.07225406711256627,-10,-1,-100,15013.635365023976,-0.009855734870907898,0.0074143998584268464,0.9999239426900898,21.811495610141773,0.020604209645108527,-46.953593308082866,19.015986772296856,-89.10824584960938,5356.25390625,True
1599561834.392709,0.0,10,0.5,0.5,1.41248507232666,-0.15025,-0.001,-0.12575,0.11307894494428136,10,1,100,0.024669613032750656,-10,-1,-100,15014.39316350501,-0.009066475373498173,0.007719460426823737,0.9999291019642444,21.733098097708304,0.020518233318611648,-45.873558436859454,18.644512775899685,-94.79256439208984,5356.25390625,True
1599561834.4355931,0.0,10,0.5,0.5,0.7021894489288331,-0.15025,-0.001,-0.12575,0.0830269915865792,10,1,100,0.10296299474476182,-10,-1,-100,15014.39316350501,-0.009066475373498173,0.007719460426823737,0.9999291019642444,21.733098097708304,0.020518233318611648,-45.873558436859454,18.644512775899685,-94.79256439208984,5356.25390625,True
1599561834.4774818,0.0,10,0.5,0.5,3.008112272262573,-0.15025,-0.001,-0.12575,0.12493335141642646,10,1,100,-0.031683070472385236,-10,-1,-100,15015.49861293286,-0.007847592694327818,0.00809699979602975,0.9999364249207082,23.113200772112513,0.022141385341220055,-47.332626942364655,18.087284442140703,-103.13284301757812,5356.25390625,True
1599561834.795939,0.0,10,0.5,0.5,2.703709609985352,-0.15025,-0.001,-0.12575,0.09858378999121442,10,1,100,0.04495752003941288,-10,-1,-100,15015.845286672818,-0.007442530706792252,0.008196905180950502,0.9999387078627033,23.495646474362605,0.022673903994425485,-47.62300935721518,17.901535035453755,-105.81236267089844,5356.25390625,True
1599561834.8333807,0.0,10,0.5,0.5,3.8072542289733886,-0.15025,-0.001,-0.12575,0.10704226814815787,10,1,100,-0.00829311055425963,-10,-1,-100,15016.538634644588,-0.006596394857907069,0.00836123693556381,0.999943287037713,24.11962913902152,0.0236533885630538,-47.87573711498878,17.530026595865916,-111.01437377929688,5356.25390625,True
1599561834.8733041,0.0,10,0.5,0.5,4.527751643371582,-0.15025,-0.001,-0.12575,0.1040593217178353,10,1,100,-0.012888713673243415,-10,-1,-100,15017.234912564629,-0.005791874529205522,0.008480423803239732,0.9999472669103883,24.594012980054558,0.02450189216645676,-47.785155838289405,17.15850705893397,-115.97737121582031,5356.25390625,True
1599561834.914205,0.0,10,0.5,0.5,3.908138793182373,-0.15025,-0.001,-0.12575,0.0923915224695528,10,1,100,0.06689707757117043,-10,-1,-100,15017.234912564629,-0.005791874529205522,0.008480423803239732,0.9999472669103883,24.594012980054558,0.02450189216645676,-47.785155838289405,17.15850705893397,-115.97737121582031,5356.25390625,True
1599561834.9939897,0.0,10,0.5,0.5,6.427460831451415,-0.15025,-0.001,-0.12575,0.10590049067111489,10,1,100,-0.10844769781685897,-10,-1,-100,15018.560089778272,-0.004203574796820862,0.008601166404545654,0.9999541738976886,25.274860222973263,0.025778650222157806,-46.985750479488416,16.415448060697212,-125.08995819091797,5356.25390625,True
1599561835.034882,0.0,10,0.5,0.5,5.286469375991821,-0.15025,-0.001,-0.12575,0.09404257862903871,10,1,100,0.04962736196123021,-10,-1,-100,15018.560089778272,-0.004203574796820862,0.008601166404545654,0.9999541738976886,25.274860222973263,0.025778650222157806,-46.985750479488416,16.415448060697212,-125.08995819091797,5356.25390625,True
1599561835.076768,0.0,10,0.5,0.5,6.434132424545288,-0.15025,-0.001,-0.12575,0.0928566658613563,10,1,100,-0.03807192410801846,-10,-1,-100,15019.189964677207,-0.0034118085938288118,0.008589146745562753,0.9999572921481708,25.41722149931579,0.026076324810964384,-46.18302871946445,16.043918397439512,-129.23411560058594,5356.25390625,True
1599561835.121582,0.0,10,0.5,0.5,7.490022649383545,-0.15025,-0.001,-0.12575,0.08986586817578242,10,1,100,-0.07864111353423454,-10,-1,-100,15020.167493959423,-0.0023290684383950556,0.008549962761266593,0.9999607360176649,25.434339946801515,0.026117000040862988,-44.61179870002626,15.486637094109026,-134.93341064453125,5356.25390625,True
1599561835.165466,0.0,10,0.5,0.5,7.2637363685607905,-0.15025,-0.001,-0.12575,0.08937633084854792,10,1,100,-0.010940945527405994,-10,-1,-100,15020.451671404997,-0.001966340194367449,0.008509135615900276,0.9999618633314524,25.396244213910197,0.02603203891281593,-44.01163356040633,15.300882296342431,-136.6956787109375,5356.25390625,True
1599561835.206355,0.0,10,0.5,0.5,7.961927549743652,-0.15025,-0.001,-0.12575,0.0860589992453885,10,1,100,-0.04922051827576746,-10,-1,-100,15021.08154960291,-0.0012950457977019118,0.008441144582639379,0.9999635343023849,25.267345200265986,0.02573528482639033,-42.726947361889465,14.929384133941644,-140.01309204101562,5356.25390625,True
1599561835.2517507,0.0,10,0.5,0.5,8.779248455810547,-0.15025,-0.001,-0.12575,0.07777699856714967,10,1,100,-0.08727919484479442,-10,-1,-100,15021.930176639231,-0.0003447470563753838,0.008303730778248565,0.9999654640059473,24.969909239312464,0.025032554580699935,-40.650729377751524,14.372169714882997,-144.47250366210938,5356.25390625,True
1599561835.2966294,0.0,10,0.5,0.5,8.594595594787597,-0.15025,-0.001,-0.12575,0.08514974506329415,10,1,100,-0.02625269818386436,-10,-1,-100,15022.215331823914,-4.207797358737436e-05,0.008245736991860686,0.999966002447536,24.85022381501189,0.024746118229358464,-39.93397156985409,14.186441035985256,-145.8212432861328,5356.25390625,True
1599561835.3370714,0.0,10,0.5,0.5,9.727056990814209,-0.15025,-0.001,-0.12575,0.0683014904260362,10,1,100,-0.11724924519247741,-10,-1,-100,15023.285641454044,0.0010543586045851897,0.008039954416572726,0.999967123190014,24.3935341836057,0.02351881992985288,-37.150760544221626,13.44357502740258,-150.52626037597656,5356.25390625,True
1599561835.3779263,0.0,10,0.5,0.5,9.138855980682374,-0.15025,-0.001,-0.12575,0.08883570101616546,10,1,100,-0.008290210688600091,-10,-1,-100,15023.285641454044,0.0010543586045851897,0.008039954416572726,0.999967123190014,24.3935341836057,0.02351881992985288,-37.150760544221626,13.44357502740258,-150.52626037597656,5356.25390625,True
1599561835.4178195,0.0,10,0.5,0.5,9.677511492156983,-0.15025,-0.001,-0.12575,0.07514118500058681,10,1,100,-0.06399349952581773,-10,-1,-100,15023.849117481615,0.0015545282911655404,0.007915859243146254,0.9999674607777168,24.152309494327994,0.022854607300512492,-35.768820899742956,13.072170551846934,-152.46539306640625,5356.25390625,True
1599561835.4587102,0.0,10,0.5,0.5,9.89528847579956,-0.15025,-0.001,-0.12575,0.07869314436251922,10,1,100,-0.06406506344526619,-10,-1,-100,15024.354000598541,0.0020046439481535847,0.007835958995286482,0.9999672890396293,23.91064420386005,0.022180178709767913,-34.40647744148477,12.700784144553136,-154.12802124023438,5356.25390625,True
1599561835.498604,0.0,10,0.5,0.5,10.37876302947998,-0.15025,-0.001,-0.12575,0.0637997497144019,10,1,100,-0.10866761914635412,-10,-1,-100,15025.356931292219,0.002813673943838993,0.0076286235526213135,0.9999669431244367,23.459383883446733,0.02086337360514469,-31.786002164998187,11.958059680842231,-156.62673950195312,5356.25390625,True
1599561835.5384972,0.0,10,0.5,0.5,10.067288470458983,-0.15025,-0.001,-0.12575,0.08443724166162464,10,1,100,-0.028387167831580063,-10,-1,-100,15025.356931292219,0.002813673943838993,0.0076286235526213135,0.9999669431244367,23.459383883446733,0.02086337360514469,-31.786002164998187,11.958059680842231,-156.62673950195312,5356.25390625,True
1599561835.5773933,0.0,10,0.5,0.5,10.300045999145508,-0.15025,-0.001,-0.12575,0.07480534181249912,10,1,100,-0.06717917841609035,-10,-1,-100,15025.796385255526,0.003161653365168874,0.007541898407818941,0.999966561299129,23.26295125671108,0.020242589844117625,-30.542437349657504,11.58671841419106,-157.4622039794922,5356.25390625,True
1599561835.617315,0.0,10,0.5,0.5,10.351415959930419,-0.15025,-0.001,-0.12575,0.0770016778843833,10,1,100,-0.06711250655974516,-10,-1,-100,15026.237793076085,0.003472730373538776,0.007483903365204896,0.9999659650878989,23.092304218750574,0.01965548187720892,-29.348071143868907,11.215388712947842,-158.02145385742188,5356.25390625,True
1599561835.6551876,0.0,10,0.5,0.5,10.361236277770995,-0.15025,-0.001,-0.12575,0.07399829079360945,10,1,100,-0.06725252218169342,-10,-1,-100,15026.675294368411,0.0037524661811916345,0.0074047472994736695,0.9999655437638789,22.950733877260674,0.019105409586028667,-28.203690771243995,10.844068769712246,-158.30531311035156,5356.25390625,True
1599561835.6940813,0.0,10,0.5,0.5,10.329021547698975,-0.15025,-0.001,-0.12575,0.07684426667365984,10,1,100,-0.06621129067813414,-10,-1,-100,15027.114749178872,0.003993580980627724,0.007359477005426445,0.9999649440901206,22.840127679519487,0.01859370103770654,-27.1078650894537,10.472756659872529,-158.3129119873047,5356.25390625,True
1599561835.73298,0.0,10,0.5,0.5,10.255295136260987,-0.15025,-0.001,-0.12575,0.07681431864304916,10,1,100,-0.06515042925339151,-10,-1,-100,15027.491703615757,0.004199463277204495,0.007318855628729265,0.9999643987965118,22.76130986008949,0.018120372151069417,-26.05763010133664,10.10145060789217,-158.0447235107422,5356.25390625,True
1599561835.7768965,0.0,10,0.5,0.5,10.139600662994384,-0.15025,-0.001,-0.12575,0.07759163880709657,10,1,100,-0.06380967670284418,-10,-1,-100,15027.928228491452,0.004371581155748748,0.007289649195757572,0.9999638744938747,22.713379560749235,0.01768427676719441,-25.047981970491556,9.73014917949829,-157.50062561035156,5356.25390625,True
1599561835.8147585,0.0,10,0.5,0.5,9.982413234710693,-0.15025,-0.001,-0.12575,0.07835226207042444,10,1,100,-0.06181022193216748,-10,-1,-100,15028.304206160246,0.004506859436009042,0.007270694745650664,0.9999634119386268,22.69438372453041,0.01728403770876508,-24.072951920646776,9.358850700596301,-156.68067932128906,5356.25390625,True
1599561835.8526561,0.0,10,0.5,0.5,9.404925980377197,-0.15025,-0.001,-0.12575,0.07940619013909164,10,1,100,-0.06674558978361438,-10,-1,-100,15028.990731689031,0.004672022733854422,0.007263631104811809,0.9999627052379241,22.72847431179767,0.016584953933456735,-22.197771634765296,8.616258044896872,-154.21322631835938,5356.25390625,True
1599561835.8905559,0.0,10,0.5,0.5,9.715216716003416,-0.15025,-0.001,-0.12575,0.08005532143392968,10,1,100,-0.050495997877646394,-10,-1,-100,15028.990731689031,0.004672022733854422,0.007263631104811809,0.9999627052379241,22.72847431179767,0.016584953933456735,-22.197771634765296,8.616258044896872,-154.21322631835938,5356.25390625,True
1599561835.9294517,0.0,10,0.5,0.5,9.26028035736084,-0.15025,-0.001,-0.12575,0.08101539150348089,10,1,100,-0.053851529327350156,-10,-1,-100,15029.30323225283,0.004700838157224442,0.007272690825851192,0.9999625043414235,22.770924120335852,0.016283168244888496,-21.28162054735227,8.244961710770156,-152.56578063964844,5356.25390625,True
1599561835.9743323,0.0,10,0.5,0.5,8.936215604400633,-0.15025,-0.001,-0.12575,0.08200809802867201,10,1,100,-0.050202229449754956,-10,-1,-100,15029.675302533666,0.0046921429393886995,0.007290275115867615,0.99996241713545,22.821177094604906,0.016012522585103627,-20.368764921496904,7.873664496068284,-150.6425018310547,5356.25390625,True
1599561836.0122306,0.0,10,0.5,0.5,8.570490009307862,-0.15025,-0.001,-0.12575,0.08208004310528348,10,1,100,-0.04658940279457752,-10,-1,-100,15029.92530270177,0.0046500029630598474,0.007307143628662604,0.9999624908587489,22.870672067747364,0.015773565601121926,-19.45094350195218,7.50236620209015,-148.443603515625,5356.25390625,True
1599561836.0491319,0.0,10,0.5,0.5,7.403975694274902,-0.15025,-0.001,-0.12575,0.08475542213004691,10,1,100,-0.029650124534657245,-10,-1,-100,15030.546394837787,0.004456630207134779,0.007346960958461846,0.9999630796243788,22.924928223015545,0.015389537293953197,-17.568268779775075,6.759767257755564,-143.21871948242188,5356.25390625,True
1599561836.341373,0.0,10,0.5,0.5,8.059496202087402,-0.15025,-0.001,-0.12575,0.08076791051602154,10,1,100,-0.04905781652975845,-10,-1,-100,15030.546394837787,0.004456630207134779,0.007346960958461846,0.9999630796243788,22.924928223015545,0.015389537293953197,-17.568268779775075,6.759767257755564,-143.21871948242188,5356.25390625,True
1599561836.3752813,0.0,10,0.5,0.5,6.7768036773681635,-0.15025,-0.001,-0.12575,0.08251753747790172,10,1,100,-0.02341819607733772,-10,-1,-100,15030.88818876748,0.004223121794634129,0.0073628780363398155,0.9999639759858,22.87501922105653,0.015171227774312991,-16.086352844728086,6.202817020401774,-138.57675170898438,5356.25390625,True
1599561836.4102237,0.0,10,0.5,0.5,6.40938370513916,-0.15025,-0.001,-0.12575,0.08147784370343925,10,1,100,-0.024848999221197068,-10,-1,-100,15031.135257210699,0.004023827213198233,0.007367856325181392,0.999964761132976,22.769858175226574,0.015043698201117782,-15.054288844588601,5.831516103563179,-135.1376190185547,5356.25390625,True
1599561836.5014625,0.0,10,0.5,0.5,5.814439385223388,-0.15025,-0.001,-0.12575,0.07929812085948774,10,1,100,-0.020121994518610957,-10,-1,-100,15031.380371898878,0.0037999936909080454,0.007352495282701972,0.9999657498439968,22.586782073640087,0.01491320824211874,-13.98276871018921,5.46021377905989,-131.42320251464844,5356.25390625,True
1599561836.539399,0.0,10,0.5,0.5,5.737904894256592,-0.15025,-0.001,-0.12575,0.07955584329273649,10,1,100,-0.02887898365113177,-10,-1,-100,15031.475097504212,0.003676760267980883,0.0073407992657165315,0.9999662964820727,22.460684029061778,0.01484153842598497,-13.432091658749174,5.274561515200736,-129.46270751953125,5356.25390625,True
1599561836.5733035,0.0,10,0.5,0.5,4.842779837036133,-0.15025,-0.001,-0.12575,0.07661919962899176,10,1,100,-0.011894464628988181,-10,-1,-100,15031.659664631006,0.003411229949178406,0.007303399609549448,0.9999675114044341,22.12758293864585,0.014672850360292483,-12.301622717850487,4.903253272124356,-125.33523559570312,5356.25390625,True
1599561836.6021996,0.0,10,0.5,0.5,4.14376104888916,-0.15025,-0.001,-0.12575,0.07401832469456726,10,1,100,-0.006387052821419756,-10,-1,-100,15031.844231142313,0.003120917545457056,0.007245719451353024,0.9999688792274022,21.66776650657068,0.014448596855084407,-11.134000913224403,4.531937680119955,-120.93247985839844,5356.25390625,True
1599561836.6361825,0.0,10,0.5,0.5,3.4031137596130367,-0.15025,-0.001,-0.12575,0.07093518278181092,10,1,100,-0.0012291258439421984,-10,-1,-100,15032.024891193141,0.0028115432246530936,0.007165278900489852,0.999970376562713,21.064173624709756,0.014144345576260766,-9.937177294515463,4.160611284099834,-116.25447082519531,5356.25390625,True
1599561836.6720498,0.0,10,0.5,0.5,2.6208489295959474,-0.15025,-0.001,-0.12575,0.06744561727760534,10,1,100,0.003538547429475649,-10,-1,-100,15032.145980838453,0.0024886609939045435,0.0070605414371354425,0.9999719772678992,20.324937365181935,0.013747408663971589,-8.732802700068202,3.7892697342244106,-111.30126190185547,5356.25390625,True
1599561836.7010202,0.0,10,0.5,0.5,2.5279770664215087,-0.15025,-0.001,-0.12575,0.07104826823085296,10,1,100,-0.010282892964272865,-10,-1,-100,15032.237774934736,0.0023227460076846256,0.006998301117471437,0.9999728139466857,19.969585060676756,0.013552777759534243,-8.159751104950578,3.6035915499105715,-108.72146606445312,5356.25390625,True
1599561836.7356613,0.0,10,0.5,0.5,1.367917197418213,-0.15025,-0.001,-0.12575,0.06151033141329658,10,1,100,0.010552716859148555,-10,-1,-100,15032.35788776225,0.001984439461998551,0.0068553274556545475,0.9999745329184625,19.151328358243077,0.013073629777224984,-7.019045300301054,3.2322181715419838,-103.35545349121094,5356.25390625,True
1599561836.7695682,0.0,10,0.5,0.5,0.4817470520019531,-0.15025,-0.001,-0.12575,0.0569363432278959,10,1,100,0.015347986314724744,-10,-1,-100,15032.477023386164,0.0016355421442742783,0.006684216628229012,0.9999763228446766,18.121926950086173,0.012419601844348356,-5.878655558961141,2.8608157855045686,-97.71429443359375,5356.25390625,True
1599561836.8004873,0.0,10,0.5,0.5,1.1870365577697752,-0.15025,-0.001,-0.12575,0.07397955982963839,10,1,100,-0.019282987492666555,-10,-1,-100,15032.477023386164,0.0016355421442742783,0.006684216628229012,0.9999763228446766,18.121926950086173,0.012419601844348356,-5.878655558961141,2.8608157855045686,-97.71429443359375,5356.25390625,True
1599561836.8353925,0.0,10,0.5,0.5,-1.2886442512512208,-0.15025,-0.001,-0.12575,0.04069468240599182,10,1,100,0.03737688611516464,-10,-1,-100,15032.625454748166,0.001122623552447562,0.006382248324102182,0.9999790030909094,16.34642971485024,0.011221014519528874,-4.270030712695372,2.3036575179202194,-88.75799560546875,5356.25390625,True
1599561836.871297,0.0,10,0.5,0.5,-0.16665619430541992,-0.15025,-0.001,-0.12575,0.07079448812281486,10,1,100,-0.013647236053660947,-10,-1,-100,15032.625454748166,0.001122623552447562,0.006382248324102182,0.9999790030909094,16.34642971485024,0.011221014519528874,-4.270030712695372,2.3036575179202194,-88.75799560546875,5356.25390625,True
1599561836.9022136,0.0,10,0.5,0.5,-2.7695048637390136,-0.15025,-0.001,-0.12575,0.03078819746965837,10,1,100,0.043106340324456864,-10,-1,-100,15032.772907900973,0.000609003891478794,0.006019426182656772,0.9999816976438578,17.389842893129387,0.011910155104193297,-3.443917095089171,1.7464671725250422,-79.34213256835938,5356.25390625,True
1599561836.9381173,0.0,10,0.5,0.5,-1.5900593971252441,-0.15025,-0.001,-0.12575,0.06694201427151007,10,1,100,-0.007975403166649974,-10,-1,-100,15032.772907900973,0.000609003891478794,0.006019426182656772,0.9999816976438578,17.389842893129387,0.011910155104193297,-3.443917095089171,1.7464671725250422,-79.34213256835938,5356.25390625,True
1599561836.9730263,0.0,10,0.5,0.5,-3.2997532218933108,-0.15025,-0.001,-0.12575,0.03701130867409266,10,1,100,0.028820498513891315,-10,-1,-100,15032.827590694651,0.000276779252250217,0.005748443671106338,0.9999834392571737,18.42776661578606,0.01261935330120755,-2.873295649891575,1.3750098881250246,-73.16265869140625,5356.25390625,True
1599561837.0029445,0.0,10,0.5,0.5,-4.979163607025146,-0.15025,-0.001,-0.12575,0.016486779673515604,10,1,100,0.04710306422714141,-10,-1,-100,15032.910592784872,-0.0001891439590122148,0.005316797338081955,0.9999858478451726,19.58787167510194,0.01342111134509691,-1.816621452510525,0.8178363405631206,-64.27798461914062,5356.25390625,True
1599561837.0372753,0.0,10,0.5,0.5,-5.409187628173828,-0.15025,-0.001,-0.12575,0.02516840666513235,10,1,100,0.03311077472055486,-10,-1,-100,15032.903752777842,-0.0004830735146882599,0.005004900684437262,0.9999873587246584,20.054549958625408,0.013740480926808667,-1.0151720469430403,0.446384714076173,-58.68896484375,5356.25390625,True
1599561837.0731792,0.0,10,0.5,0.5,-4.711371641540527,-0.15025,-0.001,-0.12575,0.05615873198629823,10,1,100,0.003998401105187643,-10,-1,-100,15032.903752777842,-0.0004830735146882599,0.005004900684437262,0.9999873587246584,20.054549958625408,0.013740480926808667,-1.0151720469430403,0.446384714076173,-58.68896484375,5356.25390625,True
1599561837.1040978,0.0,10,0.5,0.5,-6.1825768157958985,-0.15025,-0.001,-0.12575,0.022218577418427265,10,1,100,0.03445539292796207,-10,-1,-100,15032.89788992051,-0.000757712064916494,0.004698036030884996,0.9999886771008356,20.302225220091678,0.013916859015702372,-0.17249352921879257,0.07492119261935803,-53.37469482421875,5356.25390625,True
1599561837.1405118,0.0,10,0.5,0.5,-6.223557116699219,-0.15025,-0.001,-0.12575,0.03491914397783086,10,1,100,0.021855396052689866,-10,-1,-100,15032.925231171772,-0.0008906623624313314,0.004536333478738736,0.9999893141424692,20.35330378839124,0.0139566936166508,0.2557801184656259,-0.1108163107189517,-50.821014404296875,5356.25390625,True
1599561837.1754208,0.0,10,0.5,0.5,-8.536137367248536,-0.15025,-0.001,-0.12575,-0.020781524914504072,10,1,100,0.06219116887991156,-10,-1,-100,15032.848076932365,-0.0013759185635952849,0.003884914062447719,0.9999915071093524,20.4202590369372,0.01403278535375798,1.977249910081926,-0.8537998327209415,-41.29559326171875,5356.25390625,True
1599561837.212319,0.0,10,0.5,0.5,-8.543394052124023,-0.15025,-0.001,-0.12575,0.007618151957314967,10,1,100,0.03784359139449413,-10,-1,-100,15032.838308781735,-0.0015934475492259542,0.0035531637776193806,0.9999924179472949,20.292909338991297,0.01396505950849098,2.8199594555191605,-1.2253084817840625,-36.946563720703125,5356.25390625,True
1599561837.2442343,0.0,10,0.5,0.5,-8.573385780334473,-0.15025,-0.001,-0.12575,0.023922341688938406,10,1,100,0.028147650998589794,-10,-1,-100,15032.80315210193,-0.0017005871042895474,0.0034023644112869977,0.9999927659337908,20.19401026564361,0.013908367995861084,3.2316752035975,-1.4110661704411884,-34.87518310546875,5356.25390625,True
1599561837.2791402,0.0,10,0.5,0.5,-8.870021768188478,-0.15025,-0.001,-0.12575,0.02201333744043822,10,1,100,0.029071960839338065,-10,-1,-100,15032.768970768317,-0.0018042898883580088,0.003250298641245166,0.999993090024497,20.079478931149804,0.013841947486818914,3.636406747403753,-1.5968255638907314,-32.872772216796875,5356.25390625,True
1599561837.3140476,0.0,10,0.5,0.5,-9.156478450012207,-0.15025,-0.001,-0.12575,0.019502734035681056,10,1,100,0.029726040471498613,-10,-1,-100,15032.731861364911,-0.0019023174216400362,0.003091750753474264,0.999993411111146,19.952363301172095,0.013768441395070332,4.033781335701632,-1.7825861999011097,-30.93939208984375,5356.25390625,True
1599561837.3479564,0.0,10,0.5,0.5,-9.927747659301758,-0.15025,-0.001,-0.12575,0.0007768123369591602,10,1,100,0.04042975537644288,-10,-1,-100,15032.659594521509,-0.002086758863146927,0.0027797958336192746,0.9999939590680388,19.65391671477779,0.013597701523049222,4.801696511751874,-2.154109841125756,-27.27935791015625,5356.25390625,True
1599561837.3848584,0.0,10,0.5,0.5,-9.947780010986328,-0.15025,-0.001,-0.12575,0.015168387740413463,10,1,100,0.03195221996820563,-10,-1,-100,15032.562913414673,-0.002175639292710912,0.0026293393206047438,0.9999941765672463,19.48719700749639,0.013504427423964412,5.171596326014458,-2.3398722250665775,-25.5526123046875,5356.25390625,True
1599561837.419765,0.0,10,0.5,0.5,-11.049596377563477,-0.15025,-0.001,-0.12575,-0.018217073227808776,10,1,100,0.050974627845749396,-10,-1,-100,15032.453537756577,-0.00242783196776673,0.0021912160830293613,0.999994652087707,18.947858509894964,0.013215339977568357,6.226338787906352,-2.897161008083202,-20.785797119140625,5356.25390625,True
1599561837.4562857,0.0,10,0.5,0.5,-10.854474699401853,-0.15025,-0.001,-0.12575,0.009847095784405646,10,1,100,0.03477642888674582,-10,-1,-100,15032.354904195527,-0.002508073719596461,0.002050608934982243,0.999994752270837,18.788715250547966,0.013138797579876467,6.57000828625557,-3.0829247592544533,-19.33465576171875,5356.25390625,True
1599561837.4941845,0.0,10,0.5,0.5,-11.76287204284668,-0.15025,-0.001,-0.12575,-0.02131817118618116,10,1,100,0.05190001671504139,-10,-1,-100,15032.183029399253,-0.0027350985091037397,0.0016418703980212576,0.9999949117359255,18.367694037957197,0.012961762148188378,7.5841524933012145,-3.640220817210092,-15.39453125,5356.25390625,True
1599561837.5241044,0.0,10,0.5,0.5,-11.595425967407225,-0.15025,-0.001,-0.12575,0.0052582505859773455,10,1,100,0.03776688188760825,-10,-1,-100,15032.086349165882,-0.0028113248773639896,0.001514525074240637,0.9999949013201186,18.229668192888013,0.012907939470367344,7.911407083671633,-3.8259884112984675,-14.2188720703125,5356.25390625,True
1599561837.7893956,0.0,10,0.5,0.5,-11.755740786743162,-0.15025,-0.001,-0.12575,0.0035248400817665185,10,1,100,0.0378979461641409,-10,-1,-100,15031.986740182969,-0.002880508154374724,0.001385153219845617,0.9999948919986194,18.099110671234765,0.012860428005121447,8.236260045535317,-4.011757478461735,-13.1121826171875,5356.25390625,True
1599561837.8183198,0.0,10,0.5,0.5,-11.905393939208983,-0.15025,-0.001,-0.12575,0.002522443564871607,10,1,100,0.038773138162853875,-10,-1,-100,15031.946700555389,-0.0029501882783681014,0.0012604006662036214,0.9999948538764002,17.97218151954105,0.012816038189700805,8.557356476624202,-4.197528413520457,-12.074371337890625,5356.25390625,True
1599561837.8542213,0.0,10,0.5,0.5,-12.044628480529786,-0.15025,-0.001,-0.12575,0.0020573063842763174,10,1,100,0.04018380250866911,-10,-1,-100,15031.850021981169,-0.0030252220658930572,0.0011447079737464713,0.9999947688238708,17.850518297178635,0.012775352355509846,8.875740539418063,-4.383301278225589,-11.105316162109375,5356.25390625,True
1599561837.891124,0.0,10,0.5,0.5,-12.40278332977295,-0.15025,-0.001,-0.12575,-0.011915086853066206,10,1,100,0.04790003460456083,-10,-1,-100,15031.652756680036,-0.0031624722261715463,0.0009144252154164016,0.9999945812832908,17.668327163942138,0.012735982052868276,9.530161051993652,-4.754853225835474,-9.3740234375,5356.25390625,True
1599561837.9778914,0.0,10,0.5,0.5,-12.914795724487304,-0.15025,-0.001,-0.12575,-0.034829746253103075,10,1,100,0.06426654014565464,-10,-1,-100,15031.253344053635,-0.0034348859178850877,0.0004987415546960556,0.9999939763896545,17.428967552703842,0.012731999468967458,10.871175711809599,-5.49798392753959,-6.7379150390625,5356.25390625,True
1599561838.032745,0.0,10,0.5,0.5,-12.835088363647461,-0.15025,-0.001,-0.12575,-0.013677026578911589,10,1,100,0.05237704464616205,-10,-1,-100,15030.991626635543,-0.00357322283576134,0.0003152184549692303,0.9999935663372499,17.369873753732065,0.012764078167068565,11.56704478602081,-5.869562932666458,-5.833099365234375,5356.25390625,True
1599561838.0646613,0.0,10,0.5,0.5,-12.897009480285645,-0.15025,-0.001,-0.12575,-0.013216177866554088,10,1,100,0.054931446048966506,-10,-1,-100,15030.729909011046,-0.0037209349706352,0.00015467255338958046,0.9999930653356279,17.356495421283867,0.012823649202473697,12.290414282455297,-6.24115023748506,-5.203643798828125,5356.25390625,True
1599561838.0955758,0.0,10,0.5,0.5,-12.877758750915525,-0.15025,-0.001,-0.12575,-0.005833007152791002,10,1,100,0.048072626322202314,-10,-1,-100,15030.63029969472,-0.0037916902748200637,7.769287074196302e-05,0.9999928084984799,17.3677379798008,0.012865002082684967,12.664796512614597,-6.426946736724661,-4.99224853515625,5356.25390625,True
1599561838.1294851,0.0,10,0.5,0.5,-12.91229436340332,-0.15025,-0.001,-0.12575,-0.013307466224969405,10,1,100,0.05742390059330013,-10,-1,-100,15030.366629176424,-0.00393985793876608,-5.844472680818352e-05,0.9999922370216862,17.427569398094587,0.012973892011273618,13.443886208958757,-6.79854445380615,-4.7760009765625,5356.25390625,True
1599561838.1594055,0.0,10,0.5,0.5,-12.886163085937499,-0.15025,-0.001,-0.12575,0.0001362620175623042,10,1,100,0.04272761014166472,-10,-1,-100,15030.366629176424,-0.00393985793876608,-5.844472680818352e-05,0.9999922370216862,17.427569398094587,0.012973892011273618,13.443886208958757,-6.79854445380615,-4.7760009765625,5356.25390625,True
1599561838.1933153,0.0,10,0.5,0.5,-12.834102368164062,-0.15025,-0.001,-0.12575,-0.018540055662787533,10,1,100,0.06813330009968124,-10,-1,-100,15029.940851132269,-0.004169792817419501,-0.00022679946044677402,0.9999912806569189,17.611649006235282,0.013210988746655364,14.700973645180884,-7.35595031013082,-4.968048095703125,5356.25390625,True
1599561838.2282221,0.0,10,0.5,0.5,-12.728689387512208,-0.15025,-0.001,-0.12575,-0.012143196537620212,10,1,100,0.06218054371757539,-10,-1,-100,15029.614681012928,-0.00432353648120979,-0.0003202305419982512,0.9999906021981886,17.79638489714356,0.013424509088238985,15.606537473524096,-7.727558418705888,-5.4404296875,5356.25390625,True
1599561838.2571447,0.0,10,0.5,0.5,-12.788754766845704,-0.15025,-0.001,-0.12575,-0.0029581515032926814,10,1,100,0.04694351215883068,-10,-1,-100,15029.614681012928,-0.00432353648120979,-0.0003202305419982512,0.9999906021981886,17.79638489714356,0.013424509088238985,15.606537473524096,-7.727558418705888,-5.4404296875,5356.25390625,True
1599561838.2903585,0.0,10,0.5,0.5,-12.5829866607666,-0.15025,-0.001,-0.12575,-0.010080885734428575,10,1,100,0.06492962159105593,-10,-1,-100,15029.288510792423,-0.004485866281125186,-0.0003836509090851732,0.9999898648564834,18.029000678289655,0.013687351876216114,16.571853603289124,-8.09916806577234,-6.188018798828125,5356.25390625,True
1599561838.327259,0.0,10,0.5,0.5,-12.394938493347167,-0.15025,-0.001,-0.12575,-0.009497489104595226,10,1,100,0.06644218163354368,-10,-1,-100,15028.962340959697,-0.004645986286839114,-0.00043482211332525225,0.9999891128113108,18.306544926026938,0.01400302002827458,17.600159258113973,-8.470777569697173,-7.21112060546875,5356.25390625,True
1599561838.3601723,0.0,10,0.5,0.5,-12.353851034545897,-0.15025,-0.001,-0.12575,-0.006506330497067443,10,1,100,0.05934639196247712,-10,-1,-100,15028.79925572197,-0.004725941749233939,-0.00045330034468596126,0.9999887299331829,18.46116796683773,0.014181736793799573,18.138735551562046,-8.6565817969685,-7.825958251953125,5356.25390625,True
1599561838.3950794,0.0,10,0.5,0.5,-12.242295707702636,-0.15025,-0.001,-0.12575,-0.0057155784063438525,10,1,100,0.060535013037772305,-10,-1,-100,15028.636171153514,-0.0048083862530833065,-0.0004622114280076139,0.999988332823057,18.625812656026802,0.014374912447688213,18.69394107124298,-8.842385376607181,-8.509552001953125,5356.25390625,True
1599561838.4299853,0.0,10,0.5,0.5,-11.893568998718262,-0.15025,-0.001,-0.12575,-0.0052632596415868645,10,1,100,0.07040474662544102,-10,-1,-100,15028.24847792217,-0.004972072060759313,-0.0004656396204555099,0.9999875307618423,18.982140852215938,0.014805083663190789,19.853620596866854,-9.213989804491915,-10.08331298828125,5356.25390625,True
1599561838.4654453,0.0,10,0.5,0.5,-11.58060291442871,-0.15025,-0.001,-0.12575,-0.0032538095427064803,10,1,100,0.07206131425395197,-10,-1,-100,15027.856879004044,-0.005134863971827655,-0.00044999449224450503,0.9999867152502316,19.370218467870725,0.015294308195807155,21.078126034222155,-9.58558879618156,-11.93243408203125,5356.25390625,True
1599561838.4993536,0.0,10,0.5,0.5,-10.904414004516601,-0.15025,-0.001,-0.12575,0.002747935258989356,10,1,100,0.08251762638783319,-10,-1,-100,15027.302194056334,-0.005376827632167739,-0.0003808543777050509,0.9999854722317504,20.059254573154828,0.016184471242622508,23.099829922080623,-10.142971950354621,-15.2222900390625,5356.25390625,True
1599561838.5342607,0.0,10,0.5,0.5,-10.976406530761718,-0.15025,-0.001,-0.12575,-0.000284125876949736,10,1,100,0.06710765991520556,-10,-1,-100,15027.075633143424,-0.005455397655731745,-0.0003452708205859963,0.9999850596006314,20.305562295261577,0.016514249912750637,23.81273433628796,-10.328760887726068,-16.456573486328125,5356.25390625,True
1599561838.569834,0.0,10,0.5,0.5,-9.994546214294434,-0.15025,-0.001,-0.12575,0.012204109654299375,10,1,100,0.08405488693008735,-10,-1,-100,15026.395948404213,-0.005679721918344937,-0.00019928501713901,0.999983850391801,21.05334215954402,0.017565468275035693,26.025132071469592,-10.886107635749497,-20.572235107421875,5356.25390625,True
1599561838.6007195,0.0,10,0.5,0.5,-10.51057748260498,-0.15025,-0.001,-0.12575,-0.0023823761379133325,10,1,100,0.061758079212481644,-10,-1,-100,15026.395948404213,-0.005679721918344937,-0.00019928501713901,0.999983850391801,21.05334215954402,0.017565468275035693,26.025132071469592,-10.886107635749497,-20.572235107421875,5356.25390625,True
1599561838.63665,0.0,10,0.5,0.5,-9.656798066711426,-0.15025,-0.001,-0.12575,0.011372072150461147,10,1,100,0.07756801124480824,-10,-1,-100,15026.005325452192,-0.005822215677332329,-7.43545286309322e-05,0.9999830479943201,21.58770127343814,0.018333869751735815,27.598794063231313,-11.25765273846266,-23.66015625,5356.25390625,True
1599561838.672527,0.0,10,0.5,0.5,-8.622522952270508,-0.15025,-0.001,-0.12575,0.02489495635301566,10,1,100,0.08444861144715747,-10,-1,-100,15025.262164864806,-0.006013091506072944,0.0001618727751446757,0.9999819081002136,22.369714339916154,0.019497135965846825,30.018146264568337,-11.814935793403428,-28.80810546875,5356.25390625,True
1599561838.707435,0.0,10,0.5,0.5,-8.225541598510743,-0.15025,-0.001,-0.12575,0.021963538709885082,10,1,100,0.07714679444730686,-10,-1,-100,15024.807088953792,-0.006118992009275558,0.0003494331682863413,0.9999812177402392,22.842421573079992,0.020221642990744436,31.619060149860136,-12.186432705423918,-32.5841064453125,5356.25390625,True
1599561838.739347,0.0,10,0.5,0.5,-8.697897906494141,-0.15025,-0.001,-0.12575,0.003287772747015752,10,1,100,0.06669604915304962,-10,-1,-100,15024.807088953792,-0.006118992009275558,0.0003494331682863413,0.9999812177402392,22.842421573079992,0.020221642990744436,31.619060149860136,-12.186432705423918,-32.5841064453125,5356.25390625,True
1599561838.7752929,0.0,10,0.5,0.5,-8.145907809448243,-0.15025,-0.001,-0.12575,0.014451058008621936,10,1,100,0.07167409704150877,-10,-1,-100,15024.51900329208,-0.0061630555303013755,0.00045017972103158485,0.9999809068601005,23.057223099964453,0.0205537144252336,32.40428690982076,-12.372173540840006,-34.575347900390625,5356.25390625,True
1599561838.8102002,0.0,10,0.5,0.5,-6.005599772644043,-0.15025,-0.001,-0.12575,0.0541761487712053,10,1,100,0.08283550491549113,-10,-1,-100,15023.544396704412,-0.0063034979087523745,0.0009020721219675759,0.9999797258844808,23.711809599717615,0.02154383344154024,35.33160717122548,-13.11508881361888,-43.22845458984375,5356.25390625,True
1599561838.8471358,0.0,10,0.5,0.5,-6.446048043823242,-0.15025,-0.001,-0.12575,0.0227391746683532,10,1,100,0.071054187972145,-10,-1,-100,15023.254359122831,-0.006323007522462023,0.0010258635704159921,0.9999794833794371,23.81053237812099,0.021677477815940045,35.98275021704232,-13.300807280918775,-45.56378173828125,5356.25390625,True
1599561838.8788736,0.0,10,0.5,0.5,-6.073137460327148,-0.15025,-0.001,-0.12575,0.02449475205156034,10,1,100,0.0708241836705874,-10,-1,-100,15022.966273397207,-0.00633779242319273,0.0011530822107181436,0.9999792511790511,23.877502160710492,0.021754841048975827,36.58946591565004,-13.486522667591906,-47.967926025390625,5356.25390625,True
1599561838.919769,0.0,10,0.5,0.5,-5.689744847106933,-0.15025,-0.001,-0.12575,0.02578771327660949,10,1,100,0.06963294432171074,-10,-1,-100,15022.736782254302,-0.006339601616351348,0.0012791275739193607,0.999979086423309,23.91013889559706,0.02177210322136418,37.14573431470168,-13.672235592737476,-50.44097900390625,5356.25390625,True
1599561838.9556682,0.0,10,0.5,0.5,-4.5756469726562505,-0.15025,-0.001,-0.12575,0.04232845438279484,10,1,100,0.068714109119242,-10,-1,-100,15022.155728391488,-0.006332293399474915,0.0015427406299848264,0.9999787607802736,23.861822167192013,0.021616047960027765,38.08132770971329,-14.04365724059732,-55.593505859375,5356.25390625,True
1599561838.9940767,0.0,10,0.5,0.5,-3.7219867187499998,-0.15025,-0.001,-0.12575,0.04600303455571095,10,1,100,0.0656833451985098,-10,-1,-100,15021.576627578354,-0.006297503919870474,0.0018142104773916472,0.9999785248117697,23.694990991512114,0.02124532619388953,38.818967156681325,-14.415078606699385,-61.0213623046875,5356.25390625,True
1599561839.2863657,0.0,10,0.5,0.5,-2.826707354736328,-0.15025,-0.001,-0.12575,0.04906006547748419,10,1,100,0.062068310429214166,-10,-1,-100,15020.995573077234,-0.0062325810875614425,0.0020870755606812205,0.9999783992910002,23.333039574163035,0.02061575503050385,39.2148919053204,-14.786506832038814,-66.724609375,5356.25390625,True
1599561839.3212698,0.0,10,0.5,0.5,-0.1637905517578122,-0.15025,-0.001,-0.12575,0.07986875832988312,10,1,100,0.0447495808089487,-10,-1,-100,15019.767057142919,-0.006015917798385829,0.002613463568888517,0.9999784890392478,22.126143752004506,0.01887433990170131,39.063195823566595,-15.529405373048398,-78.95761108398438,5356.25390625,True
1599561839.3552155,0.0,10,0.5,0.5,-0.8058522140502931,-0.15025,-0.001,-0.12575,0.04122599915909407,10,1,100,0.05862739815546317,-10,-1,-100,15019.47604083817,-0.005945206851568029,0.0027386421017056113,0.9999785769479919,21.68625554003907,0.018357307146579634,38.74668846041158,-15.715141667180873,-82.18804931640625,5356.25390625,True
1599561839.4505095,0.0,10,0.5,0.5,0.6236042053222657,-0.15025,-0.001,-0.12575,0.05451276873535081,10,1,100,0.04838096425720376,-10,-1,-100,15018.833462005598,-0.0057879327600746785,0.0029710575741112863,0.9999788361016728,20.630834882916577,0.017286159376896083,37.73668884983041,-16.086628800698538,-88.82110595703125,5356.25390625,True
1599561839.5253103,0.0,10,0.5,0.5,1.6754456512451172,-0.15025,-0.001,-0.12575,0.05615991820045549,10,1,100,0.043928131319831684,-10,-1,-100,15018.186976879719,-0.005604817034532092,0.0031950267461145973,0.9999791886984954,20.16875117154012,0.016907154534255044,37.74788667603678,-16.458125530562832,-95.63459777832031,5356.25390625,True
1599561839.560216,0.0,10,0.5,0.5,1.769988576507568,-0.15025,-0.001,-0.12575,0.04496776730964462,10,1,100,0.05158074245672106,-10,-1,-100,15017.833461176604,-0.00550855254971439,0.0032948037538155566,0.9999793998463322,20.918861130073697,0.017616953923548517,39.596014375640195,-16.643864151000805,-99.06249237060547,5356.25390625,True
1599561839.5931277,0.0,10,0.5,0.5,4.113510042190552,-0.15025,-0.001,-0.12575,0.06454613157480943,10,1,100,0.026945319076704586,-10,-1,-100,15016.833458529087,-0.0051978214009461,0.0035614325812421094,0.9999801492282999,22.889623929546413,0.019756828550174292,44.78476904472011,-17.201019864639427,-109.09593200683594,5356.25390625,True
1599561839.6230495,0.0,10,0.5,0.5,2.857917808532715,-0.15025,-0.001,-0.12575,0.038124083869206564,10,1,100,0.05790443685130893,-10,-1,-100,15016.833458529087,-0.0051978214009461,0.0035614325812421094,0.9999801492282999,22.889623929546413,0.019756828550174292,44.78476904472011,-17.201019864639427,-109.09593200683594,5356.25390625,True
1599561839.6569588,0.0,10,0.5,0.5,5.47298899230957,-0.15025,-0.001,-0.12575,0.06194372280431067,10,1,100,0.020950719763594916,-10,-1,-100,15015.771933170385,-0.004862916500344523,0.0037758999306454896,0.9999810471318066,24.258696409034606,0.021547645089467393,49.009265740079904,-17.758084408768987,-118.54957580566406,5356.25390625,True
1599561839.6918643,0.0,10,0.5,0.5,4.290488891601562,-0.15025,-0.001,-0.12575,0.04072030379403871,10,1,100,0.0542942721338396,-10,-1,-100,15015.771933170385,-0.004862916500344523,0.0037758999306454896,0.9999810471318066,24.258696409034606,0.021547645089467393,49.009265740079904,-17.758084408768987,-118.54957580566406,5356.25390625,True
1599561839.7227817,0.0,10,0.5,0.5,6.735069960021972,-0.15025,-0.001,-0.12575,0.058431713118512585,10,1,100,0.01547070138379019,-10,-1,-100,15014.646929988521,-0.004511279118452734,0.003935129388637749,0.9999820813981669,25.28195141298006,0.02294273801994522,52.68777233647785,-18.315070656027704,-127.38591003417969,5356.25390625,True
1599561839.756691,0.0,10,0.5,0.5,7.16083296661377,-0.15025,-0.001,-0.12575,0.05089102922662032,10,1,100,0.024660614958067772,-10,-1,-100,15013.936967105488,-0.004276718260107366,0.004009651720679003,0.999982816039357,25.70361039893049,0.02349430100062282,54.65881376418148,-18.686362990137063,-132.93252563476562,5356.25390625,True
1599561839.789603,0.0,10,0.5,0.5,6.468743546295166,-0.15025,-0.001,-0.12575,0.043578414837673926,10,1,100,0.04794278083877671,-10,-1,-100,15013.936967105488,-0.004276718260107366,0.004009651720679003,0.999982816039357,25.70361039893049,0.02349430100062282,54.65881376418148,-18.686362990137063,-132.93252563476562,5356.25390625,True
1599561839.819523,0.0,10,0.5,0.5,8.627507447052002,-0.15025,-0.001,-0.12575,0.05181787816279235,10,1,100,0.011200392100690383,-10,-1,-100,15012.81001169642,-0.003944213352117,0.004083400469435558,0.999983884380963,26.002355938709684,0.02374730668493932,56.95214069615286,-19.243274337112883,-140.73574829101562,5356.25390625,True
1599561839.8534322,0.0,10,0.5,0.5,7.651443662261963,-0.15025,-0.001,-0.12575,0.04455423757666925,10,1,100,0.04426651095893122,-10,-1,-100,15012.81001169642,-0.003944213352117,0.004083400469435558,0.999983884380963,26.002355938709684,0.02374730668493932,56.95214069615286,-19.243274337112883,-140.73574829101562,5356.25390625,True
1599561839.8853474,0.0,10,0.5,0.5,8.99669486618042,-0.15025,-0.001,-0.12575,0.04666266261342444,10,1,100,0.020144276278919446,-10,-1,-100,15011.976025670301,-0.0037264299492827248,0.00410176035729395,0.999984644523007,26.063303158950564,0.02361567507824249,58.19407080696977,-19.614539989444136,-145.593505859375,5356.25390625,True
1599561839.9197655,0.0,10,0.5,0.5,9.655121366882325,-0.15025,-0.001,-0.12575,0.045618964575630375,10,1,100,0.019952967502265353,-10,-1,-100,15011.203562792623,-0.0035283259783732844,0.004108229403545743,0.9999853365759711,26.00088741875104,0.023254844517092782,59.160964276490894,-19.985804848134055,-150.17552185058594,5356.25390625,True
1599561839.9566662,0.0,10,0.5,0.5,9.686862409210205,-0.15025,-0.001,-0.12575,0.04394174161893449,10,1,100,0.028539645447727333,-10,-1,-100,15010.78559228126,-0.003427809891071241,0.004098365785238953,0.9999857266567563,25.930903537344598,0.023005242438897046,59.55355959061388,-20.171438319115104,-152.36328125,5356.25390625,True
1599561839.992573,0.0,10,0.5,0.5,11.641084136962892,-0.15025,-0.001,-0.12575,0.0380191109257607,10,1,100,-0.0005550777670152232,-10,-1,-100,15009.176213259576,-0.003073543247489792,0.004035068641200294,0.9999871356937381,25.45834368111208,0.021714559176628304,60.63675304972409,-20.91398671527518,-160.42489624023438,5356.25390625,True
1599561840.0274773,0.0,10,0.5,0.5,11.140225915527344,-0.15025,-0.001,-0.12575,0.04140801888803346,10,1,100,0.025834664870978186,-10,-1,-100,15008.757267692243,-0.0029930161166273734,0.004008098429267125,0.9999874884224836,25.305180263112657,0.021353576739579456,60.811164180374085,-21.099628231788223,-162.2680206298828,5356.25390625,True
1599561840.0633802,0.0,10,0.5,0.5,10.912824868011475,-0.15025,-0.001,-0.12575,0.04412825993121254,10,1,100,0.03370038791884832,-10,-1,-100,15008.757267692243,-0.0029930161166273734,0.004008098429267125,0.9999874884224836,25.305180263112657,0.021353576739579456,60.811164180374085,-21.099628231788223,-162.2680206298828,5356.25390625,True
1599561840.1023014,0.0,10,0.5,0.5,11.876631865692136,-0.15025,-0.001,-0.12575,0.03779554077340272,10,1,100,0.017194266469489232,-10,-1,-100,15007.858828667784,-0.0028443407061803138,0.0039504619196137365,0.9999881517180936,24.973172218981766,0.020628561568098107,61.07802189368538,-21.470916804070047,-165.7474365234375,5356.25390625,True
1599561840.140196,0.0,10,0.5,0.5,12.326633033752442,-0.15025,-0.001,-0.12575,0.03511850331159243,10,1,100,0.017117599068517064,-10,-1,-100,15007.020935943932,-0.002709786427177719,0.0038737821973678943,0.9999888253720672,24.62098366897202,0.019932474517358342,61.26690610104741,-21.842212104410876,-168.95126342773438,5356.25390625,True
1599561840.182084,0.0,10,0.5,0.5,12.73552628173828,-0.15025,-0.001,-0.12575,0.032898983564357206,10,1,100,0.017488197424860026,-10,-1,-100,15006.124450206291,-0.002592257914808414,0.003784019424463455,0.9999894806426207,24.26351116326108,0.019296425085222564,61.412898933885494,-22.213512894399575,-171.87942504882812,5356.25390625,True
1599561840.2219822,0.0,10,0.5,0.5,13.439974862670898,-0.15025,-0.001,-0.12575,0.025660751214470624,10,1,100,0.012760726856996543,-10,-1,-100,15004.744564380497,-0.0024436658578896584,0.0036368869559558793,0.9999904007291494,23.745778892219025,0.018501028186566522,61.62354695265901,-22.770470529801752,-175.75460815429688,5356.25390625,True
1599561840.2648664,0.0,10,0.5,0.5,13.274640490722655,-0.15025,-0.001,-0.12575,0.03436631117492246,10,1,100,0.02285710328516169,-10,-1,-100,15004.322689049412,-0.0024017315441234068,0.0035826775419653544,0.9999906980103466,23.58387114428859,0.018284848940211262,61.70717345509238,-22.95612399381193,-176.90847778320312,5356.25390625,True
1599561840.3052676,0.0,10,0.5,0.5,-85.1436809387207,-0.15025,-0.001,-0.12575,0.013965232871280521,10,1,100,0.012345651156586526,-10,-1,-100,15002.458428141894,-0.0022692550562626395,0.0033484038017729764,0.999991819303273,23.02060825744926,0.01768262798083967,62.20153257000972,-23.698736412788453,179.16526794433594,5356.25390625,True
1599561840.3521414,0.0,10,0.5,0.5,-40.400341492462154,-0.15025,-0.001,-0.12575,0.03731662433034104,10,1,100,0.02546739285045219,-10,-1,-100,15002.458428141894,-0.0022692550562626395,0.0033484038017729764,0.999991819303273,23.02060825744926,0.01768262798083967,62.20153257000972,-23.698736412788453,179.16526794433594,5356.25390625,True
1599561840.39004,0.0,10,0.5,0.5,-39.57656606369019,-0.15025,-0.001,-0.12575,0.008491568905993181,10,1,100,0.016681140761261867,-10,-1,-100,15000.47209741897,-0.002190433268938008,0.0030870396269911467,0.9999928360685569,23.703730075981515,0.01831234400745447,66.07553344161607,-24.44131119424705,176.06045532226562,5356.25390625,True
1599561840.4289358,0.0,10,0.5,0.5,-39.50725098724365,-0.15025,-0.001,-0.12575,0.01886652028575172,10,1,100,0.023098209562274496,-10,-1,-100,14999.507252342883,-0.0021779169149962322,0.0029446154161092966,0.999993292936489,24.13917743278934,0.018793384693306547,68.32271934890217,-24.812572416670108,174.27279663085938,5356.25390625,True
1599561840.4668694,0.0,10,0.5,0.5,-39.765703149414065,-0.15025,-0.001,-0.12575,0.033002593072620955,10,1,100,0.02426833503628896,-10,-1,-100,14999.507252342883,-0.0021779169149962322,0.0029446154161092966,0.999993292936489,24.13917743278934,0.018793384693306547,68.32271934890217,-24.812572416670108,174.27279663085938,5356.25390625,True
1599561840.506299,0.0,10,0.5,0.5,-39.23180443572998,-0.15025,-0.001,-0.12575,0.016980413850387115,10,1,100,0.022745735667350005,-10,-1,-100,14998.482837204705,-0.0021648161018255428,0.0027999260441009506,0.9999937369730837,24.604498615068508,0.019370034930813965,70.69341863955779,-25.18381392733344,172.21644592285156,5356.25390625,True
1599561840.5382495,0.0,10,0.5,0.5,-38.88084531173706,-0.15025,-0.001,-0.12575,0.014507112557736495,10,1,100,0.024664554847463247,-10,-1,-100,14997.514086476527,-0.002170967832038995,0.0026469516358651876,0.9999941402556864,25.09503271556566,0.020045738756676364,73.1778779502632,-25.555034270658965,169.885498046875,5356.25390625,True
1599561840.840447,0.0,10,0.5,0.5,-38.48847941131592,-0.15025,-0.001,-0.12575,0.012356392627526233,10,1,100,0.026454368155331646,-10,-1,-100,14996.426194759435,-0.0021933211792092453,0.002489447293159403,0.9999944959820426,25.60969604445063,0.02082360034256749,75.77612209341866,-25.92623141891611,167.2790985107422,5356.25390625,True
1599561840.8753543,0.0,10,0.5,0.5,-38.46193656539917,-0.15025,-0.001,-0.12575,0.019014667494538985,10,1,100,0.025542302888584778,-10,-1,-100,14995.942795388517,-0.002205713571244137,0.002407968182337264,0.9999946682442235,25.902069468850023,0.021272057753691325,77.19634690583277,-26.11182046216839,165.87252807617188,5356.25390625,True
1599561840.9102592,0.0,10,0.5,0.5,-37.839500657653815,-0.15025,-0.001,-0.12575,0.008560237065206026,10,1,100,0.028249635091651643,-10,-1,-100,14994.852950748173,-0.0022418078133825056,0.002239973185662855,0.9999949783963196,26.490957896676722,0.022231350828396685,80.08714412690539,-26.482977786810686,162.85269165039062,5356.25390625,True
1599561841.00401,0.0,10,0.5,0.5,-37.34368800201416,-0.15025,-0.001,-0.12575,0.006132985028609796,10,1,100,0.030071378225898684,-10,-1,-100,14993.824630144401,-0.002291327447211215,0.0020664051741318833,0.9999952398827636,27.074410579110822,0.023253404399158878,83.01204517433548,-26.85410619432787,159.55728149414062,5356.25390625,True
1599561841.0608644,0.0,10,0.5,0.5,-35.70890042114258,-0.15025,-0.001,-0.12575,-0.016608420982183944,10,1,100,0.04029648425717515,-10,-1,-100,14991.643964715535,-0.0024292807397116923,0.0017030414713943669,0.9999955991127332,28.255930244015595,0.025422077500586577,89.05872239047,-27.59627142839308,152.13980102539062,5356.25390625,True
1599561841.094774,0.0,10,0.5,0.5,-35.50127990570068,-0.15025,-0.001,-0.12575,-0.0014485200509803502,10,1,100,0.03610921709341793,-10,-1,-100,14990.490644449601,-0.0025164812807839253,0.001512023897671547,0.9999956905435624,28.807731971408547,0.02645949568496297,92.03392253475911,-27.96730720972657,148.017822265625,5356.25390625,True
1599561841.1236894,0.0,10,0.5,0.5,-35.419448992919925,-0.15025,-0.001,-0.12575,0.006279207054172703,10,1,100,0.0323923396438937,-10,-1,-100,14989.942793725175,-0.0025616682976613296,0.001410055454997029,0.9999957247904346,29.059509545553663,0.026934220380969143,93.46176834115154,-28.152813848746607,145.85345458984375,5356.25390625,True
1599561841.1571083,0.0,10,0.5,0.5,-34.43704368896484,-0.15025,-0.001,-0.12575,-0.006376842629836208,10,1,100,0.039209735957596144,-10,-1,-100,14988.788496810594,-0.002664374869144751,0.0012036969281302157,0.9999957261009979,29.50141476314231,0.02775257145226915,96.14912454191341,-28.5238067439527,141.3181915283203,5356.25390625,True
1599561841.1870284,0.0,10,0.5,0.5,-35.00405755844116,-0.15025,-0.001,-0.12575,0.014084918208047227,10,1,100,0.028987724604668846,-10,-1,-100,14988.788496810594,-0.002664374869144751,0.0012036969281302157,0.9999957261009979,29.50141476314231,0.02775257145226915,96.14912454191341,-28.5238067439527,141.3181915283203,5356.25390625,True
1599561841.2219346,0.0,10,0.5,0.5,-34.34660481796264,-0.15025,-0.001,-0.12575,0.0024571532121543723,10,1,100,0.035315296064914084,-10,-1,-100,14988.242597855628,-0.002721444101722145,0.001099441091000254,0.999995692476367,29.686035268717433,0.028078973102587362,97.38794137692152,-28.709293998267327,138.9473114013672,5356.25390625,True
1599561841.2553558,0.0,10,0.5,0.5,-33.275900640106194,-0.15025,-0.001,-0.12575,-0.011249175156858419,10,1,100,0.04299435981702535,-10,-1,-100,14987.08927766583,-0.002842634459748348,0.0008814668998409589,0.9999955712129093,29.968671262128126,0.028526605011370217,99.60179058086281,-29.08025316466572,133.9989471435547,5356.25390625,True
1599561841.2842782,0.0,10,0.5,0.5,-31.703767784881585,-0.15025,-0.001,-0.12575,-0.02604794249461394,10,1,100,0.05414818219511627,-10,-1,-100,14985.323654176085,-0.0030536156129543236,0.0005502360960741117,0.9999951863243777,30.132002807150233,0.028592744078634012,102.08605890215699,-29.63666654305242,126.06031799316406,5356.25390625,True
1599561841.3211796,0.0,10,0.5,0.5,-32.698069179534905,-0.15025,-0.001,-0.12575,0.006889364673444461,10,1,100,0.03313485707868973,-10,-1,-100,14985.323654176085,-0.0030536156129543236,0.0005502360960741117,0.9999951863243777,30.132002807150233,0.028592744078634012,102.08605890215699,-29.63666654305242,126.06031799316406,5356.25390625,True
1599561841.3555977,0.0,10,0.5,0.5,-29.507031299591063,-0.15025,-0.001,-0.12575,-0.04593598377124591,10,1,100,0.07036928216009553,-10,-1,-100,14982.88908650435,-0.003391372379331129,7.154178029473453e-05,0.9999942467210291,29.740939274108964,0.027466683911082684,103.31883456266303,-30.378545794004864,114.51191711425781,5356.25390625,True
1599561841.38637,0.0,10,0.5,0.5,-30.954738173675537,-0.15025,-0.001,-0.12575,0.0017339614673080998,10,1,100,0.03670361001562696,-10,-1,-100,14982.88908650435,-0.003391372379331129,7.154178029473453e-05,0.9999942467210291,29.740939274108964,0.027466683911082684,103.31883456266303,-30.378545794004864,114.51191711425781,5356.25390625,True
1599561841.4212794,0.0,10,0.5,0.5,-30.106698224639892,-0.15025,-0.001,-0.12575,-0.011339536784284503,10,1,100,0.04720947331605851,-10,-1,-100,14982.280688100494,-0.00348600559875358,-4.582502227328947e-05,0.9999939228140503,29.515888864799457,0.02699090492751306,103.1722344250086,-30.56402198826519,111.45294189453125,5356.25390625,True
