Timestamp,Input Throttle,horizon,dT,dt,Input Roll,Roll P,Roll I,Roll D,Input Pitch,Pitch P,Pitch I,Pitch D,Input Yaw,Yaw P,Yaw I,Yaw D,Altitude,Direction X,Direction Y,Direction Z,Drag X,Drag Y,Drag Z,Vertical Velocity,Roll,Mass,Has Fuel
1599558796.4315577,0.0,10,0.5,0.5,-0.05827684020996094,-0.001,-0.0155,-0.12575,-0.0005479374622941526,10,1,100,0.17115076586635092,-10,-1,-100,14993.930454062298,-0.01677518781781544,-7.699007271498549e-05,0.9998592836725605,28.64907323032465,0.02703439697020001,-87.51375996128566,27.009297956136695,-31.792236328125,5356.25390625,True
1599558796.4647946,0.0,10,0.5,0.5,-0.14858065338134765,-0.001,-0.0155,-0.12575,-0.0002827457108981377,10,1,100,0.17712675703966718,-10,-1,-100,14995.01151189988,-0.01684516381854027,-7.249139977386535e-05,0.9998581075337257,28.50389783406593,0.027363298525699617,-85.87445878097991,26.6373668928771,-31.791046142578125,5356.25390625,True
1599558796.4987304,0.0,10,0.5,0.5,-0.23865486602783204,-0.001,-0.0155,-0.12575,-0.0007398621449875385,10,1,100,0.17181367334903827,-10,-1,-100,14995.01151189988,-0.01684516381854027,-7.249139977386535e-05,0.9998581075337257,28.50389783406593,0.027363298525699617,-85.87445878097991,26.6373668928771,-31.791046142578125,5356.25390625,True
1599558796.5293303,0.0,10,0.5,0.5,-0.3277299179077149,-0.001,-0.0155,-0.12575,0.007312331574513242,10,1,100,0.18150718367555824,-10,-1,-100,14996.565227326588,-0.01691797285440087,7.7626258502708e-07,0.9998568808554028,28.287126105399476,0.027845958682753538,-83.44127071220612,26.079499493122757,-31.80010986328125,5356.25390625,True
1599558796.562419,0.0,10,0.5,0.5,-0.4190795104980469,-0.001,-0.0155,-0.12575,-1.435703511749811e-05,10,1,100,0.1759180773749384,-10,-1,-100,14996.565227326588,-0.01691797285440087,7.7626258502708e-07,0.9998568808554028,28.287126105399476,0.027845958682753538,-83.44127071220612,26.079499493122757,-31.80010986328125,5356.25390625,True
1599558796.5979362,0.0,10,0.5,0.5,-0.4950817977905273,-0.001,-0.0155,-0.12575,0.016004934394991663,10,1,100,0.18142974400426104,-10,-1,-100,14998.130658532376,-0.016952698939345257,0.0001464054789836694,0.9998562819546155,28.079268408831563,0.028321049153420996,-81.06108943569289,25.521667152653507,-31.912200927734375,5356.25390625,True
1599558796.6295838,0.0,10,0.5,0.5,-0.5766081436157227,-0.001,-0.0155,-0.12575,0.018985615086009107,10,1,100,0.17835558060676093,-10,-1,-100,14999.142376972362,-0.01694090962300893,0.00030575967701079043,0.99985644574217,27.950111467028734,0.028635289370332894,-79.51560514025304,25.149797691082846,-32.090545654296875,5356.25390625,True
1599558796.6635492,0.0,10,0.5,0.5,-0.688794647216797,-0.001,-0.0155,-0.12575,0.003080771250998084,10,1,100,0.1812286032026945,-10,-1,-100,14999.142376972362,-0.01694090962300893,0.00030575967701079043,0.99985644574217,27.950111467028734,0.028635289370332894,-79.51560514025304,25.149797691082846,-32.090545654296875,5356.25390625,True
1599558796.6960447,0.0,10,0.5,0.5,-0.7151986419677734,-0.001,-0.0155,-0.12575,0.03982737516401043,10,1,100,0.17366114577054984,-10,-1,-100,15000.624795564334,-0.01685671372851397,0.0006395417492408928,0.9998577109712292,27.774784698239134,0.029101370358059767,-77.2688717356198,24.592020505055448,-32.59039306640625,5356.25390625,True
1599558796.7315786,0.0,10,0.5,0.5,-0.8670393447875977,-0.001,-0.0155,-0.12575,0.006513122115924277,10,1,100,0.18376640659289717,-10,-1,-100,15000.624795564334,-0.01685671372851397,0.0006395417492408928,0.9998577109712292,27.774784698239134,0.029101370358059767,-77.2688717356198,24.592020505055448,-32.59039306640625,5356.25390625,True
1599558796.7626057,0.0,10,0.5,0.5,-0.8895431488037109,-0.001,-0.0155,-0.12575,0.03834127096828566,10,1,100,0.17487002303569724,-10,-1,-100,15001.580846559373,-0.016760513229149867,0.0009283071553994137,0.9998591017949083,27.672139710458637,0.029405957201869063,-75.82228615212459,24.22018641060838,-33.114898681640625,5356.25390625,True
1599558796.7966363,0.0,10,0.5,0.5,-0.8083454544067382,-0.001,-0.0155,-0.12575,0.06657651098784986,10,1,100,0.16017734138701956,-10,-1,-100,15002.992947917082,-0.016539501737093308,0.0014465912546049123,0.9998621666289964,27.54052235394031,0.029844131347504233,-73.7283106834442,23.662459853417182,-34.25970458984375,5356.25390625,True
1599558796.8295097,0.0,10,0.5,0.5,-0.9484783767700194,-0.001,-0.0155,-0.12575,0.014900009332737878,10,1,100,0.18224792438453072,-10,-1,-100,15002.992947917082,-0.016539501737093308,0.0014465912546049123,0.9998621666289964,27.54052235394031,0.029844131347504233,-73.7283106834442,23.662459853417182,-34.25970458984375,5356.25390625,True
1599558796.8658195,0.0,10,0.5,0.5,-0.6507805648803711,-0.001,-0.0155,-0.12575,0.10763239174245806,10,1,100,0.133649917144918,-10,-1,-100,15004.87769914465,-0.016097979545898145,0.0022882319286438423,0.9998678007862744,27.401957919014837,0.030356802142020484,-71.05767803962777,22.918867050254313,-36.578216552734375,5356.25390625,True
1599558796.896881,0.0,10,0.5,0.5,-0.9349273788452148,-0.001,-0.0155,-0.12575,0.02369706990517094,10,1,100,0.1777201369335841,-10,-1,-100,15004.87769914465,-0.016097979545898145,0.0022882319286438423,0.9998678007862744,27.401957919014837,0.030356802142020484,-71.05767803962777,22.918867050254313,-36.578216552734375,5356.25390625,True
1599558796.9305766,0.0,10,0.5,0.5,-0.6312014129638672,-0.001,-0.0155,-0.12575,0.10388243164784577,10,1,100,0.12796260969958154,-10,-1,-100,15006.23413092224,-0.01564638383768767,0.0030151102575171965,0.9998730418322812,27.309965244550114,0.030637089445096986,-69.09999112744103,22.361202962090672,-38.916046142578125,5356.25390625,True
1599558796.9635382,0.0,10,0.5,0.5,-0.9143275238037111,-0.001,-0.0155,-0.12575,0.031481469238363716,10,1,100,0.17299154901046332,-10,-1,-100,15006.23413092224,-0.01564638383768767,0.0030151102575171965,0.9998730418322812,27.309965244550114,0.030637089445096986,-69.09999112744103,22.361202962090672,-38.916046142578125,5356.25390625,True
1599558796.996572,0.0,10,0.5,0.5,-0.5419101684570313,-0.001,-0.0155,-0.12575,0.12010926304027467,10,1,100,0.11133606123538797,-10,-1,-100,15007.5759120289,-0.015087056244991822,0.0038183544279159266,0.9998788931182232,27.206916835708824,0.030771667789419446,-67.12647466004718,21.80356534981688,-41.770782470703125,5356.25390625,True
1599558797.0306659,0.0,10,0.5,0.5,-0.7524470764160156,-0.001,-0.0155,-0.12575,0.0698549939910702,10,1,100,0.14340369340189746,-10,-1,-100,15007.977273759083,-0.014871785865307517,0.004088526141693909,0.9998810498950188,27.166208299066984,0.030774472686900325,-66.45593760873848,21.617692237977106,-42.823577880859375,5356.25390625,True
1599558797.063654,0.0,10,0.5,0.5,-0.7284348754882813,-0.001,-0.0155,-0.12575,0.07569467275638271,10,1,100,0.1402221901532327,-10,-1,-100,15008.378635345958,-0.014648967243209566,0.004384089339001776,0.9998830869253541,27.120707972160137,0.03075283707997264,-65.77547730600108,21.431822403029646,-43.932373046875,5356.25390625,True
1599558797.0965757,0.0,10,0.5,0.5,-0.5479935470581055,-0.001,-0.0155,-0.12575,0.10993103581762075,10,1,100,0.10811353601192802,-10,-1,-100,15009.2497178216,-0.014156515045913481,0.004960618684756764,0.9998874863423481,27.010993150361205,0.030627616046783164,-64.37566108684257,21.060092980192827,-46.31732177734375,5356.25390625,True
1599558797.1326325,0.0,10,0.5,0.5,-0.32702060546875,-0.001,-0.0155,-0.12575,0.15197917023241223,10,1,100,0.0650562660966515,-10,-1,-100,15010.523137719021,-0.013319768774762923,0.0058633263014599875,0.9998940969745093,26.785704292299144,0.030210366410243442,-62.1522950461229,20.502527336490363,-50.265380859375,5356.25390625,True
1599558797.163551,0.0,10,0.5,0.5,-0.6190919494628907,-0.001,-0.0155,-0.12575,0.09564300245394947,10,1,100,0.11466597869211398,-10,-1,-100,15010.924499175628,-0.013013014763641466,0.0061678073958888425,0.9998963044229578,26.68995941148875,0.030004178246574992,-61.370001322445965,20.316680570636084,-51.6822509765625,5356.25390625,True
1599558797.1968584,0.0,10,0.5,0.5,-0.3963172958374023,-0.001,-0.0155,-0.12575,0.12943276052729152,10,1,100,0.07345249906942272,-10,-1,-100,15011.725268694805,-0.01236268538148245,0.006747495994998835,0.9999008127349212,26.461430640775134,0.029486446732242343,-59.733878507067516,19.945001408188308,-54.632476806640625,5356.25390625,True
1599558797.229894,0.0,10,0.5,0.5,-0.35044435272216795,-0.001,-0.0155,-0.12575,0.13591412361252886,10,1,100,0.06075018604570774,-10,-1,-100,15012.472327903844,-0.011659397001271768,0.007329353236722481,0.9999051650245128,26.18075782242401,0.028831960544065866,-58.00146424892502,19.573343280228197,-57.7005615234375,5356.25390625,True
1599558797.265881,0.0,10,0.5,0.5,-0.703516371154785,-0.001,-0.0155,-0.12575,0.07823251157097211,10,1,100,0.13063516581231333,-10,-1,-100,15012.472327903844,-0.011659397001271768,0.007329353236722481,0.9999051650245128,26.18075782242401,0.028831960544065866,-58.00146424892502,19.573343280228197,-57.7005615234375,5356.25390625,True
1599558797.2969701,0.0,10,0.5,0.5,-0.06193267517089851,-0.001,-0.0155,-0.12575,0.1677915742495949,10,1,100,0.004838237335977727,-10,-1,-100,15013.675436022808,-0.010519413094065459,0.008139604494728865,0.9999115404808696,25.646911864311633,0.02760603626991954,-55.204273741980934,19.015901490471858,-62.53265380859375,5356.25390625,True
1599558797.3307467,0.0,10,0.5,0.5,-0.206581541442871,-0.001,-0.0155,-0.12575,0.14429709590430773,10,1,100,0.027715046052726663,-10,-1,-100,15014.40687053313,-0.009695695958342552,0.008657951749561866,0.9999155131066751,25.209726231248993,0.02664808601303387,-53.205373194409056,18.64430749507001,-65.8966064453125,5356.25390625,True
1599558797.363811,0.0,10,0.5,0.5,-0.5922035583496094,-0.001,-0.0155,-0.12575,0.09294633015317225,10,1,100,0.10954762359635241,-10,-1,-100,15014.40687053313,-0.009695695958342552,0.008657951749561866,0.9999155131066751,25.209726231248993,0.02664808601303387,-53.205373194409056,18.64430749507001,-65.8966064453125,5356.25390625,True
1599558797.3962934,0.0,10,0.5,0.5,-0.11112113494873044,-0.001,-0.0155,-0.12575,0.14505273212075187,10,1,100,0.01476838300361083,-10,-1,-100,15015.139282946358,-0.008838772034687596,0.00912749228962362,0.9999192792387902,24.695491458790332,0.025594605189678685,-51.083884914967456,18.272743541770996,-69.40997314453125,5356.25390625,True
1599558797.4302697,0.0,10,0.5,0.5,-0.059309817504882734,-0.001,-0.0155,-0.12575,0.14584803096089574,10,1,100,0.0021976398497367267,-10,-1,-100,15015.870719195576,-0.007950752798337438,0.009557265130998683,0.9999227191204104,24.106206375788126,0.024478724418655794,-48.85355327218401,17.901211425641396,-72.99282836914062,5356.25390625,True
1599558797.4641864,0.0,10,0.5,0.5,-0.23661018218994143,-0.001,-0.0155,-0.12575,0.12698102261270222,10,1,100,0.038577604385232056,-10,-1,-100,15016.201769904,-0.007479831135839593,0.009772270686859489,0.9999242745587299,23.80185250614143,0.023926158249122347,-47.73748665483015,17.715457477140834,-74.8223876953125,5356.25390625,True
1599558797.497377,0.0,10,0.5,0.5,0.2873719635009766,-0.001,-0.0155,-0.12575,0.1649478051152426,10,1,100,-0.07069806772064724,-10,-1,-100,15017.266211882234,-0.006063614366823489,0.010309329265496589,0.9999284725973683,22.774404531386967,0.02226152293134879,-44.243786492652106,17.158245072386002,-80.47119140625,5356.25390625,True
1599558797.5333428,0.0,10,0.5,0.5,-0.37834224548339845,-0.001,-0.0155,-0.12575,0.11165609943849336,10,1,100,0.07022866914128136,-10,-1,-100,15017.266211882234,-0.006063614366823489,0.010309329265496589,0.9999284725973683,22.774404531386967,0.02226152293134879,-44.243786492652106,17.158245072386002,-80.47119140625,5356.25390625,True
1599558797.5643525,0.0,10,0.5,0.5,0.14568094482421884,-0.001,-0.0155,-0.12575,0.14521503586054707,10,1,100,-0.03748476448714504,-10,-1,-100,15017.92831523891,-0.005090127762032939,0.01061117247545117,0.9999307444108629,21.98792844092895,0.021179458040201236,-41.79359388652162,16.786810893594115,-84.28952026367188,5356.25390625,True
1599558797.5972764,0.0,10,0.5,0.5,0.43011775932312013,-0.001,-0.0155,-0.12575,0.1527444000528232,10,1,100,-0.10023655151488736,-10,-1,-100,15018.91951915063,-0.0036406412112795442,0.010951040686940819,0.9999334080024747,20.672943333637633,0.019675009636275064,-37.99339411427823,16.22971522991819,-89.99665069580078,5356.25390625,True
1599558797.631333,0.0,10,0.5,0.5,-0.23749495429992676,-0.001,-0.0155,-0.12575,0.11911974764888014,10,1,100,0.0439102279814529,-10,-1,-100,15018.91951915063,-0.0036406412112795442,0.010951040686940819,0.9999334080024747,20.672943333637633,0.019675009636275064,-37.99339411427823,16.22971522991819,-89.99665069580078,5356.25390625,True
1599558797.6672034,0.0,10,0.5,0.5,0.7738570835113525,-0.001,-0.0155,-0.12575,0.14833609907713544,10,1,100,-0.1655534712205612,-10,-1,-100,15020.177326048375,-0.0017426791929728578,0.01121408803065931,0.999935601575857,21.659031331568464,0.020747482336005388,-37.988329337463206,15.48695823993568,-97.63990783691406,5356.25390625,True
1599558797.6974103,0.0,10,0.5,0.5,-0.13808038482666013,-0.001,-0.0155,-0.12575,0.12228697833339601,10,1,100,0.02344742893357048,-10,-1,-100,15020.177326048375,-0.0017426791929728578,0.01121408803065931,0.999935601575857,21.659031331568464,0.020747482336005388,-37.988329337463206,15.48695823993568,-97.63990783691406,5356.25390625,True
1599558797.7309177,0.0,10,0.5,0.5,0.6267478691101074,-0.001,-0.0155,-0.12575,0.12971655189985176,10,1,100,-0.13120762927141702,-10,-1,-100,15021.044511601329,-0.00034395413362330724,0.011279305848280638,0.9999363274504707,22.467784066467335,0.021896540282343408,-37.99253137392105,14.929884245315945,-103.28587341308594,5356.25390625,True
1599558797.7634509,0.0,10,0.5,0.5,-0.030724656677246096,-0.001,-0.0155,-0.12575,0.12340995149358472,10,1,100,0.007815394873431577,-10,-1,-100,15021.044511601329,-0.00034395413362330724,0.011279305848280638,0.9999363274504707,22.467784066467335,0.021896540282343408,-37.99253137392105,14.929884245315945,-103.28587341308594,5356.25390625,True
1599558797.8004365,0.0,10,0.5,0.5,0.47707148971557617,-0.001,-0.0155,-0.12575,0.12164549479538397,10,1,100,-0.09056535269393376,-10,-1,-100,15021.637284642668,0.0005435010272939102,0.011261699841281284,0.9999364373415535,22.918082032551645,0.0226636202712441,-37.791984162317824,14.558495325251922,-106.92170715332031,5356.25390625,True
1599558797.8313553,0.0,10,0.5,0.5,0.29544886703491213,-0.001,-0.0155,-0.12575,0.12129638594081713,10,1,100,-0.04818158776690301,-10,-1,-100,15021.953691160656,0.0009576775540973434,0.011241166637009062,0.9999363574879861,23.112483595100123,0.023032190335937053,-37.627404596712815,14.372798977135165,-108.70339965820312,5356.25390625,True
1599558797.8642654,0.0,10,0.5,0.5,0.9838024806976319,-0.001,-0.0155,-0.12575,0.10261932298180827,10,1,100,-0.18184375313226522,-10,-1,-100,15023.065997421392,0.0025429292709483746,0.01105186148134195,0.9999356928665564,23.77737668925414,0.02441779252412165,-36.71296285200935,13.63000289995862,-115.55658721923828,5356.25390625,True
1599558797.8985293,0.0,10,0.5,0.5,0.17639650840759277,-0.001,-0.0155,-0.12575,0.121624091770104,10,1,100,-0.02417923581093927,-10,-1,-100,15023.065997421392,0.0025429292709483746,0.01105186148134195,0.9999356928665564,23.77737668925414,0.02441779252412165,-36.71296285200935,13.63000289995862,-115.55658721923828,5356.25390625,True
1599558797.9337046,0.0,10,0.5,0.5,0.8370138759613037,-0.001,-0.0155,-0.12575,0.09803522947678117,10,1,100,-0.14098599471522621,-10,-1,-100,15023.849202781566,0.0035978697545937274,0.010837016652306387,0.9999348050764642,24.12919871394546,0.025252222912625345,-35.735895615945985,13.072898879876417,-120.38619995117188,5356.25390625,True
1599558797.9645288,0.0,10,0.5,0.5,0.2767938762664795,-0.001,-0.0155,-0.12575,0.119508309976874,10,1,100,-0.03621579744727826,-10,-1,-100,15023.849202781566,0.0035978697545937274,0.010837016652306387,0.9999348050764642,24.12919871394546,0.025252222912625345,-35.735895615945985,13.072898879876417,-120.38619995117188,5356.25390625,True
1599558797.9978755,0.0,10,0.5,0.5,0.8997383071899414,-0.001,-0.0155,-0.12575,0.08813201815542429,10,1,100,-0.14330369080410904,-10,-1,-100,15024.634361375938,0.004564815593323213,0.010551881293961058,0.9999339079457987,24.326484396819314,0.0258184097094184,-34.49502710847533,12.515796167933784,-124.9293212890625,5356.25390625,True
1599558798.031256,0.0,10,0.5,0.5,0.7289334663391113,-0.001,-0.0155,-0.12575,0.09349058540264085,10,1,100,-0.11063420780661565,-10,-1,-100,15025.087487794459,0.005141127878748901,0.01034198358565518,0.9999333038656372,24.38423107632045,0.026042315813757124,-33.5522951228871,12.144398580813311,-127.75531005859375,5356.25390625,True
1599558798.0671597,0.0,10,0.5,0.5,0.7544116065979004,-0.001,-0.0155,-0.12575,0.09253694730843358,10,1,100,-0.10966505399911149,-10,-1,-100,15025.595302226604,0.005649979642638831,0.010143290872197955,0.9999325934183363,24.388633299678656,0.02614364231899888,-32.53344617419404,11.773006840648254,-130.39173889160156,5356.25390625,True
1599558798.0980825,0.0,10,0.5,0.5,0.4648947723388672,-0.001,-0.0155,-0.12575,0.11229261715654773,10,1,100,-0.05937927098774462,-10,-1,-100,15025.595302226604,0.005649979642638831,0.010143290872197955,0.9999325934183363,24.388633299678656,0.02614364231899888,-32.53344617419404,11.773006840648254,-130.39173889160156,5356.25390625,True
1599558798.1320858,0.0,10,0.5,0.5,0.8139008605957031,-0.001,-0.0155,-0.12575,0.08830334609373583,10,1,100,-0.11123529303195838,-10,-1,-100,15026.048428782029,0.006115948994153264,0.009926239330696104,0.9999320301603757,24.34718116773126,0.026131897338509968,-31.454895516931334,11.401622502530563,-132.8137664794922,5356.25390625,True
1599558798.165424,0.0,10,0.5,0.5,0.9622733406066895,-0.001,-0.0155,-0.12575,0.07363055679713601,10,1,100,-0.1309274512308618,-10,-1,-100,15026.691008534981,0.006713511253731997,0.009596744808916773,0.9999314132757899,24.22434868285885,0.02594132016115409,-29.76891480042288,10.844562659460431,-136.07064819335938,5356.25390625,True
1599558798.2000313,0.0,10,0.5,0.5,0.5951397003173827,-0.001,-0.0155,-0.12575,0.1064155667922599,10,1,100,-0.0717468086429519,-10,-1,-100,15026.691008534981,0.006713511253731997,0.009596744808916773,0.9999314132757899,24.22434868285885,0.02594132016115409,-29.76891480042288,10.844562659460431,-136.07064819335938,5356.25390625,True
1599558798.231945,0.0,10,0.5,0.5,0.9827516880035401,-0.001,-0.0155,-0.12575,0.07268755127662058,10,1,100,-0.12444942458875022,-10,-1,-100,15027.335540643777,0.007188834505982179,0.009291449319385893,0.9999309924329733,24.100186808467335,0.025641046789217338,-28.096708735286814,10.287524298758276,-138.87786865234375,5356.25390625,True
1599558798.2651172,0.0,10,0.5,0.5,0.6658917015075684,-0.001,-0.0155,-0.12575,0.10304105901351297,10,1,100,-0.07738168988723546,-10,-1,-100,15027.335540643777,0.007188834505982179,0.009291449319385893,0.9999309924329733,24.100186808467335,0.025641046789217338,-28.096708735286814,10.287524298758276,-138.87786865234375,5356.25390625,True
1599558798.298138,0.0,10,0.5,0.5,0.8988727920532227,-0.001,-0.0155,-0.12575,0.07847338470676984,10,1,100,-0.10632586582496795,-10,-1,-100,15027.719329578802,0.00744869886473303,0.009069511886899974,0.999931128048005,23.992176824513024,0.0253673346811664,-26.962156762153363,9.916177463601818,-140.48985290527344,5356.25390625,True
1599558798.3335452,0.0,10,0.5,0.5,0.9801475822448731,-0.001,-0.0155,-0.12575,0.06840287339549317,10,1,100,-0.11287487738640631,-10,-1,-100,15028.29354756698,0.007740974905874026,0.008777807304324266,0.9999315113578702,23.806791733203646,0.024882747277094018,-25.252435300528905,9.359174496964098,-142.4844970703125,5356.25390625,True
1599558798.3654597,0.0,10,0.5,0.5,0.8881786193847656,-0.001,-0.0155,-0.12575,0.07724784204244985,10,1,100,-0.09902985408664405,-10,-1,-100,15028.661710048676,0.007877929132083865,0.008594642920581989,0.9999320328630629,23.675671129118562,0.024531116159939834,-24.117849523996632,8.987849528839593,-143.52313232421875,5356.25390625,True
1599558798.39848,0.0,10,0.5,0.5,0.7820103607177735,-0.001,-0.0155,-0.12575,0.09538954635017023,10,1,100,-0.08560811159099367,-10,-1,-100,15028.661710048676,0.007877929132083865,0.008594642920581989,0.9999320328630629,23.675671129118562,0.024531116159939834,-24.117849523996632,8.987849528839593,-143.52313232421875,5356.25390625,True
1599558798.431499,0.0,10,0.5,0.5,0.901464820098877,-0.001,-0.0155,-0.12575,0.07677516040296972,10,1,100,-0.09589253270007064,-10,-1,-100,15029.044520479394,0.007969398460812342,0.00842682909192709,0.9999327363576153,23.54461709009203,0.02417177172759438,-22.994280379921687,8.616531653825504,-144.30499267578125,5356.25390625,True
1599558798.4674346,0.0,10,0.5,0.5,0.8620231460571288,-0.001,-0.0155,-0.12575,0.08428453702299554,10,1,100,-0.09012885302815979,-10,-1,-100,15029.165613156394,0.00799804674553161,0.00834409854585948,0.9999332014028304,23.480544090970874,0.023992850908677917,-22.43798933735143,8.430874967192217,-144.599365234375,5356.25390625,True
1599558798.4992535,0.0,10,0.5,0.5,0.9193435890197754,-0.001,-0.0155,-0.12575,0.05904690217083991,10,1,100,-0.0875258128239978,-10,-1,-100,15029.845294149825,0.007998715640919129,0.008040894224219181,0.999935680215568,23.2382109130872,0.023301733446214105,-20.251739837162233,7.688259688054521,-145.19952392578125,5356.25390625,True
1599558798.5312765,0.0,10,0.5,0.5,0.8580833465576171,-0.001,-0.0155,-0.12575,0.081547368359853,10,1,100,-0.08454042687614463,-10,-1,-100,15029.968339157524,0.007971015487757128,0.007971218034068753,0.999936459278862,23.18224396962514,0.023138898796882242,-19.71542404378801,7.502608003989906,-145.1999969482422,5356.25390625,True
1599558798.5652888,0.0,10,0.5,0.5,0.8721743545532227,-0.001,-0.0155,-0.12575,0.08835243469741097,10,1,100,-0.0874361926157472,-10,-1,-100,15029.968339157524,0.007971015487757128,0.007971218034068753,0.999936459278862,23.18224396962514,0.023138898796882242,-19.71542404378801,7.502608003989906,-145.1999969482422,5356.25390625,True
1599558798.6015499,0.0,10,0.5,0.5,0.8590996261596681,-0.001,-0.0155,-0.12575,0.07405218199952023,10,1,100,-0.07836082243547755,-10,-1,-100,15030.266185995773,0.007887801048862154,0.00784241594707458,0.9999381376398876,23.076299025409117,0.022829035596826246,-18.654637135371722,7.131306255183077,-145.01953125,5356.25390625,True
1599558798.63255,0.0,10,0.5,0.5,0.8683130241394044,-0.001,-0.0155,-0.12575,0.07990659814000847,10,1,100,-0.08025215136778693,-10,-1,-100,15030.388254057267,0.007828710034212372,0.007779862408695508,0.9999390906650774,23.026323978691828,0.022682857975128236,-18.129916713943217,6.945655865894773,-144.83807373046875,5356.25390625,True
1599558798.6654692,0.0,10,0.5,0.5,0.8291580673217774,-0.001,-0.0155,-0.12575,0.0730121366008081,10,1,100,-0.06964678953579984,-10,-1,-100,15030.63043629611,0.0076782330849949785,0.007661491041156534,0.9999411714154582,22.931406634942427,0.0224090036904253,-17.090475306566763,6.574355385437448,-144.29595947265625,5356.25390625,True
1599558798.6985676,0.0,10,0.5,0.5,0.8012157691955566,-0.001,-0.0155,-0.12575,0.0726905694063443,10,1,100,-0.06428470075899971,-10,-1,-100,15030.929258157965,0.007492746634845419,0.007551972201865221,0.9999434116307425,22.841166761525958,0.022160087234929782,-16.062233346888508,6.2030545723086465,-143.51551818847656,5356.25390625,True
1599558798.7335672,0.0,10,0.5,0.5,0.8385591537475585,-0.001,-0.0155,-0.12575,0.07770962243067757,10,1,100,-0.07071212361717598,-10,-1,-100,15031.050348708173,0.0073829038720540025,0.007498985257929527,0.9999446274421986,22.79687688694212,0.02204479561844784,-15.551498075551072,6.017403724525078,-143.03594970703125,5356.25390625,True
1599558798.7656364,0.0,10,0.5,0.5,0.5811689994812012,-0.001,-0.0155,-0.12575,0.060594641082107714,10,1,100,-0.023508750288356202,-10,-1,-100,15031.467327223509,0.006854375262218017,0.007296220621785218,0.9999498900967002,22.612762834215452,0.021637157660034344,-13.52285308056539,5.274795049167418,-140.53543090820312,5356.25390625,True
1599558798.7986712,0.0,10,0.5,0.5,0.7925958015441894,-0.001,-0.0155,-0.12575,0.07530987288759537,10,1,100,-0.058978609539531435,-10,-1,-100,15031.574745342601,0.006697361631194708,0.00724669179485859,0.999951314217453,22.561523168251018,0.021545669733969625,-13.017483364825393,5.089140987027284,-139.768798828125,5356.25390625,True
1599558798.8316414,0.0,10,0.5,0.5,0.7770581535339355,-0.001,-0.0155,-0.12575,0.07476391314852537,10,1,100,-0.056343001682960026,-10,-1,-100,15031.69485865417,0.006531844336217721,0.0071976999607073835,0.999952762946752,22.506538168473345,0.021456686284124286,-12.512170408006176,4.903485828425945,-138.9447021484375,5356.25390625,True
1599558798.8676538,0.0,10,0.5,0.5,0.6436455818176271,-0.001,-0.0155,-0.12575,0.06794806591274707,10,1,100,-0.03458792356979436,-10,-1,-100,15031.86965556792,0.0061849341500323195,0.007091966222302404,0.999955724322163,22.382137568562477,0.021282376188449668,-11.501020507869832,4.5321719760790575,-137.15103149414062,5356.25390625,True
1599558798.9324677,0.0,10,0.5,0.5,0.4650512619018555,-0.001,-0.0155,-0.12575,0.06067286538239902,10,1,100,-0.003986374610099208,-10,-1,-100,15032.133315245854,0.005592989064173566,0.006930505775123591,0.9999603424951558,22.145091847490256,0.02101240425971847,-9.98106630543077,3.975189299413535,-134.0609130859375,5356.25390625,True
1599558798.9654856,0.0,10,0.5,0.5,0.38862547607421877,-0.001,-0.0155,-0.12575,0.05640693711816761,10,1,100,0.008456884833611074,-10,-1,-100,15032.357912509935,0.004943898469744227,0.006745888486430699,0.999965024816593,21.82421420853758,0.02070198168362793,-8.458401178672807,3.41818747810356,-130.52842712402344,5356.25390625,True
1599558798.9984245,0.0,10,0.5,0.5,0.6506913452148436,-0.001,-0.0155,-0.12575,0.06708823320842783,10,1,100,-0.03143907768503606,-10,-1,-100,15032.40868953499,0.004719182954595364,0.006676154122494657,0.9999665785806912,21.69420751658805,0.02058289273551398,-7.95136909560515,3.2325147955853772,-129.2686004638672,5356.25390625,True
1599558799.0326703,0.0,10,0.5,0.5,0.4532204696655273,-0.001,-0.0155,-0.12575,0.05755078117121942,10,1,100,-0.0024607874422833687,-10,-1,-100,15032.50047827512,0.0042542839632346615,0.00652705850792927,0.9999696488270002,21.405291946528056,0.020323483430145246,-6.944295806637822,2.861159924260086,-126.65115356445312,5356.25390625,True
1599558799.0656517,0.0,10,0.5,0.5,0.7550149681091308,-0.001,-0.0155,-0.12575,0.07234689937443536,10,1,100,-0.04860829166617762,-10,-1,-100,15032.50047827512,0.0042542839632346615,0.00652705850792927,0.9999696488270002,21.405291946528056,0.020323483430145246,-6.944295806637822,2.861159924260086,-126.65115356445312,5356.25390625,True
1599558799.0996015,0.0,10,0.5,0.5,0.3814663646697998,-0.001,-0.0155,-0.12575,0.05420480209000833,10,1,100,0.0053499492577806645,-10,-1,-100,15032.603009393555,0.003766698557263778,0.0063630620905198755,0.9999726613377043,21.0679537059927,0.020022991539110264,-5.947809714106807,2.4897907923837637,-123.9102554321289,5356.25390625,True
1599558799.1336765,0.0,10,0.5,0.5,0.3315871444702148,-0.001,-0.0155,-0.12575,0.05015304798856987,10,1,100,0.011241806360769109,-10,-1,-100,15032.692845672253,0.0032731642193674342,0.0061781729675595394,0.9999755579886821,20.669968133335264,0.019664711014741758,-4.965092410630269,2.1184054697559356,-121.03134155273438,5356.25390625,True
1599558799.1656194,0.0,10,0.5,0.5,0.4732929073333741,-0.001,-0.0155,-0.12575,0.05784177867517704,10,1,100,-0.008876615161010591,-10,-1,-100,15032.74264638871,0.003010647026971347,0.006081005905341322,0.9999769784208324,20.446827169125488,0.019460935098101186,-4.4809837507643335,1.932706108879969,-119.53164672851562,5356.25390625,True
1599558799.1996858,0.0,10,0.5,0.5,0.2335111255645752,-0.001,-0.0155,-0.12575,0.04409796784290884,10,1,100,0.022645971067774655,-10,-1,-100,15032.831506542512,0.0024887776268988776,0.005868788192021884,0.9999796814491189,19.947583604947198,0.018997673510955358,-3.53152803406989,1.5612934760788066,-116.39949035644531,5356.25390625,True
1599558799.232697,0.0,10,0.5,0.5,0.1807892528533936,-0.001,-0.0155,-0.12575,0.039707058290640626,10,1,100,0.02868495461246705,-10,-1,-100,15032.865679698763,0.0019631265643442644,0.005637153740136944,0.9999821841571992,19.382545099671052,0.018463689704418387,-2.615179342030165,1.1898626227376825,-113.15179443359375,5356.25390625,True
1599558799.268737,0.0,10,0.5,0.5,-0.08909572563171386,-0.001,-0.0155,-0.12575,0.020342750777017228,10,1,100,0.06496077484695853,-10,-1,-100,15032.92231126246,0.0011593197849680463,0.005251860363283299,0.9999855368655893,18.4340023395808,0.0175328332594526,-1.3225401804450667,0.6326834203963161,-108.09393310546875,5356.25390625,True
1599558799.2989554,0.0,10,0.5,0.5,0.5066815174102783,-0.001,-0.0155,-0.12575,0.05870422392119767,10,1,100,-0.014976536162742728,-10,-1,-100,15032.92231126246,0.0011593197849680463,0.005251860363283299,0.9999855368655893,18.4340023395808,0.0175328332594526,-1.3225401804450667,0.6326834203963161,-108.09393310546875,5356.25390625,True
1599558799.332542,0.0,10,0.5,0.5,0.034232194137573224,-0.001,-0.0155,-0.12575,0.027574046020137757,10,1,100,0.04380213125334278,-10,-1,-100,15032.9398844674,0.0006284087890807018,0.004970216953385616,0.9999874509441756,17.787714440829873,0.016874445177424285,-0.5268958804771461,0.26121364227092636,-104.640869140625,5356.25390625,True
1599558799.3656476,0.0,10,0.5,0.5,0.21039775352478027,-0.001,-0.0155,-0.12575,0.03952255949473509,10,1,100,0.019171399619266012,-10,-1,-100,15032.936952671967,0.0003733970569160999,0.004824351191583251,0.9999882930365825,17.455170584093537,0.016533866188773744,-0.14939728232677202,0.07547562901722138,-102.90608215332031,5356.25390625,True
1599558799.4007082,0.0,10,0.5,0.5,-0.2728867099761963,-0.001,-0.0155,-0.12575,0.002204332496739639,10,1,100,0.07908541765749329,-10,-1,-100,15032.923275019159,-0.00039957660275713295,0.004354037260250548,0.9999904413033532,16.638190364473914,0.01570049788461965,0.9089494167596714,-0.4817395107443685,-97.66246032714844,5356.25390625,True
1599558799.432588,0.0,10,0.5,0.5,-0.10738705177307123,-0.001,-0.0155,-0.12575,0.012286584440881133,10,1,100,0.056937958211849,-10,-1,-100,15032.886162918992,-0.0008967086069851313,0.00402011145057454,0.9999915172728213,16.160295925196063,0.015228074869053,1.5636281408358343,-0.8532104617223604,-94.12042236328125,5356.25390625,True
1599558799.4665012,0.0,10,0.5,0.5,-0.16096466484069827,-0.001,-0.0155,-0.12575,0.007552867826154601,10,1,100,0.06021622381613409,-10,-1,-100,15032.836356221582,-0.0013742097461729498,0.003675638700407878,0.9999923005842182,15.635558494363368,0.01472366108233858,2.171547480631817,-1.2246756193010246,-90.54792022705078,5356.25390625,True
1599558799.5004609,0.0,10,0.5,0.5,-0.20833418807983395,-0.001,-0.0155,-0.12575,0.0027383735301262715,10,1,100,0.06380887395457414,-10,-1,-100,15032.783620379516,-0.0018367372612699303,0.003320988555989884,0.9999927986896927,15.53709786431224,0.014620851603701766,2.812434503783508,-1.5961381504113277,-87.00265502929688,5356.25390625,True
1599558799.5355706,0.0,10,0.5,0.5,0.1870629734039307,-0.001,-0.0155,-0.12575,0.03792738623699055,10,1,100,0.018040860873700215,-10,-1,-100,15032.783620379516,-0.0018367372612699303,0.003320988555989884,0.9999927986896927,15.53709786431224,0.014620851603701766,2.812434503783508,-1.5961381504113277,-87.00265502929688,5356.25390625,True
1599558799.5707357,0.0,10,0.5,0.5,-0.08151760139465333,-0.001,-0.0155,-0.12575,0.017886320853118687,10,1,100,0.04301765909608586,-10,-1,-100,15032.765065347194,-0.0020598667770296464,0.0031411132339874415,0.9999929451533707,15.957773892397425,0.015009218869834967,3.224736192506574,-1.7818698423483226,-85.2431640625,5356.25390625,True
1599558799.600679,0.0,10,0.5,0.5,-0.34525735511779787,-0.001,-0.0155,-0.12575,-0.00423214868773026,10,1,100,0.06827694405141463,-10,-1,-100,15032.642994627473,-0.0024886843879129462,0.0027787823458921847,0.9999930423851414,16.733793403477797,0.015718744643094598,4.086587817484539,-2.1533376601177565,-81.758056640625,5356.25390625,True
1599558799.6336913,0.0,10,0.5,0.5,-0.6111744297027588,-0.001,-0.0155,-0.12575,-0.030976165510913697,10,1,100,0.09396506429257606,-10,-1,-100,15032.507253473508,-0.0031087305780238854,0.0022085114565197302,0.9999927291092369,17.750724940153123,0.01662023618357077,5.456880339633242,-2.710563535067334,-76.5245361328125,5356.25390625,True
1599558799.6689029,0.0,10,0.5,0.5,-0.001991791152954102,-0.001,-0.0155,-0.12575,0.025746588535655396,10,1,100,0.03238725031778133,-10,-1,-100,15032.507253473508,-0.0031087305780238854,0.0022085114565197302,0.9999927291092369,17.750724940153123,0.01662023618357077,5.456880339633242,-2.710563535067334,-76.5245361328125,5356.25390625,True
1599558799.7001262,0.0,10,0.5,0.5,-0.9111878070831299,-0.001,-0.0155,-0.12575,-0.05541398863963297,10,1,100,0.11396221702865422,-10,-1,-100,15032.264092191588,-0.0038469237850617256,0.0014731986690142596,0.9999915153955424,18.900806533292602,0.017551773605744767,7.403615403390536,-3.453594767482946,-69.69522094726562,5356.25390625,True
1599558799.7332804,0.0,10,0.5,0.5,-0.3122374950408936,-0.001,-0.0155,-0.12575,-0.0036616395985238637,10,1,100,0.06017717873282757,-10,-1,-100,15032.175226317951,-0.0040252169698231765,0.0012782549012217044,0.9999910818066097,19.157698159191675,0.01774426338291746,7.908012053313174,-3.639361872876857,-68.05136108398438,5356.25390625,True
1599558799.7662895,0.0,10,0.5,0.5,-0.15141932106018066,-0.001,-0.0155,-0.12575,0.015525158944828768,10,1,100,0.04271042429338909,-10,-1,-100,15032.175226317951,-0.0040252169698231765,0.0012782549012217044,0.9999910818066097,19.157698159191675,0.01774426338291746,7.908012053313174,-3.639361872876857,-68.05136108398438,5356.25390625,True
1599558799.8023102,0.0,10,0.5,0.5,-0.6019458576202392,-0.001,-0.0155,-0.12575,-0.023726921032639178,10,1,100,0.07888898732564384,-10,-1,-100,15031.999447609996,-0.004351268898877458,0.0009239104073804984,0.9999901063753224,19.62840435707816,0.01808071637059581,8.929769334242263,-4.010904460074625,-64.81570434570312,5356.25390625,True
1599558799.832737,0.0,10,0.5,0.5,-0.8232196701049804,-0.001,-0.0155,-0.12575,-0.04735337358008765,10,1,100,0.096957963288,-10,-1,-100,15031.776795899146,-0.004809236743900311,0.0003894946882689863,0.9999883597001662,20.222001937221382,0.018473360583332182,10.478739973375394,-4.568234737133878,-60.17449951171875,5356.25390625,True
1599558799.866663,0.0,10,0.5,0.5,-0.28117180328369146,-0.001,-0.0155,-0.12575,0.0057950489442914754,10,1,100,0.051458428733977726,-10,-1,-100,15031.776795899146,-0.004809236743900311,0.0003894946882689863,0.9999883597001662,20.222001937221382,0.018473360583332182,10.478739973375394,-4.568234737133878,-60.17449951171875,5356.25390625,True
1599558799.899614,0.0,10,0.5,0.5,-1.0615167053222656,-0.001,-0.0155,-0.12575,-0.06476627658425708,10,1,100,0.11085290727164679,-10,-1,-100,15031.340279486962,-0.005346484276531275,-0.0002493069130198908,0.9999856763733888,20.831366246437128,0.018853538505709654,12.551499707065336,-5.311359609312733,-54.34600830078125,5356.25390625,True
1599558799.9368553,0.0,10,0.5,0.5,-0.5481757522583008,-0.001,-0.0155,-0.12575,-0.019000694365781723,10,1,100,0.07113775154058591,-10,-1,-100,15031.237742144265,-0.005470856420004778,-0.0004109026938899963,0.9999849503312576,20.951321919833187,0.018928322496161273,13.065625966390355,-5.497142408688641,-52.991363525390625,5356.25390625,True
1599558799.9668093,0.0,10,0.5,0.5,-0.753144223022461,-0.001,-0.0155,-0.12575,-0.03404091555521456,10,1,100,0.08470023674875007,-10,-1,-100,15030.990675832145,-0.00570450625957119,-0.0006916375190942251,0.9999834899866482,21.158836131195333,0.019063419120369136,14.087575292103665,-5.868708436585734,-50.382080078125,5356.25390625,True
1599558800.000583,0.0,10,0.5,0.5,-0.4655476364135743,-0.001,-0.0155,-0.12575,-0.006257447932353076,10,1,100,0.06159483036026363,-10,-1,-100,15030.990675832145,-0.00570450625957119,-0.0006916375190942251,0.9999834899866482,21.158836131195333,0.019063419120369136,14.087575292103665,-5.868708436585734,-50.382080078125,5356.25390625,True
1599558800.1078782,0.0,10,0.5,0.5,-0.8143175735473633,-0.001,-0.0155,-0.12575,-0.03611654620037007,10,1,100,0.08587846770065949,-10,-1,-100,15030.786578298197,-0.0059229068029552,-0.0009604473679165487,0.9999819981958961,21.32744519500012,0.01918678119868442,15.099608371377947,-6.24027395498635,-47.95013427734375,5356.25390625,True
1599558800.1407523,0.0,10,0.5,0.5,-0.6878509567260743,-0.001,-0.0155,-0.12575,-0.022693911799496144,10,1,100,0.07562740016665016,-10,-1,-100,15030.627400242258,-0.006026373971160676,-0.001080583603168052,0.9999812574022757,21.39887055998938,0.0192465115081112,15.601616243439588,-6.42605614577918,-46.801055908203125,5356.25390625,True
1599558800.1673717,0.0,10,0.5,0.5,-0.9780644500732423,-0.001,-0.0155,-0.12575,-0.04718841489493415,10,1,100,0.0973901575888155,-10,-1,-100,15030.208461007685,-0.006316459048820487,-0.0014103312647148643,0.9999790564360876,21.571095870510923,0.019428735912933974,17.092596616259726,-6.983399814830197,-43.631256103515625,5356.25390625,True
1599558800.1999598,0.0,10,0.5,0.5,-0.8530432220458984,-0.001,-0.0155,-0.12575,-0.03447639831670472,10,1,100,0.08826510672774814,-10,-1,-100,15029.9477225499,-0.006495134800611523,-0.0015920939098044839,0.9999776389804444,21.659296324987135,0.019561593811110767,18.07665123737686,-7.354958947242304,-41.771453857421875,5356.25390625,True
1599558800.233431,0.0,10,0.5,0.5,-0.6548916778564453,-0.001,-0.0155,-0.12575,-0.01655173423946127,10,1,100,0.07061191813881793,-10,-1,-100,15029.9477225499,-0.006495134800611523,-0.0015920939098044839,0.9999776389804444,21.659296324987135,0.019561593811110767,18.07665123737686,-7.354958947242304,-41.771453857421875,5356.25390625,True
1599558800.2694492,0.0,10,0.5,0.5,-1.0698514953613283,-0.001,-0.0155,-0.12575,-0.047307727113626116,10,1,100,0.10640612836977564,-10,-1,-100,15029.302221532213,-0.0068190040772050375,-0.0018698924008440974,0.999975002030453,21.802022370832027,0.019879787875404554,20.03658022418151,-8.098067323787305,-38.72265625,5356.25390625,True
1599558800.3013642,0.0,10,0.5,0.5,-0.7197155532836914,-0.001,-0.0155,-0.12575,-0.019753816718576064,10,1,100,0.07422017744375466,-10,-1,-100,15029.302221532213,-0.0068190040772050375,-0.0018698924008440974,0.999975002030453,21.802022370832027,0.019879787875404554,20.03658022418151,-8.098067323787305,-38.72265625,5356.25390625,True
1599558800.3335292,0.0,10,0.5,0.5,-0.8228255783081055,-0.001,-0.0155,-0.12575,-0.02598564248824575,10,1,100,0.08251734653186243,-10,-1,-100,15029.129371628747,-0.0068930942327326775,-0.0019250721028521635,0.999974389346696,21.83556643780034,0.019973331425710023,20.528413428520345,-8.283842223788652,-38.1002197265625,5356.25390625,True
1599558800.3678422,0.0,10,0.5,0.5,-0.9058311752319336,-0.001,-0.0155,-0.12575,-0.028889903597333958,10,1,100,0.0909052523734214,-10,-1,-100,15028.799296636484,-0.007035409665578588,-0.0020002613243885145,0.9999732506249713,21.905964849245642,0.020180406696746298,21.519699801002176,-8.655389066449665,-37.009918212890625,5356.25390625,True
1599558800.399966,0.0,10,0.5,0.5,-0.9449387481689454,-0.001,-0.0155,-0.12575,-0.029276062543771245,10,1,100,0.09828620612941605,-10,-1,-100,15028.24168315169,-0.007230676999214815,-0.002070936040020723,0.9999717138669729,22.063670335600044,0.020577255066182663,23.072579554346618,-9.212701231545124,-35.783203125,5356.25390625,True
1599558800.4365582,0.0,10,0.5,0.5,-0.813307585144043,-0.001,-0.0155,-0.12575,-0.022346520832643033,10,1,100,0.0789120898397577,-10,-1,-100,15028.24168315169,-0.007230676999214815,-0.002070936040020723,0.9999717138669729,22.063670335600044,0.020577255066182663,23.072579554346618,-9.212701231545124,-35.783203125,5356.25390625,True
1599558800.4675937,0.0,10,0.5,0.5,-0.9230667495727539,-0.001,-0.0155,-0.12575,-0.021873350459803632,10,1,100,0.09813612162341202,-10,-1,-100,15027.668444387731,-0.007404252042524164,-0.00206562495602027,0.9999704546861531,22.238714314130384,0.021028688581304956,24.66506483880463,-9.770001616769823,-35.0660400390625,5356.25390625,True
1599558800.500659,0.0,10,0.5,0.5,-0.8722235534667969,-0.001,-0.0155,-0.12575,-0.018147046111739874,10,1,100,0.09247837715678539,-10,-1,-100,15027.266102667316,-0.007509360879407545,-0.002026025711625777,0.9999697519020256,22.37066894705644,0.021360372142392475,25.756841741472012,-10.14152755942218,-34.899169921875,5356.25390625,True
1599558800.5335708,0.0,10,0.5,0.5,-0.8561678405761719,-0.001,-0.0155,-0.12575,-0.014248319605847957,10,1,100,0.09232936055998296,-10,-1,-100,15026.867666712147,-0.007602475214939153,-0.0019540237080800282,0.9999691916063986,22.515809303833365,0.021713756619275236,26.875695652380198,-10.513046434956015,-34.967071533203125,5356.25390625,True
1599558800.5695505,0.0,10,0.5,0.5,-0.8359765426635742,-0.001,-0.0155,-0.12575,-0.010142340465490726,10,1,100,0.0920725624452661,-10,-1,-100,15026.467277057935,-0.007683783409457437,-0.0018509112310367587,0.9999687663122941,22.6742566198889,0.022085512515873297,28.023454249519457,-10.884557326863538,-35.276947021484375,5356.25390625,True
1599558800.600472,0.0,10,0.5,0.5,-0.854026365661621,-0.001,-0.0155,-0.12575,-0.013598015919461082,10,1,100,0.08800609196382805,-10,-1,-100,15026.223136599292,-0.00771965144681658,-0.0017883525584687604,0.9999686038954756,22.758227048368504,0.022276837641693758,28.608396029619627,-11.070309475816847,-35.521392822265625,5356.25390625,True
1599558800.6346948,0.0,10,0.5,0.5,-0.8054066055297852,-0.001,-0.0155,-0.12575,-0.0035957490364089736,10,1,100,0.0912366975416336,-10,-1,-100,15025.769035820034,-0.007780809124787114,-0.001640625466144993,0.99996838317891,22.934305469459634,0.022666395533433317,29.799649470166592,-11.441806721099654,-36.1866455078125,5356.25390625,True
1599558800.668024,0.0,10,0.5,0.5,-0.7790347640991211,-0.001,-0.0155,-0.12575,0.0011412896907256956,10,1,100,0.09055729764949505,-10,-1,-100,15025.299309518537,-0.007829356282970356,-0.0014634725455446157,0.9999682792110471,23.11897952561577,0.0230588674242816,31.017522524644658,-11.813293659523435,-37.085723876953125,5356.25390625,True
1599558800.7037814,0.0,10,0.5,0.5,-0.8936663375854492,-0.001,-0.0155,-0.12575,-0.016527842413581274,10,1,100,0.08579620803619463,-10,-1,-100,15025.299309518537,-0.007829356282970356,-0.0014634725455446157,0.9999682792110471,23.11897952561577,0.0230588674242816,31.017522524644658,-11.813293659523435,-37.085723876953125,5356.25390625,True
1599558800.7345374,0.0,10,0.5,0.5,-0.8256636306762696,-0.001,-0.0155,-0.12575,-0.00564846954072316,10,1,100,0.0876485957770706,-10,-1,-100,15025.056145505165,-0.0078454744018716,-0.0013650571455903092,0.9999682920725032,23.213501372546446,0.023253444199096553,31.635368631965992,-11.999033114842732,-37.621307373046875,5356.25390625,True
1599558800.76745,0.0,10,0.5,0.5,-0.7333010116577149,-0.001,-0.0155,-0.12575,0.008521362035839768,10,1,100,0.08833894346161356,-10,-1,-100,15024.586418638472,-0.007865844218547979,-0.0011474136575671224,0.9999684054692068,23.404108846926675,0.02363262015551638,32.88540311192702,-12.370503517048604,-38.85888671875,5356.25390625,True
1599558800.8007848,0.0,10,0.5,0.5,-0.5934984390258788,-0.001,-0.0155,-0.12575,0.02850759076030538,10,1,100,0.08683382972349468,-10,-1,-100,15023.804191479925,-0.007870101956798757,-0.0007687025185804049,0.9999687348070577,23.684665966254073,0.02415387119890034,34.783213742122044,-12.927686865656513,-41.152069091796875,5356.25390625,True
1599558800.8366883,0.0,10,0.5,0.5,-0.6424160308837891,-0.001,-0.0155,-0.12575,0.021713494499245065,10,1,100,0.0837396183173223,-10,-1,-100,15023.264151307987,-0.007845419933412194,-0.0004873631968179735,0.9999691054543549,23.859748768846224,0.024449555096352122,36.05040482252323,-13.29912749524562,-42.966796875,5356.25390625,True
1599558800.8678205,0.0,10,0.5,0.5,-0.604307647705078,-0.001,-0.0155,-0.12575,0.026431359861834137,10,1,100,0.08054090012777644,-10,-1,-100,15022.723134285887,-0.007793596965833988,-0.00019010927602386955,0.9999696113906649,24.016962035309817,0.02468564565932279,37.304876655233564,-13.67055630253645,-44.969207763671875,5356.25390625,True
1599558800.9017456,0.0,10,0.5,0.5,-0.8406075057983399,-0.001,-0.0155,-0.12575,-0.0031176407743706376,10,1,100,0.08574230906068651,-10,-1,-100,15022.723134285887,-0.007793596965833988,-0.00019010927602386955,0.9999696113906649,24.016962035309817,0.02468564565932279,37.304876655233564,-13.67055630253645,-44.969207763671875,5356.25390625,True
1599558800.9349718,0.0,10,0.5,0.5,-0.4036054061889648,-0.001,-0.0155,-0.12575,0.04997858177373915,10,1,100,0.07248247146292558,-10,-1,-100,15021.885241571115,-0.007672953157166728,0.00029107383627257136,0.9999705200984026,24.204406126640524,0.024897476782235875,39.13375575626874,-14.22767897959628,-48.298431396484375,5356.25390625,True
1599558800.9701812,0.0,10,0.5,0.5,-0.8024508682250977,-0.001,-0.0155,-0.12575,0.0020682131835691934,10,1,100,0.0845421825006866,-10,-1,-100,15021.885241571115,-0.007672953157166728,0.00029107383627257136,0.9999705200984026,24.204406126640524,0.024897476782235875,39.13375575626874,-14.22767897959628,-48.298431396484375,5356.25390625,True
1599558801.0012364,0.0,10,0.5,0.5,-0.30670181579589845,-0.001,-0.0155,-0.12575,0.058972282309864114,10,1,100,0.06475228017430466,-10,-1,-100,15021.033675819868,-0.0074931430050792745,0.0008066274653276001,0.999971600676758,24.312403703352658,0.024900114088703733,40.85350391553133,-14.784780806232325,-52.061553955078125,5356.25390625,True
1599558801.0351417,0.0,10,0.5,0.5,-0.41348129119873045,-0.001,-0.0155,-0.12575,0.046956946498510024,10,1,100,0.06567891982800347,-10,-1,-100,15020.425275502494,-0.007338408875740571,0.001164018529809978,0.9999723960270277,24.32859573331549,0.024768774089374713,41.91182582758483,-15.156173169664859,-54.7694091796875,5356.25390625,True
1599558801.0680194,0.0,10,0.5,0.5,-0.3664446411132811,-0.001,-0.0155,-0.12575,0.04972351052735802,10,1,100,0.06047465080899181,-10,-1,-100,15019.800273275934,-0.007150876264720943,0.0015116814513513445,0.9999732895371938,24.292251384728957,0.024524197156657993,42.87908125375892,-15.527560984030439,-57.610748291015625,5356.25390625,True
1599558801.103168,0.0,10,0.5,0.5,-0.5076668029785156,-0.001,-0.0155,-0.12575,0.0348521628069246,10,1,100,0.06782181430344308,-10,-1,-100,15019.502420678618,-0.007047815921140975,0.0016899293656605179,0.9999737358698381,24.253970804284805,0.024360194264969253,43.32575006035725,-15.713253694096162,-59.071044921875,5356.25390625,True
1599558801.1352723,0.0,10,0.5,0.5,-0.27936826171874996,-0.001,-0.0155,-0.12575,0.05610572062254818,10,1,100,0.0529272883488085,-10,-1,-100,15018.823707410018,-0.0068194635803874235,0.0020426076833352283,0.9999746610141318,24.14722067825461,0.023963507472686864,44.15925823978539,-16.08463807811758,-62.073822021484375,5356.25390625,True
1599558801.1940806,0.0,10,0.5,0.5,-0.2283560485839844,-0.001,-0.0155,-0.12575,0.05990538357873101,10,1,100,0.0473236858777169,-10,-1,-100,15018.197728156694,-0.006561883828489191,0.0023952109897303403,0.9999756020248375,24.036524627497865,0.023519362884143705,44.9766794206769,-16.45602225965609,-65.19952392578125,5356.25390625,True
1599558801.2399576,0.0,10,0.5,0.5,-0.177428532409668,-0.001,-0.0155,-0.12575,0.061715317920634456,10,1,100,0.04174799125215578,-10,-1,-100,15017.518038043403,-0.006278199135717444,0.0027295928766645204,0.9999765664946053,23.860460188137175,0.022980389399029588,45.65998989049766,-16.82740793471617,-68.43048095703125,5356.25390625,True
1599558801.2698774,0.0,10,0.5,0.5,-0.12840990295410148,-0.001,-0.0155,-0.12575,0.06431040616443401,10,1,100,0.03608192467909404,-10,-1,-100,15016.839324591681,-0.005970171898742674,0.003054513846864054,0.9999775132435021,23.61906368486601,0.02236561036850593,46.20095250470546,-17.19879706253951,-71.73577880859375,5356.25390625,True
1599558801.3014128,0.0,10,0.5,0.5,-0.28999132080078116,-0.001,-0.0155,-0.12575,0.049455635614933754,10,1,100,0.04872827804601772,-10,-1,-100,15016.471159143723,-0.0058067716457986356,0.0032119035210291845,0.9999779822970231,23.47388460260674,0.02203675665236625,46.41549151158074,-17.384493332338337,-73.41287231445312,5356.25390625,True
1599558801.336319,0.0,10,0.5,0.5,-0.03192982788085935,-0.001,-0.0155,-0.12575,0.06689185877375038,10,1,100,0.027405530669765442,-10,-1,-100,15015.790492954315,-0.005466079331984824,0.0035108408629096755,0.9999788977639337,23.134375090927303,0.02135117205028117,46.72710179934909,-17.755889968932895,-76.80560302734375,5356.25390625,True
1599558801.3692315,0.0,10,0.5,0.5,0.02350513610839844,-0.001,-0.0155,-0.12575,0.06883713480295425,10,1,100,0.021125790449044196,-10,-1,-100,15015.042443700833,-0.0051012767481704215,0.0037973593494059414,0.9999797783142967,22.73012797580469,0.02065013780512757,46.87676230000569,-18.127292801417425,-80.26031494140625,5356.25390625,True
1599558801.405687,0.0,10,0.5,0.5,-0.3672168075561523,-0.001,-0.0155,-0.12575,0.04048435934173549,10,1,100,0.05736686220479353,-10,-1,-100,15015.042443700833,-0.0051012767481704215,0.0037973593494059414,0.9999797783142967,22.73012797580469,0.02065013780512757,46.87676230000569,-18.127292801417425,-80.26031494140625,5356.25390625,True
1599558801.4355872,0.0,10,0.5,0.5,0.3373602584838868,-0.001,-0.0155,-0.12575,0.08227164816517105,10,1,100,-0.005364691499462407,-10,-1,-100,15013.965292047826,-0.004533023652793159,0.004174849847055723,0.9999810109823675,22.000706230653158,0.01962258515618738,46.77593786192182,-18.684408723014876,-85.50738525390625,5356.25390625,True
1599558801.4684854,0.0,10,0.5,0.5,-0.27921904602050784,-0.001,-0.0155,-0.12575,0.04478891523976334,10,1,100,0.0511988327770711,-10,-1,-100,15013.965292047826,-0.004533023652793159,0.004174849847055723,0.9999810109823675,22.000706230653158,0.01962258515618738,46.77593786192182,-18.684408723014876,-85.50738525390625,5356.25390625,True
1599558801.5018587,0.0,10,0.5,0.5,0.21236807556152346,-0.001,-0.0155,-0.12575,0.07105755981114245,10,1,100,0.0057886220085436035,-10,-1,-100,15013.161578780157,-0.004122489729686861,0.004411396688176083,0.9999817721627171,21.440393935307615,0.01899202653097652,46.49693278891674,-19.055826485840505,-89.0625,5356.25390625,True
1599558801.5388155,0.0,10,0.5,0.5,0.25711450309753425,-0.001,-0.0155,-0.12575,0.06901908686515537,10,1,100,0.0030968754560151274,-10,-1,-100,15012.395952236955,-0.0037272584435224234,0.004605754254226672,0.999982447132071,20.971008920902435,0.01855778753293034,46.3716336980011,-19.427247298274036,-92.61255645751953,5356.25390625,True
1599558801.5686967,0.0,10,0.5,0.5,0.07778940734863282,-0.001,-0.0155,-0.12575,0.06061289954407203,10,1,100,0.018607117852882594,-10,-1,-100,15012.029740384314,-0.003511536410058063,0.0047040134811132716,0.999982770536178,21.371154366644724,0.018947022499995032,47.71139401950647,-19.612952015625115,-94.38458251953125,5356.25390625,True
1599558801.601881,0.0,10,0.5,0.5,0.3412740020751953,-0.001,-0.0155,-0.12575,0.06894865495934367,10,1,100,-0.005383240644106953,-10,-1,-100,15011.209426260437,-0.0030998464503229754,0.004867324717872242,0.999983349912425,22.131044704224983,0.019776334820605704,50.35031917565764,-19.98434376441884,-97.90401458740234,5356.25390625,True
1599558801.6359456,0.0,10,0.5,0.5,0.15966199226379396,-0.001,-0.0155,-0.12575,0.060856857239684196,10,1,100,0.012754528893123881,-10,-1,-100,15010.827589915483,-0.002893081051309921,0.00494057967122803,0.9999836102429595,22.487546982632118,0.020210883756080954,51.640315464931696,-20.170030445887495,-99.64283752441406,5356.25390625,True
1599558801.6718702,0.0,10,0.5,0.5,0.41698163681030276,-0.001,-0.0155,-0.12575,0.06769927556014887,10,1,100,-0.01272722066875839,-10,-1,-100,15010.0072757944,-0.0024761090476395683,0.005067807362510063,0.9999840929797438,23.189320946090753,0.02114286413801964,54.239774568622586,-20.54138397962334,-103.07731628417969,5356.25390625,True
1599558801.7027886,0.0,10,0.5,0.5,0.45262744445800784,-0.001,-0.0155,-0.12575,0.06622837011260935,10,1,100,-0.015878887332698984,-10,-1,-100,15009.17426713428,-0.0020711102294346468,0.005168681608243734,0.9999844974962613,23.859037480356942,0.022128028985120233,56.8229053262459,-20.912710245207776,-106.44465637207031,5356.25390625,True
1599558801.7356493,0.0,10,0.5,0.5,0.6941825569152833,-0.001,-0.0155,-0.12575,0.06809808761164625,10,1,100,-0.042036027799061085,-10,-1,-100,15007.90375821339,-0.001467891996389368,0.005276136243212099,0.9999850037272707,24.73474391992074,0.023593345399489908,60.48986530545107,-21.469648488668362,-111.37098693847656,5356.25390625,True
1599558801.768074,0.0,10,0.5,0.5,0.12291802978515626,-0.001,-0.0155,-0.12575,0.05750050180419035,10,1,100,0.017922457030288694,-10,-1,-100,15007.90375821339,-0.001467891996389368,0.005276136243212099,0.9999850037272707,24.73474391992074,0.023593345399489908,60.48986530545107,-21.469648488668362,-111.37098693847656,5356.25390625,True
1599558801.8041089,0.0,10,0.5,0.5,0.7577506614685058,-0.001,-0.0155,-0.12575,0.0640853307673433,10,1,100,-0.04468461183602355,-10,-1,-100,15006.575632011867,-0.0009015233082014419,0.005334997155244256,0.9999853624234099,25.542390439007185,0.025056016916153737,64.0984820331601,-22.026527155933753,-116.06324768066406,5356.25390625,True
1599558801.8347244,0.0,10,0.5,0.5,0.5880074813842773,-0.001,-0.0155,-0.12575,0.05974633304010478,10,1,100,-0.028530339097768663,-10,-1,-100,15005.67231145117,-0.0005368010714189097,0.005348006962018423,0.9999855552287461,26.037606302867438,0.025987752715485424,66.45161015258942,-22.39774787413156,-119.00563049316406,5356.25390625,True
1599558801.8686051,0.0,10,0.5,0.5,0.26441469497680664,-0.001,-0.0155,-0.12575,0.058539013390072316,10,1,100,0.0075833157146577655,-10,-1,-100,15005.67231145117,-0.0005368010714189097,0.005348006962018423,0.9999855552287461,26.037606302867438,0.025987752715485424,66.45161015258942,-22.39774787413156,-119.00563049316406,5356.25390625,True
1599558801.9016376,0.0,10,0.5,0.5,0.6590465091705322,-0.001,-0.0155,-0.12575,0.058828061304697324,10,1,100,-0.028998387113696095,-10,-1,-100,15004.781686036033,-0.00020714055240851417,0.005349959895144294,0.9999856674082442,26.47275021137418,0.026836821232217423,68.69135491936098,-22.76894530989318,-121.79634094238281,5356.25390625,True
1599558801.9395375,0.0,10,0.5,0.5,0.5189698162078857,-0.001,-0.0155,-0.12575,0.057976142708716136,10,1,100,-0.014147682271883557,-10,-1,-100,15004.330514267087,-4.545957537704089e-05,0.005343403350373411,0.9999857228851131,26.66798258576339,0.027225552639736146,69.76680834851622,-22.95453602436055,-123.12467956542969,5356.25390625,True
1599558801.969604,0.0,10,0.5,0.5,0.8684535514831543,-0.001,-0.0155,-0.12575,0.05396543276496341,10,1,100,-0.04833845706840128,-10,-1,-100,15002.920357529889,0.00040957164109723597,0.005300549056881673,0.9999858681155281,27.17699181132529,0.02824369362338422,72.83806849778037,-23.511278879759413,-126.89138793945312,5356.25390625,True
1599558802.0015655,0.0,10,0.5,0.5,0.5863726844787598,-0.001,-0.0155,-0.12575,0.05618220690262457,10,1,100,-0.018360663537293702,-10,-1,-100,15002.467232454452,0.000547708576070685,0.005281415855517327,0.9999859032315789,27.324369006521042,0.02853313445985388,73.81624375282539,-23.696850816556555,-128.06967163085938,5356.25390625,True
1599558802.035569,0.0,10,0.5,0.5,0.8916912719726562,-0.001,-0.0155,-0.12575,0.04985909835704383,10,1,100,-0.047224110093338115,-10,-1,-100,15000.985786737292,0.0009329336514435786,0.005206345041596273,0.9999860117052187,27.70735649312524,0.029250230639025352,76.62549129089705,-24.253542332632275,-131.34185791015625,5356.25390625,True
1599558802.071561,0.0,10,0.5,0.5,0.5188045097351074,-0.001,-0.0155,-0.12575,0.05736994609248455,10,1,100,-0.009002006944136581,-10,-1,-100,15000.985786737292,0.0009329336514435786,0.005206345041596273,0.9999860117052187,27.70735649312524,0.029250230639025352,76.62549129089705,-24.253542332632275,-131.34185791015625,5356.25390625,True
1599558802.102609,0.0,10,0.5,0.5,0.7975248970031737,-0.001,-0.0155,-0.12575,0.050023062691666134,10,1,100,-0.03486693581214342,-10,-1,-100,15000.02680248674,0.0011658867996547017,0.005139618639044847,0.9999861124176753,27.92085009246092,0.029608231395992612,78.40858962965363,-24.624651469727393,-133.29661560058594,5356.25390625,True
1599558802.1356428,0.0,10,0.5,0.5,0.9083953369140625,-0.001,-0.0155,-0.12575,0.04493611300742041,10,1,100,-0.044773357911494165,-10,-1,-100,14998.530708337901,0.0014653264272988713,0.005032837382872378,0.9999862615887976,28.193516615537888,0.029985094965558314,80.98157488963106,-25.181290115675978,-135.84254455566406,5356.25390625,True
1599558802.1695123,0.0,10,0.5,0.5,0.6189026809692383,-0.001,-0.0155,-0.12575,0.05558402264743011,10,1,100,-0.01506608012062724,-10,-1,-100,14998.530708337901,0.0014653264272988713,0.005032837382872378,0.9999862615887976,28.193516615537888,0.029985094965558314,80.98157488963106,-25.181290115675978,-135.84254455566406,5356.25390625,True
1599558802.207411,0.0,10,0.5,0.5,0.9143842628479004,-0.001,-0.0155,-0.12575,0.04229211571646732,10,1,100,-0.04261482499849058,-10,-1,-100,14996.996527939104,0.0017139494466442491,0.0049122883831173945,0.9999864658084805,28.426239015406974,0.03020092052784597,83.47322934807787,-25.737901120777444,-137.96786499023438,5356.25390625,True
1599558802.2363338,0.0,10,0.5,0.5,0.7517744941711426,-0.001,-0.0155,-0.12575,0.04977950259691934,10,1,100,-0.025755279527948677,-10,-1,-100,14996.472113482305,0.001784655641300518,0.004871161644597792,0.9999865433036956,28.497876600084453,0.03024320501020223,84.29308750115167,-25.923432239482793,-138.56161499023438,5356.25390625,True
1599558802.270245,0.0,10,0.5,0.5,0.887618659210205,-0.001,-0.0155,-0.12575,0.03922995629753104,10,1,100,-0.038761199979141917,-10,-1,-100,14994.909612880787,0.0019653589167318744,0.004738304005267848,0.9999868428331855,28.70324560159429,0.030302198063562238,86.74292698791034,-26.48000867487589,-140.0174102783203,5356.25390625,True
1599558802.3030193,0.0,10,0.5,0.5,0.7307361343383789,-0.001,-0.0155,-0.12575,0.052455210296014895,10,1,100,-0.02089195428521716,-10,-1,-100,14994.909612880787,0.0019653589167318744,0.004738304005267848,0.9999868428331855,28.70324560159429,0.030302198063562238,86.74292698791034,-26.48000867487589,-140.0174102783203,5356.25390625,True
1599558802.33892,0.0,10,0.5,0.5,0.7979822181701659,-0.001,-0.0155,-0.12575,0.04716689361375993,10,1,100,-0.026451737855294824,-10,-1,-100,14994.330510988482,0.0020144880516638217,0.004690739530930634,0.9999869693153719,28.770246151647807,0.030304070893826744,87.56121129751241,-26.665528474198418,-140.38743591308594,5356.25390625,True
1599558802.3693633,0.0,10,0.5,0.5,0.888995014190674,-0.001,-0.0155,-0.12575,0.030890228301781505,10,1,100,-0.03692152135585694,-10,-1,-100,14992.187931412365,0.002152997315720163,0.004500066393537532,0.999987556925091,29.04101317679579,0.03025745101206718,90.8729181385263,-27.407578438214,-141.32196044921875,5356.25390625,True
1599558802.4030452,0.0,10,0.5,0.5,0.7996350906372071,-0.001,-0.0155,-0.12575,0.04454999328272921,10,1,100,-0.025476496407235885,-10,-1,-100,14991.666446750634,0.0021737599983618484,0.004451548930868836,0.9999877291645061,29.110643509708726,0.030237898520214062,91.71451152681746,-27.59308352632175,-141.42205810546875,5356.25390625,True
1599558802.4369154,0.0,10,0.5,0.5,0.802672120666504,-0.001,-0.0155,-0.12575,0.04932625993852611,10,1,100,-0.023524310777759166,-10,-1,-100,14991.666446750634,0.0021737599983618484,0.004451548930868836,0.9999877291645061,29.110643509708726,0.030237898520214062,91.71451152681746,-27.59308352632175,-141.42205810546875,5356.25390625,True
1599558802.4722965,0.0,10,0.5,0.5,0.8194247673034669,-0.001,-0.0155,-0.12575,0.03857697852889454,10,1,100,-0.026549485241437028,-10,-1,-100,14990.497500154655,0.0022003453360328225,0.0043544537086977995,0.9999880985358279,29.253454496956845,0.03019648943150857,93.41836152277715,-27.964084497959814,-141.45486450195312,5356.25390625,True
