Timestamp,Input Throttle,horizon,dT,dt,Input Roll,Roll P,Roll I,Roll D,Input Pitch,Pitch P,Pitch I,Pitch D,Input Yaw,Yaw P,Yaw I,Yaw D,Altitude,Direction X,Direction Y,Direction Z,Drag X,Drag Y,Drag Z,Vertical Velocity,Roll,Mass,Has Fuel
1599559520.139266,0.0,10,0.5,0.5,-2.9541460876464845,-0.05075,-0.001,-0.2505,-0.0005401165931698976,10,1,100,0.17114754409292926,-10,-1,-100,14993.951938888058,-0.016775254835214016,-7.717634646472631e-05,0.99985928253381,28.64907462247219,0.02703434261756157,-87.51376482722007,27.009298374825256,-31.79278564453125,5356.25390625,True
1599559520.1692066,0.0,10,0.5,0.5,-2.960186199951172,-0.05075,-0.001,-0.2505,-0.00025594109511383953,10,1,100,0.17714004435921293,-10,-1,-100,14995.026160921087,-0.01684534547633721,-7.241689188127271e-05,0.9998581044786189,28.50391281046497,0.02736324598660681,-85.87450284079259,26.637367195247265,-31.7916259765625,5356.25390625,True
1599559520.2031238,0.0,10,0.5,0.5,-2.965891215515137,-0.05075,-0.001,-0.2505,-0.0004908828836443367,10,1,100,0.17584654749203366,-10,-1,-100,14995.561317734071,-0.016881991228132723,-7.016011589033644e-05,0.9998574865698268,28.43144244985461,0.027525498600081567,-85.05977135650605,26.451407616125994,-31.791046142578125,5356.25390625,True
1599559520.243023,0.0,10,0.5,0.5,-2.9298563140869143,-0.05075,-0.001,-0.2505,0.007069593382586884,10,1,100,0.17785516349993524,-10,-1,-100,14996.572062457912,-0.016918218428720357,6.868829906988537e-07,0.9998568767002237,28.289894865335782,0.027848078300732864,-83.44943549796669,26.079500055204655,-31.92950439453125,5356.25390625,True
1599559520.2739065,0.0,10,0.5,0.5,-2.8522025100708013,-0.05075,-0.001,-0.2505,0.009486972977794286,10,1,100,0.1791041357584321,-10,-1,-100,14997.641400027787,-0.016947126342123885,8.70687993089885e-05,0.9998563833510132,28.165871024900607,0.028176502651186423,-81.90191778324747,25.707607219182012,-32.321685791015625,5356.25390625,True
1599559520.3108091,0.0,10,0.5,0.5,-2.756291661071778,-0.05075,-0.001,-0.2505,0.015469585475200132,10,1,100,0.17809297163583526,-10,-1,-100,14998.643353338586,-0.016948807383792463,0.00021990604702993316,0.9998563344649057,28.062102397470493,0.02850760423046772,-80.42282327232523,25.33572826372138,-32.985321044921875,5356.25390625,True
1599559520.3636672,0.0,10,0.5,0.5,-2.645683177185059,-0.05075,-0.001,-0.2505,0.022470912511998866,10,1,100,0.17621845303024594,-10,-1,-100,14999.658976985142,-0.016917886518546,0.0004041156943407532,0.9998568006500989,27.9767678903786,0.028832910587478867,-79.00444461173947,24.963862296168923,-33.923248291015625,5356.25390625,True
1599559520.3985715,0.0,10,0.5,0.5,-2.5209226806640626,-0.05075,-0.001,-0.2505,0.02980199927359721,10,1,100,0.17374338386628446,-10,-1,-100,15000.600380378659,-0.01685189611545089,0.0006378578754611739,0.9998577932559435,27.906251314578913,0.029141008901656846,-77.63439052478775,24.592008214602192,-35.13592529296875,5356.25390625,True
1599559520.4294891,0.0,10,0.5,0.5,-2.3820789794921877,-0.05075,-0.001,-0.2505,0.03746492792059027,10,1,100,0.1705937551423824,-10,-1,-100,15001.603306538658,-0.01674795194595127,0.0009194338842928922,0.9998593204781103,27.845570610852164,0.029417753607135978,-76.29713610926537,24.220165665935255,-36.6234130859375,5356.25390625,True
1599559520.4594078,0.0,10,0.5,0.5,-2.229121495056152,-0.05075,-0.001,-0.2505,0.04529010444718569,10,1,100,0.16678604651535928,-10,-1,-100,15002.546660674387,-0.016603616302573267,0.0012457141935777827,0.9998613744523911,27.788405864468025,0.02964622576349275,-74.9743895012624,23.848334169292478,-38.385772705078125,5356.25390625,True
1599559520.4913316,0.0,10,0.5,0.5,-2.675754002380371,-0.05075,-0.001,-0.2505,0.012786644938054415,10,1,100,0.18287997248341686,-10,-1,-100,15002.546660674387,-0.016603616302573267,0.0012457141935777827,0.9998613744523911,27.788405864468025,0.02964622576349275,-74.9743895012624,23.848334169292478,-38.385772705078125,5356.25390625,True
1599559520.5252419,0.0,10,0.5,0.5,-2.3785885086059575,-0.05075,-0.001,-0.2505,0.03264776627390642,10,1,100,0.17311440873786055,-10,-1,-100,15003.013455233537,-0.01651499448537061,0.0014250672143218531,0.9998626026312729,27.75875944910178,0.029736285939444888,-74.31194111286825,23.662422623940785,-39.370025634765625,5356.25390625,True
1599559520.5686045,0.0,10,0.5,0.5,-1.9692353088378907,-0.05075,-0.001,-0.2505,0.05706549397188923,10,1,100,0.15855236980827397,-10,-1,-100,15003.954853699892,-0.016302347344000104,0.001808733408519758,0.9998654719283652,27.692308845739138,0.029855293429600607,-72.97186820632615,23.290608180164526,-41.5447998046875,5356.25390625,True
1599559520.605557,0.0,10,0.5,0.5,-1.375106864929199,-0.05075,-0.001,-0.2505,0.09149143074486542,10,1,100,0.13549017902755106,-10,-1,-100,15005.35327726719,-0.01589990243009683,0.0024687758343409005,0.9998705407444471,27.556036609861017,0.02983864615233794,-70.877995360352,22.732909771044213,-45.322174072265625,5356.25390625,True
1599559520.6364765,0.0,10,0.5,0.5,-1.4577949188232422,-0.05075,-0.001,-0.2505,0.07770834728009998,10,1,100,0.1389324539777287,-10,-1,-100,15006.23022022075,-0.015566262567912399,0.002941269927270117,0.9998745123268629,27.424441988447384,0.029664717986603518,-69.3884881841804,22.361128428988863,-48.18426513671875,5356.25390625,True
1599559520.666394,0.0,10,0.5,0.5,-1.7109448745727542,-0.05075,-0.001,-0.2505,0.056782166880245205,10,1,100,0.15152449219711756,-10,-1,-100,15006.688222889206,-0.015378682007715734,0.0031779772798180327,0.9998766906974653,27.341724181330193,0.02952107106797658,-68.60542205751658,22.17524375551821,-49.718597412109375,5356.25390625,True
1599559520.6973114,0.0,10,0.5,0.5,-1.6107006011962894,-0.05075,-0.001,-0.2505,0.060191888266790554,10,1,100,0.1480684034375951,-10,-1,-100,15007.099349213298,-0.015178162623701358,0.003421474093618561,0.999878951120782,27.24580760395392,0.029336991394212246,-67.7929927017254,21.989363476004197,-51.3216552734375,5356.25390625,True
1599559520.728231,0.0,10,0.5,0.5,-0.9825092910766603,-0.05075,-0.001,-0.2505,0.09133356735497392,10,1,100,0.11948937621127562,-10,-1,-100,15007.973360312753,-0.014737644503353426,0.00392319795387591,0.9998836984131241,27.006627883507363,0.02884042500075839,-66.06442679009844,21.617617829596487,-54.734161376953125,5356.25390625,True
1599559520.760146,0.0,10,0.5,0.5,-1.2902951568603518,-0.05075,-0.001,-0.2505,0.06981844359447607,10,1,100,0.13676015398482638,-10,-1,-100,15008.433315459522,-0.014496102602444038,0.004180731847124961,0.9998861857684412,26.859727647248143,0.02852590806255803,-65.14146528088503,21.431753176520626,-56.5435791015625,5356.25390625,True
1599559520.7905772,0.0,10,0.5,0.5,-1.175744027709961,-0.05075,-0.001,-0.2505,0.07262836728534564,10,1,100,0.1325344550444184,-10,-1,-100,15008.836628260324,-0.014240150747016801,0.004437433512756702,0.9998887574578095,26.692328177614304,0.028166912827364308,-64.17540721639715,21.245894491510185,-58.42181396484375,5356.25390625,True
1599559520.8256605,0.0,10,0.5,0.5,-0.4505369705200196,-0.05075,-0.001,-0.2505,0.10271583573689314,10,1,100,0.09717981472416348,-10,-1,-100,15009.704778308515,-0.013688210026040228,0.00494141954078219,0.9998941020324128,26.28748897162161,0.02731659345938658,-62.099001064799616,20.874197379151603,-62.384307861328125,5356.25390625,True
1599559520.8595703,0.0,10,0.5,0.5,0.5046686614990232,-0.05075,-0.001,-0.2505,0.13598203701701864,10,1,100,0.04958523567944127,-10,-1,-100,15010.910812296905,-0.01275641811226999,0.005698648936672679,0.9999023948352368,25.475146026700553,0.02573519682270802,-58.57682304991649,20.316710126169486,-68.84210205078125,5356.25390625,True
1599559520.8945067,0.0,10,0.5,0.5,-1.1100615753173828,-0.05075,-0.001,-0.2505,0.06068645560020477,10,1,100,0.142388569419155,-10,-1,-100,15010.910812296905,-0.01275641811226999,0.005698648936672679,0.9999023948352368,25.475146026700553,0.02573519682270802,-58.57682304991649,20.316710126169486,-68.84210205078125,5356.25390625,True
1599559520.9264205,0.0,10,0.5,0.5,0.27009994812011706,-0.05075,-0.001,-0.2505,0.11293783209151667,10,1,100,0.06746634616068611,-10,-1,-100,15011.709625606309,-0.0120785305637673,0.006170125163386285,0.999908015096833,24.776941779801348,0.024518758714579297,-55.93212269893695,19.945096868478842,-73.41448974609375,5356.25390625,True
1599559520.957309,0.0,10,0.5,0.5,0.5055738143920898,-0.05075,-0.001,-0.2505,0.11375064160762735,10,1,100,0.05675202360735282,-10,-1,-100,15012.506485729478,-0.011368340198158489,0.006602764229336891,0.9999135784384924,23.961531071715697,0.023242566823048996,-53.08649518055866,19.573522561482836,-77.98892211914062,5356.25390625,True
1599559520.9957337,0.0,10,0.5,0.5,1.483939602661133,-0.05075,-0.001,-0.2505,0.13926934490651444,10,1,100,-0.0015487488123647614,-10,-1,-100,15013.641228666995,-0.010196521864125549,0.007224732051734537,0.9999219140456194,22.551985943807345,0.021358897890991033,-48.54520708102567,19.016233663670196,-85.030517578125,5356.25390625,True
1599559521.0575688,0.0,10,0.5,0.5,1.1346124572753906,-0.05075,-0.001,-0.2505,0.11622258426038604,10,1,100,0.026598560395479504,-10,-1,-100,15014.383402441745,-0.00939182815338836,0.007576962470974942,0.9999271889511009,21.502963274465092,0.02019852142357444,-45.385498559446525,18.64475317446057,-89.71453857421875,5356.25390625,True
1599559521.1295366,0.0,10,0.5,0.5,1.964661933517456,-0.05075,-0.001,-0.2505,0.12944021008872902,10,1,100,-0.02757574752433954,-10,-1,-100,15015.513266454102,-0.008173055012056483,0.008013554461108104,0.9999344899125485,22.010280022427203,0.020732391131768727,-45.07187013555191,18.08755903940321,-96.3520736694336,5356.25390625,True
1599559521.1664345,0.0,10,0.5,0.5,0.9326918563842774,-0.05075,-0.001,-0.2505,0.09987140022795327,10,1,100,0.04780065220456545,-10,-1,-100,15015.844314065995,-0.007756287235191455,0.008137930402033715,0.9999368050517475,22.32652843702742,0.021119904734985394,-45.251307839743255,17.901826034137077,-98.43197631835938,5356.25390625,True
1599559521.212826,0.0,10,0.5,0.5,2.715702624130249,-0.05075,-0.001,-0.2505,0.12821855298848517,10,1,100,-0.09031869229408328,-10,-1,-100,15017.237846966018,-0.006127904138387579,0.00850510337473919,0.9999450544942237,23.428536187635384,0.022763039192600056,-45.519281646298325,17.158880519732836,-106.06629180908203,5356.25390625,True
1599559521.2467372,0.0,10,0.5,0.5,0.8080710414886476,-0.05075,-0.001,-0.2505,0.09190802270413602,10,1,100,0.07170839272544133,-10,-1,-100,15017.237846966018,-0.006127904138387579,0.00850510337473919,0.9999450544942237,23.428536187635384,0.022763039192600056,-45.519281646298325,17.158880519732836,-106.06629180908203,5356.25390625,True
1599559521.2776563,0.0,10,0.5,0.5,1.8409416564941408,-0.05075,-0.001,-0.2505,0.10488077261942225,10,1,100,-0.019841724052931706,-10,-1,-100,15017.90873585851,-0.00530250335484569,0.00861979775230183,0.9999487899612065,23.80569051102355,0.023505556143509444,-45.253138188693335,16.78740072872513,-109.48040771484375,5356.25390625,True
1599559521.3374944,0.0,10,0.5,0.5,2.811146920776367,-0.05075,-0.001,-0.2505,0.10528842067976599,10,1,100,-0.1087838970822663,-10,-1,-100,15019.230985598173,-0.0037503500829567716,0.008725115669893148,0.9999549025985133,24.40244422013069,0.024868373414497023,-44.33902547775362,16.044433355456697,-115.52647399902344,5356.25390625,True
1599559521.3684115,0.0,10,0.5,0.5,1.709943976211548,-0.05075,-0.001,-0.2505,0.09561689269427012,10,1,100,0.005005060580177731,-10,-1,-100,15019.558131307713,-0.0033819340581975306,0.008730184916259638,0.9999561722362404,24.513116190676467,0.02516167448204989,-44.02555683806199,15.85869121604992,-116.88304901123047,5356.25390625,True
1599559521.4083045,0.0,10,0.5,0.5,2.478205564117432,-0.05075,-0.001,-0.2505,0.09175242350892482,10,1,100,-0.07740986192237725,-10,-1,-100,15020.48683236516,-0.0023056898279436933,0.008697334456950695,0.9999595192645356,24.745735046894275,0.025890500350218053,-42.88479034891858,15.301468353352556,-120.54690551757812,5356.25390625,True
1599559521.447612,0.0,10,0.5,0.5,2.197145051574707,-0.05075,-0.001,-0.2505,0.08860871971025236,10,1,100,-0.046548672634535854,-10,-1,-100,15021.085460430593,-0.001616081021575322,0.008636987122838622,0.9999613946225983,24.828743495943428,0.026252444823669556,-41.98596156499617,14.929992055017811,-122.64642333984375,5356.25390625,True
1599559521.4775317,0.0,10,0.5,0.5,1.67497742767334,-0.05075,-0.001,-0.2505,0.09478467862857012,10,1,100,0.021554163918046265,-10,-1,-100,15021.085460430593,-0.001616081021575322,0.008636987122838622,0.9999613946225983,24.828743495943428,0.026252444823669556,-41.98596156499617,14.929992055017811,-122.64642333984375,5356.25390625,True
1599559521.50745,0.0,10,0.5,0.5,2.227788934326172,-0.05075,-0.001,-0.2505,0.08588239977329623,10,1,100,-0.05097667849614339,-10,-1,-100,15021.677253157133,-0.0009637785879297914,0.008555093656288983,0.9999629400649634,24.86562732370925,0.02652471197221029,-41.003986710397584,14.558522049382852,-124.47055053710938,5356.25390625,True
1599559521.5633032,0.0,10,0.5,0.5,2.442372529602051,-0.05075,-0.001,-0.2505,0.07543541943709045,10,1,100,-0.08828338646694013,-10,-1,-100,15022.533694589278,-3.817837253945412e-05,0.008385180193464549,0.9999648430297612,24.85321086806628,0.026790025293922284,-39.41758806074616,14.00133237472928,-126.69035339355469,5356.25390625,True
1599559521.5962148,0.0,10,0.5,0.5,2.3711212036132814,-0.05075,-0.001,-0.2505,0.06908438935952295,10,1,100,-0.0901741662880656,-10,-1,-100,15023.329588078428,0.0008134488135868551,0.00817275199947224,0.9999662716440904,24.78182115316924,0.026920961851119557,-37.74274160223983,13.444163625528217,-128.29029846191406,5356.25390625,True
1599559521.631118,0.0,10,0.5,0.5,1.9725573646545411,-0.05075,-0.001,-0.2505,0.09029397362122715,10,1,100,-0.005705582970632121,-10,-1,-100,15023.329588078428,0.0008134488135868551,0.00817275199947224,0.9999662716440904,24.78182115316924,0.026920961851119557,-37.74274160223983,13.444163625528217,-128.29029846191406,5356.25390625,True
1599559521.6610427,0.0,10,0.5,0.5,2.0939127037048344,-0.05075,-0.001,-0.2505,0.0822717610725676,10,1,100,-0.0354092445929438,-10,-1,-100,15023.593259784393,0.0010771717801969845,0.008100124932098305,0.9999666132811835,24.74807295973502,0.026941439285348,-37.17147182323706,13.258445789692004,-128.68576049804688,5356.25390625,True
1599559521.6949503,0.0,10,0.5,0.5,2.1727826293945314,-0.05075,-0.001,-0.2505,0.07223572901383002,10,1,100,-0.06506247818402097,-10,-1,-100,15024.119625777472,0.0015806950778204923,0.007943336100151844,0.9999672018694767,24.66914834166199,0.026956434209815205,-36.016445014409804,12.887018320609485,-129.27003479003906,5356.25390625,True
1599559521.7398298,0.0,10,0.5,0.5,2.1209026405334477,-0.05075,-0.001,-0.2505,0.0667475626127232,10,1,100,-0.06874711404773287,-10,-1,-100,15024.637202398386,0.002067093815183992,0.007751619085253855,0.9999678192445577,24.577311775409473,0.026945246185510554,-34.84966896938793,12.515601847836654,-129.5791015625,5356.25390625,True
1599559521.7737405,0.0,10,0.5,0.5,2.0286395500183105,-0.05075,-0.001,-0.2505,0.054579757820796895,10,1,100,-0.09206296522618683,-10,-1,-100,15025.360832868842,0.0027162831072518622,0.007467604087993631,0.9999684278492328,24.420003702828023,0.02690010982165437,-33.08734996601358,11.958498087372085,-129.52561950683594,5356.25390625,True
1599559521.8046582,0.0,10,0.5,0.5,1.9284168350219728,-0.05075,-0.001,-0.2505,0.06078271029454818,10,1,100,-0.07081549899260947,-10,-1,-100,15025.822746079299,0.003108730977067227,0.007266917049672036,0.999968763366289,24.302241526129112,0.026861224285856664,-31.906477468508264,11.587109514652287,-129.14547729492188,5356.25390625,True
1599559521.84156,0.0,10,0.5,0.5,1.9358700469970704,-0.05075,-0.001,-0.2505,0.06994864225386932,10,1,100,-0.05201590350994345,-10,-1,-100,15026.077629186562,0.0032903010706945564,0.007169046459985475,0.9999688888619079,24.23907848948384,0.02684102842603581,-31.314195459672565,11.401419480200978,-128.85195922851562,5356.25390625,True
1599559521.8714783,0.0,10,0.5,0.5,1.7709235916137698,-0.05075,-0.001,-0.2505,0.05722474716522398,10,1,100,-0.07166599345421981,-10,-1,-100,15026.473136299639,0.003629541626128941,0.006965735914612602,0.9999691519995764,24.10299869015741,0.02680125456202024,-30.125353289265796,11.030047630153764,-128.05828857421875,5356.25390625,True
1599559521.9053886,0.0,10,0.5,0.5,1.6479732032775882,-0.05075,-0.001,-0.2505,0.05433764258920454,10,1,100,-0.0719799863112537,-10,-1,-100,15026.928213806823,0.003936620865938636,0.0067561066115295184,0.9999694285524992,23.95093059552484,0.02676276965583545,-28.928571636143655,10.658686903491526,-126.98899841308594,5356.25390625,True
1599559521.9392986,0.0,10,0.5,0.5,1.5106556518554686,-0.05075,-0.001,-0.2505,0.052678475820928015,10,1,100,-0.07140180707111522,-10,-1,-100,15027.323720562039,0.004206914182456665,0.0065519321595441425,0.9999696865695671,23.778396346166684,0.0267240375477512,-27.72064761735958,10.2873372606988,-125.6439208984375,5356.25390625,True
1599559521.9702168,0.0,10,0.5,0.5,1.6135948143005374,-0.05075,-0.001,-0.2505,0.06156324423257674,10,1,100,-0.05825361733511737,-10,-1,-100,15027.517078893725,0.0043300214131741024,0.006448563115881451,0.9999698330191276,23.682717934687105,0.0267032305439227,-27.111326442271427,10.101666549900399,-124.86802673339844,5356.25390625,True
1599559522.0011325,0.0,10,0.5,0.5,1.5531172149658206,-0.05075,-0.001,-0.2505,0.0602653849204349,10,1,100,-0.05894134569936397,-10,-1,-100,15027.767079206184,0.004444992269319844,0.006344359981426434,0.9999699951199293,23.579477611160062,0.026680119821012337,-26.497513204137135,9.915998609803493,-124.02322387695312,5356.25390625,True
1599559522.0370362,0.0,10,0.5,0.5,1.1929949325561526,-0.05075,-0.001,-0.2505,0.047465673415281115,10,1,100,-0.07041746338834226,-10,-1,-100,15028.102039484656,0.0046507779170893,0.00613486499546654,0.9999703664090519,23.34713191040923,0.026622714990697006,-25.25487912190697,9.544670792865672,-122.12686157226562,5356.25390625,True
1599559522.0929341,0.0,10,0.5,0.5,1.3505577739715577,-0.05075,-0.001,-0.2505,0.056247443218700344,10,1,100,-0.06027295319495909,-10,-1,-100,15028.297350287321,0.004742841974358715,0.006025893343811071,0.9999705965974277,23.215897426567246,0.026585282363313242,-24.624887676701796,9.359010810635048,-121.07537078857422,5356.25390625,True
1599559522.125846,0.0,10,0.5,0.5,0.13846052322387714,-0.05075,-0.001,-0.2505,0.01885580269406728,10,1,100,-0.0832404629001195,-10,-1,-100,15029.008285056101,0.005032899616324027,0.0055884730427562005,0.9999717190453451,22.563449797615707,0.026330330130492505,-22.03540627197783,8.616396326215671,-116.18028259277344,5356.25390625,True
1599559522.1627467,0.0,10,0.5,0.5,0.5015244747161864,-0.05075,-0.001,-0.2505,0.03686421749625954,10,1,100,-0.06573271927223871,-10,-1,-100,15029.382306347019,0.005135321061030784,0.005356239386403737,0.9999724692096456,22.14216915988861,0.026103082129555834,-20.69288088030951,8.245103265251045,-113.31946563720703,5356.25390625,True
1599559522.401629,0.0,10,0.5,0.5,1.2165765209197998,-0.05075,-0.001,-0.2505,0.059896515365179086,10,1,100,-0.05569323380995939,-10,-1,-100,15029.382306347019,0.005135321061030784,0.005356239386403737,0.9999724692096456,22.14216915988861,0.026103082129555834,-20.69288088030951,8.245103265251045,-113.31946563720703,5356.25390625,True
1599559522.4355376,0.0,10,0.5,0.5,0.30661450576782256,-0.05075,-0.001,-0.2505,0.035564568368451864,10,1,100,-0.063684327160599,-10,-1,-100,15029.700663668686,0.005206290073318111,0.0051366878746822,0.9999732541330045,21.64693219548232,0.025780895458783495,-19.319710977407183,7.873818089199503,-110.30400085449219,5356.25390625,True
1599559522.4704425,0.0,10,0.5,0.5,-0.3870313243865966,-0.05075,-0.001,-0.2505,0.017129338599264556,10,1,100,-0.0634735294336859,-10,-1,-100,15030.145973443752,0.005267457606564481,0.004771165364342673,0.9999747446167974,20.846546535690624,0.025189218922042053,-17.290202652489935,7.316899891069194,-105.49987030029297,5356.25390625,True
1599559522.506348,0.0,10,0.5,0.5,-0.2172473033905028,-0.05075,-0.001,-0.2505,0.026801629716776416,10,1,100,-0.05833575626176302,-10,-1,-100,15030.399876845418,0.005275147574552222,0.0045286065844179265,0.9999758319781886,20.23852104663387,0.024663550285417772,-15.934602213745798,6.945624378326029,-102.07579803466797,5356.25390625,True
1599559522.5941138,0.0,10,0.5,0.5,-0.39331372756958,-0.05075,-0.001,-0.2505,0.023601666657907534,10,1,100,-0.05600547294372822,-10,-1,-100,15030.659639224177,0.00525998293947522,0.004280847416292191,0.999977003198011,19.54253014963639,0.0239846277203824,-14.564517597836273,6.574349048333034,-98.65193176269531,5356.25390625,True
1599559522.66193,0.0,10,0.5,0.5,-0.5447616958618164,-0.05075,-0.001,-0.2505,0.01971727330476003,10,1,100,-0.05343918339263841,-10,-1,-100,15030.909635995165,0.005222021583007764,0.004022269792694353,0.9999782756821776,18.831716444713454,0.02323264326364143,-13.242488135605516,6.203070396191644,-95.31083679199219,5356.25390625,True
1599559522.7357335,0.0,10,0.5,0.5,-1.1760164318084716,-0.05075,-0.001,-0.2505,0.0013126011484950878,10,1,100,-0.04688026574896503,-10,-1,-100,15031.281700189807,0.005127178344627875,0.003621995015447303,0.9999802964030493,17.73311261825583,0.021953127856294462,-11.350716840542406,5.646139728370973,-90.4466781616211,5356.25390625,True
1599559522.8110492,0.0,10,0.5,0.5,-1.7903757514953613,-0.05075,-0.001,-0.2505,-0.020662271962170783,10,1,100,-0.035087317561539905,-10,-1,-100,15031.71333323943,0.004933315507644531,0.003060621707834858,0.9999831473544258,17.925402876830454,0.022097590053971564,-9.965041890457437,4.903522576359724,-84.37310791015625,5356.25390625,True
1599559522.8469524,0.0,10,0.5,0.5,-1.851310782623291,-0.05075,-0.001,-0.2505,-0.028194979117424246,10,1,100,-0.025971139104718474,-10,-1,-100,15032.07270042121,0.0046740290575674,0.002484498882808491,0.9999859902606988,18.779638222143628,0.022926167494263575,-8.858982724751824,4.1608400683563715,-79.13262939453125,5356.25390625,True
1599559522.909787,0.0,10,0.5,0.5,-0.8860176689147949,-0.05075,-0.001,-0.2505,0.013274511918619721,10,1,100,-0.043743989958894586,-10,-1,-100,15032.135199252283,0.0046002117203159335,0.0023405680278030553,0.9999866798080039,18.93620031375555,0.02305701841192802,-8.534268831267013,3.9751605545981867,-77.9915771484375,5356.25390625,True
1599559522.9456906,0.0,10,0.5,0.5,-1.771253681945801,-0.05075,-0.001,-0.2505,-0.036268806875154234,10,1,100,-0.014998268202618008,-10,-1,-100,15032.426208236488,0.004272266769885463,0.0017620695081807147,0.999989321366831,19.36698826553025,0.02335852681994784,-7.097735067488132,3.2324116446772737,-74.11593627929688,5356.25390625,True
1599559523.0484161,0.0,10,0.5,0.5,-1.0456992500305176,-0.05075,-0.001,-0.2505,0.004848156538425501,10,1,100,-0.037752754950124326,-10,-1,-100,15032.484799357364,0.004181778562008861,0.0016132197667186054,0.9999899550745711,19.431723560416803,0.023390186821548226,-6.712393758812799,3.0467170054928956,-73.314697265625,5356.25390625,True
1599559523.1062624,0.0,10,0.5,0.5,-1.878782984161377,-0.05075,-0.001,-0.2505,-0.07418203984971533,10,1,100,0.018182883595183177,-10,-1,-100,15032.759204713046,0.003591942123992163,0.0007626486419590109,0.9999932581366869,19.563175736965903,0.02336485192423991,-4.286555317551478,1.9324920417276892,-69.89529418945312,5356.25390625,True
1599559523.1451569,0.0,10,0.5,0.5,-1.2037400100708011,-0.05075,-0.001,-0.2505,-0.021217776178117154,10,1,100,-0.016373581482856385,-10,-1,-100,15032.802170943236,0.0033714000587614997,0.0004745395771215299,0.9999942042201212,19.524608005965632,0.023292214717920968,-3.455889140112643,1.5610624873483085,-69.3045654296875,5356.25390625,True
1599559523.2139711,0.0,10,0.5,0.5,-1.1540351921081544,-0.05075,-0.001,-0.2505,-0.022245621326235233,10,1,100,-0.013651940144042328,-10,-1,-100,15032.851973294746,0.00314789575775876,0.00020696371411119767,0.9999950239467791,19.447207862394908,0.023188191841344023,-2.623188284069436,1.1896222525509965,-68.98922729492188,5356.25390625,True
1599559523.2887738,0.0,10,0.5,0.5,-1.0188679862976073,-0.05075,-0.001,-0.2505,-0.05393835789339984,10,1,100,0.016481634335385693,-10,-1,-100,15032.931071617524,0.002672688522653939,-0.00032069932677952713,0.9999963769374379,19.183313509666245,0.022885615404200456,-0.971684015703226,0.44671019062365236,-69.185546875,5356.25390625,True
1599559523.3625765,0.0,10,0.5,0.5,-0.679496918487549,-0.05075,-0.001,-0.2505,-0.05520436362955832,10,1,100,0.024360170738797204,-10,-1,-100,15032.949623506167,0.0021713764625825006,-0.0008079539896275596,0.9999973161637027,18.833995581720114,0.022507751502661086,0.6326670842488732,-0.29623994489298666,-70.4840087890625,5356.25390625,True
1599559523.3984804,0.0,10,0.5,0.5,-0.4955485595703125,-0.05075,-0.001,-0.2505,-0.04270598308546962,10,1,100,0.017011284445898205,-10,-1,-100,15032.911536991945,0.001785133375982134,-0.0011332639063567147,0.9999977645033754,18.65674320659127,0.022323947285843682,1.8056038788109297,-0.8534660675513286,-72.18096923828125,5356.25390625,True
1599559523.4603152,0.0,10,0.5,0.5,-0.48134443359375007,-0.05075,-0.001,-0.2505,-0.03191924410528131,10,1,100,0.007177060033169442,-10,-1,-100,15032.824622869492,0.0015262673211263009,-0.0013271263075504242,0.9999979546198223,18.491118241205115,0.022139301625356694,2.5685662858327873,-1.2249523035724663,-73.64324951171875,5356.25390625,True
1599559523.5111814,0.0,10,0.5,0.5,-0.08136219024658209,-0.05075,-0.001,-0.2505,-0.041269193872973564,10,1,100,0.024289387933563493,-10,-1,-100,15032.778723204043,0.0011382295282869076,-0.0015848992836233998,0.9999980962620887,18.17008012233078,0.02175761016429284,3.672232556965603,-1.7821818759017733,-76.18875122070312,5356.25390625,True
1599559523.5450885,0.0,10,0.5,0.5,-0.1537033615112306,-0.05075,-0.001,-0.2505,-0.03248327270445254,10,1,100,0.014283990006583447,-10,-1,-100,15032.685949815554,0.0008795733179436678,-0.0017357977355109805,0.9999981066767076,17.919469367491665,0.02144295046487411,4.376575905747878,-2.1536684241719257,-78.06588745117188,5356.25390625,True
1599559523.579995,0.0,10,0.5,0.5,-0.022658227539062492,-0.05075,-0.001,-0.2505,-0.032452016117338084,10,1,100,0.01685671197824482,-10,-1,-100,15032.59219983127,0.0006241271937546572,-0.0018695141162134755,0.9999980576892213,17.632670063398823,0.02107103040534213,5.049478348478725,-2.5251565207267275,-80.06048583984375,5356.25390625,True
1599559523.6149032,0.0,10,0.5,0.5,0.09341847381591789,-0.05075,-0.001,-0.2505,-0.03256441982730151,10,1,100,0.019512853619465316,-10,-1,-100,15032.436926719849,0.0003709909308156014,-0.001988930192503655,0.9999979532591147,17.307852045850314,0.020641902960676885,5.685770123611944,-2.896648589686315,-82.10214233398438,5356.25390625,True
1599559523.681726,0.0,10,0.5,0.5,0.20919339599609377,-0.05075,-0.001,-0.2505,-0.03262753220773432,10,1,100,0.022093142170185792,-10,-1,-100,15032.338294330868,0.00012033802422188861,-0.002095562575467332,0.9999977970656997,16.94879525606418,0.020164921415662163,6.282053266759121,-3.268147734924014,-84.18011474609375,5356.25390625,True
1599559523.718144,0.0,10,0.5,0.5,0.6309391525268555,-0.05075,-0.001,-0.2505,-0.03697448025253621,10,1,100,0.037706379386504715,-10,-1,-100,15032.102944242419,-0.00024651126370753176,-0.0022296823584301564,0.9999974838712232,16.363254256845277,0.01939639204104775,7.099489423459118,-3.8254171104825643,-87.30307006835938,5356.25390625,True
1599559523.7759912,0.0,10,0.5,0.5,0.46824969329833976,-0.05075,-0.001,-0.2505,-0.031901773081561155,10,1,100,0.02753030627895822,-10,-1,-100,15031.940835565212,-0.00048441503628252183,-0.0023032787813215497,0.999997230120628,15.954355887981224,0.018876447162436853,7.594587441660164,-4.196947366740867,-89.35379028320312,5356.25390625,True
1599559523.8108988,0.0,10,0.5,0.5,0.2598359546661377,-0.05075,-0.001,-0.2505,-0.02831326670198632,10,1,100,0.016872009913999203,-10,-1,-100,15031.856850569136,-0.0006009274957065795,-0.002335759490086189,0.9999970915526453,15.747349923730587,0.01862091266125078,7.827969227229567,-4.382717964074958,-90.36051177978516,5356.25390625,True
1599559523.8487978,0.0,10,0.5,0.5,0.8573191989898682,-0.05075,-0.001,-0.2505,-0.03370820695920447,10,1,100,0.04192557349703316,-10,-1,-100,15031.550212110626,-0.0009320873059757688,-0.0024129434044828815,0.999996654453094,16.119106142956905,0.01906363858174409,9.032167177854078,-4.940045938810333,-93.17438507080078,5356.25390625,True
1599559523.8787172,0.0,10,0.5,0.5,0.6705538803100586,-0.05075,-0.001,-0.2505,-0.03025287933419861,10,1,100,0.03252837041761897,-10,-1,-100,15031.381267482182,-0.0011452423594240319,-0.002450535185072434,0.9999963416419307,16.524294642508927,0.019573924811306848,9.956008390437212,-5.31160871443053,-94.88728332519531,5356.25390625,True
1599559523.9662325,0.0,10,0.5,0.5,0.49181732368469244,-0.05075,-0.001,-0.2505,-0.028249266435992397,10,1,100,0.02286765887156801,-10,-1,-100,15031.235759126255,-0.001248766385157853,-0.0024654735875542237,0.9999961810039597,16.719822955905894,0.019829399769146872,10.426374512921829,-5.49739303320576,-95.71125030517578,5356.25390625,True
1599559524.00317,0.0,10,0.5,0.5,0.9459273227691651,-0.05075,-0.001,-0.2505,-0.029888948719678933,10,1,100,0.04393574303203733,-10,-1,-100,15030.918378841714,-0.0015322371773624616,-0.0024931596339312456,0.9999957181929691,17.264901138350808,0.02058077822394191,11.858600314448555,-6.054755769199092,-97.89734649658203,5356.25390625,True
1599559524.0340862,0.0,10,0.5,0.5,1.084230989074707,-0.05075,-0.001,-0.2505,-0.0276476127780012,10,1,100,0.053816318425026405,-10,-1,-100,15030.390059724334,-0.0018775687552162737,-0.0024972644748965404,0.9999951191909447,17.875928383042638,0.02151756450870106,13.78667085159442,-6.797923409337651,-100.16767883300781,5356.25390625,True
1599559524.073099,0.0,10,0.5,0.5,0.6548501754760743,-0.05075,-0.001,-0.2505,-0.026820543189961396,10,1,100,0.027794101629398337,-10,-1,-100,15030.238692056737,-0.0019526666769876923,-0.002492906651920371,0.9999949862420678,18.01306304331563,0.021744824993169883,14.272499293274441,-6.983717184063858,-100.62353515625,5356.25390625,True
1599559524.1497397,0.0,10,0.5,0.5,0.7609321846008301,-0.05075,-0.001,-0.2505,-0.025815866282800495,10,1,100,0.03595061922109194,-10,-1,-100,15029.94377092761,-0.0020929752588791026,-0.002479353407822921,0.9999947361167681,18.26295657175562,0.02218254878920923,15.241271623671192,-7.355306105491307,-101.34858703613281,5356.25390625,True
1599559524.2335176,0.0,10,0.5,0.5,0.8045224811553957,-0.05075,-0.001,-0.2505,-0.021573320777549157,10,1,100,0.049247819785139625,-10,-1,-100,15029.338303222321,-0.0023394000536507264,-0.0024281147805662673,0.999994315716845,18.660468729523505,0.02297568892391004,17.14852287536615,-8.098486350879977,-102.09049224853516,5356.25390625,True
1599559524.3208015,0.0,10,0.5,0.5,0.642273337173462,-0.05075,-0.001,-0.2505,-0.02287154217458532,10,1,100,0.03579748513917971,-10,-1,-100,15028.977951828041,-0.0024392441986708004,-0.0023931558299222417,0.9999941614294121,18.81895699639715,0.023339570444839936,18.08883380129072,-8.470076356854168,-102.1639175415039,5356.25390625,True
1599559524.3666747,0.0,10,0.5,0.5,0.40136817932128915,-0.05075,-0.001,-0.2505,-0.013904168238108604,10,1,100,0.04649969739629654,-10,-1,-100,15028.086352196522,-0.002625527324515213,-0.002279771678051884,0.9999939546054087,19.094297356085796,0.02412909903124368,20.36991711480871,-9.399048884322363,-101.42103576660156,5356.25390625,True
1599559524.4350095,0.0,10,0.5,0.5,0.2621675148010255,-0.05075,-0.001,-0.2505,-0.015936474664700134,10,1,100,0.03592391504889983,-10,-1,-100,15027.504319894128,-0.002696891599553065,-0.002195221587331513,0.9999939538706636,19.168270614985136,0.024492467746141566,21.66388611687216,-9.956429464983486,-100.33755493164062,5356.25390625,True
1599559524.4719117,0.0,10,0.5,0.5,0.25088561325073244,-0.05075,-0.001,-0.2505,-0.017695047195271756,10,1,100,0.03191013842916813,-10,-1,-100,15027.073655725224,-0.0027236749673230265,-0.002134542820424692,0.9999940126428859,19.180113988197633,0.02468058459801091,22.488034248728017,-10.328015125479327,-99.39677429199219,5356.25390625,True
1599559524.5083365,0.0,10,0.5,0.5,0.16614944190979009,-0.05075,-0.001,-0.2505,-0.016698526824271323,10,1,100,0.030654786267629987,-10,-1,-100,15026.695725516998,-0.0027351762523654638,-0.002070608294740894,0.9999941156787666,19.16629186144797,0.02482561541730301,23.28219440571613,-10.699599372821034,-98.33170318603516,5356.25390625,True
1599559524.5432425,0.0,10,0.5,0.5,-0.09872410240173335,-0.05075,-0.001,-0.2505,-0.011394825009282147,10,1,100,0.02929902712633109,-10,-1,-100,15025.977952568559,-0.002731955601240228,-0.0019646294960673698,0.9999943383087406,19.105024311790487,0.024962394891623604,24.419797899137,-11.256973179215985,-96.5659408569336,5356.25390625,True
1599559524.5821388,0.0,10,0.5,0.5,0.15515509185791018,-0.05075,-0.001,-0.2505,-0.017855068961555715,10,1,100,0.02892553322614619,-10,-1,-100,15025.759201600566,-0.0027245416843757167,-0.0019274951060556202,0.9999944308021051,19.075141799527362,0.02498604119380907,24.785079506226406,-11.442763678617005,-95.94084167480469,5356.25390625,True
1599559524.6320064,0.0,10,0.5,0.5,-0.273993147277832,-0.05075,-0.001,-0.2505,-0.00856633568480359,10,1,100,0.02546881154479046,-10,-1,-100,15025.095138830715,-0.0026856070420055093,-0.0018098115120461385,0.9999947560348038,18.959231529913886,0.024986564676997933,25.837852183482035,-12.000131814254981,-93.99789428710938,5356.25390625,True
1599559524.6928434,0.0,10,0.5,0.5,-0.18026971168518066,-0.05075,-0.001,-0.2505,-0.010974421619173743,10,1,100,0.025225460049107674,-10,-1,-100,15024.595138367382,-0.0026473333168309156,-0.001725339112477133,0.9999950074031652,18.868461220682054,0.024934886207940855,26.512817817157742,-12.371707547474124,-92.6955795288086,5356.25390625,True
1599559524.798561,0.0,10,0.5,0.5,-0.44403103713989256,-0.05075,-0.001,-0.2505,-0.004673422183265049,10,1,100,0.02098781108951631,-10,-1,-100,15023.810956495465,-0.002573510977895953,-0.0015919496764473635,0.999995421358255,18.714827712107645,0.02477606532810912,27.4855786500245,-12.92906570311221,-90.73997497558594,5356.25390625,True
1599559524.890316,0.0,10,0.5,0.5,-0.8522018402099609,-0.05075,-0.001,-0.2505,0.008779618457523907,10,1,100,0.010408310805828234,-10,-1,-100,15022.442791315378,-0.002410009657263145,-0.0013491463334168723,0.9999961858215374,19.097463313903496,0.02519036206825613,30.070165566038334,-13.85796799067565,-87.76266479492188,5356.25390625,True
1599559524.9322047,0.0,10,0.5,0.5,-0.5889542289733887,-0.05075,-0.001,-0.2505,0.0014557873435798972,10,1,100,0.013605833871170375,-10,-1,-100,15021.582437893609,-0.0022904670614104367,-0.0011959454039672853,0.9999966617320437,19.654918413682,0.025773226088827626,32.19757582334586,-14.41527748509668,-86.16555786132812,5356.25390625,True
1599559524.9810731,0.0,10,0.5,0.5,-0.6927145942687989,-0.05075,-0.001,-0.2505,0.00914685486377255,10,1,100,0.00594635923692733,-10,-1,-100,15020.425209795125,-0.0021124649869267696,-0.0009877383327150772,0.9999972809286358,20.30269594764224,0.02632285859605453,34.980664679078885,-15.158315154658291,-84.49813842773438,5356.25390625,True
1599559525.0568707,0.0,10,0.5,0.5,-0.4438934455871582,-0.05075,-0.001,-0.2505,9.838864060808528e-05,10,1,100,0.01310552730454033,-10,-1,-100,15019.786536852247,-0.0020162595622041234,-0.0008818156729278526,0.9999975785463165,20.56796988393272,0.026486952663084408,36.310294873846395,-15.529816396464295,-83.94284057617188,5356.25390625,True
1599559525.1276822,0.0,10,0.5,0.5,-0.4189837074279785,-0.05075,-0.001,-0.2505,0.0006921813252169541,10,1,100,0.012017108749333587,-10,-1,-100,15019.15177072701,-0.0019195484759590372,-0.0007812630733952923,0.9999978524785234,20.796882809753797,0.026587628971163825,37.59694510430359,-15.901306065357593,-83.56890869140625,5356.25390625,True
1599559525.226416,0.0,10,0.5,0.5,-0.3808013946533203,-0.05075,-0.001,-0.2505,0.018179798029257482,10,1,100,-0.0064991580899435054,-10,-1,-100,15017.509191578138,-0.001664041087903173,-0.0005320454176210922,0.9999984739463014,21.213829101107176,0.026599769692352893,40.602412562126275,-16.82998491361134,-83.38961791992188,5356.25390625,True
1599559525.3062031,0.0,10,0.5,0.5,-0.20562126235961917,-0.05075,-0.001,-0.2505,0.014992346193650731,10,1,100,-0.004935976131828959,-10,-1,-100,15016.148839034373,-0.0014469432206655533,-0.0003357630964031956,0.9999988968086212,21.42749843921293,0.026448647961252677,42.83211224076804,-17.572884869998607,-83.826416015625,5356.25390625,True
1599559525.3520818,0.0,10,0.5,0.5,-0.04821645584106446,-0.05075,-0.001,-0.2505,0.015006192460774916,10,1,100,-0.0074189557723628174,-10,-1,-100,15014.72500982217,-0.0012281704341389641,-0.00015864577651275374,0.9999992332141572,21.549556286600588,0.02620518417813079,44.90837595356245,-18.315750161883997,-84.71615600585938,5356.25390625,True
1599559525.429906,0.0,10,0.5,0.5,-0.09231151504516602,-0.05075,-0.001,-0.2505,0.006563850783944187,10,1,100,0.0024070940075618177,-10,-1,-100,15013.95254894637,-0.0011199387503939857,-7.58796516158436e-05,0.9999993699895384,21.57735953426356,0.026059579289538944,45.88409274384227,-18.687171254278965,-85.31271362304688,5356.25390625,True
1599559525.4727898,0.0,10,0.5,0.5,0.16000046081542965,-0.05075,-0.001,-0.2505,0.01455700790697763,10,1,100,-0.009701499020836661,-10,-1,-100,15012.39493107365,-0.0009128567327007799,7.052783626268667e-05,0.9999995808591172,21.588146600922016,0.025763562077960808,47.744442372199806,-19.429991897746703,-86.64877319335938,5356.25390625,True
1599559525.557563,0.0,10,0.5,0.5,0.03603531799316406,-0.05075,-0.001,-0.2505,0.007594324979983091,10,1,100,-0.0004449376329025666,-10,-1,-100,15011.612704120344,-0.0008102605967292621,0.00013881709180439106,0.9999996621037333,21.58266765976372,0.025631051954301542,48.65127692006818,-19.8013915998937,-87.349609375,5356.25390625,True
1599559525.6183987,0.0,10,0.5,0.5,0.2821551300048828,-0.05075,-0.001,-0.2505,0.013980275717914752,10,1,100,-0.011287520150462327,-10,-1,-100,15009.984774153214,-0.0006198767675596425,0.0002575996368005726,0.9999997746975847,21.55731889815006,0.025413450403337277,50.43086276122413,-20.544170579324547,-88.74951171875,5356.25390625,True
1599559525.663279,0.0,10,0.5,0.5,0.22861192016601561,-0.05075,-0.001,-0.2505,0.011152089712261521,10,1,100,-0.0076883035867752235,-10,-1,-100,15008.774812563439,-0.0004810394282515536,0.0003385515821631921,0.9999998269919325,21.54619064135132,0.025317179307936793,51.78253329396025,-21.101236412272165,-89.7349853515625,5356.25390625,True
1599559525.7261112,0.0,10,0.5,0.5,0.1654786434173584,-0.05075,-0.001,-0.2505,0.008289723407553035,10,1,100,-0.003189489771052616,-10,-1,-100,15007.925203029532,-0.0003972050868041103,0.0003849170298001524,0.999999847033488,21.572417652864008,0.025319904763176183,52.7655736856343,-21.47260430501164,-90.34313201904297,5356.25390625,True
1599559525.8303487,0.0,10,0.5,0.5,0.17578208847045898,-0.05075,-0.001,-0.2505,0.008553919579397318,10,1,100,-0.0039036460245514236,-10,-1,-100,15007.014070109231,-0.00031597158725226365,0.00042831764493894795,0.9999998583529657,21.82899753623221,0.0256131602204871,54.32445708301234,-21.84396116191057,-90.88090515136719,5356.25390625,True
1599559525.8662531,0.0,10,0.5,0.5,0.42207776031494143,-0.05075,-0.001,-0.2505,0.016277314260802454,10,1,100,-0.02008984805500167,-10,-1,-100,15004.3304763505,-9.643345728167969e-05,0.0005368858096975958,0.9999998512270968,22.5220351053104,0.026503148044462715,58.93393405510905,-22.95795922326651,-92.14323425292969,5356.25390625,True
1599559525.9302204,0.0,10,0.5,0.5,0.20467029457092284,-0.05075,-0.001,-0.2505,0.008751644418827293,10,1,100,-0.005499954125364422,-10,-1,-100,15003.413484273711,-3.0913836332961523e-05,0.0005661972052535755,0.9999998392325168,22.73329390988125,0.026804789780821823,60.458089990240914,-23.329268061645863,-92.46831512451172,5356.25390625,True
1599559525.9701111,0.0,10,0.5,0.5,0.23347355041503906,-0.05075,-0.001,-0.2505,0.009842248535240985,10,1,100,-0.00835461590629225,-10,-1,-100,15001.996493242099,5.331362673400564e-05,0.0006019385474521753,0.9999998174138045,23.03157537582374,0.027256652614556884,62.72821917605492,-23.886208966379705,-92.83137512207031,5356.25390625,True
1599559526.0095215,0.0,10,0.5,0.5,0.1784298286437988,-0.05075,-0.001,-0.2505,0.00851445520522451,10,1,100,-0.005638503177754157,-10,-1,-100,15001.014071253245,0.0001040271282982904,0.0006216683879744208,0.9999998013533662,23.20910736089334,0.02754289630081956,64.20439912391095,-24.257488451537718,-92.94786071777344,5356.25390625,True
1599559526.050409,0.0,10,0.5,0.5,0.1644956371307373,-0.05075,-0.001,-0.2505,0.008321724653080701,10,1,100,-0.005557758889383712,-10,-1,-100,15000.034578812541,0.0001482835763000068,0.000637218376120982,0.9999997859823381,23.371690837544836,0.027815859391471458,65.65417893759793,-24.628756995889308,-92.99593353271484,5356.25390625,True
1599559526.0853174,0.0,10,0.5,0.5,0.1488292610168457,-0.05075,-0.001,-0.2505,0.00811059399088493,10,1,100,-0.005455264140919917,-10,-1,-100,14999.047274508514,0.00018662026739825921,0.0006489201861071139,0.9999997720377078,23.522799991917246,0.02807731366112087,67.0855595911825,-25.000014460853937,-92.98179626464844,5356.25390625,True
1599559526.1651058,0.0,10,0.5,0.5,0.13314732627868653,-0.05075,-0.001,-0.2505,0.008002833405049673,10,1,100,-0.005374815175346424,-10,-1,-100,14998.052157463972,0.00021983419519679555,0.0006581148234102744,0.999999759278874,23.66391622401794,0.02832685606876302,68.50137244837161,-25.371261339018428,-92.9161148071289,5356.25390625,True
1599559526.2339206,0.0,10,0.5,0.5,0.09485437088012695,-0.05075,-0.001,-0.2505,0.007950083134204596,10,1,100,-0.006647499171659427,-10,-1,-100,14996.50430503441,0.0002608351559230773,0.0006656299319630927,0.9999997444508748,23.859769805415638,0.028678216272760893,70.60174788029754,-25.928111775736784,-92.73300170898438,5356.25390625,True
1599559526.2967522,0.0,10,0.5,0.5,0.025209889984130873,-0.05075,-0.001,-0.2505,0.007260101516797668,10,1,100,-0.006792237759062828,-10,-1,-100,14994.39297691395,0.0002987501304832056,0.0006658919447166828,0.9999997336681032,24.095118886525032,0.029099213510324212,73.36443795843901,-26.670542225726095,-92.34855651855469,5356.25390625,True
1599559526.3990905,0.0,10,0.5,0.5,0.007253570175170906,-0.05075,-0.001,-0.2505,0.006453211309360924,10,1,100,-0.0047723467784352765,-10,-1,-100,14992.724032474565,0.00031422295733462874,0.0006585393408660519,0.9999997337948995,24.25427043193033,0.029374478587765897,75.41016893656465,-27.227338539024498,-91.9686050415039,5356.25390625,True
1599559526.4429722,0.0,10,0.5,0.5,-0.11755949287414551,-0.05075,-0.001,-0.2505,0.0043559026496403095,10,1,100,-0.0032124617993107463,-10,-1,-100,14989.974031953141,0.0003135354868942569,0.0006325794207353573,0.9999997507693565,24.49715269992661,0.02975493442304309,78.79564682389692,-28.15528239604885,-91.23798370361328,5356.25390625,True
1599559526.4998214,0.0,10,0.5,0.5,-0.026696881484985356,-0.05075,-0.001,-0.2505,0.005310535104697313,10,1,100,-0.0022935841410938384,-10,-1,-100,14988.85196118534,0.0003041843814699688,0.0006175709760161188,0.9999997630389479,24.59099145033424,0.029882586520641904,80.15447692437387,-28.526442225129745,-90.93236541748047,5356.25390625,True
1599559526.5447,0.0,10,0.5,0.5,-0.08465263671875,-0.05075,-0.001,-0.2505,0.003957986713202643,10,1,100,-0.0007594023430130795,-10,-1,-100,14987.100009152316,0.000281431634540061,0.0005915843374661664,0.9999997854120803,24.73120902021815,0.030049768758802154,82.20696675892655,-29.083163205480147,-90.48635864257812,5356.25390625,True
1599559526.5845923,0.0,10,0.5,0.5,-0.056020441055297854,-0.05075,-0.001,-0.2505,0.004292459999970338,10,1,100,-0.0007610401590447437,-10,-1,-100,14985.91250906582,0.00026055482837879083,0.000571010199764085,0.9999998030292473,24.82878911902946,0.030150780528988695,83.59977212108227,-29.454297553681307,-90.21131134033203,5356.25390625,True
1599559526.6284792,0.0,10,0.5,0.5,-0.06682819747924805,-0.05075,-0.001,-0.2505,0.003922666833030684,10,1,100,-0.00014572248500125274,-10,-1,-100,14984.720126115019,0.00023583981874080392,0.0005489907350520235,0.9999998214943604,24.928458050368967,0.03024235638823927,85.0085991855477,-29.825421438981998,-89.9476318359375,5356.25390625,True
1599559526.6623864,0.0,10,0.5,0.5,-0.07466544876098632,-0.05075,-0.001,-0.2505,0.0034858812764885436,10,1,100,0.0005183448919139385,-10,-1,-100,14983.528719646856,0.00020725505542300426,0.00052508246901892,0.9999998406668587,25.126048140422878,0.030440956997793624,86.76465476896892,-30.1965330703788,-89.703369140625,5356.25390625,True
1599559526.7172382,0.0,10,0.5,0.5,-0.08225050125122071,-0.05075,-0.001,-0.2505,0.003038551546261803,10,1,100,0.0012037191528033405,-10,-1,-100,14982.331454063184,0.00017501947295507842,0.0004993936275477539,0.9999998599870846,25.32779276195826,0.030633294126398116,88.55277616044968,-30.56763168991549,-89.47616577148438,5356.25390625,True
1599559526.775084,0.0,10,0.5,0.5,-0.1177429641723633,-0.05075,-0.001,-0.2505,0.0010148176296954367,10,1,100,0.0040110671940224605,-10,-1,-100,14980.447663953877,0.0001202337928115554,0.00045778684623778363,0.9999998879875129,25.622745714586678,0.030892592584020894,91.24125783747009,-31.12425440898057,-89.17056274414062,5356.25390625,True
1599559526.8309357,0.0,10,0.5,0.5,-0.09493184204101562,-0.05075,-0.001,-0.2505,0.0019408740042102862,10,1,100,0.0030079034843151537,-10,-1,-100,14979.186922205728,7.967611855397501e-05,0.0004285701421658778,0.9999999049896702,25.813806278846233,0.031046440839882734,93.03535680279892,-31.49531983276625,-88.99334716796875,5356.25390625,True
1599559526.8628507,0.0,10,0.5,0.5,-0.07501678314208984,-0.05075,-0.001,-0.2505,0.0031890600665000586,10,1,100,0.0013341059824821745,-10,-1,-100,14978.558016866446,5.822100471095559e-05,0.00041357239521455294,0.9999999127840905,25.90760028844933,0.03111788790637326,93.93249859475112,-31.680847629558073,-88.9132080078125,5356.25390625,True
1599559526.9157429,0.0,10,0.5,0.5,-0.09691204452514648,-0.05075,-0.001,-0.2505,0.001282083440437334,10,1,100,0.0040950124837896736,-10,-1,-100,14977.288485324127,1.384993479870945e-05,0.0003828246258815524,0.99999992662674,26.090986516141456,0.031249537309050005,95.72392237895072,-32.051893187733285,-88.77490234375,5356.25390625,True
1599559526.9466245,0.0,10,0.5,0.5,-0.12142422180175783,-0.05075,-0.001,-0.2505,-0.002876051880245755,10,1,100,0.01052736032470428,-10,-1,-100,14974.698641633266,-8.469084953701478e-05,0.00031729792793157275,0.9999999460747411,26.439289823311245,0.031470075778892166,99.28661848309555,-32.7939447589516,-88.579345703125,5356.25390625,True
1599559526.980534,0.0,10,0.5,0.5,-0.08318985824584961,-0.05075,-0.001,-0.2505,0.001737473499590573,10,1,100,0.0036260655388254508,-10,-1,-100,14974.00918770954,-0.0001111808143060411,0.0002999423178374529,0.9999999488367151,26.523134979354484,0.03151782139916005,100.17485430565117,-32.979449561479555,-88.54443359375,5356.25390625,True
1599559527.0144794,0.0,10,0.5,0.5,-0.08972497024536133,-0.05075,-0.001,-0.2505,-0.00023304288860506468,10,1,100,0.006833699332200644,-10,-1,-100,14972.680086000939,-0.00016406598726416123,0.00026651583424068244,0.9999999510258298,26.6873451363362,0.03160575379184849,101.94934475925778,-33.3504493803792,-88.49435424804688,5356.25390625,True
1599559527.0523796,0.0,10,0.5,0.5,-0.0833458999633789,-0.05075,-0.001,-0.2505,-0.0007420018671836716,10,1,100,0.007736567507569095,-10,-1,-100,14971.351960834116,-0.0002199652908061264,0.00023177803513428868,0.9999999489471053,26.845369776487754,0.031682826354690795,103.71473391445986,-33.72143635296601,-88.47445678710938,5356.25390625,True
1599559527.1032417,0.0,10,0.5,0.5,-0.07864680480957031,-0.05075,-0.001,-0.2505,0.0007810798897901949,10,1,100,0.005411842043507243,-10,-1,-100,14970.648836747627,-0.00024923460334412616,0.00021433279073725472,0.9999999459717822,26.922200548684565,0.03171786955469259,104.5943040482161,-33.90692495715846,-88.4739990234375,5356.25390625,True
1599559527.1301851,0.0,10,0.5,0.5,-0.06799989776611329,-0.05075,-0.001,-0.2505,-0.0032468311033278137,10,1,100,0.01217479974665161,-10,-1,-100,14968.619539092993,-0.00033690951235383187,0.00016213860469186164,0.9999999301015243,27.14455927140652,0.0318114922845996,107.2217592971633,-34.46337228571683,-88.50936889648438,5356.25390625,True
1599559527.1660898,0.0,10,0.5,0.5,-0.07695673065185547,-0.05075,-0.001,-0.2505,0.0019388619989259043,10,1,100,0.0034585017442119296,-10,-1,-100,14968.619539092993,-0.00033690951235383187,0.00016213860469186164,0.9999999301015243,27.14455927140652,0.0318114922845996,107.2217592971633,-34.46337228571683,-88.50936889648438,5356.25390625,True
1599559527.1990335,0.0,10,0.5,0.5,-0.06109984588623048,-0.05075,-0.001,-0.2505,-0.001967165158952941,10,1,100,0.010257151975696936,-10,-1,-100,14967.224031735794,-0.0003982998387262725,0.00012689803802164116,0.9999999126270595,27.286480816707414,0.03186631029041638,108.96498846271028,-34.83432146076919,-88.56222534179688,5356.25390625,True
1599559527.2319129,0.0,10,0.5,0.5,-0.06405009307861328,-0.05075,-0.001,-0.2505,-0.00031071215950811666,10,1,100,0.007456091361814136,-10,-1,-100,14966.523836959153,-0.0004282105153411201,0.00011019407022925207,0.9999999022465059,27.355707037491616,0.031892054638684254,109.83448530663262,-35.01979128016329,-88.59652709960938,5356.25390625,True
1599559527.266838,0.0,10,0.5,0.5,-0.04754873352050781,-0.05075,-0.001,-0.2505,-0.002549187393601905,10,1,100,0.011454871584440304,-10,-1,-100,14965.125399693148,-0.0004913123765420812,7.493466858530509e-05,0.9999998764984644,27.490826527188577,0.03194102431491615,111.56943022455094,-35.390721688020264,-88.679931640625,5356.25390625,True
1599559527.2967367,0.0,10,0.5,0.5,-0.03768988342285156,-0.05075,-0.001,-0.2505,-0.0027792933918145348,10,1,100,0.01209494155027502,-10,-1,-100,14963.667392023257,-0.0005540372843129607,4.106869434096234e-05,0.999999845678013,27.621728866014532,0.03198776794241076,113.29943628882775,-35.76163947748819,-88.78204345703125,5356.25390625,True
1599559527.332641,0.0,10,0.5,0.5,-0.00736182098388672,-0.05075,-0.001,-0.2505,-0.005143245469095464,10,1,100,0.016619852498212913,-10,-1,-100,14961.498445648467,-0.0006517688032361266,-1.095791091682079e-05,0.9999997875386532,27.810920052933433,0.032056737487631735,115.88711945938377,-36.317993225605434,-88.96755981445312,5356.25390625,True
1599559527.3705401,0.0,10,0.5,0.5,-0.053791355895996096,-0.05075,-0.001,-0.2505,2.8325033807421e-05,10,1,100,0.00690075940478933,-10,-1,-100,14961.498445648467,-0.0006517688032361266,-1.095791091682079e-05,0.9999997875386532,27.810920052933433,0.032056737487631735,115.88711945938377,-36.317993225605434,-88.96755981445312,5356.25390625,True
1599559527.4113564,0.0,10,0.5,0.5,0.03357507171630859,-0.05075,-0.001,-0.2505,-0.0071610779232986,10,1,100,0.02120456200827517,-10,-1,-100,14958.560946067912,-0.000781360006162387,-7.606387075855052e-05,0.9999996918453666,28.052258787112102,0.03215416047412714,119.33158873905683,-37.05975555266958,-89.25741577148438,5356.25390625,True
1599559527.4422767,0.0,10,0.5,0.5,-0.01567780914306641,-0.05075,-0.001,-0.2505,-0.0025018723395921474,10,1,100,0.012057680059128426,-10,-1,-100,14957.858798628906,-0.0008155063595436931,-9.261483630288903e-05,0.999999663185878,28.111694746079127,0.032181239416986016,120.1958383822703,-37.2451883790036,-89.33468627929688,5356.25390625,True
1599559527.4692023,0.0,10,0.5,0.5,-0.010695759582519535,-0.05075,-0.001,-0.2505,-0.0027112181386830313,10,1,100,0.012459261065339473,-10,-1,-100,14957.094149443088,-0.0008496844428957086,-0.00010928526894671377,0.9999996330464715,28.170415526908517,0.03220914418044532,121.05977004271298,-37.4306182707882,-89.41519165039062,5356.25390625,True
1599559527.5020795,0.0,10,0.5,0.5,-0.006537916564941407,-0.05075,-0.001,-0.2505,-0.002652237491022365,10,1,100,0.012468135907890462,-10,-1,-100,14956.329501965316,-0.000880369949120239,-0.00012365727103178604,0.999999604828738,28.22856211023853,0.03223814521831328,121.92394769160343,-37.61604513963742,-89.49563598632812,5356.25390625,True
1599559527.5419707,0.0,10,0.5,0.5,0.045035342407226564,-0.05075,-0.001,-0.2505,-0.006183447376707434,10,1,100,0.020151596120984064,-10,-1,-100,14954.030673334957,-0.000977621447228148,-0.00016856482109196724,0.9999995079209825,28.40319212705207,0.032335930704923174,124.53352843894321,-38.17230719350573,-89.7333984375,5356.25390625,True
1599559527.5789025,0.0,10,0.5,0.5,-0.014407034301757814,-0.05075,-0.001,-0.2505,-0.0017222386566006754,10,1,100,0.01048437847104334,-10,-1,-100,14954.030673334957,-0.000977621447228148,-0.00016856482109196724,0.9999995079209825,28.40319212705207,0.032335930704923174,124.53352843894321,-38.17230719350573,-89.7333984375,5356.25390625,True
1599559527.6148093,0.0,10,0.5,0.5,0.08087004585266112,-0.05075,-0.001,-0.2505,-0.007798817013914468,10,1,100,0.024398628001363158,-10,-1,-100,14950.958407972823,-0.0011036151602929764,-0.00022355302534816425,0.9999993660286105,28.66120853615875,0.0325203286554304,128.16349266038898,-38.913946496526485,-90.0492935180664,5356.25390625,True
1599559527.6716256,0.0,10,0.5,0.5,0.04778720588684082,-0.05075,-0.001,-0.2505,-0.0053023362200784845,10,1,100,0.01901564716397067,-10,-1,-100,14949.419346135226,-0.0011686620711176606,-0.00025057566955171307,0.9999992857201436,28.84454770598213,0.03268499489548426,130.24173218897658,-39.28474504372659,-90.20169830322266,5356.25390625,True
1599559527.7155073,0.0,10,0.5,0.5,0.03300652961730957,-0.05075,-0.001,-0.2505,-0.004041750759475671,10,1,100,0.01608892667849391,-10,-1,-100,14948.584385855589,-0.0012006303267386713,-0.0002634167106731931,0.9999992445489422,28.93631705782869,0.032770098976610915,131.2875740422082,-39.470138717535214,-90.27889251708984,5356.25390625,True
1599559527.7504141,0.0,10,0.5,0.5,0.07695471382141113,-0.05075,-0.001,-0.2505,-0.006606470719198353,10,1,100,0.022723387408347735,-10,-1,-100,14946.214268205105,-0.001289506691644168,-0.0002981765124176935,0.9999991241312463,29.20966901159934,0.03303378083830803,134.44122723689833,-40.02629759484602,-90.48853302001953,5356.25390625,True
1599559527.7813313,0.0,10,0.5,0.5,0.06134256324768067,-0.05075,-0.001,-0.2505,-0.005660440839325577,10,1,100,0.020426651505469944,-10,-1,-100,14944.606846387614,-0.001348844207997178,-0.00032091495273066785,0.9999990388159858,29.38810466779137,0.03321321910221235,136.54683448467568,-40.397051599785,-90.61052703857422,5356.25390625,True
1599559527.8142812,0.0,10,0.5,0.5,0.06411121711730958,-0.05075,-0.001,-0.2505,-0.00560748640517624,10,1,100,0.020772598634465678,-10,-1,-100,14942.998448142316,-0.0014054164838527528,-0.000340882266266585,0.999998954301347,29.564286503139517,0.03339582205032094,138.6582205816145,-40.767790684543705,-90.72071075439453,5356.25390625,True
1599559527.8511455,0.0,10,0.5,0.5,0.0511606128692627,-0.05075,-0.001,-0.2505,-0.004605948252008856,10,1,100,0.018145289930361325,-10,-1,-100,14942.167394407094,-0.0014324249190256822,-0.0003497037795159301,0.9999989129324681,29.65140523538218,0.03348798788016135,139.71539523321863,-40.953154492821554,-90.76888275146484,5356.25390625,True
1599559527.8820615,0.0,10,0.5,0.5,0.06424189529418946,-0.05075,-0.001,-0.2505,-0.005751185988311942,10,1,100,0.02141969996790975,-10,-1,-100,14940.499426395982,-0.0014862156418186674,-0.00036791602688120893,0.9999988278997445,29.822663876682572,0.033672322815386124,141.82759033664104,-41.32387128954699,-90.85191345214844,5356.25390625,True
1599559527.9159715,0.0,10,0.5,0.5,0.06343612060546876,-0.05075,-0.001,-0.2505,-0.00574220453214856,10,1,100,0.021798430150137438,-10,-1,-100,14938.834387044539,-0.0015380085317482706,-0.00038416891237920495,0.999998743471212,29.99047990415144,0.03385654508114663,143.93902771375753,-41.69457329850849,-90.91783142089844,5356.25390625,True
1599559527.945927,0.0,10,0.5,0.5,0.062305488967895506,-0.05075,-0.001,-0.2505,-0.005750933601246596,10,1,100,0.022132280558786653,-10,-1,-100,14937.159582832828,-0.0015876185380497027,-0.0003988276142861951,0.9999986602010583,30.155203974362763,0.03404025373075039,146.05097530726263,-42.065260491902265,-90.96849822998047,5356.25390625,True
1599559527.9778364,0.0,10,0.5,0.5,0.05546676254272461,-0.05075,-0.001,-0.2505,-0.005048946987656966,10,1,100,0.019838890495367772,-10,-1,-100,14936.316808545263,-0.0016113150003919043,-0.00040556268062974017,0.9999986195904881,30.23633429010724,0.034131592619291724,147.10666501652273,-42.250598393569504,-90.98751831054688,5356.25390625,True
1599559528.0486174,0.0,10,0.5,0.5,0.05522728347778321,-0.05075,-0.001,-0.2505,-0.005072206402937713,10,1,100,0.020073727436976396,-10,-1,-100,14935.481848760159,-0.001634530574862985,-0.0004117314541216229,0.9999985793924957,30.316835817671755,0.03422266083342901,148.16303820462653,-42.43593268581315,-91.00222778320312,5356.25390625,True
1599559528.100478,0.0,10,0.5,0.5,0.057099593734741216,-0.05075,-0.001,-0.2505,-0.006850533550152291,10,1,100,0.027556464561264243,-10,-1,-100,14932.061927237432,-0.0017232370086904523,-0.00043335953519385795,0.9999984213256163,30.63025995374085,0.034579444294754076,152.38317121369536,-43.17723322155923,-91.0204086303711,5356.25390625,True
1599559528.1333904,0.0,10,0.5,0.5,0.04842494506835937,-0.05075,-0.001,-0.2505,-0.005643891909849593,10,1,100,0.023282565045279938,-10,-1,-100,14930.327552469564,-0.0017645504923137908,-0.0004418974641435738,0.9999983455427272,30.782436998837,0.034752565229854156,154.49234280878053,-43.5478614171622,-91.00648498535156,5356.25390625,True
1599559528.3468227,0.0,10,0.5,0.5,0.0431825984954834,-0.05075,-0.001,-0.2505,-0.005579710600726244,10,1,100,0.023376150235613374,-10,-1,-100,14928.527747786371,-0.001802527121155612,-0.00044894509587698877,0.9999982746706508,30.931680201623728,0.03492116431506404,156.6008613486398,-43.91847490783589,-90.97733306884766,5356.25390625,True
1599559528.3822424,0.0,10,0.5,0.5,0.037175286102294924,-0.05075,-0.001,-0.2505,-0.0054560767093148645,10,1,100,0.023528886541394973,-10,-1,-100,14926.775794725167,-0.0018380274020524108,-0.0004541116983098568,0.9999982077173114,31.077811278995842,0.03508417780345605,158.70744839094897,-44.289073744351114,-90.93302917480469,5356.25390625,True
1599559528.4141874,0.0,10,0.5,0.5,0.031047786712646488,-0.05075,-0.001,-0.2505,-0.005359237918543938,10,1,100,0.023677569196203164,-10,-1,-100,14924.978920332505,-0.0018712587625312118,-0.00045782532112178,0.999998144391588,31.22107903811247,0.03524105449948251,160.81299374124788,-44.659658107988996,-90.87577819824219,5356.25390625,True
1599559528.4510643,0.0,10,0.5,0.5,0.035493935394287114,-0.05075,-0.001,-0.2505,-0.00513265006203688,10,1,100,0.02209826612193832,-10,-1,-100,14924.07266954286,-0.0018867128497063455,-0.00045904315994473163,0.999998114795223,31.29173136998619,0.035317060513679624,161.86573847017368,-44.84494478129859,-90.8428955078125,5356.25390625,True
1599559528.479982,0.0,10,0.5,0.5,0.009604170989990238,-0.05075,-0.001,-0.2505,-0.005141582769049062,10,1,100,0.025164804118233734,-10,-1,-100,14921.356850355864,-0.001928275549642891,-0.0004601486497265588,0.9999980350063817,31.500597663102877,0.035535314493668736,165.02774344791547,-45.40078285752309,-90.7296142578125,5356.25390625,True
1599559528.5159643,0.0,10,0.5,0.5,0.02521792335510254,-0.05075,-0.001,-0.2505,-0.005050077172012588,10,1,100,0.02247186946879135,-10,-1,-100,14920.455482226564,-0.001941223810028552,-0.00046025269888484526,0.999998009906806,31.569143340447642,0.035604511566270244,166.0826552157921,-45.58605501986488,-90.68730926513672,5356.25390625,True
1599559528.5488443,0.0,10,0.5,0.5,0.008471254730224611,-0.05075,-0.001,-0.2505,-0.00487238707069672,10,1,100,0.023743620522082568,-10,-1,-100,14918.6439588652,-0.001964234869707274,-0.0004586760834853263,0.9999979656967443,31.704919403836527,0.03573746280148104,168.1952313662947,-45.95658859820464,-90.59663391113281,5356.25390625,True
