Timestamp,Input Throttle,horizon,dT,dt,Input Roll,Roll P,Roll I,Roll D,Input Pitch,Pitch P,Pitch I,Pitch D,Input Yaw,Yaw P,Yaw I,Yaw D,Altitude,Direction X,Direction Y,Direction Z,Drag X,Drag Y,Drag Z,Vertical Velocity,Roll,Mass,Has Fuel
1599559615.0895576,0.0,10,0.5,0.5,-2.954306274414063,-0.05075,-0.001,-0.5,-0.0005241774620000926,10,1,100,0.17112955865145307,-10,-1,-100,14993.951938425773,-0.016774514230401976,-7.684873210170893e-05,0.9998592949843526,28.649073336993464,0.027034374157056774,-87.5137632805875,27.009297156174167,-31.79248046875,5356.25390625,True
1599559615.116526,0.0,10,0.5,0.5,-2.960171711730957,-0.05075,-0.001,-0.5,-0.0005369357023330877,10,1,100,0.1732246536141235,-10,-1,-100,14994.488072104403,-0.016809078411193463,-7.4673854902671e-05,0.9998587146726191,28.57654766179163,0.027199647653042305,-86.692777514081,26.823329507395734,-31.791900634765625,5356.25390625,True
1599559615.1499214,0.0,10,0.5,0.5,-2.96603875579834,-0.05075,-0.001,-0.5,-0.00048413472759851095,10,1,100,0.17537732907478348,-10,-1,-100,14995.026160446578,-0.016844789190272456,-7.21487996287743e-05,0.999858113870006,28.503904126319192,0.02736327596043868,-85.87447943741967,26.63736594220306,-31.791290283203125,5356.25390625,True
1599559615.1830094,0.0,10,0.5,0.5,-2.9496878204345705,-0.05075,-0.001,-0.5,0.003381719600432933,10,1,100,0.1794774747029314,-10,-1,-100,14996.092569600674,-0.016899214141336275,-3.4643574761647104e-05,0.9998571974843348,28.358874969607125,0.027686161581077822,-84.24779429952228,26.265450459716156,-31.83099365234375,5356.25390625,True
1599559615.2196164,0.0,10,0.5,0.5,-2.831752645874024,-0.05075,-0.001,-0.5,0.007634837755971848,10,1,100,0.17972079194996224,-10,-1,-100,14997.104290656862,-0.01693554042260245,3.814828887224198e-05,0.9998565827233937,28.225263392938928,0.02801154524081314,-82.66670942273159,25.89355034196102,-32.09173583984375,5356.25390625,True
1599559615.3931546,0.0,10,0.5,0.5,-2.677580841064453,-0.05075,-0.001,-0.5,0.012248079167259562,10,1,100,0.17956451329430062,-10,-1,-100,14998.116010282887,-0.016951747653772407,0.00014622658837941833,0.9998562981095171,28.11137250267373,0.028342117290265974,-81.1537429306222,25.52166462988517,-32.618896484375,5356.25390625,True
1599559615.4170907,0.0,10,0.5,0.5,-2.7453094451904296,-0.05075,-0.001,-0.5,0.009456326459569012,10,1,100,0.17933091381140204,-10,-1,-100,14998.643353138003,-0.01694894718894259,0.00021896708459931963,0.9998563323010973,28.062053697357634,0.028507666985755468,-80.42268625666622,25.33572688748621,-32.98492431640625,5356.25390625,True
1599559615.4539905,0.0,10,0.5,0.5,-2.102454220581055,-0.05075,-0.001,-0.5,0.034617408473495856,10,1,100,0.1747899134687515,-10,-1,-100,15000.133586046286,-0.01688971135671962,0.0005136328566671109,0.9998572267236834,27.939796129547787,0.02898991410193564,-78.31388610555959,24.777932250986687,-34.49481201171875,5356.25390625,True
1599559615.512875,0.0,10,0.5,0.5,-2.11941591796875,-0.05075,-0.001,-0.5,0.033734848975045396,10,1,100,0.17327230941366437,-10,-1,-100,15001.131629708572,-0.01680670991660093,0.000773020624145856,0.9998584584534422,27.874883911357166,0.029284274213631722,-76.96230271866862,24.406084005543185,-35.8448486328125,5356.25390625,True
1599559615.5480783,0.0,10,0.5,0.5,-2.7998497436523437,-0.05075,-0.001,-0.5,0.007873374289585474,10,1,100,0.18325312441719355,-10,-1,-100,15001.131629708572,-0.01680670991660093,0.000773020624145856,0.9998584584534422,27.874883911357166,0.029284274213631722,-76.96230271866862,24.406084005543185,-35.8448486328125,5356.25390625,True
1599559615.5750058,0.0,10,0.5,0.5,-0.8639925231933594,-0.05075,-0.001,-0.5,0.07910416459959606,10,1,100,0.15241715564307512,-10,-1,-100,15003.013454645756,-0.016511104100548398,0.0014198705173058197,0.9998626742753701,27.75876829720923,0.029736556372892704,-74.31196837663637,23.662421112741164,-39.36962890625,5356.25390625,True
1599559615.6239083,0.0,10,0.5,0.5,-2.0457474502563477,-0.05075,-0.001,-0.5,0.03586593479078881,10,1,100,0.17119617107607077,-10,-1,-100,15003.481223914423,-0.016413329326373197,0.0016134804044171684,0.9998639904013988,27.727292313658857,0.029807391543485138,-73.6458882204616,23.476512434478405,-40.422515869140625,5356.25390625,True
1599559615.6538317,0.0,10,0.5,0.5,-1.3009623535156254,-0.05075,-0.001,-0.5,0.06068342394197033,10,1,100,0.15463728379778272,-10,-1,-100,15004.421645341441,-0.016174267601033868,0.0020135682447479358,0.9998671604820781,27.65330690944813,0.029879136562867933,-72.28880588858681,23.10470389323297,-42.7291259765625,5356.25390625,True
1599559615.6837394,0.0,10,0.5,0.5,-2.453173623657227,-0.05075,-0.001,-0.5,0.020883211613331266,10,1,100,0.17847640417279173,-10,-1,-100,15004.421645341441,-0.016174267601033868,0.0020135682447479358,0.9998671604820781,27.65330690944813,0.029879136562867933,-72.28880588858681,23.10470389323297,-42.7291259765625,5356.25390625,True
1599559615.716769,0.0,10,0.5,0.5,-1.7629403930664065,-0.05075,-0.001,-0.5,0.04507213847620801,10,1,100,0.16353123492986038,-10,-1,-100,15004.891368380398,-0.016039061468407494,0.0022316055691199883,0.9998688756250974,27.6083457982173,0.02987468574879364,-71.59191310875318,22.91880439802967,-43.98040771484375,5356.25390625,True
1599559615.7497654,0.0,10,0.5,0.5,-0.8966630096435546,-0.05075,-0.001,-0.5,0.07336192960665894,10,1,100,0.1428466604771694,-10,-1,-100,15005.820069379406,-0.015728920197317413,0.0026850071858439102,0.999872687798721,27.495800477396276,0.029771455929561572,-70.1460524265532,22.547015653943156,-46.6871337890625,5356.25390625,True
1599559615.783671,0.0,10,0.5,0.5,-0.6069243682861334,-0.05075,-0.001,-0.5,0.0826619960506082,10,1,100,0.13410867655107525,-10,-1,-100,15006.688222664525,-0.015368649031049625,0.003179428549994774,0.9998768403463778,27.343218278266956,0.029525325850682127,-68.6091732666769,22.175242230668335,-49.66796875,5356.25390625,True
1599559615.8196554,0.0,10,0.5,0.5,-1.217982962036133,-0.05075,-0.001,-0.5,0.06100641292003818,10,1,100,0.147838758269074,-10,-1,-100,15007.099348693155,-0.015167385348386072,0.0034293422512491085,0.9998790877068174,27.24796353195021,0.02934287834106925,-67.79835902924805,21.98936196507292,-51.2615966796875,5356.25390625,True
1599559615.850574,0.0,10,0.5,0.5,1.8367345260620116,-0.05075,-0.001,-0.5,0.14981472114816585,10,1,100,0.06435621326681738,-10,-1,-100,15008.836627785931,-0.014227051887769904,0.004461234136831862,0.999888838013786,26.701149497277093,0.028184127341111517,-64.19661420732591,21.245892624100485,-58.251800537109375,5356.25390625,True
1599559615.8864777,0.0,10,0.5,0.5,-0.6193189910888675,-0.05075,-0.001,-0.5,0.07646523259185162,10,1,100,0.12844568548329088,-10,-1,-100,15009.24091906636,-0.013957179996476629,0.004729151215474522,0.9998914102317946,26.516795050200333,0.027788452186537485,-63.197012969291265,21.060040222623606,-60.13433837890625,5356.25390625,True
1599559615.9203868,0.0,10,0.5,0.5,-1.5581589630126955,-0.05075,-0.001,-0.5,0.05006913778671852,10,1,100,0.15514792162060595,-10,-1,-100,15009.24091906636,-0.013957179996476629,0.004729151215474522,0.9998914102317946,26.516795050200333,0.027788452186537485,-63.197012969291265,21.060040222623606,-60.13433837890625,5356.25390625,True
1599559615.958286,0.0,10,0.5,0.5,2.7492570541381838,-0.05075,-0.001,-0.5,0.1630990060305496,10,1,100,0.022040597830338557,-10,-1,-100,15010.910812426242,-0.012749435165750627,0.0057536870352382875,0.9999021687087467,25.557718241039105,0.025837078808277573,-58.766643679174,20.316704075917546,-67.95156860351562,5356.25390625,True
1599559615.9941895,0.0,10,0.5,0.5,-0.03317129211425773,-0.05075,-0.001,-0.5,0.08935454358794798,10,1,100,0.10511342224422356,-10,-1,-100,15011.306312052766,-0.012410023627181055,0.00601091520679004,0.9999049255864026,25.261925227244554,0.02527859666124392,-57.55665352075847,20.13089035651303,-69.99139404296875,5356.25390625,True
1599559616.02411,0.0,10,0.5,0.5,1.2575213653564452,-0.05075,-0.001,-0.5,0.11547366964287742,10,1,100,0.062001882462327046,-10,-1,-100,15012.11098512041,-0.011712966634076796,0.0064785716478255,0.9999104132481235,24.582891772148482,0.024092811911606758,-54.97844717824198,19.759289876514373,-74.18182373046875,5356.25390625,True
1599559616.053033,0.0,10,0.5,0.5,0.288767999267578,-0.05075,-0.001,-0.5,0.09280178084941593,10,1,100,0.09199299070269051,-10,-1,-100,15012.506486826926,-0.011355980625228008,0.006693546693005288,0.9999131152938779,24.211225803699513,0.02348848668592106,-53.639535284386675,19.573503495145854,-76.221435546875,5356.25390625,True
1599559616.0909371,0.0,10,0.5,0.5,1.4959267181396485,-0.05075,-0.001,-0.5,0.12091751845931155,10,1,100,0.04206210197131066,-10,-1,-100,15013.2506132446,-0.010581788065846729,0.007140519856782432,0.9999185160489352,23.422888874236026,0.022300651810935383,-50.91073941791561,19.20195784429639,-80.25909423828125,5356.25390625,True
1599559616.125839,0.0,10,0.5,0.5,-0.5195454315185547,-0.05075,-0.001,-0.5,0.07666575334869095,10,1,100,0.1189666446962915,-10,-1,-100,15013.2506132446,-0.010581788065846729,0.007140519856782432,0.9999185160489352,23.422888874236026,0.022300651810935383,-50.91073941791561,19.20195784429639,-80.25909423828125,5356.25390625,True
1599559616.1687238,0.0,10,0.5,0.5,1.6401248260498047,-0.05075,-0.001,-0.5,0.1199549207165079,10,1,100,0.03118334959604356,-10,-1,-100,15014.04161513818,-0.009788109802176478,0.0075304567498473245,0.9999237396559996,22.595680087351884,0.02118744254280569,-48.165279817888184,18.83044716555316,-84.17486572265625,5356.25390625,True
1599559616.2056248,0.0,10,0.5,0.5,2.7379170684814453,-0.05075,-0.001,-0.5,0.1376109388240943,10,1,100,-0.027039682450746935,-10,-1,-100,15015.114836738328,-0.00854217406709289,0.008041725804067468,0.9999311785859564,21.308999594006714,0.019726412051686962,-44.082308584272084,18.27324014615406,-89.71710205078125,5356.25390625,True
1599559616.2415287,0.0,10,0.5,0.5,0.9857268981933593,-0.05075,-0.001,-0.5,0.10388911526624237,10,1,100,0.04876195243585811,-10,-1,-100,15015.511316063465,-0.00810377905945938,0.00819669882858964,0.9999335692401116,21.207356752391924,0.01961266249617498,-43.42739606695996,18.08751563458122,-91.56146240234375,5356.25390625,True
1599559616.274441,0.0,10,0.5,0.5,2.0317196510314943,-0.05075,-0.001,-0.5,0.11731889730243612,10,1,100,-0.002085227313730925,-10,-1,-100,15016.236890452448,-0.007248312328375396,0.008456520007926908,0.9999379726951798,21.78995941267057,0.020208441759512263,-43.7066400036448,17.71606783845759,-95.12937927246094,5356.25390625,True
1599559616.3083506,0.0,10,0.5,0.5,2.9391250999450684,-0.05075,-0.001,-0.5,0.12610207238956594,10,1,100,-0.06032850067984412,-10,-1,-100,15017.237850009697,-0.005947229967396292,0.008769179609214283,0.9999438643967451,22.49599480947477,0.021149518350430264,-43.707484963869604,17.158896098064652,-100.00975036621094,5356.25390625,True
1599559616.362207,0.0,10,0.5,0.5,2.1081577842712402,-0.05075,-0.001,-0.5,0.11182152088570882,10,1,100,-0.026842508621919017,-10,-1,-100,15017.908739453647,-0.005075029753576747,0.008920851058009582,0.9999473298576287,22.902956743898308,0.021819024654850736,-43.53734950025336,16.787447126687365,-102.92579650878906,5356.25390625,True
1599559616.3961163,0.0,10,0.5,0.5,2.7791133949279785,-0.05075,-0.001,-0.5,0.11297040284644802,10,1,100,-0.07882652890236064,-10,-1,-100,15018.904822348966,-0.0038162066419855137,0.00906653317851092,0.9999516161009934,23.3518217077616,0.02276552760841049,-42.92082405405079,16.23027315881216,-106.78541564941406,5356.25390625,True
1599559616.4280307,0.0,10,0.5,0.5,1.4853728748321533,-0.05075,-0.001,-0.5,0.10180917465241403,10,1,100,0.0003681014669488433,-10,-1,-100,15019.230990534998,-0.0033989520529800164,0.009095153066720294,0.9999528615468003,23.463573436056727,0.023060210416209773,-42.63386640320103,16.044548960872813,-107.93441009521484,5356.25390625,True
1599559616.4879334,0.0,10,0.5,0.5,1.5089714088439943,-0.05075,-0.001,-0.5,0.10122998897617637,10,1,100,-0.0037485447615523623,-10,-1,-100,15019.558136563865,-0.0029894393050543242,0.009113722544059642,0.9999540005990433,23.5613613975107,0.023345747250750646,-42.317099934018024,15.858825217290715,-109.01461791992188,5356.25390625,True
1599559616.5238378,0.0,10,0.5,0.5,2.047846831512451,-0.05075,-0.001,-0.5,0.10127371743655131,10,1,100,-0.048757970791544473,-10,-1,-100,15020.157741097035,-0.0022148805237226688,0.00912920759792857,0.9999558749629402,23.763790241661127,0.02393152457650088,-41.68316234538657,15.48737963195341,-110.968505859375,5356.25390625,True
1599559616.5537577,0.0,10,0.5,0.5,1.9985574668884278,-0.05075,-0.001,-0.5,0.09692008743273386,10,1,100,-0.057666511816495715,-10,-1,-100,15020.755392987747,-0.0014373557200508108,0.00910189856710094,0.9999575438242407,23.906697060855173,0.024459794774414234,-40.930183124831146,15.11593771047227,-112.64727783203125,5356.25390625,True
1599559616.5866692,0.0,10,0.5,0.5,2.264569194030762,-0.05075,-0.001,-0.5,0.08920665056608873,10,1,100,-0.1013276589294629,-10,-1,-100,15021.677262551733,-0.00034118706485135265,0.00900552143863609,0.9999593912629678,24.02707318468983,0.025145387086942618,-39.62298874510361,14.558784793795317,-114.64918518066406,5356.25390625,True
1599559616.6195827,0.0,10,0.5,0.5,1.2661087280273438,-0.05075,-0.001,-0.5,0.09894074297603059,10,1,100,0.007469107890258777,-10,-1,-100,15021.677262551733,-0.00034118706485135265,0.00900552143863609,0.9999593912629678,24.02707318468983,0.025145387086942618,-39.62298874510361,14.558784793795317,-114.64918518066406,5356.25390625,True
1599559616.6544957,0.0,10,0.5,0.5,1.813885725784302,-0.05075,-0.001,-0.5,0.08821170057290298,10,1,100,-0.06952072537536616,-10,-1,-100,15022.213392782724,0.00035166360847741206,0.008907249396234888,0.9999602678311271,24.053405394652422,0.02553439805660747,-38.656306914157994,14.187358263460911,-115.63959503173828,5356.25390625,True
1599559616.6864452,0.0,10,0.5,0.5,1.5365534484863284,-0.05075,-0.001,-0.5,0.09222092984794264,10,1,100,-0.037040559125594716,-10,-1,-100,15022.530775708496,0.000679344549290319,0.008853948960744784,0.9999605722621187,24.052187210447517,0.02570980656284796,-38.149282882633045,14.00164809806761,-116.03146362304688,5356.25390625,True
1599559616.7192202,0.0,10,0.5,0.5,1.8264470169067384,-0.05075,-0.001,-0.5,0.06608026309334335,10,1,100,-0.14245956912400698,-10,-1,-100,15023.59327340126,0.001929566791363358,0.008567774531301487,0.999961434262131,23.962785499339347,0.02629768502630611,-35.99449119298262,13.258830841029281,-116.91067504882812,5356.25390625,True
1599559616.7541234,0.0,10,0.5,0.5,1.3882397918701173,-0.05075,-0.001,-0.5,0.09466239838500225,10,1,100,-0.018137804571197087,-10,-1,-100,15023.59327340126,0.001929566791363358,0.008567774531301487,0.999961434262131,23.962785499339347,0.02629768502630611,-35.99449119298262,13.258830841029281,-116.91067504882812,5356.25390625,True
1599559616.790029,0.0,10,0.5,0.5,1.4155225280761718,-0.05075,-0.001,-0.5,0.08505811471393894,10,1,100,-0.051039311823496455,-10,-1,-100,15023.854991082568,0.0022234479723539442,0.008480916278516557,0.9999615644304489,23.920903386547913,0.026418891947960894,-35.429157166636216,13.07313290726597,-116.9583740234375,5356.25390625,True
1599559616.8189566,0.0,10,0.5,0.5,1.1183517547607422,-0.05075,-0.001,-0.5,0.051384987051004374,10,1,100,-0.14103153096193924,-10,-1,-100,15024.902842334704,0.0033036124926718352,0.008096393285220127,0.9999617665492362,23.677919628294262,0.026810402563412664,-33.07979927072167,12.330369598394753,-116.46046447753906,5356.25390625,True
1599559616.853863,0.0,10,0.5,0.5,1.2046774646759033,-0.05075,-0.001,-0.5,0.07808134326748037,10,1,100,-0.0608866630162859,-10,-1,-100,15025.101085116039,0.003551269573638773,0.00799044591988119,0.999961769898438,23.59798243957278,0.026885484045310205,-32.47238437850352,12.14468628021444,-116.16382598876953,5356.25390625,True
1599559616.8887367,0.0,10,0.5,0.5,0.9128893489837648,-0.05075,-0.001,-0.5,0.06513582503869811,10,1,100,-0.08724141957199602,-10,-1,-100,15025.56202271895,0.004010759115844843,0.007777478841745998,0.999961711584089,23.413680761738988,0.02700728249440686,-31.23498874510803,11.77332886219908,-115.36377716064453,5356.25390625,True
1599559616.9236395,0.0,10,0.5,0.5,1.313185412979126,-0.05075,-0.001,-0.5,0.08630009087968185,10,1,100,-0.041837276834978544,-10,-1,-100,15025.56202271895,0.004010759115844843,0.007777478841745998,0.999961711584089,23.413680761738988,0.02700728249440686,-31.23498874510803,11.77332886219908,-115.36377716064453,5356.25390625,True
1599559616.953562,0.0,10,0.5,0.5,0.36998740768432614,-0.05075,-0.001,-0.5,0.046157971598825065,10,1,100,-0.11314064368613612,-10,-1,-100,15026.280772268306,0.004655015227054734,0.0074136668870081095,0.9999616834541835,23.06883622343598,0.027108874786063334,-29.32087786981103,11.216317020440862,-113.65107727050781,5356.25390625,True
1599559616.9874718,0.0,10,0.5,0.5,0.840012507247925,-0.05075,-0.001,-0.5,0.06883425253063838,10,1,100,-0.07040998274376577,-10,-1,-100,15026.478038774454,0.004847700044776807,0.007290523895309812,0.999961673298336,22.933879472835983,0.027117864217725673,-28.667456503711854,11.030652902086512,-112.9498062133789,5356.25390625,True
1599559617.0209851,0.0,10,0.5,0.5,0.7674127044677737,-0.05075,-0.001,-0.5,0.06610853930872151,10,1,100,-0.07269851436713977,-10,-1,-100,15026.731943987776,0.005039585587976366,0.007155266260385683,0.99996170163754,22.78828163569753,0.02711281658099057,-28.006611391381966,10.844992019593288,-112.18182373046875,5356.25390625,True
1599559617.0559285,0.0,10,0.5,0.5,-0.305788553237915,-0.05075,-0.001,-0.5,0.03509822128276735,10,1,100,-0.10981359924149948,-10,-1,-100,15027.323741377564,0.00554747299788952,0.006751937049037218,0.9999618177157683,22.280393574709773,0.026997740114501845,-25.97779440016618,10.288029023618337,-109.53668975830078,5356.25390625,True
1599559617.0898364,0.0,10,0.5,0.5,0.473177980041504,-0.05075,-0.001,-0.5,0.05939106032337354,10,1,100,-0.07640433293914058,-10,-1,-100,15027.517099692719,0.005702179216692282,0.006607768882255274,0.9999619105458863,22.088175510762376,0.026924113933320695,-25.28947354709268,10.102381000777026,-108.55101013183594,5356.25390625,True
1599559617.1223054,0.0,10,0.5,0.5,0.39264923400878915,-0.05075,-0.001,-0.5,0.057631994328107464,10,1,100,-0.07733466427587264,-10,-1,-100,15027.712412872235,0.005847849143732968,0.006462497226722948,0.9999620186737027,21.882668850123522,0.026829008719700544,-24.594279471888914,9.916736091404333,-107.51145935058594,5356.25390625,True
1599559617.1552143,0.0,10,0.5,0.5,-0.23843423233032224,-0.05075,-0.001,-0.5,0.04075589480333923,10,1,100,-0.09121569000990506,-10,-1,-100,15028.102060292382,0.0061031725830144505,0.0061788479251518435,0.9999622858501914,21.47472153891408,0.026623120364240967,-23.233068133287922,9.54545455388881,-105.42355346679688,5356.25390625,True
1599559617.1901586,0.0,10,0.5,0.5,-0.982190383529663,-0.05075,-0.001,-0.5,0.01767940602547602,10,1,100,-0.10261336289102121,-10,-1,-100,15028.680182672804,0.006436354953925634,0.005712941885161236,0.9999629671292452,20.824706835781555,0.02620737984197972,-21.216605659531687,8.98855029972928,-102.17960357666016,5356.25390625,True
1599559617.2200732,0.0,10,0.5,0.5,0.6383861392974854,-0.05075,-0.001,-0.5,0.06404225962106477,10,1,100,-0.06958363433793159,-10,-1,-100,15028.680182672804,0.006436354953925634,0.005712941885161236,0.9999629671292452,20.824706835781555,0.02620737984197972,-21.216605659531687,8.98855029972928,-102.17960357666016,5356.25390625,True
1599559617.252975,0.0,10,0.5,0.5,-1.2161964477539062,-0.05075,-0.001,-0.5,0.011688813707228254,10,1,100,-0.09742609205840452,-10,-1,-100,15029.19482981856,0.006687263118804405,0.005238878319541436,0.9999639166819635,20.102097014714015,0.025610260639087293,-19.212561610891616,8.43166199680234,-98.81462097167969,5356.25390625,True
1599559617.285902,0.0,10,0.5,0.5,-0.6810555297851562,-0.05075,-0.001,-0.5,0.022061116471907366,10,1,100,-0.0868167678414916,-10,-1,-100,15029.511233888566,0.006816479863083208,0.004904512921858886,0.9999647400560059,19.638856181922936,0.02517907305826666,-17.943969258773713,8.060408207073214,-96.734375,5356.25390625,True
1599559617.3228068,0.0,10,0.5,0.5,0.35737578582763674,-0.05075,-0.001,-0.5,0.05524674084364742,10,1,100,-0.07411123987721421,-10,-1,-100,15029.511233888566,0.006816479863083208,0.004904512921858886,0.9999647400560059,19.638856181922936,0.02517907305826666,-17.943969258773713,8.060408207073214,-96.734375,5356.25390625,True
1599559617.353724,0.0,10,0.5,0.5,-1.6740270835876465,-0.05075,-0.001,-0.5,-0.01847226467637668,10,1,100,-0.09123047750112942,-10,-1,-100,15030.151853790507,0.0069703194961930675,0.004236509245289077,0.9999667327644133,18.708412396649088,0.02417807508360857,-15.520130034120935,7.317902960333063,-93.04888916015625,5356.25390625,True
1599559617.3866358,0.0,10,0.5,0.5,0.16680254287719729,-0.05075,-0.001,-0.5,0.04803622727909457,10,1,100,-0.0760395875809651,-10,-1,-100,15030.151853790507,0.0069703194961930675,0.004236509245289077,0.9999667327644133,18.708412396649088,0.02417807508360857,-15.520130034120935,7.317902960333063,-93.04888916015625,5356.25390625,True
1599559617.4195476,0.0,10,0.5,0.5,-0.2975876712799072,-0.05075,-0.001,-0.5,0.027970627351608796,10,1,100,-0.07852925073636764,-10,-1,-100,15030.277827805257,0.006991659300789178,0.004056381453042613,0.9999673307012232,18.485773162484026,0.02391508985599447,-14.946638683685233,7.132275411077215,-92.20868682861328,5356.25390625,True
1599559617.4554775,0.0,10,0.5,0.5,-0.7989478633880616,-0.05075,-0.001,-0.5,0.007465952536925002,10,1,100,-0.07832073820016683,-10,-1,-100,15030.531731189461,0.007007991300016456,0.00370854222307526,0.999968566892239,18.027525196663248,0.023343803141641445,-13.817748269564357,6.761016636935918,-90.5385513305664,5356.25390625,True
1599559617.4863958,0.0,10,0.5,0.5,-1.3008747131347655,-0.05075,-0.001,-0.5,-0.019833338114356044,10,1,100,-0.07406868997821345,-10,-1,-100,15030.90770267474,0.006983128913517784,0.0031466529671875182,0.9999706668126226,17.68329821418524,0.022863838211848356,-12.437912252283839,6.2041144174792695,-88.11404418945312,5356.25390625,True
1599559617.5193076,0.0,10,0.5,0.5,-0.5116334884643554,-0.05075,-0.001,-0.5,0.01571135420561819,10,1,100,-0.07412645204191318,-10,-1,-100,15031.03172326216,0.006960251893343076,0.0029617346601602135,0.9999713911014573,17.80092092149338,0.022988112165103044,-12.146132387763249,6.018474392628008,-87.34912109375,5356.25390625,True
1599559617.553217,0.0,10,0.5,0.5,-0.5254980979919434,-0.05075,-0.001,-0.5,0.013127273567398373,10,1,100,-0.0732079849198747,-10,-1,-100,15031.157698397874,0.006930628631220795,0.0027726365636288482,0.9999721390485148,17.914996092190304,0.023100897395870987,-11.847037244961395,5.832830953682487,-86.6322021484375,5356.25390625,True
1599559617.58912,0.0,10,0.5,0.5,-0.530090283203125,-0.05075,-0.001,-0.5,0.011282799905834667,10,1,100,-0.07225097444469733,-10,-1,-100,15031.27976604551,0.006894548957992294,0.0025866342656056937,0.9999728868913607,18.013980161563882,0.023188403479290964,-11.533460211400874,5.647184103794638,-85.975830078125,5356.25390625,True
1599559617.6200378,0.0,10,0.5,0.5,-1.360455598449707,-0.05075,-0.001,-0.5,-0.055620717894740185,10,1,100,-0.052841158399475494,-10,-1,-100,15031.713351779385,0.006685107940246925,0.0018117386001739052,0.9999760131798522,18.246858002581604,0.02329323851499198,-10.146632015346933,4.904560431685433,-83.87457275390625,5356.25390625,True
1599559617.6529496,0.0,10,0.5,0.5,-0.5465363555908203,-0.05075,-0.001,-0.5,-1.5494552223011687e-05,10,1,100,-0.06627469870612596,-10,-1,-100,15031.77292068163,0.006616949537741444,0.001615601638642149,0.9999768026360212,18.274630950256615,0.02327600059073904,-9.77746398123754,4.718895252192599,-83.44711303710938,5356.25390625,True
1599559617.6868587,0.0,10,0.5,0.5,-0.5492719421386719,-0.05075,-0.001,-0.5,-0.002527244866099232,10,1,100,-0.06483878680441836,-10,-1,-100,15031.894011411816,0.00654211500028943,0.001417451135562784,0.9999775955308206,18.292361219153296,0.02324559552521188,-9.401947948609038,4.533226280118657,-83.05648803710938,5356.25390625,True
1599559617.7227633,0.0,10,0.5,0.5,-0.8358900939941407,-0.05075,-0.001,-0.5,-0.04717121847368361,10,1,100,-0.043968171873906434,-10,-1,-100,15032.134240667918,0.0062847400164155855,0.0008340227891577999,0.9999799030225124,18.275329910532523,0.023068716601134288,-8.239163085789482,3.9761958355257487,-82.18325805664062,5356.25390625,True
1599559617.7536814,0.0,10,0.5,0.5,-0.4003616668701172,-0.05075,-0.001,-0.5,0.010831367521201677,10,1,100,-0.06963711231331315,-10,-1,-100,15032.134240667918,0.0062847400164155855,0.0008340227891577999,0.9999799030225124,18.275329910532523,0.023068716601134288,-8.239163085789482,3.9761958355257487,-82.18325805664062,5356.25390625,True
1599559617.7875907,0.0,10,0.5,0.5,-0.6787393089294433,-0.05075,-0.001,-0.5,-0.05361331716293471,10,1,100,-0.03567698114434454,-10,-1,-100,15032.368608818273,0.005976654205138029,0.00025109143626918256,0.9999821081187417,18.15662176243749,0.022781868192291225,-7.038961118583963,3.419125624298398,-81.67962646484375,5356.25390625,True
1599559617.8205056,0.0,10,0.5,0.5,-0.4649372970581055,-0.05075,-0.001,-0.5,-0.0163694055216506,10,1,100,-0.05401407506656316,-10,-1,-100,15032.430131333414,0.0058642146279012175,6.287799473375513e-05,0.9999828033687158,18.095110151585956,0.022665143828902164,-6.6341485706013374,3.233425948386414,-81.61221313476562,5356.25390625,True
1599559617.857406,0.0,10,0.5,0.5,-0.4399148269653321,-0.05075,-0.001,-0.5,-0.04024216646093924,10,1,100,-0.038449477342186913,-10,-1,-100,15032.540479068877,0.005621517682269438,-0.000322446801589754,0.9999841471578479,17.94975751675869,0.02241536176525146,-5.825000943143415,2.8620120258669086,-81.59762573242188,5356.25390625,True
1599559617.887324,0.0,10,0.5,0.5,-0.4331962753295899,-0.05075,-0.001,-0.5,-0.0020381049747633232,10,1,100,-0.06258529848425745,-10,-1,-100,15032.540479068877,0.005621517682269438,-0.000322446801589754,0.9999841471578479,17.94975751675869,0.02241536176525146,-5.825000943143415,2.8620120258669086,-81.59762573242188,5356.25390625,True
1599559617.9212334,0.0,10,0.5,0.5,-0.18656142730712888,-0.05075,-0.001,-0.5,-0.0827676380825785,10,1,100,-0.003439001805940853,-10,-1,-100,15032.704535527155,0.005085014176965607,-0.0010535379358742388,0.9999865162534132,17.56965759515562,0.021851741018327722,-4.221787147692592,2.1191310364967797,-82.04635620117188,5356.25390625,True
1599559617.955143,0.0,10,0.5,0.5,-0.30544881286621095,-0.05075,-0.001,-0.5,-0.030369322123236613,10,1,100,-0.04051732327280885,-10,-1,-100,15032.76019745064,0.004936004398916402,-0.001238508665410226,0.9999870508945901,17.460579866105103,0.021702445925423527,-3.8278790506883538,1.9334014401267354,-82.23858642578125,5356.25390625,True
1599559617.992044,0.0,10,0.5,0.5,-0.40172752380371096,-0.05075,-0.001,-0.5,-0.01217727389619631,10,1,100,-0.05524339072359624,-10,-1,-100,15032.76019745064,0.004936004398916402,-0.001238508665410226,0.9999870508945901,17.460579866105103,0.021702445925423527,-3.8278790506883538,1.9334014401267354,-82.23858642578125,5356.25390625,True
1599559618.0239587,0.0,10,0.5,0.5,-0.14632310028076173,-0.05075,-0.001,-0.5,-0.05010756286633315,10,1,100,-0.022033997225279222,-10,-1,-100,15032.805116990232,0.004635628953603361,-0.001580734828498695,0.9999880060388757,17.229518606073324,0.021396767623605567,-3.0515319139160417,1.5619338782512941,-82.70254516601562,5356.25390625,True
1599559618.0598626,0.0,10,0.5,0.5,0.27628283233642575,-0.05075,-0.001,-0.5,-0.09130971599846294,10,1,100,0.02126933693415719,-10,-1,-100,15032.89300371462,0.0039706268619117985,-0.0022636889270857,0.9999895548628321,16.75176353028854,0.02079136317349489,-1.5556944255870393,0.8189772801620516,-83.89114379882812,5356.25390625,True
1599559618.0887856,0.0,10,0.5,0.5,-0.12440753173828129,-0.05075,-0.001,-0.5,-0.040611026292019625,10,1,100,-0.026216798409849168,-10,-1,-100,15032.940855072695,0.0037998753845508936,-0.002420843008727817,0.9999898501815851,16.627805250819613,0.020637338065354494,-1.1939746509245341,0.6332360928151668,-84.24237060546875,5356.25390625,True
1599559618.1246884,0.0,10,0.5,0.5,-0.29981502380371094,-0.05075,-0.001,-0.5,-0.025221104707596514,10,1,100,-0.04304345968275319,-10,-1,-100,15032.940855072695,0.0037998753845508936,-0.002420843008727817,0.9999898501815851,16.627805250819613,0.020637338065354494,-1.1939746509245341,0.6332360928151668,-84.24237060546875,5356.25390625,True
1599559618.1566045,0.0,10,0.5,0.5,0.4978085220336914,-0.05075,-0.001,-0.5,-0.09156214648855826,10,1,100,0.036027383565975846,-10,-1,-100,15032.96331362566,0.0030830284266720725,-0.003021514357241108,0.9999906826499482,16.128489914677342,0.020017878544372324,0.20068290580912274,-0.10972635441470979,-85.69015502929688,5356.25390625,True
1599559618.1885178,0.0,10,0.5,0.5,-0.225675895690918,-0.05075,-0.001,-0.5,-0.031803450872426614,10,1,100,-0.035379193601783356,-10,-1,-100,15032.96331362566,0.0030830284266720725,-0.003021514357241108,0.9999906826499482,16.128489914677342,0.020017878544372324,0.20068290580912274,-0.10972635441470979,-85.69015502929688,5356.25390625,True
1599559618.2221084,0.0,10,0.5,0.5,0.20456979827880858,-0.05075,-0.001,-0.5,-0.06351671377857744,10,1,100,0.006910335187837902,-10,-1,-100,15032.939875667798,0.0027008858824533314,-0.00330736304951916,0.9999908832409967,15.998203976927625,0.019852526922422863,0.8729936807382473,-0.4812026663066522,-86.47061157226562,5356.25390625,True
1599559618.2580125,0.0,10,0.5,0.5,0.24212732543945312,-0.05075,-0.001,-0.5,-0.06328592780949936,10,1,100,0.010316351590263957,-10,-1,-100,15032.91057863878,0.0023251749038686173,-0.003562413882554925,0.9999909513435588,15.87693505533316,0.019695543561105287,1.5352106810751727,-0.8526739000680441,-87.2464599609375,5356.25390625,True
1599559618.2879322,0.0,10,0.5,0.5,0.2939550064086914,-0.05075,-0.001,-0.5,-0.06509618644232668,10,1,100,0.01596413332924666,-10,-1,-100,15032.82561771234,0.0019347849432309408,-0.0038084543765707045,0.9999908760996197,15.749882438928331,0.019528714221463867,2.186422711012242,-1.224141380269676,-88.04397583007812,5356.25390625,True
1599559618.320852,0.0,10,0.5,0.5,-0.10422238922119142,-0.05075,-0.001,-0.5,-0.04074913161186477,10,1,100,-0.022774740788952447,-10,-1,-100,15032.82561771234,0.0019347849432309408,-0.0038084543765707045,0.9999908760996197,15.749882438928331,0.019528714221463867,2.186422711012242,-1.224141380269676,-88.04397583007812,5356.25390625,True
1599559618.3547592,0.0,10,0.5,0.5,0.5061362869262696,-0.05075,-0.001,-0.5,-0.07683343554090821,10,1,100,0.04145643935609086,-10,-1,-100,15032.77874288056,0.0013535935050538975,-0.004134157188915499,0.9999905382197176,15.572164742145263,0.019291146348191682,3.145806421271947,-1.7813394019574922,-89.15115356445312,5356.25390625,True
1599559618.3927317,0.0,10,0.5,0.5,-0.04680771942138672,-0.05075,-0.001,-0.5,-0.04451849654247045,10,1,100,-0.01633450091675852,-10,-1,-100,15032.77874288056,0.0013535935050538975,-0.004134157188915499,0.9999905382197176,15.572164742145263,0.019291146348191682,3.145806421271947,-1.7813394019574922,-89.15115356445312,5356.25390625,True
1599559618.4238715,0.0,10,0.5,0.5,0.639474976348877,-0.05075,-0.001,-0.5,-0.08419378507809869,10,1,100,0.06829439811027896,-10,-1,-100,15032.593198278337,0.0005866189987688821,-0.0044931412044559105,0.9999897337274353,15.418188836241235,0.019077822101210465,4.4139126391088315,-2.5242800512008134,-90.39628601074219,5356.25390625,True
1599559618.4547536,0.0,10,0.5,0.5,0.017524144744873047,-0.05075,-0.001,-0.5,-0.048502613343630346,10,1,100,-0.008081726879644376,-10,-1,-100,15032.593198278337,0.0005866189987688821,-0.0044931412044559105,0.9999897337274353,15.418188836241235,0.019077822101210465,4.4139126391088315,-2.5242800512008134,-90.39628601074219,5356.25390625,True
1599559618.4886627,0.0,10,0.5,0.5,0.3107885021209717,-0.05075,-0.001,-0.5,-0.06583914773912669,10,1,100,0.03564691689153864,-10,-1,-100,15032.436949726427,0.0001920070157452019,-0.004648862155146124,0.9999891755483997,15.550554925561237,0.01923331511396963,5.107059134050533,-2.8957621624463807,-90.92765045166016,5356.25390625,True
1599559618.524123,0.0,10,0.5,0.5,0.17617431983947754,-0.05075,-0.001,-0.5,-0.05702362032791555,10,1,100,0.01574047027065064,-10,-1,-100,15032.41449023597,1.6864747196226173e-05,-0.004708806090400849,0.9999889133689348,15.613980335615059,0.019308848051622435,5.456874033889959,-3.0815076292004564,-91.16468048095703,5356.25390625,True
1599559618.5540426,0.0,10,0.5,0.5,0.2695197574615479,-0.05075,-0.001,-0.5,-0.06373287948810916,10,1,100,0.03902435285803681,-10,-1,-100,15032.262147996225,-0.0003512397352977388,-0.004822759940513123,0.9999883087402596,15.721304860717058,0.01943859851664905,6.1569252992029355,-3.4530085900193015,-91.5483627319336,5356.25390625,True
1599559618.5870242,0.0,10,0.5,0.5,0.3191311283111572,-0.05075,-0.001,-0.5,-0.06654657393608383,10,1,100,0.060694046655557256,-10,-1,-100,15032.021915117046,-0.0008801027306172102,-0.004950555756604966,0.9999873586285399,15.87015078017505,0.019626103883615017,7.218582974118265,-4.010287253710617,-91.98584747314453,5356.25390625,True
1599559618.6219666,0.0,10,0.5,0.5,0.10086269645690918,-0.05075,-0.001,-0.5,-0.053905806514304586,10,1,100,0.008128274887058709,-10,-1,-100,15032.021915117046,-0.0008801027306172102,-0.004950555756604966,0.9999873586285399,15.87015078017505,0.019626103883615017,7.218582974118265,-4.010287253710617,-91.98584747314453,5356.25390625,True
1599559618.656871,0.0,10,0.5,0.5,0.26202956199646,-0.05075,-0.001,-0.5,-0.06264927733179343,10,1,100,0.06342525004926539,-10,-1,-100,15031.77191838948,-0.0013802435160246817,-0.005029003580963924,0.9999864019329557,16.017746678902157,0.019821972136402858,8.298601649532747,-4.567597229791806,-92.27776336669922,5356.25390625,True
1599559618.6877885,0.0,10,0.5,0.5,0.14804697875976564,-0.05075,-0.001,-0.5,-0.05655307003628797,10,1,100,0.03110154642197286,-10,-1,-100,15031.691840275773,-0.0015380514439113095,-0.005043790128418025,0.9999860971928042,16.066813790602463,0.019889015539556076,8.66272786289134,-4.753372909432278,-92.33505249023438,5356.25390625,True
1599559618.7204728,0.0,10,0.5,0.5,0.14429765586853027,-0.05075,-0.001,-0.5,-0.056466818267139215,10,1,100,0.03386007760369717,-10,-1,-100,15031.550240714569,-0.0017039619845975874,-0.005055621398257216,0.9999857685016484,16.114668590087863,0.019955333082455506,9.02826543836964,-4.939150978099088,-92.37967681884766,5356.25390625,True
1599559618.7544146,0.0,10,0.5,0.5,0.14431783866882325,-0.05075,-0.001,-0.5,-0.0558405774904681,10,1,100,0.049853502582458055,-10,-1,-100,15031.381296455744,-0.0019974049254923468,-0.005059846305405524,0.9999852040550047,16.224659756792995,0.02010771674432054,9.774066749007915,-5.3107143005239505,-92.41963958740234,5356.25390625,True
1599559618.7904189,0.0,10,0.5,0.5,0.12360597038269043,-0.05075,-0.001,-0.5,-0.05496583184182875,10,1,100,0.03714898728093263,-10,-1,-100,15031.235788581544,-0.002146326529088023,-0.005055219710460946,0.9999849189043349,16.277244408160996,0.020181744803225102,10.148978878609087,-5.496499357358073,-92.4179458618164,5356.25390625,True
1599559618.95203,0.0,10,0.5,0.5,0.10438928833007814,-0.05075,-0.001,-0.5,-0.052753571429171794,10,1,100,0.05364983599203,-10,-1,-100,15031.007274563424,-0.0024292330247051076,-0.005030391276299898,0.9999843968735307,16.380037127390956,0.020327991000200496,10.90395016196416,-5.868075868189386,-92.38114929199219,5356.25390625,True
1599559618.975148,0.0,10,0.5,0.5,0.10424712257385255,-0.05075,-0.001,-0.5,-0.05310878742505533,10,1,100,0.04011250144340778,-10,-1,-100,15030.916455436032,-0.0025609711247873003,-0.005010702364187747,0.9999841670190162,16.43065785882599,0.020400530625874828,11.284194175965323,-6.053867065096657,-92.34722137451172,5356.25390625,True
1599559619.0009308,0.0,10,0.5,0.5,0.09707182998657227,-0.05075,-0.001,-0.5,-0.05243774976770402,10,1,100,0.04137131133978289,-10,-1,-100,15030.773877141415,-0.0026898332731272643,-0.004986428559679156,0.9999839500347902,16.48077632188062,0.020472567102357543,11.66624527994148,-6.239660116439003,-92.30317687988281,5356.25390625,True
1599559619.0543966,0.0,10,0.5,0.5,0.05611180992126466,-0.05075,-0.001,-0.5,-0.04798072888552375,10,1,100,0.05608515710859588,-10,-1,-100,15030.537550090346,-0.0029386169208456864,-0.0049236943033613735,0.9999835607473752,16.57954413727969,0.02061476018882566,12.435672787211681,-6.611251164792828,-92.18868255615234,5356.25390625,True
1599559619.090783,0.0,10,0.5,0.5,0.0334845371246338,-0.05075,-0.001,-0.5,-0.045250676669506745,10,1,100,0.05728585178922113,-10,-1,-100,15030.238722947775,-0.0031738279029679102,-0.004841868924248002,0.9999832414204564,16.677097291025735,0.02075470476974814,13.212589488072904,-6.982848017832152,-92.04361724853516,5356.25390625,True
1599559619.120703,0.0,10,0.5,0.5,-0.09668876495361327,-0.05075,-0.001,-0.5,-0.029825253320954894,10,1,100,0.07983774886246617,-10,-1,-100,15029.642044119537,-0.0035905881099518406,-0.004627349900823881,0.9999828475078559,16.868465781197386,0.021024580407383538,14.788219665431109,-7.726054924865633,-91.67555236816406,5356.25390625,True
1599559619.153615,0.0,10,0.5,0.5,0.03068400878906251,-0.05075,-0.001,-0.5,-0.04418999034416793,10,1,100,0.04862856182598757,-10,-1,-100,15029.49556070019,-0.0036837317390656745,-0.004563286264904017,0.9999828031216033,16.91590197544878,0.02108988916683932,15.18689246831022,-7.911858622045687,-91.57278442382812,5356.25390625,True
1599559619.188013,0.0,10,0.5,0.5,0.08199175415039063,-0.05075,-0.001,-0.5,-0.05054830354980294,10,1,100,0.039528766944119616,-10,-1,-100,15029.49556070019,-0.0036837317390656745,-0.004563286264904017,0.9999828031216033,16.91590197544878,0.02108988916683932,15.18689246831022,-7.911858622045687,-91.57278442382812,5356.25390625,True
1599559619.2239168,0.0,10,0.5,0.5,-0.08919405860900878,-0.05075,-0.001,-0.5,-0.027195762530264126,10,1,100,0.06702639878620456,-10,-1,-100,15028.977981795208,-0.003931910419671476,-0.004351438014847621,0.9999828023859484,17.059364841075993,0.021282138216470448,16.396242606726283,-8.469272593001474,-91.2621078491211,5356.25390625,True
1599559619.254834,0.0,10,0.5,0.5,-0.05080925102233887,-0.05075,-0.001,-0.5,-0.030369430423920735,10,1,100,0.05856490159535428,-10,-1,-100,15028.67134090059,-0.004078846058947039,-0.004188344230457375,0.9999829102476875,17.157265979463386,0.02140856919406332,17.21501864870696,-8.840883555710148,-91.04996490478516,5356.25390625,True
1599559619.2877467,0.0,10,0.5,0.5,-0.068468941116333,-0.05075,-0.001,-0.5,-0.0275584555544299,10,1,100,0.057642221069837934,-10,-1,-100,15028.305129628396,-0.004202279072120257,-0.004015310905361782,0.9999831089218123,17.25338616655688,0.021528618862739594,18.040352540860567,-9.212494864384071,-90.82555389404297,5356.25390625,True
1599559619.3216588,0.0,10,0.5,0.5,-0.07433660736083984,-0.05075,-0.001,-0.5,-0.024297234121040366,10,1,100,0.0571726140232679,-10,-1,-100,15027.876417676685,-0.004308609887265806,-0.0038292832153085554,0.9999833860974372,17.351037430225023,0.021646112576343735,18.875628106545115,-9.584105630299357,-90.6114501953125,5356.25390625,True
1599559619.3576884,0.0,10,0.5,0.5,-0.02330984420776367,-0.05075,-0.001,-0.5,-0.03210116165942807,10,1,100,0.05181828730678324,-10,-1,-100,15027.717238084064,-0.004355009804736918,-0.003732185946653582,0.9999835522035652,17.40112520816898,0.02170476943434405,19.297819911188665,-9.769910647530654,-90.51004028320312,5356.25390625,True
1599559619.3876257,0.0,10,0.5,0.5,0.02721579818725586,-0.05075,-0.001,-0.5,-0.041685464263622844,10,1,100,0.047344813212833,-10,-1,-100,15027.717238084064,-0.004355009804736918,-0.003732185946653582,0.9999835522035652,17.40112520816898,0.02170476943434405,19.297819911188665,-9.769910647530654,-90.51004028320312,5356.25390625,True
1599559619.4215682,0.0,10,0.5,0.5,-0.17428137741088867,-0.05075,-0.001,-0.5,0.0041140358576005134,10,1,100,0.06274303103287154,-10,-1,-100,15026.91157204588,-0.004493705973206458,-0.0033169100440576496,0.9999844022355477,17.61048634314982,0.021939785204340662,21.01892130582249,-10.51312541084431,-90.14448547363281,5356.25390625,True
1599559619.4544797,0.0,10,0.5,0.5,-0.039902158737182614,-0.05075,-0.001,-0.5,-0.024863418873153454,10,1,100,0.05165381194459755,-10,-1,-100,15026.697703331709,-0.004517782427312423,-0.003204204229141102,0.9999846612409599,17.664399896392386,0.02199785185139841,21.456744862068224,-10.698927248413728,-90.05695343017578,5356.25390625,True
1599559619.4903848,0.0,10,0.5,0.5,-0.09035728302001952,-0.05075,-0.001,-0.5,-0.011430762899136603,10,1,100,0.05283691274335676,-10,-1,-100,15026.253365980461,-0.004549582670745329,-0.0029809231118819806,0.9999852075880539,17.77174560400076,0.022110053662763918,22.33875833942712,-11.070528495843305,-89.88616943359375,5356.25390625,True
1599559619.5205503,0.0,10,0.5,0.5,-0.005133946228027344,-0.05075,-0.001,-0.5,-0.03360063830974653,10,1,100,0.049743473493234124,-10,-1,-100,15026.253365980461,-0.004549582670745329,-0.0029809231118819806,0.9999852075880539,17.77174560400076,0.022110053662763918,22.33875833942712,-11.070528495843305,-89.88616943359375,5356.25390625,True
1599559619.5554593,0.0,10,0.5,0.5,-0.1273254653930664,-0.05075,-0.001,-0.5,0.005868711999333517,10,1,100,0.05178670185846627,-10,-1,-100,15025.537543743383,-0.004567370336855003,-0.002623549348302182,0.9999861279622947,17.96807731509767,0.022314174093506074,23.72577151682822,-11.627922462744507,-89.66461181640625,5356.25390625,True
1599559619.5903656,0.0,10,0.5,0.5,-0.016706406402587894,-0.05075,-0.001,-0.5,-0.029695875491991795,10,1,100,0.05007148123921718,-10,-1,-100,15025.537543743383,-0.004567370336855003,-0.002623549348302182,0.9999861279622947,17.96807731509767,0.022314174093506074,23.72577151682822,-11.627922462744507,-89.66461181640625,5356.25390625,True
1599559619.6252723,0.0,10,0.5,0.5,-0.08557103881835937,-0.05075,-0.001,-0.5,-0.0022443748716834133,10,1,100,0.048996904207381245,-10,-1,-100,15025.095159614924,-0.004557157341767488,-0.0023754127925558833,0.9999867947783249,18.139274222139793,0.022495217192753433,24.719456082345985,-11.9995119779106,-89.53982543945312,5356.25390625,True
1599559619.6551905,0.0,10,0.5,0.5,-0.10327677536010742,-0.05075,-0.001,-0.5,0.01409723541724791,10,1,100,0.0447541614105581,-10,-1,-100,15024.31390580011,-0.004508979795108038,-0.0020027648284442414,0.9999878289430573,18.391756046692198,0.02275455116382812,26.231365589889045,-12.556885122008254,-89.39462280273438,5356.25390625,True
1599559619.6881037,0.0,10,0.5,0.5,-0.07367321548461914,-0.05075,-0.001,-0.5,0.00530667674224106,10,1,100,0.043783289066443715,-10,-1,-100,15023.804138731794,-0.004456173758736733,-0.0017455685930126876,0.9999885476872817,18.554777524334966,0.022917019277954566,27.249588459408496,-12.928459248391288,-89.3167724609375,5356.25390625,True
1599559619.7210608,0.0,10,0.5,0.5,-0.0348673713684082,-0.05075,-0.001,-0.5,-0.020214285065550223,10,1,100,0.049074009098974206,-10,-1,-100,15023.804138731794,-0.004456173758736733,-0.0017455685930126876,0.9999885476872817,18.554777524334966,0.022917019277954566,27.249588459408496,-12.928459248391288,-89.3167724609375,5356.25390625,True
1599559619.757461,0.0,10,0.5,0.5,-0.06502180099487305,-0.05075,-0.001,-0.5,0.007462912491337813,10,1,100,0.04164190228627282,-10,-1,-100,15023.29437104112,-0.00438851718411763,-0.0014957637219079245,0.999989251746144,18.71406685844368,0.023072212630575635,28.27618716482699,-13.300026506884851,-89.26223754882812,5356.25390625,True
1599559619.7884235,0.0,10,0.5,0.5,-0.04789348831176758,-0.05075,-0.001,-0.5,-0.0032175283157724506,10,1,100,0.04404485606707904,-10,-1,-100,15023.00921464176,-0.004348951867734037,-0.0013674188885338238,0.9999896083376244,18.791530935479365,0.023146315849300218,28.791285016697298,-13.485807395112356,-89.24398803710938,5356.25390625,True
1599559619.8223326,0.0,10,0.5,0.5,-0.051153160095214846,-0.05075,-0.001,-0.5,0.012724891301087927,10,1,100,0.03788613260392967,-10,-1,-100,15022.44182993134,-0.0042571484855017565,-0.0011074804847137354,0.9999903250400718,18.942528342665767,0.02328849610815367,29.82529997755173,-13.8573637176493,-89.22164916992188,5356.25390625,True
1599559619.8554707,0.0,10,0.5,0.5,-0.0433780746459961,-0.05075,-0.001,-0.5,0.014549408466917128,10,1,100,0.03556059289190922,-10,-1,-100,15021.926203290117,-0.004152815444440628,-0.0008562894548489971,0.9999910104057205,19.08972430534334,0.023424798328887726,30.86618545215792,-14.228912276105444,-89.21560668945312,5356.25390625,True
1599559619.8904307,0.0,10,0.5,0.5,-0.03886078796386719,-0.05075,-0.001,-0.5,0.0037897894051210895,10,1,100,0.039530844927876674,-10,-1,-100,15021.640068650478,-0.0040944211230995835,-0.0007276801770401381,0.9999913530612287,19.161735397037752,0.02349069682574445,31.388792663807425,-14.414683715957157,-89.21844482421875,5356.25390625,True
1599559619.9214985,0.0,10,0.5,0.5,-0.03145008239746094,-0.05075,-0.001,-0.5,0.018926109047844086,10,1,100,0.03145770882591059,-10,-1,-100,15021.010184073355,-0.003968373183875083,-0.0004748832633448408,0.9999920132181855,19.303247125707326,0.023619082395524616,32.43911793618575,-14.786220213389745,-89.23455810546875,5356.25390625,True
1599559619.9544146,0.0,10,0.5,0.5,-0.02349851226806641,-0.05075,-0.001,-0.5,0.021215660169765223,10,1,100,0.02885349088819212,-10,-1,-100,15020.42522166355,-0.003830653982558079,-0.00022620711895433962,0.999992637433099,19.441387687536757,0.02374325419192655,33.495869342535286,-15.157748306371177,-89.26370239257812,5356.25390625,True
1599559619.9883158,0.0,10,0.5,0.5,-0.027677583312988287,-0.05075,-0.001,-0.5,0.010400593419334043,10,1,100,0.03431647233368521,-10,-1,-100,15020.138112053042,-0.0037557786339191116,-0.00010041050876107795,0.9999929419973838,19.50929013568545,0.023804005317495602,34.02669184115328,-15.343509199954191,-89.28262329101562,5356.25390625,True
1599559620.0251887,0.0,10,0.5,0.5,0.0024661773681640548,-0.05075,-0.001,-0.5,0.03803857982626966,10,1,100,0.015559050445029178,-10,-1,-100,15019.15080483607,-0.0035178728463151673,0.0002634750548234081,0.999993777556407,19.70859386714631,0.023981854325290788,35.62884672696734,-15.90077855706211,-89.35455322265625,5356.25390625,True
1599559620.0551436,0.0,10,0.5,0.5,-0.0018295745849609378,-0.05075,-0.001,-0.5,0.02803333392048543,10,1,100,0.02025456200536368,-10,-1,-100,15018.502365969704,-0.0033451343271440966,0.0005014969283495969,0.9999942792722188,19.838466952450947,0.024097966937350463,36.7058128201882,-16.272280298091626,-89.41204833984375,5356.25390625,True
1599559620.089566,0.0,10,0.5,0.5,0.004644224548339841,-0.05075,-0.001,-0.5,0.029485124578358366,10,1,100,0.01766804740459761,-10,-1,-100,15017.857833335409,-0.0031655955764648795,0.0007290357597891931,0.9999947237418342,19.966221589464094,0.024212789106770584,37.790049812256164,-16.643772960351406,-89.47598266601562,5356.25390625,True
1599559620.1224425,0.0,10,0.5,0.5,-0.027301564025878907,-0.05075,-0.001,-0.5,0.006953721382568456,10,1,100,0.03549963031175404,-10,-1,-100,15017.857833335409,-0.0031655955764648795,0.0007290357597891931,0.9999947237418342,19.966221589464094,0.024212789106770584,37.790049812256164,-16.643772960351406,-89.47598266601562,5356.25390625,True
1599559620.158347,0.0,10,0.5,0.5,0.008841073608398434,-0.05075,-0.001,-0.5,0.031411575836639546,10,1,100,0.014731803778351746,-10,-1,-100,15017.217207225971,-0.002977872931880558,0.0009494740233277275,0.9999951153740104,20.09257204001008,0.02432738116744473,38.88267823510571,-17.015256450419162,-89.54156494140625,5356.25390625,True
1599559620.1882677,0.0,10,0.5,0.5,0.012150942993164063,-0.05075,-0.001,-0.5,0.03273694535829849,10,1,100,0.012081719616472017,-10,-1,-100,15016.505291985464,-0.00278428728583556,0.0011600512999159842,0.9999954510022991,20.21810728823091,0.02444254985062318,39.98469164614259,-17.386730432836288,-89.6070556640625,5356.25390625,True
1599559620.2222116,0.0,10,0.5,0.5,-0.0020333465576171904,-0.05075,-0.001,-0.5,0.023586357847654695,10,1,100,0.019995850192671215,-10,-1,-100,15016.1478708192,-0.0026814910929951956,0.0012664649914860332,0.9999956028263042,20.280744019558824,0.024500568192904373,40.539537259973365,-17.57246383383038,-89.64068603515625,5356.25390625,True
1599559620.2560885,0.0,10,0.5,0.5,0.01825435333251953,-0.05075,-0.001,-0.5,0.03454705706509026,10,1,100,0.008038822425449454,-10,-1,-100,15015.44279221003,-0.002480624238011125,0.001461034572009559,0.9999958559320979,20.40501999125459,0.024616668137415434,41.655382820147175,-17.943923509036907,-89.70797729492188,5356.25390625,True
1599559620.2920265,0.0,10,0.5,0.5,0.038104093933105466,-0.05075,-0.001,-0.5,0.045777409833226514,10,1,100,-0.00649603083304727,-10,-1,-100,15014.309978155536,-0.0021672354756264215,0.0017382501996182262,0.9999961407808715,20.590570612210772,0.02479297195753292,43.34766894124254,-18.50109519975119,-89.80502319335938,5356.25390625,True
1599559620.3229086,0.0,10,0.5,0.5,0.023418464660644532,-0.05075,-0.001,-0.5,0.036843404974818486,10,1,100,0.0015085945850335583,-10,-1,-100,15013.591227728175,-0.0019566181213564546,0.0019072603102600575,0.9999962669948502,20.714035039811726,0.0249122691935273,44.488862914904296,-18.872531077405977,-89.86636352539062,5356.25390625,True
1599559620.3558214,0.0,10,0.5,0.5,-0.007193327331542969,-0.05075,-0.001,-0.5,0.020143160992537473,10,1,100,0.02239041396077398,-10,-1,-100,15013.591227728175,-0.0019566181213564546,0.0019072603102600575,0.9999962669948502,20.714035039811726,0.0249122691935273,44.488862914904296,-18.872531077405977,-89.86636352539062,5356.25390625,True
1599559620.389763,0.0,10,0.5,0.5,0.03586838989257812,-0.05075,-0.001,-0.5,0.04533390634245005,10,1,100,-0.012331592335792337,-10,-1,-100,15012.45353291952,-0.0016423828411376324,0.0021347727359361385,0.9999963726554056,20.900271460741898,0.025095319615230822,46.22320571230843,-19.42966681667308,-89.9444580078125,5356.25390625,True
1599559620.4256358,0.0,10,0.5,0.5,-0.0031256103515625005,-0.05075,-0.001,-0.5,0.0227459913556006,10,1,100,0.01892166053748924,-10,-1,-100,15012.45353291952,-0.0016423828411376324,0.0021347727359361385,0.9999963726554056,20.900271460741898,0.025095319615230822,46.22320571230843,-19.42966681667308,-89.9444580078125,5356.25390625,True
1599559620.4555526,0.0,10,0.5,0.5,0.03526347465515137,-0.05075,-0.001,-0.5,0.045436196678637936,10,1,100,-0.016567119654327417,-10,-1,-100,15011.256266430137,-0.0013211423055168694,0.0023397693870763443,0.9999963900245961,21.087821245913904,0.025282697737629204,47.98500271637922,-19.98678077567589,-90.01407623291016,5356.25390625,True
1599559620.4884646,0.0,10,0.5,0.5,0.02253447380065918,-0.05075,-0.001,-0.5,0.03834635388709543,10,1,100,-0.00808821039939189,-10,-1,-100,15010.411539957393,-0.0011078632238800878,0.002460212559437702,0.9999963599899949,21.21320451141937,0.025409410279735988,49.17404935207345,-20.35817828264867,-90.05406951904297,5356.25390625,True
1599559620.5228374,0.0,10,0.5,0.5,0.002589081192016602,-0.05075,-0.001,-0.5,0.026453110504570648,10,1,100,0.013052696793486222,-10,-1,-100,15010.411539957393,-0.0011078632238800878,0.002460212559437702,0.9999963599899949,21.21320451141937,0.025409410279735988,49.17404935207345,-20.35817828264867,-90.05406951904297,5356.25390625,True
1599559620.55877,0.0,10,0.5,0.5,0.029156106185913085,-0.05075,-0.001,-0.5,0.04320850188438149,10,1,100,-0.020770093621578577,-10,-1,-100,15009.20158021897,-0.0008019073328903673,0.002611352334472781,0.9999962688848468,21.402406056627964,0.02560241920068625,50.980937851803766,-20.915256156179503,-90.10222625732422,5356.25390625,True
1599559620.5887308,0.0,10,0.5,0.5,0.01205700798034668,-0.05075,-0.001,-0.5,0.033091940103230355,10,1,100,-0.0015363808801886515,-10,-1,-100,15008.774821717874,-0.0007003262603306251,0.0026555607616369453,0.9999962287629741,21.465878358411832,0.0256675466531572,51.58974802969861,-21.100943991586018,-90.11481475830078,5356.25390625,True
1599559620.6222823,0.0,10,0.5,0.5,0.018077159118652344,-0.05075,-0.001,-0.5,0.03753495223938562,10,1,100,-0.01362897848176588,-10,-1,-100,15007.925212569418,-0.0004996655779689579,0.0027350553273970267,0.9999961348958637,21.607234139491705,0.025815330752744687,52.85098681956809,-21.472311958135787,-90.13710021972656,5356.25390625,True
1599559620.6562228,0.0,10,0.5,0.5,0.015867237091064454,-0.05075,-0.001,-0.5,0.036847003933192984,10,1,100,-0.015071450338186375,-10,-1,-100,15007.014079995453,-0.00030564936794330816,0.002800162852461005,0.9999960328253624,21.75252561889122,0.025968059381472914,54.13441898517957,-21.843669823706456,-90.15325927734375,5356.25390625,True
1599559620.6912143,0.0,10,0.5,0.5,0.007816397857666017,-0.05075,-0.001,-0.5,0.030425541681015234,10,1,100,0.0041650737890372835,-10,-1,-100,15007.014079995453,-0.00030564936794330816,0.002800162852461005,0.9999960328253624,21.75252561889122,0.025968059381472914,54.13441898517957,-21.843669823706456,-90.15325927734375,5356.25390625,True
1599559620.7220945,0.0,10,0.5,0.5,0.014479870223999025,-0.05075,-0.001,-0.5,0.03629282268684713,10,1,100,-0.01689576994456298,-10,-1,-100,15006.1576348315,-0.00011568803286822678,0.0028526900411120215,0.9999959243795988,21.898361362308496,0.026121496851843905,55.43197286969152,-22.215017288820576,-90.1653060913086,5356.25390625,True
1599559620.7560377,0.0,10,0.5,0.5,0.014239337921142578,-0.05075,-0.001,-0.5,0.03712962039618785,10,1,100,-0.028323922955938247,-10,-1,-100,15004.820722227567,0.00015950848565955922,0.0029073966306022467,0.9999957607919522,22.118029749190992,0.026352542639044314,57.40468835075294,-22.772019187130383,-90.17576599121094,5356.25390625,True
1599559620.789078,0.0,10,0.5,0.5,0.009032518768310547,-0.05075,-0.001,-0.5,0.031736223836631945,10,1,100,-0.0009844602358393642,-10,-1,-100,15004.820722227567,0.00015950848565955922,0.0029073966306022467,0.9999957607919522,22.118029749190992,0.026352542639044314,57.40468835075294,-22.772019187130383,-90.17576599121094,5356.25390625,True
1599559620.8257856,0.0,10,0.5,0.5,0.010918528366088868,-0.05075,-0.001,-0.5,0.0340972447535913,10,1,100,-0.020549597138526346,-10,-1,-100,15003.90177714033,0.0003360273204192805,0.0029283444323532173,0.9999956559328271,22.264705282333036,0.026506528512840726,58.73652679640948,-23.143340787460417,-90.17916107177734,5356.25390625,True
1599559620.8561382,0.0,10,0.5,0.5,0.009208285903930665,-0.05075,-0.001,-0.5,0.03290578900832889,10,1,100,-0.021035902369645997,-10,-1,-100,15002.920332434238,0.0004996073172616608,0.0029361308981945182,0.9999955647541029,22.411608390383496,0.026660406712969188,60.08188048810165,-23.514651944148483,-90.17911529541016,5356.25390625,True
1599559620.8892226,0.0,10,0.5,0.5,0.006214116668701173,-0.05075,-0.001,-0.5,0.031151201236704333,10,1,100,-0.031755827309613543,-10,-1,-100,15001.513105202932,0.0007443089315352191,0.0029268260525456987,0.9999954398363388,22.632371928514438,0.026890722503014858,62.12528991113559,-24.071598600311603,-90.17361450195312,5356.25390625,True
1599559620.9232469,0.0,10,0.5,0.5,0.008971652221679689,-0.05075,-0.001,-0.5,0.03211323317339358,10,1,100,-0.007440287508700277,-10,-1,-100,15001.513105202932,0.0007443089315352191,0.0029268260525456987,0.9999954398363388,22.632371928514438,0.026890722503014858,62.12528991113559,-24.071598600311603,-90.17361450195312,5356.25390625,True
1599559620.9581532,0.0,10,0.5,0.5,0.002956225204467774,-0.05075,-0.001,-0.5,0.028145067650893297,10,1,100,-0.03152472320040181,-10,-1,-100,15000.031660633511,0.0009619450421944459,0.002890505215713052,0.9999953598099011,22.85363501986724,0.027120126097993663,64.19930016980899,-24.628521227635556,-90.16268157958984,5356.25390625,True
1599559620.9890718,0.0,10,0.5,0.5,0.008425244522094727,-0.05075,-0.001,-0.5,0.03179269632298959,10,1,100,-0.00990727319649547,-10,-1,-100,15000.031660633511,0.0009619450421944459,0.002890505215713052,0.9999953598099011,22.85363501986724,0.027120126097993663,64.19930016980899,-24.628521227635556,-90.16268157958984,5356.25390625,True
1599559621.0229738,0.0,10,0.5,0.5,0.003123402786254883,-0.05075,-0.001,-0.5,0.02755562206234325,10,1,100,-0.025038691725026572,-10,-1,-100,14999.046309288824,0.001098351033899149,0.002851904229376947,0.9999953301227325,23.00126964953613,0.027272220535493382,65.59861095871943,-24.999789717244457,-90.1530532836914,5356.25390625,True
1599559621.0558877,0.0,10,0.5,0.5,-0.0013780578613281245,-0.05075,-0.001,-0.5,0.022855745202989865,10,1,100,-0.031305993298091785,-10,-1,-100,14997.502363268053,0.0012780555857477968,0.0027740392327346244,0.9999953356292494,23.222784907309045,0.02749875085660848,67.72222959912678,-25.556671888377338,-90.13613891601562,5356.25390625,True
1599559621.0924203,0.0,10,0.5,0.5,0.007076209259033204,-0.05075,-0.001,-0.5,0.030634379786384374,10,1,100,-0.0134749124750886,-10,-1,-100,14997.502363268053,0.0012780555857477968,0.0027740392327346244,0.9999953356292494,23.222784907309045,0.02749875085660848,67.72222959912678,-25.556671888377338,-90.13613891601562,5356.25390625,True
1599559621.1233373,0.0,10,0.5,0.5,-0.007634365081787109,-0.05075,-0.001,-0.5,0.01534451913311477,10,1,100,-0.035888396406169865,-10,-1,-100,14995.451581676258,0.001480797669575728,0.002635161733521144,0.9999954315700147,23.51824245207853,0.027797413639222456,70.59978549441736,-26.29914338546451,-90.10943603515625,5356.25390625,True
1599559621.1562514,0.0,10,0.5,0.5,0.0018951271057128915,-0.05075,-0.001,-0.5,0.024562662723055607,10,1,100,-0.020932309462262187,-10,-1,-100,14994.896894940874,0.001527943056125672,0.0025929582531420614,0.9999954709685012,23.59211350507852,0.027871417723883348,71.3273777708597,-26.48475430168878,-90.10250854492188,5356.25390625,True
1599559621.190204,0.0,10,0.5,0.5,0.005351206970214844,-0.05075,-0.001,-0.5,0.028749472143042756,10,1,100,-0.016336962380838434,-10,-1,-100,14994.896894940874,0.001527943056125672,0.0025929582531420614,0.9999954709685012,23.59211350507852,0.027871417723883348,71.3273777708597,-26.48475430168878,-90.10250854492188,5356.25390625,True
1599559621.228101,0.0,10,0.5,0.5,-0.010396730041503906,-0.05075,-0.001,-0.5,0.008236050200354554,10,1,100,-0.03307063927332599,-10,-1,-100,14992.72501958767,0.001679132540840228,0.002406784574249489,0.9999956939416909,23.887097404155778,0.028164075996175934,74.26897963960148,-27.227170535901934,-90.07392883300781,5356.25390625,True
1599559621.2948883,0.0,10,0.5,0.5,0.0038831573486328127,-0.05075,-0.001,-0.5,0.026801413941782166,10,1,100,-0.018045173162800895,-10,-1,-100,14992.72501958767,0.001679132540840228,0.002406784574249489,0.9999956939416909,23.887097404155778,0.028164075996175934,74.26897963960148,-27.227170535901934,-90.07392883300781,5356.25390625,True
1599559621.3816571,0.0,10,0.5,0.5,-0.015329444122314453,-0.05075,-0.001,-0.5,-0.00392582700098873,10,1,100,-0.031875756614628964,-10,-1,-100,14989.978923932882,0.0018040152780302058,0.0021279187852045684,0.9999961087376892,24.255017177559687,0.028522459566547694,78.01714618586762,-28.155127967813904,-90.0390625,5356.25390625,True
1599559621.4235423,0.0,10,0.5,0.5,-0.004366942977905274,-0.05075,-0.001,-0.5,0.009908971037288447,10,1,100,-0.023113694647132824,-10,-1,-100,14988.851970247226,0.00183712441192037,0.0020008685831758044,0.9999963107425986,24.401634781993774,0.028663178424027106,79.53756320727248,-28.526291213843315,-90.02733612060547,5356.25390625,True
1599559621.4803698,0.0,10,0.5,0.5,-0.011185983276367188,-0.05075,-0.001,-0.5,-0.006732390030996106,10,1,100,-0.022570723330406807,-10,-1,-100,14986.541422238108,0.001861491904059623,0.0017348920594675568,0.9999967624934758,24.694514723910675,0.028940864787587648,82.61646557092666,-29.268583044490576,-90.00433349609375,5356.25390625,True
1599559621.5252492,0.0,10,0.5,0.5,-0.0018088912963867187,-0.05075,-0.001,-0.5,0.011941527272750848,10,1,100,-0.020018333751915224,-10,-1,-100,14985.919352313504,0.0018597468635906927,0.0016638735699213126,0.9999968864283262,24.767634911044595,0.029009484087925485,83.39403518404002,-29.454148866336798,-90.00050354003906,5356.25390625,True
