Timestamp,Input Throttle,horizon,dT,dt,Input Roll,Roll P,Roll I,Roll D,Input Pitch,Pitch P,Pitch I,Pitch D,Input Yaw,Yaw P,Yaw I,Yaw D,Altitude,Direction X,Direction Y,Direction Z,Drag X,Drag Y,Drag Z,Vertical Velocity,Roll,Mass,Has Fuel
1599559943.0841894,0.0,10,0.5,0.5,-2.954210777282715,-0.05075,-0.0155,-0.12575,-0.0003163095746610032,10,1,100,0.17500192646460128,-10,-1,-100,14993.959752080846,-0.016812053895439483,-7.445802791577783e-05,0.9998586646620705,28.644441195776547,0.0272750014003817,-87.50344318847154,27.00897778703773,-31.791748046875,5356.25390625,True
1599559943.1101635,0.0,10,0.5,0.5,-3.044399304199219,-0.05075,-0.0155,-0.12575,-0.0004849465735264402,10,1,100,0.17373748439207362,-10,-1,-100,14994.498816248844,-0.016847833350422527,-7.203003238466041e-05,0.999858062588421,28.571789869848885,0.027439408358430086,-86.6821281164058,26.823010220416755,-31.7911376953125,5356.25390625,True
1599559943.1440756,0.0,10,0.5,0.5,-3.134648629760742,-0.05075,-0.0155,-0.12575,-0.00046046736060827354,10,1,100,0.17586401548534492,-10,-1,-100,14995.030068064807,-0.016884376016391013,-6.953474357312973e-05,0.999857446344956,28.499187957675552,0.027602329074887542,-85.8640115543304,26.63704658587792,-31.790557861328125,5356.25390625,True
1599559943.1790795,0.0,10,0.5,0.5,-3.2004917419433596,-0.05075,-0.0155,-0.12575,0.007356456860430494,10,1,100,0.18225551998109302,-10,-1,-100,14996.635541168973,-0.01696035177539972,3.859861668226158e-06,0.9998561628818198,28.285007998757152,0.028084793983055297,-83.43863391067337,26.07917938728588,-31.92828369140625,5356.25390625,True
1599559943.2080028,0.0,10,0.5,0.5,-3.23861268157959,-0.05075,-0.0155,-0.12575,0.009526767038895713,10,1,100,0.1798437660086702,-10,-1,-100,14997.639448954025,-0.01699207710949888,9.030881363580783e-05,0.9998556201571419,28.16089187584057,0.028411817770928337,-81.89096876237306,25.707286627284194,-32.320404052734375,5356.25390625,True
1599559943.233934,0.0,10,0.5,0.5,-3.2602097274780277,-0.05075,-0.0155,-0.12575,0.015634909880138572,10,1,100,0.17845122329153995,-10,-1,-100,14998.702925778576,-0.016992811500242844,0.0002243452423325119,0.9998555865856477,28.05707430255756,0.02874173754394926,-80.41186184969008,25.335407610893242,-32.98394775390625,5356.25390625,True
1599559943.2558749,0.0,10,0.5,0.5,-3.355318182373047,-0.05075,-0.0155,-0.12575,0.01167958760744691,10,1,100,0.17886420046283089,-10,-1,-100,14999.175581617164,-0.016981785455657962,0.0003100351157211073,0.9998557510165981,28.012298366143952,0.028905250936019918,-79.6958516140326,25.149472986561033,-33.418548583984375,5356.25390625,True
1599559943.278815,0.0,10,0.5,0.5,-3.4976704864501955,-0.05075,-0.0155,-0.12575,0.0031416037801594815,10,1,100,0.18166498346688484,-10,-1,-100,14999.175581617164,-0.016981785455657962,0.0003100351157211073,0.9998557510165981,28.012298366143952,0.028905250936019918,-79.6958516140326,25.149472986561033,-33.418548583984375,5356.25390625,True
1599559943.31124,0.0,10,0.5,0.5,-3.39559976348877,-0.05075,-0.0155,-0.12575,0.02616488586092377,10,1,100,0.17805421388371678,-10,-1,-100,15000.181439080974,-0.01693352229085129,0.0005190558299864907,0.9998564829033567,27.93495539660407,0.02922267924294362,-78.30364804404185,24.777613003724145,-34.493743896484375,5356.25390625,True
1599559943.3463097,0.0,10,0.5,0.5,-3.616840270996094,-0.05075,-0.0155,-0.12575,0.005314720017384075,10,1,100,0.18457388259346907,-10,-1,-100,15000.181439080974,-0.01693352229085129,0.0005190558299864907,0.9998564829033567,27.93495539660407,0.02922267924294362,-78.30364804404185,24.777613003724145,-34.493743896484375,5356.25390625,True
1599559943.3780649,0.0,10,0.5,0.5,-3.4646042770385743,-0.05075,-0.0155,-0.12575,0.03412054177269182,10,1,100,0.17721494830664375,-10,-1,-100,15001.179482666426,-0.016851228777070286,0.0007804550679165734,0.9998577033651288,27.870114254937242,0.02951629391854421,-76.95238944502388,24.40576465116423,-35.843719482421875,5356.25390625,True
1599559943.4110763,0.0,10,0.5,0.5,-3.1797285522460936,-0.05075,-0.0155,-0.12575,0.06073609001534603,10,1,100,0.1632760965544771,-10,-1,-100,15002.588655154686,-0.016649664044175467,0.0012592730745172938,0.9998605917419388,27.783549272538227,0.029877277448159375,-74.96443528403013,23.84801319922674,-38.38397216796875,5356.25390625,True
1599559943.4451172,0.0,10,0.5,0.5,-3.4889464340209964,-0.05075,-0.0155,-0.12575,0.012987419665964185,10,1,100,0.18341275291333434,-10,-1,-100,15002.588655154686,-0.016649664044175467,0.0012592730745172938,0.9998605917419388,27.783549272538227,0.029877277448159375,-74.96443528403013,23.84801319922674,-38.38397216796875,5356.25390625,True
1599559943.4820166,0.0,10,0.5,0.5,-2.711101382446289,-0.05075,-0.0155,-0.12575,0.09891355674143415,10,1,100,0.13661760725697913,-10,-1,-100,15004.464616945828,-0.016224467003637888,0.0020392117680960295,0.9998662952044202,27.648238559169993,0.03010797068272747,-72.2785547247774,23.10438444340952,-42.733123779296875,5356.25390625,True
1599559943.5125704,0.0,10,0.5,0.5,-3.2412596954345703,-0.05075,-0.0155,-0.12575,0.021123222574203366,10,1,100,0.1790637228335608,-10,-1,-100,15004.464616945828,-0.016224467003637888,0.0020392117680960295,0.9998662952044202,27.648238559169993,0.03010797068272747,-72.2785547247774,23.10438444340952,-42.733123779296875,5356.25390625,True
1599559943.5452824,0.0,10,0.5,0.5,-3.002911392211914,-0.05075,-0.0155,-0.12575,0.04629388135569697,10,1,100,0.16447171488045798,-10,-1,-100,15004.932386058033,-0.016092510213251372,0.00226626420887828,0.9998679388607138,27.603271598785597,0.03010281266907443,-71.5817151438184,22.918484865098783,-43.992095947265625,5356.25390625,True
1599559943.5783231,0.0,10,0.5,0.5,-2.663276344299317,-0.05075,-0.0155,-0.12575,0.07374158529309306,10,1,100,0.14337330751821756,-10,-1,-100,15005.861086906982,-0.015781564247140528,0.0027203438099597946,0.9998717627573394,27.490466954958407,0.029997246227256018,-70.13532841183701,22.546696087602417,-46.7166748046875,5356.25390625,True
1599559943.6142533,0.0,10,0.5,0.5,-2.7266597091674805,-0.05075,-0.0155,-0.12575,0.05591656965883553,10,1,100,0.15538458930657695,-10,-1,-100,15006.273191101383,-0.015609170677123498,0.0029689066609095223,0.9998737617239544,27.419666099408325,0.02989155346071326,-69.37925006815252,22.3608073544906,-48.18194580078125,5356.25390625,True
1599559943.6441715,0.0,10,0.5,0.5,-1.732112243652344,-0.05075,-0.0155,-0.12575,0.14351202596684023,10,1,100,0.08114267734142933,-10,-1,-100,15008.009495390113,-0.014778770609041706,0.003988778063168237,0.9998828319302457,27.001960031708602,0.02906320498541552,-66.05568176319038,21.617296825309083,-54.7310791015625,5356.25390625,True
1599559943.6780462,0.0,10,0.5,0.5,-2.524297886657715,-0.05075,-0.0155,-0.12575,0.041871857964286927,10,1,100,0.16396720898142758,-10,-1,-100,15008.009495390113,-0.014778770609041706,0.003988778063168237,0.9998828319302457,27.001960031708602,0.02906320498541552,-66.05568176319038,21.617296825309083,-54.7310791015625,5356.25390625,True
1599559943.7120554,0.0,10,0.5,0.5,-1.8421293579101565,-0.05075,-0.0155,-0.12575,0.10126726315232068,10,1,100,0.10889613336053634,-10,-1,-100,15008.874716912629,-0.014280083332198885,0.004525581999211106,0.9998877928685767,26.68744724110339,0.02838625323414249,-64.16625177615408,21.245573458915427,-58.4183349609375,5356.25390625,True
1599559943.7480567,0.0,10,0.5,0.5,-1.9271241317749024,-0.05075,-0.0155,-0.12575,0.07491741683032925,10,1,100,0.12915474547757205,-10,-1,-100,15009.334671052406,-0.01401323786835562,0.004770636859112615,0.9998904290913097,26.497197275511123,0.0279807688530632,-63.15284125651259,21.05972130113314,-60.365570068359375,5356.25390625,True
1599559943.7790062,0.0,10,0.5,0.5,-1.4142394607543947,-0.05075,-0.0155,-0.12575,0.11108135693124438,10,1,100,0.09115481759901223,-10,-1,-100,15010.144227325334,-0.013427593944307398,0.005318984947409038,0.9998956986206091,26.040718005690294,0.027040229092237848,-60.972178141219544,20.68803894724652,-64.46572875976562,5356.25390625,True
1599559943.8119655,0.0,10,0.5,0.5,-1.117015512084961,-0.05075,-0.0155,-0.12575,0.11191159608518417,10,1,100,0.07997798120449767,-10,-1,-100,15010.94499485544,-0.01279651192804058,0.005821340191011701,0.9999011757573126,25.469230802413637,0.0259416042639209,-58.565534310125166,20.31638906008426,-68.84188842773438,5356.25390625,True
1599559943.845927,0.0,10,0.5,0.5,-1.2224362701416016,-0.05075,-0.0155,-0.12575,0.09026848405191479,10,1,100,0.1055453652369843,-10,-1,-100,15011.35026070557,-0.01245834809088935,0.006077832913599931,0.9999039201392905,25.135050141887216,0.025341499379283414,-57.269900316727586,20.130577694757086,-71.1331787109375,5356.25390625,True
1599559943.8828661,0.0,10,0.5,0.5,-0.6212117706298828,-0.05075,-0.0155,-0.12575,0.118428133184101,10,1,100,0.060902039780975,-10,-1,-100,15012.15005069424,-0.011748501751981553,0.00656333345247683,0.9999094435800551,24.359453896320936,0.02406332335023798,-54.480990883865175,19.75898417509882,-75.922607421875,5356.25390625,True
1599559943.9127777,0.0,10,0.5,0.5,0.18528824310302738,-0.05075,-0.0155,-0.12575,0.14383546439147057,10,1,100,0.0057764700887752846,-10,-1,-100,15013.343388793757,-0.010605994454373805,0.0072317668903922805,0.9999176038200732,22.897890338512404,0.022036154310971893,-49.77179537120917,19.201670641068766,-83.6239013671875,5356.25390625,True
1599559943.9462798,0.0,10,0.5,0.5,0.2383484939575195,-0.05075,-0.0155,-0.12575,0.12106077428830275,10,1,100,0.030748486749834533,-10,-1,-100,15014.082632641192,-0.009799074853278905,0.0076282897211225895,0.9999228906910524,21.74925304348416,0.02072179947334366,-46.36311513195859,18.83017838429375,-89.08731079101562,5356.25390625,True
1599559943.9791918,0.0,10,0.5,0.5,-0.3852719253540039,-0.05075,-0.0155,-0.12575,0.08187442952129316,10,1,100,0.11085943727694,-10,-1,-100,15014.082632641192,-0.009799074853278905,0.0076282897211225895,0.9999228906910524,21.74925304348416,0.02072179947334366,-46.36311513195859,18.83017838429375,-89.08731079101562,5356.25390625,True
1599559944.0153825,0.0,10,0.5,0.5,1.133214902496338,-0.05075,-0.0155,-0.12575,0.1368888198674842,10,1,100,-0.02423769712739908,-10,-1,-100,15015.152925480856,-0.008575446082108334,0.008125111895489822,0.9999302197059445,22.122555005885328,0.02112719369809761,-45.76739600949657,18.27297503985662,-97.38892364501953,5356.25390625,True
1599559944.0463006,0.0,10,0.5,0.5,1.1263533470153808,-0.05075,-0.0155,-0.12575,0.11793856183849208,10,1,100,0.0034651947289613405,-10,-1,-100,15015.885335316765,-0.007720540147490122,0.008400733041167086,0.9999349083536399,23.01599817562118,0.02222390322697647,-46.650418755407834,17.901494100100546,-102.8900375366211,5356.25390625,True
1599559944.0803032,0.0,10,0.5,0.5,0.9833626300811769,-0.05075,-0.0155,-0.12575,0.10328801396361213,10,1,100,0.04385376722136053,-10,-1,-100,15016.275954809389,-0.007316484996117839,0.008514588055609366,0.9999369834332286,23.406974845321216,0.022764635328638892,-46.951912168803325,17.71574861055507,-105.60869598388672,5356.25390625,True
1599559944.113215,0.0,10,0.5,0.5,1.6402428588867188,-0.05075,-0.0155,-0.12575,0.11387333023350034,10,1,100,-0.006701687985826585,-10,-1,-100,15016.951725412277,-0.00649565504105246,0.008710919170104517,0.9999409614336237,24.048366917069547,0.02376154754772027,-47.22942787581445,17.34424762135574,-110.87002563476562,5356.25390625,True
1599559944.1481662,0.0,10,0.5,0.5,1.0505573154449463,-0.05075,-0.0155,-0.12575,0.09457941220625483,10,1,100,0.07468811363038579,-10,-1,-100,15016.951725412277,-0.00649565504105246,0.008710919170104517,0.9999409614336237,24.048366917069547,0.02376154754772027,-47.22942787581445,17.34424762135574,-110.87002563476562,5356.25390625,True
1599559944.1791291,0.0,10,0.5,0.5,1.9979221843719484,-0.05075,-0.0155,-0.12575,0.11114740265536892,10,1,100,-0.017871417472285045,-10,-1,-100,15017.62163736904,-0.005659932810016351,0.00885891037511547,0.9999447409069923,24.5263904270824,0.024614343837956926,-47.13884844318511,16.972735347420222,-115.86844635009766,5356.25390625,True
1599559944.2130456,0.0,10,0.5,0.5,2.272964884567261,-0.05075,-0.0155,-0.12575,0.1083008613663338,10,1,100,-0.02267308380252476,-10,-1,-100,15018.289597503142,-0.00486271419269123,0.008965041933896457,0.9999479896643643,24.944300896320293,0.025370394472050323,-46.894879628198474,16.601214574599222,-120.59510040283203,5356.25390625,True
1599559944.2459812,0.0,10,0.5,0.5,2.146797634124756,-0.05075,-0.0155,-0.12575,0.10138026326202174,10,1,100,0.011003472141443267,-10,-1,-100,15018.615765008726,-0.004450380310576547,0.008996427269584136,0.9999496279370649,25.0972078515582,0.02566450395033582,-46.655463405496704,16.415452483488362,-122.85553741455078,5356.25390625,True
1599559944.281921,0.0,10,0.5,0.5,2.684853652572632,-0.05075,-0.0155,-0.12575,0.10262803192708805,10,1,100,-0.03512503618401887,-10,-1,-100,15019.27884342242,-0.003661777264007905,0.009034698507728818,0.999952481676076,25.303147288646873,0.026078860082171675,-45.97576818968615,16.043928058220285,-127.16996765136719,5356.25390625,True
1599559944.312836,0.0,10,0.5,0.5,2.914239392852783,-0.05075,-0.0155,-0.12575,0.09978787593163393,10,1,100,-0.04037272437813032,-10,-1,-100,15019.882352854242,-0.0029027385086256453,0.009042392389004759,0.9999549036076748,25.390758640540763,0.02626455500459,-45.06860873418886,15.672407471650846,-131.20904541015625,5356.25390625,True
1599559944.3463044,0.0,10,0.5,0.5,3.4498403106689457,-0.05075,-0.0155,-0.12575,0.09290561806585927,10,1,100,-0.08639840240415715,-10,-1,-100,15020.815937902313,-0.0018005574183548498,0.008985535298050497,0.9999580081925394,25.339577581765184,0.02614918410319994,-43.38129868136689,15.11514391322441,-136.75140380859375,5356.25390625,True
1599559944.3842044,0.0,10,0.5,0.5,3.1156548282623295,-0.05075,-0.0155,-0.12575,0.09562230368608479,10,1,100,-0.01505025440264298,-10,-1,-100,15021.143084200914,-0.001453353125998577,0.008957761972455435,0.9999588222847658,25.28248092136456,0.02601763743794699,-42.75256795539925,14.929396098334372,-138.4610595703125,5356.25390625,True
1599559944.4191432,0.0,10,0.5,0.5,3.5228166458129886,-0.05075,-0.0155,-0.12575,0.09128276042832859,10,1,100,-0.05416414994915268,-10,-1,-100,15021.735854355968,-0.0007878294343623239,0.00889255671145188,0.9999601500859503,25.120119048732317,0.02563761118472547,-41.42285123853927,14.557912686663052,-141.67361450195312,5356.25390625,True
1599559944.448065,0.0,10,0.5,0.5,3.1747384868621826,-0.05075,-0.0155,-0.12575,0.09784108339426845,10,1,100,0.011735353658297074,-10,-1,-100,15021.735854355968,-0.0007878294343623239,0.00889255671145188,0.9999601500859503,25.120119048732317,0.02563761118472547,-41.42285123853927,14.557912686663052,-141.67361450195312,5356.25390625,True
1599559944.4819996,0.0,10,0.5,0.5,3.7408666179656986,-0.05075,-0.0155,-0.12575,0.08853613909408212,10,1,100,-0.05834262362116373,-10,-1,-100,15022.27784374659,-0.0001559458460096713,0.008807801183685324,0.9999611984068189,24.906052196691657,0.02512982600683853,-40.02366776441794,14.186447500212408,-144.61062622070312,5356.25390625,True
1599559944.5149128,0.0,10,0.5,0.5,3.8935360393524174,-0.05075,-0.0155,-0.12575,0.08750814705003357,10,1,100,-0.06044512455102789,-10,-1,-100,15022.868662084686,0.00043184405258692095,0.008721317247121123,0.99996187534135,24.675123163265905,0.024548123474915324,-38.61606628671041,13.815001775880232,-147.27182006835938,5356.25390625,True
1599559944.5508163,0.0,10,0.5,0.5,4.2209451171875,-0.05075,-0.0155,-0.12575,0.07780766171999326,10,1,100,-0.09248221070924435,-10,-1,-100,15023.664558920427,0.0012519067646925152,0.008554634340996932,0.9999626247819187,24.328472371716906,0.023603070189514748,-36.54062257709238,13.257869118512794,-150.74705505371094,5356.25390625,True
1599559944.5807383,0.0,10,0.5,0.5,4.010778703689575,-0.05075,-0.0155,-0.12575,0.08875369099561772,10,1,100,-0.038791473513731446,-10,-1,-100,15023.92823039589,0.0015037619639589528,0.008502986881201435,0.9999627182620628,24.205789548851186,0.023268888965532388,-35.84794087993366,13.072167796466523,-151.7675018310547,5356.25390625,True
1599559944.6136754,0.0,10,0.5,0.5,4.095220231628418,-0.05075,-0.0155,-0.12575,0.08778464476603881,10,1,100,-0.04099408105461261,-10,-1,-100,15024.192878561793,0.001747332084323238,0.008447673716016978,0.9999627911274372,24.08176537278155,0.022929957232257152,-35.1584466116221,12.88647117581243,-152.71905517578125,5356.25390625,True
1599559944.6465871,0.0,10,0.5,0.5,4.170926026916503,-0.05075,-0.0155,-0.12575,0.08789407533977438,10,1,100,-0.04279961364992961,-10,-1,-100,15024.398933004588,0.0019802560270224417,0.008398917502693896,0.9999627676923026,23.957609814809363,0.022588769765920745,-34.47396393400605,12.700779030529384,-153.6015625,5356.25390625,True
1599559944.682114,0.0,10,0.5,0.5,4.369705145263673,-0.05075,-0.0155,-0.12575,0.08095291965957832,10,1,100,-0.06833124240895053,-10,-1,-100,15024.929207053501,0.0024196716958895005,0.008292077234295049,0.9999626926260922,23.713223232100923,0.021908185405903734,-33.126094312286625,12.329407527351407,-155.15989685058594,5356.25390625,True
1599559944.71307,0.0,10,0.5,0.5,4.523571000671387,-0.05075,-0.0155,-0.12575,0.0744419313019337,10,1,100,-0.08946681331389046,-10,-1,-100,15025.650887574302,0.0030074454675278767,0.008136389330739105,0.999962376512446,23.37129367920936,0.02091797012808764,-31.175567554561933,11.772379307069945,-156.98025512695312,5356.25390625,True
1599559944.746515,0.0,10,0.5,0.5,4.323365700531006,-0.05075,-0.0155,-0.12575,0.08992858439335641,10,1,100,-0.03113551600940548,-10,-1,-100,15025.650887574302,0.0030074454675278767,0.008136389330739105,0.999962376512446,23.37129367920936,0.02091797012808764,-31.175567554561933,11.772379307069945,-156.98025512695312,5356.25390625,True
1599559944.9399714,0.0,10,0.5,0.5,4.500418904876709,-0.05075,-0.0155,-0.12575,0.07955594698722748,10,1,100,-0.06940116370105498,-10,-1,-100,15026.111826057197,0.0033518647420866083,0.008042780051938581,0.9999620386253605,23.16905371706189,0.02029274735297909,-29.932292479194427,11.401044035463716,-157.84896850585938,5356.25390625,True
1599559944.9669306,0.0,10,0.5,0.5,4.520858348846437,-0.05075,-0.0155,-0.12575,0.08046572737666582,10,1,100,-0.06904700514972736,-10,-1,-100,15026.51905392541,0.0036579901919675233,0.007966723962623466,0.9999615744702688,22.992899978104596,0.019702617062701194,-28.73853796369198,11.029720092253736,-158.441650390625,5356.25390625,True
1599559945.0016243,0.0,10,0.5,0.5,4.533458644866943,-0.05075,-0.0155,-0.12575,0.07442834682785773,10,1,100,-0.08208062505637943,-10,-1,-100,15027.17237551068,0.004051306294612486,0.007843461401185161,0.9999610327560547,22.784786029821163,0.018889935953577887,-27.042100481770728,10.472751244620909,-158.8138427734375,5356.25390625,True
1599559945.09049,0.0,10,0.5,0.5,4.5020786384582525,-0.05075,-0.0155,-0.12575,0.08328039326088815,10,1,100,-0.05541985819825371,-10,-1,-100,15027.372571552056,0.0041632053599049215,0.007812675727310557,0.9999608141417898,22.731302499383883,0.018638838112346994,-26.500927348717717,10.287098538320063,-158.79986572265625,5356.25390625,True
1599559945.1164572,0.0,10,0.5,0.5,4.435889093017578,-0.05075,-0.0155,-0.12575,0.07785300787000929,10,1,100,-0.07551555181145476,-10,-1,-100,15027.964369748137,0.004444973271567862,0.007736023391701733,0.9999601972852211,22.619440986258017,0.017944148289669542,-24.944329873757443,9.730148365872559,-158.34417724609375,5356.25390625,True
1599559945.1423864,0.0,10,0.5,0.5,4.452242348480225,-0.05075,-0.0155,-0.12575,0.08273043991280711,10,1,100,-0.05599525386121252,-10,-1,-100,15028.164565773215,0.004520994835979597,0.007711376981073237,0.9999600468372467,22.597923995681295,0.0177315362534337,-24.445607705721788,9.544500233000061,-158.05441284179688,5356.25390625,True
1599559945.1643293,0.0,10,0.5,0.5,4.496950026702882,-0.05075,-0.0155,-0.12575,0.08512145130216235,10,1,100,-0.04867046369520464,-10,-1,-100,15028.164565773215,0.004520994835979597,0.007711376981073237,0.9999600468372467,22.597923995681295,0.0177315362534337,-24.445607705721788,9.544500233000061,-158.05441284179688,5356.25390625,True
1599559945.1862352,0.0,10,0.5,0.5,4.440529984283447,-0.05075,-0.0155,-0.12575,0.08276446051311356,10,1,100,-0.056261551199811674,-10,-1,-100,15028.359878660645,0.004587694959831518,0.007690574828919721,0.9999599032530037,22.583932434384835,0.017528097359752193,-23.95574679480442,9.358852765546654,-157.69564819335938,5356.25390625,True
1599559945.213193,0.0,10,0.5,0.5,4.414069163513184,-0.05075,-0.0155,-0.12575,0.08340111857514669,10,1,100,-0.0560721297353564,-10,-1,-100,15028.552261865814,0.00464463849250736,0.007677998402439895,0.9999597370263495,22.577034657634094,0.01733354643375383,-23.473823989950382,9.173205886999213,-157.26785278320312,5356.25390625,True
1599559945.2472034,0.0,10,0.5,0.5,4.280808587646485,-0.05075,-0.0155,-0.12575,0.08133787996941758,10,1,100,-0.06022345094157501,-10,-1,-100,15028.885270061903,0.00473265626679195,0.007648225291886424,0.999959552489272,22.582820404122607,0.016970352068776392,-22.530306261879076,8.801912793816847,-156.2055206298828,5356.25390625,True
1599559945.2827234,0.0,10,0.5,0.5,4.177007151794434,-0.05075,-0.0155,-0.12575,0.0822437674523799,10,1,100,-0.05722835700258082,-10,-1,-100,15029.213395633851,0.00478387592506048,0.0076298379539909734,0.9999594492297822,22.610922723397966,0.01664038240673329,-21.607525417413058,8.430619946429987,-154.86734008789062,5356.25390625,True
1599559945.3132331,0.0,10,0.5,0.5,4.05579919052124,-0.05075,-0.0155,-0.12575,0.0826217874272494,10,1,100,-0.053893837378714435,-10,-1,-100,15029.53663737455,0.004798823607648565,0.007616934139401148,0.9999594759820514,22.655462994633805,0.016341929537924037,-20.697297131566632,8.05932624308175,-153.25338745117188,5356.25390625,True
1599559945.3463442,0.0,10,0.5,0.5,4.250711927032471,-0.05075,-0.0155,-0.12575,0.08387718990390969,10,1,100,-0.05251315246147408,-10,-1,-100,15029.53663737455,0.004798823607648565,0.007616934139401148,0.9999594759820514,22.655462994633805,0.016341929537924037,-20.697297131566632,8.05932624308175,-153.25338745117188,5356.25390625,True
1599559945.3802876,0.0,10,0.5,0.5,3.5263708549499513,-0.05075,-0.0155,-0.12575,0.08210405367259807,10,1,100,-0.04390109379147841,-10,-1,-100,15030.188980415347,0.00471985260400039,0.007601020652990846,0.9999599729371318,22.764460499724358,0.015837781077186894,-18.881832885157408,7.316734772593723,-149.19830322265625,5356.25390625,True
1599559945.4151611,0.0,10,0.5,0.5,3.8120746833801276,-0.05075,-0.0155,-0.12575,0.08331044678900218,10,1,100,-0.047189966298172126,-10,-1,-100,15030.32179204782,0.004677453580522814,0.007597713471016354,0.9999601972968796,22.789307185495666,0.0157312111568348,-18.423102521587055,7.131085906838468,-148.01223754882812,5356.25390625,True
1599559945.4461062,0.0,10,0.5,0.5,3.945207935333252,-0.05075,-0.0155,-0.12575,0.08362733399438284,10,1,100,-0.05145311667682522,-10,-1,-100,15030.32179204782,0.004677453580522814,0.007597713471016354,0.9999601972968796,22.789307185495666,0.0157312111568348,-18.423102521587055,7.131085906838468,-148.01223754882812,5356.25390625,True
1599559945.4800692,0.0,10,0.5,0.5,2.9706617439270024,-0.05075,-0.0155,-0.12575,0.08173131918456357,10,1,100,-0.02325926032846,-10,-1,-100,15030.83741383825,0.004421003560315363,0.007580580303208958,0.9999614940235381,22.836572301200935,0.015378287577256641,-16.539774607843253,6.388487701322238,-142.57891845703125,5356.25390625,True
1599559945.5140145,0.0,10,0.5,0.5,3.359767478179932,-0.05075,-0.0155,-0.12575,0.08273336618781738,10,1,100,-0.03937699778011155,-10,-1,-100,15030.968272019527,0.00433448296539239,0.007574233120393509,0.9999619209000213,22.826837173308082,0.015305892110392573,-16.052496475620227,6.202837553031481,-141.04833984375,5356.25390625,True
1599559945.549882,0.0,10,0.5,0.5,3.5264344108581547,-0.05075,-0.0155,-0.12575,0.08335645029850965,10,1,100,-0.04800373607296497,-10,-1,-100,15030.968272019527,0.00433448296539239,0.007574233120393509,0.9999619209000213,22.826837173308082,0.015305892110392573,-16.052496475620227,6.202837553031481,-141.04833984375,5356.25390625,True
1599559945.5799682,0.0,10,0.5,0.5,2.2991599266052245,-0.05075,-0.0155,-0.12575,0.07769156941042843,10,1,100,-0.0014554141784887953,-10,-1,-100,15031.415532007697,0.003911598362285438,0.007522828535303722,0.9999640525784319,22.64286026259712,0.015046203253567429,-14.017513670849775,5.460233970973039,-134.2373809814453,5356.25390625,True
1599559945.6134872,0.0,10,0.5,0.5,3.121587387084961,-0.05075,-0.0155,-0.12575,0.08281948824374886,10,1,100,-0.04366176869873331,-10,-1,-100,15031.415532007697,0.003911598362285438,0.007522828535303722,0.9999640525784319,22.64286026259712,0.015046203253567429,-14.017513670849775,5.460233970973039,-134.2373809814453,5356.25390625,True
1599559945.64714,0.0,10,0.5,0.5,2.7586869163513184,-0.05075,-0.0155,-0.12575,0.08075343183383385,10,1,100,-0.02958825681167652,-10,-1,-100,15031.548342796275,0.0037844503247328994,0.00750414348559421,0.9999646822594722,22.549642165016984,0.01497943760387205,-13.485320888221406,5.274581645599969,-132.36245727539062,5356.25390625,True
1599559945.6840239,0.0,10,0.5,0.5,2.263796273803711,-0.05075,-0.0155,-0.12575,0.07667405020959556,10,1,100,-0.012656546359478493,-10,-1,-100,15031.740722277435,0.0035158587167405326,0.007450174326232312,0.9999660662442464,22.291651504842598,0.014828746691240284,-12.392870000411518,4.903273962161602,-128.40618896484375,5356.25390625,True
1599559945.7139452,0.0,10,0.5,0.5,1.5842287757873534,-0.05075,-0.0155,-0.12575,0.07029075183100889,10,1,100,0.011686960276769846,-10,-1,-100,15031.994622298982,0.003051546253591494,0.007343233068655407,0.9999683819969317,21.686886184259986,0.01451753538695448,-10.687445251826771,4.34629941876777,-121.95545196533203,5356.25390625,True
1599559945.74797,0.0,10,0.5,0.5,1.53342007522583,-0.05075,-0.0155,-0.12575,0.06997895152828591,10,1,100,0.0021227935028099304,-10,-1,-100,15032.180164599558,0.002717907627174194,0.0072434135477283165,0.9999700725213264,21.109496329002088,0.014217421610546507,-9.51430030565157,3.974969532101378,-117.31090545654297,5356.25390625,True
1599559945.7798557,0.0,10,0.5,0.5,2.069884733963013,-0.05075,-0.0155,-0.12575,0.07992547362866617,10,1,100,-0.031045114543585235,-10,-1,-100,15032.180164599558,0.002717907627174194,0.0072434135477283165,0.9999700725213264,21.109496329002088,0.014217421610546507,-9.51430030565157,3.974969532101378,-117.31090545654297,5356.25390625,True
1599559945.8167973,0.0,10,0.5,0.5,0.7015761459350587,-0.05075,-0.0155,-0.12575,0.05833436229626437,10,1,100,0.02637171114430679,-10,-1,-100,15032.36961063079,0.002197717889969129,0.007047452808273107,0.9999727513512512,20.0032967607927,0.013601891908480166,-7.752508571959413,3.4179432441396123,-109.82806396484375,5356.25390625,True
1599559945.846781,0.0,10,0.5,0.5,0.6505859020233156,-0.05075,-0.0155,-0.12575,0.05990694878377521,10,1,100,0.015128023238362404,-10,-1,-100,15032.491676034755,0.0018290546422643334,0.00688408758365023,0.9999746316268509,19.223826867437637,0.013141019277807848,-6.640980150609785,3.046564739358344,-104.49552154541016,5356.25390625,True
1599559945.8817525,0.0,10,0.5,0.5,1.264496242904663,-0.05075,-0.0155,-0.12575,0.07617445669238859,10,1,100,-0.02148775869980434,-10,-1,-100,15032.491676034755,0.0018290546422643334,0.00688408758365023,0.9999746316268509,19.223826867437637,0.013141019277807848,-6.640980150609785,3.046564739358344,-104.49552154541016,5356.25390625,True
1599559945.914176,0.0,10,0.5,0.5,0.22547774505615226,-0.05075,-0.0155,-0.12575,0.0554224357132711,10,1,100,0.01766352470092916,-10,-1,-100,15032.615694553591,0.0014754115461877817,0.006696060252509838,0.9999764926926353,18.22984595912322,0.01250401218136752,-5.529927243912919,2.675156772547072,-98.92973327636719,5356.25390625,True
1599559945.951737,0.0,10,0.5,0.5,-0.6683291088104248,-0.05075,-0.0155,-0.12575,0.0373003454138803,10,1,100,0.04294763239687864,-10,-1,-100,15032.733851211844,0.0009262770132605554,0.0063611316471902865,0.9999793387940882,16.49963316855339,0.011334128362864996,-3.9627044675094854,2.117988923225517,-90.21031188964844,5356.25390625,True
1599559945.98169,0.0,10,0.5,0.5,0.35989617347717284,-0.05075,-0.0155,-0.12575,0.0706770362570241,10,1,100,-0.011667288760941499,-10,-1,-100,15032.733851211844,0.0009262770132605554,0.0063611316471902865,0.9999793387940882,16.49963316855339,0.011334128362864996,-3.9627044675094854,2.117988923225517,-90.21031188964844,5356.25390625,True
1599559946.0156014,0.0,10,0.5,0.5,-0.766499931716919,-0.05075,-0.0155,-0.12575,0.04293564079248337,10,1,100,0.027142505581561165,-10,-1,-100,15032.852010409348,0.0005760590404300515,0.006109976244638465,0.9999811679958138,16.36047504107808,0.011226393173800772,-3.240171592909158,1.746523147869505,-84.19863891601562,5356.25390625,True
1599559946.0481544,0.0,10,0.5,0.5,-0.6082736675262452,-0.05075,-0.0155,-0.12575,0.0535733979905616,10,1,100,0.011006155045607474,-10,-1,-100,15032.85005501192,0.0004070457060712729,0.005979578396920788,0.9999820393167009,16.953554852924242,0.011626667213793756,-3.000577649306302,1.5607885336290837,-81.20022583007812,5356.25390625,True
1599559946.0847661,0.0,10,0.5,0.5,-2.3679240959167482,-0.05075,-0.0155,-0.12575,0.002266039913824111,10,1,100,0.06709852866825018,-10,-1,-100,15032.962350588874,-0.0002541293575993504,0.005395844057090499,0.9999854100361572,18.864202231518206,0.012956385073527034,-1.7495651426529726,0.8178633649136788,-69.45217895507812,5356.25390625,True
1599559946.1156557,0.0,10,0.5,0.5,-0.9647882274627686,-0.05075,-0.0155,-0.12575,0.0604547169477892,10,1,100,0.001278225999665218,-10,-1,-100,15032.962350588874,-0.0002541293575993504,0.005395844057090499,0.9999854100361572,18.864202231518206,0.012956385073527034,-1.7495651426529726,0.8178633649136788,-69.45217895507812,5356.25390625,True
1599559946.149565,0.0,10,0.5,0.5,-2.520340087890625,-0.05075,-0.0155,-0.12575,0.008242287455390247,10,1,100,0.051517562768631474,-10,-1,-100,15033.006290332996,-0.0007081487491492495,0.004922865215787452,0.9999876318852229,19.759150120218493,0.013581377476523639,-0.5841018499411809,0.2606751349134928,-61.05914306640625,5356.25390625,True
1599559946.1824782,0.0,10,0.5,0.5,-2.4754868850708007,-0.05075,-0.0155,-0.12575,0.01695405280406987,10,1,100,0.0380882312941114,-10,-1,-100,15032.996520868386,-0.0009961671220270495,0.004574013761038575,0.999989042964561,20.081931710022417,0.013808045894282594,0.25232351741160286,-0.11079607097804534,-55.761810302734375,5356.25390625,True
1599559946.2184162,0.0,10,0.5,0.5,-2.33475270652771,-0.05075,-0.0155,-0.12575,0.03389966702278692,10,1,100,0.024251189990521213,-10,-1,-100,15032.993589544436,-0.0011296423384612375,0.00441302718036667,0.9999896244958209,20.20913489713495,0.01389936420395477,0.6796072732749545,-0.29653682281371774,-53.212982177734375,5356.25390625,True
1599559946.249298,0.0,10,0.5,0.5,-2.0937255058288575,-0.05075,-0.0155,-0.12575,0.049751219049649034,10,1,100,0.011199538045174977,-10,-1,-100,15032.993589544436,-0.0011296423384612375,0.00441302718036667,0.9999896244958209,20.20913489713495,0.01389936420395477,0.6796072732749545,-0.29653682281371774,-53.212982177734375,5356.25390625,True
1599559946.2822104,0.0,10,0.5,0.5,-3.8429038986206057,-0.05075,-0.0155,-0.12575,-0.025515999068819614,10,1,100,0.06627338599932871,-10,-1,-100,15032.901787446928,-0.0016279454526947723,0.0037308552275370855,0.9999917152221183,20.449070997827953,0.014088697761222181,2.410788814745406,-1.0395307274334675,-43.7041015625,5356.25390625,True
1599559946.3155096,0.0,10,0.5,0.5,-3.108416144561768,-0.05075,-0.0155,-0.12575,0.022971982709455968,10,1,100,0.02910769634645049,-10,-1,-100,15032.893973339582,-0.0017407563574573153,0.00355388990151238,0.9999921697862799,20.42852271112207,0.014083132573889082,2.8387513644336666,-1.2252864081878103,-41.499176025390625,5356.25390625,True
1599559946.3534079,0.0,10,0.5,0.5,-3.283655992126465,-0.05075,-0.0155,-0.12575,0.02090643509675056,10,1,100,0.030053139082636703,-10,-1,-100,15032.888112824643,-0.001849482083597031,0.0033767866647795787,0.9999925883364551,20.384228079703494,0.014062328094157287,3.2620636950492603,-1.411044492669321,-39.3631591796875,5356.25390625,True
1599559946.385322,0.0,10,0.5,0.5,-4.142652732849121,-0.05075,-0.0155,-0.12575,-0.017136781079048966,10,1,100,0.05358878181202849,-10,-1,-100,15032.740649280953,-0.0021600790038784914,0.00287242102031509,0.9999935416072341,20.138407286678742,0.013931755962573532,4.495682984525327,-1.9683308421082013,-33.36822509765625,5356.25390625,True
1599559946.417237,0.0,10,0.5,0.5,-3.4629293731689454,-0.05075,-0.0155,-0.12575,0.03298906762973935,10,1,100,0.022785802254877422,-10,-1,-100,15032.740649280953,-0.0021600790038784914,0.00287242102031509,0.9999935416072341,20.138407286678742,0.013931755962573532,4.495682984525327,-1.9683308421082013,-33.36822509765625,5356.25390625,True
1599559946.4491513,0.0,10,0.5,0.5,-4.467493138122559,-0.05075,-0.0155,-0.12575,-0.02188135405152063,10,1,100,0.05392939120579429,-10,-1,-100,15032.585374161717,-0.0024414698582993,0.0023758930259734313,0.9999941971617936,19.754866946749566,0.013728070473019643,5.658903105159837,-2.525627383733097,-27.9935302734375,5356.25390625,True
1599559946.485056,0.0,10,0.5,0.5,-4.147756454467774,-0.05075,-0.0155,-0.12575,0.008907178433499158,10,1,100,0.03524538356583333,-10,-1,-100,15032.577561117825,-0.002525436619681572,0.0022071451001003917,0.9999943753243752,19.6041558638183,0.0136509555594907,6.028862883561649,-2.711393884350673,-26.339874267578125,5356.25390625,True
1599559946.516971,0.0,10,0.5,0.5,-4.540920587158204,-0.05075,-0.0155,-0.12575,-0.009483298931617461,10,1,100,0.04551072544719402,-10,-1,-100,15032.4340055309,-0.0026934392490682506,0.0018890205733653746,0.9999945884785002,19.281847094459568,0.013492750375540938,6.742464686162543,-3.0829279923644304,-23.239044189453125,5356.25390625,True
1599559946.5508795,0.0,10,0.5,0.5,-4.700064624023438,-0.05075,-0.0155,-0.12575,-0.011643077113297751,10,1,100,0.04656712256134056,-10,-1,-100,15032.287521443213,-0.0028542295476147077,0.001582623013943423,0.9999946743248612,18.977696118569863,0.013360008244928607,7.436070476647341,-3.4544640495535104,-20.41375732421875,5356.25390625,True
1599559946.5837922,0.0,10,0.5,0.5,-4.626725054931641,-0.05075,-0.0155,-0.12575,0.0024403802064531382,10,1,100,0.03934157345607334,-10,-1,-100,15032.210372857633,-0.0029331479296916454,0.0014346843029815872,0.9999946691478777,18.83541834110147,0.013304559180911108,7.777327778411012,-3.6402331701002013,-19.104400634765625,5356.25390625,True
1599559946.6202822,0.0,10,0.5,0.5,-4.940673670959472,-0.05075,-0.0155,-0.12575,-0.014248012182966714,10,1,100,0.0487138756412265,-10,-1,-100,15032.066818370367,-0.003088455109998226,0.001151189492091906,0.9999945680891406,18.591795724933085,0.013228996255845954,8.460529936324244,-4.011774631581696,-16.69232177734375,5356.25390625,True
1599559946.658182,0.0,10,0.5,0.5,-5.05632694091797,-0.05075,-0.0155,-0.12575,-0.015932924771128697,10,1,100,0.04983596203884321,-10,-1,-100,15031.916428441997,-0.0032385165051122666,0.000880494700241128,0.9999943683541067,18.369563447788696,0.013175357490994195,9.133903556326212,-4.3833211001989465,-14.555755615234375,5356.25390625,True
1599559946.694085,0.0,10,0.5,0.5,-4.829416047668458,-0.05075,-0.0155,-0.12575,0.01086921489382198,10,1,100,0.03497959854220467,-10,-1,-100,15031.916428441997,-0.0032385165051122666,0.000880494700241128,0.9999943683541067,18.369563447788696,0.013175357490994195,9.133903556326212,-4.3833211001989465,-14.555755615234375,5356.25390625,True
1599559946.728657,0.0,10,0.5,0.5,-5.476229110717773,-0.05075,-0.0155,-0.12575,-0.04286854187203409,10,1,100,0.06865401550927552,-10,-1,-100,15031.4877188229,-0.0035433848098842605,0.0003942389950647442,0.9999936444796558,17.99496597566378,0.013125505335585482,10.465327711968015,-5.126435138783013,-11.10894775390625,5356.25390625,True
1599559946.7675529,0.0,10,0.5,0.5,-5.077294902038574,-0.05075,-0.0155,-0.12575,0.005509210443079262,10,1,100,0.038305515612676706,-10,-1,-100,15031.4877188229,-0.0035433848098842605,0.0003942389950647442,0.9999936444796558,17.99496597566378,0.013125505335585482,10.465327711968015,-5.126435138783013,-11.10894775390625,5356.25390625,True
1599559946.8064487,0.0,10,0.5,0.5,-5.440439695739747,-0.05075,-0.0155,-0.12575,-0.03027992370471741,10,1,100,0.06331796550340728,-10,-1,-100,15031.194752282812,-0.0037695131672490787,7.113612283500204e-05,0.9999928928298109,17.860314146828742,0.013190525946386837,11.517027825960481,-5.683791431934132,-9.2469482421875,5356.25390625,True
1599559946.8513296,0.0,10,0.5,0.5,-5.235350459289552,-0.05075,-0.0155,-0.12575,0.0017998878279429631,10,1,100,0.04083793409782044,-10,-1,-100,15031.194752282812,-0.0037695131672490787,7.113612283500204e-05,0.9999928928298109,17.860314146828742,0.013190525946386837,11.517027825960481,-5.683791431934132,-9.2469482421875,5356.25390625,True
1599559946.8982043,0.0,10,0.5,0.5,-5.481106747436524,-0.05075,-0.0155,-0.12575,-0.02910652457281282,10,1,100,0.0667841614257726,-10,-1,-100,15030.840262273909,-0.004004256982459946,-0.00020788943628344565,0.9999919613216902,17.812059990072505,0.01331213972423074,12.613121672844661,-6.24116542195919,-8.004669189453125,5356.25390625,True
1599559946.9430835,0.0,10,0.5,0.5,-5.458379643249512,-0.05075,-0.0155,-0.12575,-0.02772674941949932,10,1,100,0.06981900153584,-10,-1,-100,15030.421319922316,-0.004244058253894628,-0.0004470993431704128,0.9999908939943979,17.862409813065167,0.013503027378123098,13.779447187543097,-6.79855462792034,-7.38214111328125,5356.25390625,True
1599559946.9849715,0.0,10,0.5,0.5,-5.412808239746094,-0.05075,-0.0155,-0.12575,-0.017777538343626394,10,1,100,0.06500690934720368,-10,-1,-100,15030.138119175681,-0.004417049636478299,-0.0005722703193259801,0.9999900810404024,17.95406752020361,0.013675663773730218,14.607965988816641,-7.170154016361991,-7.311248779296875,5356.25390625,True
1599559947.0228708,0.0,10,0.5,0.5,-5.386078965759277,-0.05075,-0.0155,-0.12575,-0.01709251791265036,10,1,100,0.06703196782797453,-10,-1,-100,15029.854918006225,-0.00459137515073702,-0.000678010153165525,0.9999892297302295,18.09227720656403,0.013889106040086011,15.484200013741274,-7.541757024669438,-7.5157470703125,5356.25390625,True
1599559947.062764,0.0,10,0.5,0.5,-5.341317922973633,-0.05075,-0.0155,-0.12575,-0.015949521404299394,10,1,100,0.06929212560356801,-10,-1,-100,15029.506287554279,-0.004769033488895126,-0.0007620834887207776,0.9999883377061646,18.27657921702518,0.014147558895456274,16.413639463818097,-7.9133620799302085,-7.995635986328125,5356.25390625,True
1599559947.100662,0.0,10,0.5,0.5,-5.278541459655762,-0.05075,-0.0155,-0.12575,-0.014089377442320111,10,1,100,0.0718054071344499,-10,-1,-100,15029.217227448826,-0.004951997703879801,-0.0008201101412175938,0.9999874024896999,18.505389139349933,0.014454833615580994,17.400641357099257,-8.284967643032038,-8.750823974609375,5356.25390625,True
1599559947.137564,0.0,10,0.5,0.5,-5.200623027038574,-0.05075,-0.0155,-0.12575,-0.01200725670328804,10,1,100,0.07422846660188301,-10,-1,-100,15028.870550733525,-0.005138798911570927,-0.0008523872687312636,0.9999864329988135,18.7758349595282,0.014813976592887843,18.4480324661302,-8.656572207234817,-9.78131103515625,5356.25390625,True
1599559947.1744661,0.0,10,0.5,0.5,-5.332264611816407,-0.05075,-0.0155,-0.12575,-0.00890420657830066,10,1,100,0.05570788724293909,-10,-1,-100,15028.870550733525,-0.005138798911570927,-0.0008523872687312636,0.9999864329988135,18.7758349595282,0.014813976592887843,18.4480324661302,-8.656572207234817,-9.78131103515625,5356.25390625,True
1599559947.2093728,0.0,10,0.5,0.5,-4.824800430297851,-0.05075,-0.0155,-0.12575,-0.007544043524367224,10,1,100,0.09736759978340903,-10,-1,-100,15028.105907292455,-0.005516073194573666,-0.0008388888534556905,0.9999844344798591,19.426543211048234,0.015696485773414565,20.729022809211084,-9.399771547936407,-12.668121337890625,5356.25390625,True
1599559947.2452767,0.0,10,0.5,0.5,-5.18251400756836,-0.05075,-0.0155,-0.12575,-0.008984887549553601,10,1,100,0.059814827485867604,-10,-1,-100,15028.105907292455,-0.005516073194573666,-0.0008388888534556905,0.9999844344798591,19.426543211048234,0.015696485773414565,20.729022809211084,-9.399771547936407,-12.668121337890625,5356.25390625,True
1599559947.2761946,0.0,10,0.5,0.5,-4.667522193908692,-0.05075,-0.0155,-0.12575,-0.0005608341248125766,10,1,100,0.090940606801812,-10,-1,-100,15027.548294551205,-0.005797447042875593,-0.000761479254161417,0.9999829047324412,20.053605419272277,0.01655380009828248,22.669546525885075,-9.957154432620028,-15.555877685546875,5356.25390625,True
1599559947.311101,0.0,10,0.5,0.5,-4.61843477935791,-0.05075,-0.0155,-0.12575,0.0010103525177896687,10,1,100,0.08322350926280084,-10,-1,-100,15027.13032779342,-0.005981455845467774,-0.000676320112763077,0.9999818822244099,20.507290827380476,0.01719776176693955,24.04941596424727,-10.328730831600788,-17.825103759765625,5356.25390625,True
1599559947.3470042,0.0,10,0.5,0.5,-4.887603366088868,-0.05075,-0.0155,-0.12575,-0.007528483699003597,10,1,100,0.06499636876274002,-10,-1,-100,15027.13032779342,-0.005981455845467774,-0.000676320112763077,0.9999818822244099,20.507290827380476,0.01719776176693955,24.04941596424727,-10.328730831600788,-17.825103759765625,5356.25390625,True
1599559947.378922,0.0,10,0.5,0.5,-4.422219747924805,-0.05075,-0.0155,-0.12575,0.0055805635186807106,10,1,100,0.08423890604625495,-10,-1,-100,15026.707479183911,-0.006154965815127919,-0.0005570523655173677,0.9999809028618881,20.971581631116283,0.01788313286199336,25.48070106409882,-10.700294611066003,-20.3695068359375,5356.25390625,True
1599559947.4208078,0.0,10,0.5,0.5,-4.224588450622559,-0.05075,-0.0155,-0.12575,0.009525987729535263,10,1,100,0.0853591605964644,-10,-1,-100,15026.290489364997,-0.006321464837398691,-0.00041286960954772534,0.9999799341091776,21.482770489487713,0.01863625202060453,27.01038408886526,-11.071843663098692,-23.18914794921875,5356.25390625,True
1599559947.4567492,0.0,10,0.5,0.5,-3.7180305572509766,-0.05075,-0.0155,-0.12575,0.02457467735831897,10,1,100,0.09413311956866438,-10,-1,-100,15025.599087077426,-0.006551179547075298,-0.00014530557465835587,0.9999785302359406,22.23401331786625,0.019783338543038802,29.36576827659845,-11.629135276307142,-27.93463134765625,5356.25390625,True
1599559947.4921374,0.0,10,0.5,0.5,-3.6659328323364258,-0.05075,-0.0155,-0.12575,0.02116536798010119,10,1,100,0.08588878790728588,-10,-1,-100,15025.111784560373,-0.006683608830002232,6.632727674221902e-05,0.9999776622373622,22.700695116548168,0.020515884236730668,30.942645680741624,-12.00063957702182,-31.44232177734375,5356.25390625,True
1599559947.532033,0.0,10,0.5,0.5,-4.0734503372192385,-0.05075,-0.0155,-0.12575,9.395429459104561e-05,10,1,100,0.07280034060643567,-10,-1,-100,15025.111784560373,-0.006683608830002232,6.632727674221902e-05,0.9999776622373622,22.700695116548168,0.020515884236730668,30.942645680741624,-12.00063957702182,-31.44232177734375,5356.25390625,True
1599559947.5709279,0.0,10,0.5,0.5,-3.0201315078735353,-0.05075,-0.0155,-0.12575,0.04007884379912495,10,1,100,0.08995876998393354,-10,-1,-100,15024.356904987944,-0.006838190178962729,0.00042899107719664224,0.9999765272853819,23.305558291833027,0.02147389915660596,33.24655331068289,-12.557859121223062,-37.21990966796875,5356.25390625,True
1599559947.6078527,0.0,10,0.5,0.5,-2.5795691711425786,-0.05075,-0.0155,-0.12575,0.04928527880786015,10,1,100,0.08704060354561163,-10,-1,-100,15023.58835307986,-0.006950987967683538,0.0008412276868431176,0.9999754877507008,23.736733796514237,0.022130242028522675,35.3688227410794,-13.11503718692399,-43.616729736328125,5356.25390625,True
1599559947.6367514,0.0,10,0.5,0.5,-3.3359989517211917,-0.05075,-0.0155,-0.12575,0.008229629497242494,10,1,100,0.07590431615084176,-10,-1,-100,15023.58835307986,-0.006950987967683538,0.0008412276868431176,0.9999754877507008,23.736733796514237,0.022130242028522675,35.3688227410794,-13.11503718692399,-43.616729736328125,5356.25390625,True
1599559947.6696622,0.0,10,0.5,0.5,-2.891856956481934,-0.05075,-0.0155,-0.12575,0.02424518562543338,10,1,100,0.07789010435822608,-10,-1,-100,15023.312963159638,-0.006967991914182661,0.0009853666453348488,0.999975237764045,23.829481617484067,0.022255948559732817,36.01146713332726,-13.300755555372033,-45.886688232421875,5356.25390625,True
1599559947.7055662,0.0,10,0.5,0.5,-2.296063984680176,-0.05075,-0.0155,-0.12575,0.04275298921716949,10,1,100,0.07811770289648681,-10,-1,-100,15022.761206791038,-0.006984622274012675,0.0012831441977448437,0.9999747839784047,23.92219256504955,0.022339235373258576,37.1645489734039,-13.672183820276196,-50.63311767578125,5356.25390625,True
1599559947.7345262,0.0,10,0.5,0.5,-1.955766914367676,-0.05075,-0.0155,-0.12575,0.04814465552018178,10,1,100,0.07655967387043698,-10,-1,-100,15022.212379474775,-0.006984664913231739,0.0016010848805899436,0.9999743251620289,23.87633999399222,0.02218031525165697,38.10459475303409,-14.043605669187365,-55.654693603515625,5356.25390625,True
1599559947.7693954,0.0,10,0.5,0.5,-2.071153861999512,-0.05075,-0.0155,-0.12575,0.03407558859221076,10,1,100,0.07488601413601603,-10,-1,-100,15021.930153719615,-0.006968734315756058,0.001760259313607473,0.9999741687809667,23.81773492958737,0.02202756180372822,38.515573774244295,-14.229316103674805,-58.268768310546875,5356.25390625,True
1599559947.7993147,0.0,10,0.5,0.5,-0.888421960449219,-0.05075,-0.0155,-0.12575,0.07122025601906984,10,1,100,0.0662555183159341,-10,-1,-100,15021.041482669883,-0.006875204474706188,0.002240666566664714,0.9999738551466073,23.367676727203083,0.021185806827743615,39.273216513115024,-14.786454979208326,-66.524169921875,5356.25390625,True
1599559947.835663,0.0,10,0.5,0.5,-1.8667249282836915,-0.05075,-0.0155,-0.12575,0.023418127927478053,10,1,100,0.07564090491368425,-10,-1,-100,15021.041482669883,-0.006875204474706188,0.002240666566664714,0.9999738551466073,23.367676727203083,0.021185806827743615,39.273216513115024,-14.786454979208326,-66.524169921875,5356.25390625,True
1599559947.8675504,0.0,10,0.5,0.5,-0.7801990310668945,-0.05075,-0.0155,-0.12575,0.05894741406228157,10,1,100,0.06467445811458261,-10,-1,-100,15020.47800641926,-0.006775335325946442,0.002561683404899362,0.9999737659605646,22.88734561087517,0.020400038055510543,39.43635086006362,-15.157894726293469,-72.37203979492188,5356.25390625,True
1599559947.8965,0.0,10,0.5,0.5,-0.3740868484497071,-0.05075,-0.0155,-0.12575,0.05995939983244771,10,1,100,0.06012173571957214,-10,-1,-100,15019.857888956787,-0.006643073417577538,0.002860448259270409,0.9999738433635776,22.20887067596936,0.019455603571507194,39.209355431074016,-15.529350845166734,-78.47991943359375,5356.25390625,True
1599559947.9284139,0.0,10,0.5,0.5,0.046179849243164095,-0.05075,-0.0155,-0.12575,0.06408956406610805,10,1,100,0.05544393600272955,-10,-1,-100,15019.238747858908,-0.0064804872459630425,0.003167389204293661,0.9999739851269548,21.311164789837342,0.01840932583567403,38.52886473406966,-15.900826048109147,-84.850341796875,5356.25390625,True
1599559947.9563434,0.0,10,0.5,0.5,-0.11230049285888671,-0.05075,-0.0155,-0.12575,0.04874581436033564,10,1,100,0.061638897970596296,-10,-1,-100,15018.894021021435,-0.006389427199404763,0.0033048231010646403,0.9999741263474441,20.77752040130535,0.01786942133769118,38.00509473047901,-16.08657058351456,-88.1290283203125,5356.25390625,True
1599559947.9882565,0.0,10,0.5,0.5,0.13000568084716801,-0.05075,-0.0155,-0.12575,0.050013733085772887,10,1,100,0.06011550640250295,-10,-1,-100,15018.553200292052,-0.006293306834431187,0.0034390499088929405,0.9999742832817312,20.188547492340703,0.017330015786006694,37.35637458256027,-16.272319103686986,-91.44691467285156,5356.25390625,True
1599559948.0171506,0.0,10,0.5,0.5,0.9674749687194826,-0.05075,-0.0155,-0.12575,0.06490133087004518,10,1,100,0.04656013548293845,-10,-1,-100,15017.928199159447,-0.006083307389804396,0.0036941854565360906,0.9999746728617749,20.75228513153521,0.0179027036471503,39.280828762438645,-16.643807836455032,-98.15555572509766,5356.25390625,True
1599559948.0515478,0.0,10,0.5,0.5,1.3880417053222658,-0.05075,-0.0155,-0.12575,0.0655461094656739,10,1,100,0.04184365172086066,-10,-1,-100,15017.243627615157,-0.0058503410558377045,0.003929796631391223,0.9999751647955893,22.14840066987168,0.019376704319501822,42.86426056940911,-17.015259801698377,-104.90070343017578,5356.25390625,True
1599559948.0874481,0.0,10,0.5,0.5,1.2117922138214112,-0.05075,-0.0155,-0.12575,0.05400738946601669,10,1,100,0.05156011437902568,-10,-1,-100,15016.899876809446,-0.005727916161721662,0.004036974143307368,0.9999754466066707,22.76436633255843,0.02009554979674131,44.53987672912693,-17.200970345436733,-108.27532958984375,5356.25390625,True
1599559948.1173334,0.0,10,0.5,0.5,2.0318519844055176,-0.05075,-0.0155,-0.12575,0.06447948113465837,10,1,100,0.03636825874253098,-10,-1,-100,15016.20846891962,-0.005479641041424429,0.004227539337646333,0.999976050435812,23.805219284816204,0.021420545184490183,47.587684805122905,-17.57235991979872,-114.88671112060547,5356.25390625,True
1599559948.151243,0.0,10,0.5,0.5,2.9414840530395505,-0.05075,-0.0155,-0.12575,0.07161365551308364,10,1,100,0.01814644444191127,-10,-1,-100,15015.111786707072,-0.005089552223360659,0.0044638303061483664,0.999977085076035,24.97711719980814,0.02303846218088736,51.522141553070895,-18.12937324618432,-124.32609558105469,5356.25390625,True
1599559948.1851516,0.0,10,0.5,0.5,1.84407444190979,-0.05075,-0.0155,-0.12575,0.0482068750368287,10,1,100,0.05697676102315377,-10,-1,-100,15015.111786707072,-0.005089552223360659,0.0044638303061483664,0.999977085076035,24.97711719980814,0.02303846218088736,51.522141553070895,-18.12937324618432,-124.32609558105469,5356.25390625,True
1599559948.2211075,0.0,10,0.5,0.5,2.9750981777191163,-0.05075,-0.0155,-0.12575,0.061705326115980785,10,1,100,0.02841805469808311,-10,-1,-100,15014.358854917693,-0.004831460150498731,0.004584814273321341,0.9999778179894259,25.527172915554676,0.023789240988536884,53.74149855639838,-18.500677082840806,-130.2779083251953,5356.25390625,True
1599559948.2510288,0.0,10,0.5,0.5,2.813975438308716,-0.05075,-0.0155,-0.12575,0.05546071072632458,10,1,100,0.04034488703406108,-10,-1,-100,15014.013150715502,-0.004706903663012304,0.004636462861741669,0.99997817389683,25.71879549484404,0.024035016737436868,54.691423561596615,-18.686320777088675,-133.15060424804688,5356.25390625,True
1599559948.2839909,0.0,10,0.5,0.5,3.5052088527679444,-0.05075,-0.0155,-0.12575,0.05925822638380659,10,1,100,0.024587745120759175,-10,-1,-100,15013.254359829472,-0.00445203609661549,0.00471660347204867,0.9999789662919325,25.950724991297104,0.024270609335227455,56.287719827265846,-19.057597485691492,-138.68946838378906,5356.25390625,True
1599559948.317012,0.0,10,0.5,0.5,4.262303513717651,-0.05075,-0.0155,-0.12575,0.059545209550576135,10,1,100,0.010558832250702838,-10,-1,-100,15012.09127091756,-0.004094564002074956,0.00479078407350659,0.9999801412696123,26.051162966412925,0.024115881193992935,58.16733952866613,-19.614499280510703,-146.48118591308594,5356.25390625,True
1599559948.3539171,0.0,10,0.5,0.5,3.3677981548309326,-0.05075,-0.0155,-0.12575,0.0522623228212455,10,1,100,0.04608616742152066,-10,-1,-100,15012.09127091756,-0.004094564002074956,0.00479078407350659,0.9999801412696123,26.051162966412925,0.024115881193992935,58.16733952866613,-19.614499280510703,-146.48118591308594,5356.25390625,True
1599559948.384834,0.0,10,0.5,0.5,4.298737038421631,-0.05075,-0.0155,-0.12575,0.05450309560674188,10,1,100,0.02119773700895236,-10,-1,-100,15011.268026345759,-0.00387011349231318,0.004810157827359311,0.9999809421200149,25.95353105732281,0.02370507457472432,59.053633187426335,-19.98576690107206,-151.33123779296875,5356.25390625,True
1599559948.4187434,0.0,10,0.5,0.5,4.568186883926392,-0.05075,-0.0155,-0.12575,0.05319812256352212,10,1,100,0.02070595473856303,-10,-1,-100,15010.450641133124,-0.00366339703331123,0.004815106611199816,0.9999816969677491,25.744650600849194,0.023110091299559914,59.67429682468049,-20.357039646680672,-155.90560913085938,5356.25390625,True
1599559948.450669,0.0,10,0.5,0.5,4.45225016822815,-0.05075,-0.0155,-0.12575,0.05150264452248256,10,1,100,0.029950292405863353,-10,-1,-100,15010.03755446989,-0.00356138924858347,0.004803484675710922,0.9999821213609722,25.6061944240856,0.022764282799699307,59.898605247066826,-20.5426789031317,-158.08953857421875,5356.25390625,True
1599559948.4865873,0.0,10,0.5,0.5,4.979006512451172,-0.05075,-0.0155,-0.12575,0.049460758407366245,10,1,100,0.019472377275211956,-10,-1,-100,15009.215286723804,-0.0033751449901821672,0.004773833092094448,0.9999829093109062,25.27572307067122,0.02201659121899565,60.20240615470678,-20.913964160223898,-162.2505645751953,5356.25390625,True
1599559948.5175354,0.0,10,0.5,0.5,5.524942053985596,-0.05075,-0.0155,-0.12575,0.04440579919213932,10,1,100,0.010835964815619801,-10,-1,-100,15007.96821328695,-0.00312887773948758,0.004700641111590185,0.9999840569215248,24.685357746168382,0.02086240731856894,60.374880900125405,-21.470909161537335,-167.9752197265625,5356.25390625,True
1599559948.5514457,0.0,10,0.5,0.5,4.872722811126709,-0.05075,-0.0155,-0.12575,0.05174867832310981,10,1,100,0.03526662243669121,-10,-1,-100,15007.96821328695,-0.00312887773948758,0.004700641111590185,0.9999840569215248,24.685357746168382,0.02086240731856894,60.374880900125405,-21.470909161537335,-167.9752197265625,5356.25390625,True
1599559948.5841377,0.0,10,0.5,0.5,6.108039355468749,-0.05075,-0.0155,-0.12575,0.03624136201084851,10,1,100,0.005978901081278458,-10,-1,-100,15006.193795491708,-0.0028641735293574743,0.004559560211625747,0.9999855033552589,23.817786884726623,0.019497244261959507,60.28572612739267,-22.213530165655346,-174.64312744140625,5356.25390625,True
1599559948.6226757,0.0,10,0.5,0.5,5.3338633712768555,-0.05075,-0.0155,-0.12575,0.05034176174228072,10,1,100,0.03226504908092355,-10,-1,-100,15006.193795491708,-0.0028641735293574743,0.004559560211625747,0.9999855033552589,23.817786884726623,0.019497244261959507,60.28572612739267,-22.213530165655346,-174.64312744140625,5356.25390625,True
1599559948.6545913,0.0,10,0.5,0.5,5.905065480804444,-0.05075,-0.0155,-0.12575,0.03989481566022504,10,1,100,0.020879253628950104,-10,-1,-100,15005.301215482294,-0.0027621098094006776,0.0044647307411165345,0.9999862183694385,23.384707710385534,0.01895600649293018,60.18816369958152,-22.584848775014386,-177.56365966796875,5356.25390625,True
1599559948.684508,0.0,10,0.5,0.5,-57.272074449157714,-0.05075,-0.0155,-0.12575,0.03280985524420518,10,1,100,0.01786118676117334,-10,-1,-100,15003.930119269877,-0.00264309895990805,0.0043144098126283335,0.9999871998660066,22.771718215576005,0.018363087734107365,60.06988885733384,-23.141830870168548,178.57266235351562,5356.25390625,True
1599559948.7194152,0.0,10,0.5,0.5,-12.991765419769287,-0.05075,-0.0155,-0.12575,0.04779431066693746,10,1,100,0.02961712520621939,-10,-1,-100,15003.930119269877,-0.00264309895990805,0.0043144098126283335,0.9999871998660066,22.771718215576005,0.018363087734107365,60.06988885733384,-23.141830870168548,178.57266235351562,5356.25390625,True
1599559948.7544277,0.0,10,0.5,0.5,-13.300139849090579,-0.05075,-0.0155,-0.12575,0.04184067161877493,10,1,100,0.026060717993911558,-10,-1,-100,15003.454532278003,-0.002611883453007438,0.004260736501294793,0.9999875120166724,22.931188823766263,0.018507618121406725,60.980650712459415,-23.327488329794374,177.4226531982422,5356.25390625,True
1599559948.7843487,0.0,10,0.5,0.5,-13.577335746002197,-0.05075,-0.0155,-0.12575,0.034534736772955925,10,1,100,0.02369807692266726,-10,-1,-100,15002.495546333143,-0.002562983085704937,0.004146028965220407,0.9999881207102023,23.478688748190006,0.01904651954604529,63.4404873390652,-23.698788372242895,175.24658203125,5356.25390625,True
1599559948.818357,0.0,10,0.5,0.5,-13.953975807189943,-0.05075,-0.0155,-0.12575,0.03210564431127845,10,1,100,0.02583924006569627,-10,-1,-100,15001.539490311057,-0.002538900967787362,0.0040202644152379785,0.9999886956640597,24.00563997548423,0.01965372778743098,65.89112026255764,-24.070068017919606,172.90283203125,5356.25390625,True
1599559948.8512871,0.0,10,0.5,0.5,-14.544516458892824,-0.05075,-0.0155,-0.12575,0.03752903526817823,10,1,100,0.027419290520363633,-10,-1,-100,15001.05902092869,-0.0025321324501978108,0.003955921622750184,0.9999889694338481,24.274470325695912,0.019994983521230022,67.14829084594042,-24.25569985038258,171.63555908203125,5356.25390625,True
1599559948.8901558,0.0,10,0.5,0.5,-14.74704150772095,-0.05075,-0.0155,-0.12575,0.029176172230531632,10,1,100,0.028148261471454494,-10,-1,-100,15000.098081712262,-0.0025331487567529444,0.0038221700742270747,0.9999894870313888,24.822932138631923,0.020755153506085054,69.72773638352353,-24.626945977877575,168.897705078125,5356.25390625,True
1599559948.9230936,0.0,10,0.5,0.5,-15.081792823028566,-0.05075,-0.0155,-0.12575,0.02705088843011004,10,1,100,0.030033026512075338,-10,-1,-100,14999.071713504964,-0.0025517484712475596,0.0036820556055998364,0.9999899654727825,25.423879001395804,0.021650964502593132,72.50412432335293,-24.998166728485643,165.88531494140625,5356.25390625,True
1599559948.9509954,0.0,10,0.5,0.5,-15.40812127761841,-0.05075,-0.0155,-0.12575,0.025025987844437138,10,1,100,0.0325249369889921,-10,-1,-100,14998.05218126881,-0.002591595056994735,0.003537068360256253,0.9999903863450265,26.054812132147568,0.022657890633543093,75.41904829680287,-25.369359223005503,162.59750366210938,5356.25390625,True
1599559948.984007,0.0,10,0.5,0.5,-16.035901682281494,-0.05075,-0.0155,-0.12575,0.031167878181082923,10,1,100,0.031238448921048635,-10,-1,-100,14997.566829258576,-0.0026163716783948287,0.003462026678323748,0.9999905844409333,26.36624779377783,0.02318570584238307,76.88511321373073,-25.554944419931374,160.85028076171875,5356.25390625,True
1599559949.0203707,0.0,10,0.5,0.5,-16.126905120086672,-0.05075,-0.0155,-0.12575,0.021687201347656233,10,1,100,0.03579781761719578,-10,-1,-100,14996.542414143216,-0.002680477175206257,0.0033085305454110393,0.9999909342927782,26.971393121572795,0.02426759963321831,79.80497586319738,-25.926092059833216,157.14913940429688,5356.25390625,True
1599559949.0512557,0.0,10,0.5,0.5,-16.214258657073977,-0.05075,-0.0155,-0.12575,0.02826527627733804,10,1,100,0.033670806693227445,-10,-1,-100,14995.999445211259,-0.0027193844564393907,0.003229703723275882,0.9999910869412977,27.279495171982674,0.024827389310609006,81.30090104015771,-26.11165409242065,155.1952667236328,5356.25390625,True
1599559949.0841682,0.0,10,0.5,0.5,-14.922727173614504,-0.05075,-0.0155,-0.12575,0.0002263353988894018,10,1,100,0.05170384875451939,-10,-1,-100,14993.875420471304,-0.0029186221076662284,0.002904129609793799,0.999991523802178,28.458476950878932,0.026997923360354954,87.25324805065125,-26.853822753271196,146.6910400390625,5356.25390625,True
1599559949.118162,0.0,10,0.5,0.5,-15.94449967880249,-0.05075,-0.0155,-0.12575,0.03264808605794761,10,1,100,0.031810757497301494,-10,-1,-100,14993.875420471304,-0.0029186221076662284,0.002904129609793799,0.999991523802178,28.458476950878932,0.026997923360354954,87.25324805065125,-26.853822753271196,146.6910400390625,5356.25390625,True
1599559949.154427,0.0,10,0.5,0.5,-14.646885523223878,-0.05075,-0.0155,-0.12575,0.004245750110969757,10,1,100,0.05353462784901769,-10,-1,-100,14992.238701689756,-0.0031157885299345927,0.002647055555144388,0.9999916424444381,29.136882948506777,0.02824398857855262,91.20635154805365,-27.410372803221,139.5898895263672,5356.25390625,True
1599559949.185308,0.0,10,0.5,0.5,-14.591922997283937,-0.05075,-0.0155,-0.12575,0.011393283879587116,10,1,100,0.05116204839300918,-10,-1,-100,14991.141045498662,-0.0032729373846128946,0.0024795778205051666,0.9999915697518196,29.448484040439297,0.028759507367629458,93.44422756271112,-27.781377513590563,134.51171875,5356.25390625,True
