Timestamp,Input Throttle,horizon,dT,dt,Input Roll,Roll P,Roll I,Roll D,Input Pitch,Pitch P,Pitch I,Pitch D,Input Yaw,Yaw P,Yaw I,Yaw D,Altitude,Direction X,Direction Y,Direction Z,Drag X,Drag Y,Drag Z,Vertical Velocity,Roll,Mass,Has Fuel
1599561296.019386,0.0,10,0.5,0.5,-5.849905364990235,-0.1005,-0.02275,-0.001,-0.0005578437095813578,10,1,100,0.17112010816627532,-10,-1,-100,14993.937291128212,-0.01677520834375384,-7.693797201262161e-05,0.9998592833321959,28.649050947037157,0.027034388187594235,-87.51369479604398,27.009297101388235,-31.7919921875,5356.25390625,True
1599561296.0642316,0.0,10,0.5,0.5,-5.9825138549804695,-0.1005,-0.02275,-0.001,3.240230037048733e-05,10,1,100,0.18123424273547442,-10,-1,-100,14995.541788129485,-0.01688252323887712,-6.95791009426401e-05,0.9998574776276055,28.4313247244862,0.0275254757550623,-85.05942198531046,26.451406157629897,-31.7901611328125,5356.25390625,True
1599561296.0991678,0.0,10,0.5,0.5,-6.110853759765626,-0.1005,-0.02275,-0.001,0.0031595217962943588,10,1,100,0.17414216335389898,-10,-1,-100,14996.077922363998,-0.016900261037121344,-3.439760536976478e-05,0.9998571797980359,28.3588402248618,0.027686180816829255,-84.24769096251657,26.265450406850814,-31.830413818359375,5356.25390625,True
1599561296.1330912,0.0,10,0.5,0.5,-6.216767586517333,-0.1005,-0.02275,-0.001,0.007743379066556607,10,1,100,0.17795280548464068,-10,-1,-100,14997.086713536526,-0.016935664635770908,3.9288272703751196e-05,0.9998565805753226,28.225213887836688,0.028011557211201448,-82.66656468512831,25.893550271128216,-32.09112548828125,5356.25390625,True
1599561296.1660445,0.0,10,0.5,0.5,-6.325471335601807,-0.1005,-0.02275,-0.001,0.005730467806665285,10,1,100,0.1773814813109573,-10,-1,-100,14997.618940367713,-0.016947259810568143,8.794052470547757e-05,0.9998563810124819,28.165732014070077,0.028176498955986774,-81.90151629447226,25.70760560692206,-32.3206787109375,5356.25390625,True
1599561296.2029061,0.0,10,0.5,0.5,-6.345456577301027,-0.1005,-0.02275,-0.001,0.024802186790985996,10,1,100,0.1767394341342795,-10,-1,-100,14999.158979470376,-0.016936557486222588,0.0003054691622693212,0.9998565195612352,28.017231200093377,0.028671700938056825,-79.70647832058326,25.149791874813825,-33.418853759765625,5356.25390625,True
1599561296.237847,0.0,10,0.5,0.5,-6.366141438293457,-0.1005,-0.02275,-0.001,0.026127869353975635,10,1,100,0.17437951823223163,-10,-1,-100,15000.105266515166,-0.016889977449084173,0.0005149964295706582,0.9998572215273775,27.939851574698856,0.028990010188925327,-78.31404113244562,24.77793188100265,-34.49407958984375,5356.25390625,True
1599561296.2707484,0.0,10,0.5,0.5,-6.493492633056641,-0.1005,-0.02275,-0.001,0.0052266422667990005,10,1,100,0.18072651969098155,-10,-1,-100,15000.105266515166,-0.016889977449084173,0.0005149964295706582,0.9998572215273775,27.939851574698856,0.028990010188925327,-78.31404113244562,24.77793188100265,-34.49407958984375,5356.25390625,True
1599561296.3026693,0.0,10,0.5,0.5,-6.554738969421386,-0.1005,-0.02275,-0.001,0.01865685731090977,10,1,100,0.17806730112680108,-10,-1,-100,15000.635538478964,-0.016850448209910638,0.0006366211150356919,0.9998578184465434,27.906162474064512,0.02914108344569683,-77.63414586039306,24.592006305488436,-35.134765625,5356.25390625,True
1599561296.337218,0.0,10,0.5,0.5,-6.3503540390014654,-0.1005,-0.02275,-0.001,0.07375334774324842,10,1,100,0.15663220244635345,-10,-1,-100,15002.52517722454,-0.016604329415194345,0.001247487450193314,0.9998613603993972,27.788419749922035,0.029646544631770497,-74.97442983458123,23.8483323001929,-38.38446044921875,5356.25390625,True
1599561296.3651404,0.0,10,0.5,0.5,-6.37113051147461,-0.1005,-0.02275,-0.001,0.032653056029945615,10,1,100,0.17323452547258789,-10,-1,-100,15002.995877672569,-0.01651642042076785,0.001428047387079133,0.9998625748257333,27.75883899023488,0.029736685122853913,-74.31215692451978,23.662420785656458,-39.368682861328125,5356.25390625,True
1599561296.3980222,0.0,10,0.5,0.5,-6.35487776260376,-0.1005,-0.02275,-0.001,0.01474756087727289,10,1,100,0.18199954612293864,-10,-1,-100,15002.995877672569,-0.01651642042076785,0.001428047387079133,0.9998625748257333,27.75883899023488,0.029736685122853913,-74.31215692451978,23.662420785656458,-39.368682861328125,5356.25390625,True
1599561296.431932,0.0,10,0.5,0.5,-6.1169032424926755,-0.1005,-0.02275,-0.001,0.05706536497654699,10,1,100,0.1585426696604503,-10,-1,-100,15003.933370426297,-0.01630350891003442,0.0018113932184470596,0.9998654481738174,27.692314511674834,0.029855634509019416,-72.97188593870266,23.290606255725578,-41.54339599609375,5356.25390625,True
1599561296.4678729,0.0,10,0.5,0.5,-5.713586725616454,-0.1005,-0.02275,-0.001,0.0917626077604432,10,1,100,0.13581565181875188,-10,-1,-100,15005.345466751605,-0.015903886240013213,0.002473640916977125,0.9998704653619281,27.55583159464339,0.02983876475210044,-70.87747089609422,22.732907896867612,-45.3206787109375,5356.25390625,True
1599561296.502739,0.0,10,0.5,0.5,-5.687266774749755,-0.1005,-0.02275,-0.001,0.025781273171864006,10,1,100,0.17567474098129687,-10,-1,-100,15005.345466751605,-0.015903886240013213,0.002473640916977125,0.9998704653619281,27.55583159464339,0.02983876475210044,-70.87747089609422,22.732907896867612,-45.3206787109375,5356.25390625,True
1599561296.5396724,0.0,10,0.5,0.5,-5.211454805755615,-0.1005,-0.02275,-0.001,0.1032040507633285,10,1,100,0.11817076655863684,-10,-1,-100,15006.691153501044,-0.015382071357598627,0.0031753155310883735,0.9998766470180347,27.341618720544844,0.029521241607421683,-68.60515926753394,22.175241973735783,-49.71710205078125,5356.25390625,True
1599561296.566605,0.0,10,0.5,0.5,-4.846388711547852,-0.1005,-0.02275,-0.001,0.08869184897749019,10,1,100,0.1247455094511597,-10,-1,-100,15007.568094741087,-0.01496887775090705,0.0036786634855284156,0.9998811930093688,27.134562990927513,0.029110821135196367,-66.94678375267901,21.803486412662224,-52.9918212890625,5356.25390625,True
1599561296.60151,0.0,10,0.5,0.5,-4.8075810684204106,-0.1005,-0.02275,-0.001,0.038673420239081754,10,1,100,0.16587276015049965,-10,-1,-100,15007.568094741087,-0.01496887775090705,0.0036786634855284156,0.9998811930093688,27.134562990927513,0.029110821135196367,-66.94678375267901,21.803486412662224,-52.9918212890625,5356.25390625,True
1599561296.6350775,0.0,10,0.5,0.5,-4.40516565246582,-0.1005,-0.02275,-0.001,0.09459247211018247,10,1,100,0.1140530741999504,-10,-1,-100,15008.381558471243,-0.014499536151082218,0.0041841424415784605,0.9998861217175845,26.859721733313492,0.028526386018104262,-65.141452731213,21.431751451330324,-56.541900634765625,5356.25390625,True
1599561296.6661236,0.0,10,0.5,0.5,-3.767130970001221,-0.1005,-0.02275,-0.001,0.12928764854658692,10,1,100,0.0719290186297735,-10,-1,-100,15009.664740985841,-0.013692053202475152,0.004955854440748957,0.9998939779725962,26.28729684486319,0.02731686062227131,-62.09854917417735,20.87419581220997,-62.38311767578125,5356.25390625,True
1599561296.6980422,0.0,10,0.5,0.5,-3.2881711097717288,-0.1005,-0.02275,-0.001,0.10842822783059841,10,1,100,0.08553865176210362,-10,-1,-100,15010.479179693735,-0.013084349256046929,0.005464408463494463,0.9998994649686986,25.77567689455949,0.02629966166995003,-59.80851022988417,20.502529214872784,-66.62158203125,5356.25390625,True
1599561296.7339084,0.0,10,0.5,0.5,-3.230409228515625,-0.1005,-0.02275,-0.001,0.05797646166368938,10,1,100,0.14596583928845386,-10,-1,-100,15010.479179693735,-0.013084349256046929,0.005464408463494463,0.9998994649686986,25.77567689455949,0.02629966166995003,-59.80851022988417,20.502529214872784,-66.62158203125,5356.25390625,True
1599561296.7668548,0.0,10,0.5,0.5,-2.4706118705749516,-0.1005,-0.02275,-0.001,0.1358546789949332,10,1,100,0.03679731108995596,-10,-1,-100,15011.695954426425,-0.01209502815530124,0.006168722838254484,0.9999078243280565,24.771572740897156,0.0245138437911385,-55.92000533326075,19.945095430755128,-73.49642944335938,5356.25390625,True
1599561296.8007572,0.0,10,0.5,0.5,-2.404793566894531,-0.1005,-0.02275,-0.001,0.06585897448091187,10,1,100,0.13530857308905156,-10,-1,-100,15011.695954426425,-0.01209502815530124,0.006168722838254484,0.9999078243280565,24.771572740897156,0.0245138437911385,-55.92000533326075,19.945095430755128,-73.49642944335938,5356.25390625,True
1599561296.8361964,0.0,10,0.5,0.5,-1.8405596702575684,-0.1005,-0.02275,-0.001,0.11768197081979437,10,1,100,0.05368825868431586,-10,-1,-100,15012.505510169198,-0.011356487895335199,0.0066364818214068,0.9999134899038603,23.920111977704327,0.023204522228283238,-52.9947417310165,19.57352213110138,-78.42385864257812,5356.25390625,True
1599561296.8681157,0.0,10,0.5,0.5,-1.2419827392578124,-0.1005,-0.02275,-0.001,0.11439169693851174,10,1,100,0.04564095759244752,-10,-1,-100,15013.253542784834,-0.010616064374844247,0.007028021279075036,0.9999189497624744,22.904739450609537,0.021853773983153926,-49.78476466946746,19.201989887259423,-83.62774658203125,5356.25390625,True
1599561296.905025,0.0,10,0.5,0.5,-0.8954744812011719,-0.1005,-0.02275,-0.001,0.0980411121563443,10,1,100,0.07444100047958915,-10,-1,-100,15013.661738546332,-0.01020910338881081,0.007231822100982832,0.9999217344157973,22.351985430791633,0.02119720973757579,-48.11472988125999,19.0162389855748,-86.33282470703125,5356.25390625,True
1599561296.9383173,0.0,10,0.5,0.5,-0.2521625625610352,-0.1005,-0.02275,-0.001,0.11720560525708246,10,1,100,0.024812830848677636,-10,-1,-100,15014.410747847753,-0.009392300745192214,0.007588088095800762,0.9999271001456868,21.184038935010378,0.019977688381988292,-44.71241342551087,18.64476450460217,-91.95022583007812,5356.25390625,True
1599561296.9702249,0.0,10,0.5,0.5,0.7381909599304199,-0.1005,-0.02275,-0.001,0.13116067747545573,10,1,100,-0.03264252544362231,-10,-1,-100,15015.497641687398,-0.008132501081977777,0.008035276543429299,0.9999346462429543,22.67306521302125,0.021582474647028727,-46.42909857549745,18.08755360590002,-100.88954162597656,5356.25390625,True
1599561297.0041099,0.0,10,0.5,0.5,1.145689883041382,-0.1005,-0.02275,-0.001,0.10068910177785394,10,1,100,0.04499237981605669,-10,-1,-100,15015.84236186673,-0.007698788740570011,0.008161296140293543,0.9999370589678326,23.14538786160225,0.022177392173102897,-46.91090625271816,17.901809830346565,-103.99838256835938,5356.25390625,True
1599561297.0385654,0.0,10,0.5,0.5,1.5564241428375245,-0.1005,-0.02275,-0.001,0.10070251806533995,10,1,100,0.041135439517521924,-10,-1,-100,15016.184152978822,-0.007274890122450731,0.008273067338511323,0.9999393143238836,23.57918181237068,0.022764338930152502,-47.2955473293189,17.716061534641785,-107.14289855957031,5356.25390625,True
1599561297.0664814,0.0,10,0.5,0.5,2.276760898590088,-0.1005,-0.02275,-0.001,0.11082311001066492,10,1,100,-0.008378382065190496,-10,-1,-100,15016.929259329801,-0.006444683418075451,0.008464129573780427,0.999943410681924,24.29529377967232,0.02383636640169546,-47.71251495616524,17.344551878553705,-113.36255645751953,5356.25390625,True
1599561297.0994005,0.0,10,0.5,0.5,2.684963127708435,-0.1005,-0.02275,-0.001,0.10049812113765363,10,1,100,0.0264284124346702,-10,-1,-100,15017.269097851473,-0.006012411514858449,0.008541231960533795,0.9999454476442065,24.566690678728378,0.024288313144193975,-47.72997473095644,17.158791325712993,-116.39788818359375,5356.25390625,True
1599561297.135852,0.0,10,0.5,0.5,3.6639365736007696,-0.1005,-0.02275,-0.001,0.11083054000719186,10,1,100,-0.06833178395877237,-10,-1,-100,15018.233927453519,-0.004763510378030281,0.00870309929355786,0.9999507813045425,25.236666998491987,0.025394594586710544,-47.442484123726736,16.60149320011802,-125.11126708984375,5356.25390625,True
1599561297.1697514,0.0,10,0.5,0.5,4.053632019615174,-0.1005,-0.02275,-0.001,0.098737957576858,10,1,100,0.011525182080854186,-10,-1,-100,15018.5727905354,-0.004360783142889707,0.008738014868344607,0.9999523141963027,25.366406518655083,0.025611669524436085,-47.15382670095004,16.41572482951289,-127.87959289550781,5356.25390625,True
1599561297.2046587,0.0,10,0.5,0.5,4.43739420413971,-0.1005,-0.02275,-0.001,0.0977533062370394,10,1,100,0.006437180423491146,-10,-1,-100,15018.915560048888,-0.003954772645651744,0.008758894439564265,0.9999538197044491,25.44928931180235,0.025745778038784008,-46.773564350922726,16.229956924034504,-130.57928466796875,5356.25390625,True
1599561297.239129,0.0,10,0.5,0.5,5.567688262367248,-0.1005,-0.02275,-0.001,0.09871279047714814,10,1,100,-0.12016263141870345,-10,-1,-100,15020.153829205781,-0.002440820532987457,0.00878502493089177,0.9999584320020956,25.368579556574897,0.025495155907383094,-44.494464113273104,15.48690905842376,-140.68942260742188,5356.25390625,True
1599561297.2700438,0.0,10,0.5,0.5,5.920313267707825,-0.1005,-0.02275,-0.001,0.0948161167613557,10,1,100,-0.009214256548319016,-10,-1,-100,15020.4956235172,-0.002080184095619621,0.008771943613927836,0.9999593620939613,25.25925713578152,0.025256721177730066,-43.77231519938037,15.301157772222302,-143.04483032226562,5356.25390625,True
1599561297.3079348,0.0,10,0.5,0.5,6.491335276985168,-0.1005,-0.02275,-0.001,0.09372523686088946,10,1,100,-0.04887612445181809,-10,-1,-100,15021.050306923804,-0.0013984177322075716,0.008749058185303542,0.9999607484340154,24.952897017197003,0.02461185235994488,-42.19349387604663,14.929672927713856,-147.54864501953125,5356.25390625,True
1599561297.3413665,0.0,10,0.5,0.5,7.0221814535141,-0.1005,-0.02275,-0.001,0.0891749450562616,10,1,100,-0.05437969298919102,-10,-1,-100,15021.667491771863,-0.0007347195818112003,0.008686238068655863,0.9999620040058276,24.574294954771556,0.02381707379256415,-40.52132599197471,14.558214383785288,-151.7772216796875,5356.25390625,True
1599561297.375288,0.0,10,0.5,0.5,7.126649735832214,-0.1005,-0.02275,-0.001,0.09550945091386576,10,1,100,0.011293715134570226,-10,-1,-100,15021.667491771863,-0.0007347195818112003,0.008686238068655863,0.9999620040058276,24.574294954771556,0.02381707379256415,-40.52132599197471,14.558214383785288,-151.7772216796875,5356.25390625,True
1599561297.4061992,0.0,10,0.5,0.5,7.6293823503494265,-0.1005,-0.02275,-0.001,0.08943696222822653,10,1,100,-0.05691762486562059,-10,-1,-100,15022.22217691294,-0.0001205621004827744,0.008630658016304466,0.9999627479096336,24.176092680522284,0.022959355730822487,-38.84950741423614,14.186783771971493,-155.72982788085938,5356.25390625,True
1599561297.4401174,0.0,10,0.5,0.5,8.271136644363404,-0.1005,-0.02275,-0.001,0.08335769045140337,10,1,100,-0.09039754053693386,-10,-1,-100,15023.053230123478,0.0007363765510844674,0.008524713199429781,0.999963392837179,23.481327213177625,0.021569655536950387,-36.25407485320511,13.629691031168786,-161.14186096191406,5356.25390625,True
1599561297.4730268,0.0,10,0.5,0.5,8.367517149353027,-0.1005,-0.02275,-0.001,0.0939505202627614,10,1,100,-0.005378554186803965,-10,-1,-100,15023.053230123478,0.0007363765510844674,0.008524713199429781,0.999963392837179,23.481327213177625,0.021569655536950387,-36.25407485320511,13.629691031168786,-161.14186096191406,5356.25390625,True
1599561297.504909,0.0,10,0.5,0.5,8.780685946273804,-0.1005,-0.02275,-0.001,0.08751386983652439,10,1,100,-0.06311815328031041,-10,-1,-100,15023.60596436658,0.0012562821001807854,0.00846636036473138,0.9999633705778723,22.967065185442102,0.020630578616114933,-34.495698560637216,13.258330368384874,-164.4049072265625,5356.25390625,True
1599561297.5408506,0.0,10,0.5,0.5,9.015609977722168,-0.1005,-0.02275,-0.001,0.09079439899325839,10,1,100,-0.03877818908973695,-10,-1,-100,15023.879402206861,0.0015025446837694334,0.008443382284160972,0.9999632251513436,22.7006622984734,0.020171419394919985,-33.618970973959335,13.072659679292116,-165.9329071044922,5356.25390625,True
1599561297.5747216,0.0,10,0.5,0.5,9.383720491409301,-0.1005,-0.02275,-0.001,0.08648125647158272,10,1,100,-0.06601964745168645,-10,-1,-100,15024.37354350125,0.0019691081836591805,0.008383569562677553,0.9999629184996557,22.15841546116093,0.019291705995150593,-31.88546832388998,12.701336360632984,-168.78225708007812,5356.25390625,True
1599561297.6046772,0.0,10,0.5,0.5,9.826057822036743,-0.1005,-0.02275,-0.001,0.08630833155799483,10,1,100,-0.08887116740376008,-10,-1,-100,15025.076671087416,0.0025969888842899413,0.008327987276085658,0.9999619494144085,21.346716363027785,0.01810566368430131,-29.372808321013064,12.144391023628682,-172.53866577148438,5356.25390625,True
1599561297.6385934,0.0,10,0.5,0.5,9.88939988899231,-0.1005,-0.02275,-0.001,0.09182216458340006,10,1,100,-0.026550814638674966,-10,-1,-100,15025.076671087416,0.0025969888842899413,0.008327987276085658,0.9999619494144085,21.346716363027785,0.01810566368430131,-29.372808321013064,12.144391023628682,-172.53866577148438,5356.25390625,True
1599561297.6695347,0.0,10,0.5,0.5,10.264492847824096,-0.1005,-0.02275,-0.001,0.08934737263683988,10,1,100,-0.0871978445838075,-10,-1,-100,15025.840346632991,0.003144693332321603,0.008305871959216218,0.9999605609197009,20.57207497025248,0.01711383111299322,-27.010904400636264,11.587484624069248,-175.67404174804688,5356.25390625,True
1599561297.7024164,0.0,10,0.5,0.5,10.49287226600647,-0.1005,-0.02275,-0.001,0.09143882022137367,10,1,100,-0.06820022531687987,-10,-1,-100,15026.264177469071,0.003466374098183651,0.008305126072930161,0.9999595037457888,20.092790459100275,0.01656701030176056,-25.537625150176652,11.21623055065367,-177.4193572998047,5356.25390625,True
1599561297.7383533,0.0,10,0.5,0.5,10.698564165496826,-0.1005,-0.02275,-0.001,0.09548432072382582,10,1,100,-0.06789952343256692,-10,-1,-100,15026.690938825253,0.003752258328491763,0.00834157173723397,0.9999581684942569,19.652774621260267,0.016110207249080914,-24.152775253257865,10.844986965153781,-178.88833618164062,5356.25390625,True
1599561297.768272,0.0,10,0.5,0.5,10.74978079299927,-0.1005,-0.02275,-0.001,0.09181084566553782,10,1,100,-0.03969838244465315,-10,-1,-100,15026.690938825253,0.003752258328491763,0.00834157173723397,0.9999581684942569,19.652774621260267,0.016110207249080914,-24.152775253257865,10.844986965153781,-178.88833618164062,5356.25390625,True
1599561297.803178,0.0,10,0.5,0.5,10.854204835891723,-0.1005,-0.02275,-0.001,0.09414304973346635,10,1,100,-0.05434198899803924,-10,-1,-100,15026.902854818152,0.0038826403137249025,0.008362940084635317,0.9999574922652137,19.44962883765002,0.015914282216048077,-23.494545710831304,10.659368424908061,-179.51937866210938,5356.25390625,True
1599561297.8370914,0.0,10,0.5,0.5,-25.53753869476318,-0.1005,-0.02275,-0.001,0.09885115398330013,10,1,100,-0.06732489766026255,-10,-1,-100,15027.326686706627,0.0041163355938092045,0.008425313869193934,0.9999560339672363,19.408292818589384,0.01585104514547364,-22.629136397041613,10.288134536413443,179.4256591796875,5356.25390625,True
1599561297.8679965,0.0,10,0.5,0.5,-25.881740538024903,-0.1005,-0.02275,-0.001,0.10094277182941368,10,1,100,-0.06632052804078006,-10,-1,-100,15027.751495444914,0.00431705516689634,0.008501069332389652,0.9999545463944307,19.463001058281655,0.015896365302544447,-21.875044087198265,9.916902353747748,178.64666748046875,5356.25390625,True
1599561297.902339,0.0,10,0.5,0.5,-26.591985730361944,-0.1005,-0.02275,-0.001,0.11144561400455312,10,1,100,-0.07238042367391972,-10,-1,-100,15028.321813946124,0.004552058820473981,0.008665365875934092,0.9999520939498707,19.44186073233195,0.015915138717270697,-20.625601608699927,9.360056225880564,177.91314697265625,5356.25390625,True
1599561297.941236,0.0,10,0.5,0.5,-27.381451295089725,-0.1005,-0.02275,-0.001,0.09504413928143478,10,1,100,-0.049138353379837116,-10,-1,-100,15028.321813946124,0.004552058820473981,0.008665365875934092,0.9999520939498707,19.44186073233195,0.015915138717270697,-20.625601608699927,9.360056225880564,177.91314697265625,5356.25390625,True
1599561297.976142,0.0,10,0.5,0.5,-28.07545273323059,-0.1005,-0.02275,-0.001,0.11869419106074693,10,1,100,-0.06614075757604644,-10,-1,-100,15028.829633582733,0.004704848795042989,0.008880059638837067,0.9999495031943495,19.411268776892232,0.0159550049620492,-19.369160182347873,8.803209872327834,176.89564514160156,5356.25390625,True
1599561298.0040674,0.0,10,0.5,0.5,-28.823717327117926,-0.1005,-0.02275,-0.001,0.10657368461684738,10,1,100,-0.05459400137715091,-10,-1,-100,15029.04154970881,0.004736862024742353,0.008964547480747275,0.9999485981922391,19.42053778780183,0.01599271525766078,-18.97016674232234,8.617593456141353,176.425537109375,5356.25390625,True
1599561298.0369797,0.0,10,0.5,0.5,-29.44037172241211,-0.1005,-0.02275,-0.001,0.12924536069178214,10,1,100,-0.05653812781701736,-10,-1,-100,15029.488822744577,0.004782191411474723,0.009246861959963661,0.9999458116264088,19.50967318795435,0.016189975277743657,-17.826732516553033,8.060738899349644,174.60443115234375,5356.25390625,True
1599561298.0699778,0.0,10,0.5,0.5,-30.16747640571594,-0.1005,-0.02275,-0.001,0.11278827630328081,10,1,100,-0.05178107132326068,-10,-1,-100,15029.694879906136,0.004778957779185189,0.00935304550491306,0.999944839529825,19.558273838932532,0.016283994308161538,-17.459900171210553,7.875118209886144,173.85989379882812,5356.25390625,True
1599561298.1028893,0.0,10,0.5,0.5,-30.79863500862122,-0.1005,-0.02275,-0.001,0.1278116698686429,10,1,100,-0.04807068150033263,-10,-1,-100,15029.99176018301,0.004741353933758363,0.00958523278385428,0.9999428198028897,19.67992054384655,0.016512631570058403,-16.74082206027876,7.50387178755925,172.16444396972656,5356.25390625,True
1599561298.135801,0.0,10,0.5,0.5,-31.598975533294677,-0.1005,-0.02275,-0.001,0.10471730807918303,10,1,100,-0.05192997560354184,-10,-1,-100,15029.99176018301,0.004741353933758363,0.00958523278385428,0.9999428198028897,19.67992054384655,0.016512631570058403,-16.74082206027876,7.50387178755925,172.16444396972656,5356.25390625,True
1599561298.16672,0.0,10,0.5,0.5,-32.0885330745697,-0.1005,-0.02275,-0.001,0.14811535211407764,10,1,100,-0.038179662587019034,-10,-1,-100,15030.370675185346,0.004615570439408126,0.009978649281717667,0.9999395597075013,19.912518251077202,0.016946937420042187,-15.682308919764791,6.946987207865398,169.1051025390625,5356.25390625,True
1599561298.2036207,0.0,10,0.5,0.5,-31.950636068344117,-0.1005,-0.02275,-0.001,0.12480545315527791,10,1,100,-0.043938758962710725,-10,-1,-100,15030.521068483358,0.0045531233799181985,0.010122980347956638,0.9999383952706098,20.008154256803643,0.017118821009190363,-15.336775745870742,6.761354300674884,167.94769287109375,5356.25390625,True
1599561298.4409888,0.0,10,0.5,0.5,-31.80299283866882,-0.1005,-0.02275,-0.001,0.12715175764261438,10,1,100,-0.04287666143219573,-10,-1,-100,15030.66560325143,0.004486483286274472,0.010274045984408245,0.9999371557487162,20.130304190751534,0.017318212246851147,-15.006961218683365,6.575718814945745,166.7214813232422,5356.25390625,True
1599561298.4689121,0.0,10,0.5,0.5,-31.64731259918213,-0.1005,-0.02275,-0.001,0.12949224857549002,10,1,100,-0.0400476328815191,-10,-1,-100,15030.812090814463,0.004400242555714206,0.010431193135019053,0.9999359119839785,20.255594156790824,0.017524294194949726,-14.674259440948127,6.390080906704961,165.42645263671875,5356.25390625,True
1599561298.4998286,0.0,10,0.5,0.5,-31.33635785369873,-0.1005,-0.02275,-0.001,0.1509372306930436,10,1,100,-0.027329516360645227,-10,-1,-100,15031.043542675674,0.004206360665255801,0.01076740326640747,0.9999331825461403,20.51008527830795,0.017947476163107136,-13.995642348295208,6.018797143894849,162.62997436523438,5356.25390625,True
1599561298.5347705,0.0,10,0.5,0.5,-30.99492382316589,-0.1005,-0.02275,-0.001,0.15774021654263398,10,1,100,-0.021318077836198948,-10,-1,-100,15031.274996497086,0.003975908131098455,0.011133178399368154,0.9999301198050096,20.759253383524282,0.018368293509773696,-13.292115447170872,5.647503480804163,159.55828857421875,5356.25390625,True
1599561298.5696418,0.0,10,0.5,0.5,-30.6199159450531,-0.1005,-0.02275,-0.001,0.1649650465462106,10,1,100,-0.014209774625346554,-10,-1,-100,15031.506450387067,0.0037024766653055226,0.011529410037620725,0.9999266794974156,21.03859375509111,0.01880946898899851,-12.585589901099762,5.276200829662519,156.21142578125,5356.25390625,True
1599561298.6035514,0.0,10,0.5,0.5,-30.21378787651062,-0.1005,-0.02275,-0.001,0.17274191747450812,10,1,100,-0.006495323154975266,-10,-1,-100,15031.672476005042,0.003384752787350544,0.01195824440076426,0.9999227689373915,21.303822040349473,0.01922108871147349,-11.847634395570324,4.904890476057712,152.58944702148438,5356.25390625,True
1599561298.6345675,0.0,10,0.5,0.5,-30.16901958885193,-0.1005,-0.02275,-0.001,0.1301190010497397,10,1,100,-0.03812829045128965,-10,-1,-100,15031.672476005042,0.003384752787350544,0.01195824440076426,0.9999227689373915,21.303822040349473,0.01922108871147349,-11.847634395570324,4.904890476057712,152.58944702148438,5356.25390625,True
1599561298.6675022,0.0,10,0.5,0.5,-29.930199834442142,-0.1005,-0.02275,-0.001,0.15540043877475634,10,1,100,-0.018768338957861876,-10,-1,-100,15031.75451321213,0.003209986502088844,0.012185918369521766,0.999920596537619,21.42130000266897,0.019403379559504632,-11.46216130333466,4.719232766537244,150.67529296875,5356.25390625,True
1599561298.7039146,0.0,10,0.5,0.5,-29.036287533187867,-0.1005,-0.02275,-0.001,0.24344551979655676,10,1,100,0.050311558571257284,-10,-1,-100,15032.085595151992,0.002424501144705915,0.013190940272603442,0.9999100563995362,21.86731452391491,0.020020632687702534,-9.859898865997053,3.976586957556937,142.33106994628906,5356.25390625,True
1599561298.7351124,0.0,10,0.5,0.5,-28.98372083206177,-0.1005,-0.02275,-0.001,0.1432645585874778,10,1,100,-0.0280178702375654,-10,-1,-100,15032.085595151992,0.002424501144705915,0.013190940272603442,0.9999100563995362,21.86731452391491,0.020020632687702534,-9.859898865997053,3.976586957556937,142.33106994628906,5356.25390625,True
1599561298.7680988,0.0,10,0.5,0.5,-28.216984289932256,-0.1005,-0.02275,-0.001,0.2389283772738814,10,1,100,0.050630519553653816,-10,-1,-100,15032.335621841368,0.001711450894090479,0.014057822297093795,0.9998997192559366,21.939374204910983,0.020142427027816667,-8.507000932987063,3.4195862961141965,135.35118103027344,5356.25390625,True
1599561298.801014,0.0,10,0.5,0.5,-28.152596745681763,-0.1005,-0.02275,-0.001,0.15261855245611458,10,1,100,-0.020397002268671412,-10,-1,-100,15032.335621841368,0.001711450894090479,0.014057822297093795,0.9998997192559366,21.939374204910983,0.020142427027816667,-8.507000932987063,3.4195862961141965,135.35118103027344,5356.25390625,True
1599561298.8371367,0.0,10,0.5,0.5,-27.312946796417236,-0.1005,-0.02275,-0.001,0.26042088920330786,10,1,100,0.064732116876138,-10,-1,-100,15032.518273161375,0.0009399941670118695,0.015034546604648211,0.9998865329722961,21.68042598032587,0.01989061214902692,-7.0374097192225,2.8625626197943803,127.75286865234375,5356.25390625,True
1599561298.8700876,0.0,10,0.5,0.5,-26.692194284057617,-0.1005,-0.02275,-0.001,0.24255650419893166,10,1,100,0.0499930171891049,-10,-1,-100,15032.62083981256,0.0003756311090936563,0.015756195072077678,0.9998757928953579,21.29679368361118,0.01950116553113812,-6.016153788409547,2.491194450648228,122.34394836425781,5356.25390625,True
1599561298.9030354,0.0,10,0.5,0.5,-26.612940580368043,-0.1005,-0.02275,-0.001,0.1708539591232559,10,1,100,-0.00608326090051594,-10,-1,-100,15032.62083981256,0.0003756311090936563,0.015756195072077678,0.9998757928953579,21.29679368361118,0.01950116553113812,-6.016153788409547,2.491194450648228,122.34394836425781,5356.25390625,True
1599561298.933951,0.0,10,0.5,0.5,-25.95903363265991,-0.1005,-0.02275,-0.001,0.2590511154920844,10,1,100,0.06413841707598357,-10,-1,-100,15032.72048211086,-0.00025972337655069216,0.016554144870853885,0.9998629370225514,20.720820635439065,0.018924032622728824,-4.980887711918719,2.1198060394817495,116.66061401367188,5356.25390625,True
1599561298.970819,0.0,10,0.5,0.5,-25.278256566619877,-0.1005,-0.02275,-0.001,0.27490468643320953,10,1,100,0.07321688356740927,-10,-1,-100,15032.755677611101,-0.0009165367169095141,0.017419499059687857,0.9998478489315041,19.93290187733751,0.018154741828685976,-3.9520247460243265,1.7483939913960524,110.7027587890625,5356.25390625,True
1599561299.0033534,0.0,10,0.5,0.5,-24.22962516326904,-0.1005,-0.02275,-0.001,0.34785049766716764,10,1,100,0.12274762929368192,-10,-1,-100,15032.876843072008,-0.00196000899701614,0.01886436364742843,0.9998201308980076,18.302809571796807,0.01664750346076808,-2.4724559748957904,1.191221632478329,101.25155639648438,5356.25390625,True
1599561299.0352309,0.0,10,0.5,0.5,-24.126637364959716,-0.1005,-0.02275,-0.001,0.20403188342090112,10,1,100,0.018917400832929834,-10,-1,-100,15032.876843072008,-0.00196000899701614,0.01886436364742843,0.9998201308980076,18.302809571796807,0.01664750346076808,-2.4724559748957904,1.191221632478329,101.25155639648438,5356.25390625,True
1599561299.0681427,0.0,10,0.5,0.5,-23.011321982192992,-0.1005,-0.02275,-0.001,0.38916970815640317,10,1,100,0.14223220389552868,-10,-1,-100,15032.932599497726,-0.0030770667429109275,0.02054227712377406,0.9997842499813797,16.209521761431617,0.014744080777497373,-1.1654287295405408,0.6340004294558299,91.18397521972656,5356.25390625,True
1599561299.104047,0.0,10,0.5,0.5,-22.90502992286682,-0.1005,-0.02275,-0.001,0.222113494206957,10,1,100,0.031076586094811603,-10,-1,-100,15032.932599497726,-0.0030770667429109275,0.02054227712377406,0.9997842499813797,16.209521761431617,0.014744080777497373,-1.1654287295405408,0.6340004294558299,91.18397521972656,5356.25390625,True
1599561299.135961,0.0,10,0.5,0.5,-21.720087325668334,-0.1005,-0.02275,-0.001,0.43062070040771616,10,1,100,0.15478549353792978,-10,-1,-100,15032.920997137553,-0.004197339976360182,0.022431902221211254,0.99973956213599,16.330584847857548,0.014835621983219248,-0.14218244919654197,0.07677332040630924,80.49961853027344,5356.25390625,True
1599561299.1688733,0.0,10,0.5,0.5,-21.60598437767029,-0.1005,-0.02275,-0.001,0.24249559865640868,10,1,100,0.04334904928004936,-10,-1,-100,15032.920997137553,-0.004197339976360182,0.022431902221211254,0.99973956213599,16.330584847857548,0.014835621983219248,-0.14218244919654197,0.07677332040630924,80.49961853027344,5356.25390625,True
1599561299.2017856,0.0,10,0.5,0.5,-19.955389277648926,-0.1005,-0.02275,-0.001,0.5734412427951674,10,1,100,0.20565843912705561,-10,-1,-100,15032.929014505353,-0.005668209580293538,0.02543377411736673,0.9996604396165233,18.627836514457336,0.01683826070301667,1.4073638779307935,-0.6661875311443697,65.29672241210938,5356.25390625,True
1599561299.2377517,0.0,10,0.5,0.5,-19.84080973472595,-0.1005,-0.02275,-0.001,0.27422181108414867,10,1,100,0.05917586280265883,-10,-1,-100,15032.929014505353,-0.005668209580293538,0.02543377411736673,0.9996604396165233,18.627836514457336,0.01683826070301667,1.4073638779307935,-0.6661875311443697,65.29672241210938,5356.25390625,True
1599561299.269667,0.0,10,0.5,0.5,-19.30784605178833,-0.1005,-0.02275,-0.001,0.3627632617765953,10,1,100,0.09755054075040723,-10,-1,-100,15032.879270977923,-0.006011575888282716,0.02622989859725689,0.9996378611151727,19.093286878428053,0.01725018536114704,1.8447471945126253,-0.8519316273137201,61.324493408203125,5356.25390625,True
1599561299.3015904,0.0,10,0.5,0.5,-18.358883882904053,-0.1005,-0.02275,-0.001,0.4803015017311102,10,1,100,0.13494759381872973,-10,-1,-100,15032.853038534173,-0.0066584713302469635,0.028013381438810443,0.9995853716516204,19.86028548019006,0.01793149668691595,2.755653097199819,-1.2234299452677047,53.17626953125,5356.25390625,True
1599561299.3347483,0.0,10,0.5,0.5,-16.943387966156006,-0.1005,-0.02275,-0.001,0.6131521154027398,10,1,100,0.1633151521172792,-10,-1,-100,15032.715579252806,-0.007499225048734604,0.03083283152598383,0.9994964222666126,20.476071725797656,0.01847511046726601,4.13535420647539,-1.780703737341531,40.439605712890625,5356.25390625,True
1599561299.3706553,0.0,10,0.5,0.5,-16.372987021636966,-0.1005,-0.02275,-0.001,0.44375698885680825,10,1,100,0.10481588559218646,-10,-1,-100,15032.671721833176,-0.007726699446175508,0.03184513184765248,0.9994629486345524,20.503448895138796,0.018492577618212373,4.5729158810154,-1.9664670530791495,36.05743408203125,5356.25390625,True
1599561299.4035628,0.0,10,0.5,0.5,-14.853096907043456,-0.1005,-0.02275,-0.001,0.7029569786463375,10,1,100,0.1268582385098203,-10,-1,-100,15032.530413781642,-0.008128636933601038,0.03510996771252859,0.999350396722204,19.98439099541393,0.017979279567670096,5.720517574432293,-2.523761069515974,22.501220703125,5356.25390625,True
1599561299.4346051,0.0,10,0.5,0.5,-14.237812161636352,-0.1005,-0.02275,-0.001,0.500493560937349,10,1,100,0.09573349635920264,-10,-1,-100,15032.48560008884,-0.008206490111536187,0.03622418043725356,0.9993099930810753,19.611828477713853,0.017620027770058156,6.0271618852014015,-2.709523316623012,17.845184326171875,5356.25390625,True
1599561299.4685118,0.0,10,0.5,0.5,-13.596096279907227,-0.1005,-0.02275,-0.001,0.5167214153322327,10,1,100,0.09144853216939977,-10,-1,-100,15032.438837542664,-0.008233648395780273,0.037370370769399315,0.9992675629793315,19.12050085777693,0.01715442645607778,6.279105587309446,-2.8952822758494956,13.12078857421875,5356.25390625,True
1599561299.5045516,0.0,10,0.5,0.5,-11.96722844810486,-0.1005,-0.02275,-0.001,0.795453760455703,10,1,100,0.05489139576390559,-10,-1,-100,15032.237052529585,-0.007922330770116386,0.04093271196470138,0.9991304968653413,16.802205335509132,0.01501898745168773,6.580058074189938,-3.4525407502216874,-1.4635009765625,5356.25390625,True
1599561299.5354712,0.0,10,0.5,0.5,-11.795346640777588,-0.1005,-0.02275,-0.001,0.4410697218998458,10,1,100,0.08639565740966994,-10,-1,-100,15032.237052529585,-0.007922330770116386,0.04093271196470138,0.9991304968653413,16.802205335509132,0.01501898745168773,6.580058074189938,-3.4525407502216874,-1.4635009765625,5356.25390625,True
1599561299.5683804,0.0,10,0.5,0.5,-10.621720703125,-0.1005,-0.02275,-0.001,0.7071960935756767,10,1,100,0.03483676887388758,-10,-1,-100,15032.082038843422,-0.007451564400527616,0.043337952672802264,0.9990326801692297,17.188009529534575,0.015392101346827471,7.4556633717100365,-3.8240546725665867,-11.52996826171875,5356.25390625,True
1599561299.6017754,0.0,10,0.5,0.5,-9.407264505767822,-0.1005,-0.02275,-0.001,0.7287673089051322,10,1,100,0.0014739511941610772,-10,-1,-100,15031.922150141443,-0.006718675399431009,0.04570436056629318,0.9989324155447672,18.84991134834418,0.016977272603322997,8.971249099799518,-4.195589979258662,-21.87225341796875,5356.25390625,True
1599561299.6376991,0.0,10,0.5,0.5,-8.692984262084961,-0.1005,-0.02275,-0.001,0.6239884955553695,10,1,100,0.028632700225631122,-10,-1,-100,15031.874434637954,-0.006298667571891867,0.046885401746315225,0.9988804162110225,19.5308822044995,0.017655394860821988,9.70710095510498,-4.381364912881043,-27.146636962890625,5356.25390625,True
1599561299.6715899,0.0,10,0.5,0.5,-7.973099335479737,-0.1005,-0.02275,-0.001,0.6310468126363221,10,1,100,0.012357333469603098,-10,-1,-100,15031.766172603355,-0.005769211488854534,0.048006085683155286,0.9988303819649154,20.111601636005915,0.018250697588661446,10.419761324347972,-4.56714398565548,-32.49072265625,5356.25390625,True
1599561299.7055302,0.0,10,0.5,0.5,-5.572520301818848,-0.1005,-0.02275,-0.001,0.9778068692473041,10,1,100,-0.2164425584820623,-10,-1,-100,15031.327244907268,-0.0032094614988598907,0.05216164136387593,0.9986334975991511,21.091731785229953,0.019336100798753583,12.706686745217647,-5.310280877997959,-54.55975341796875,5356.25390625,True
1599561299.7404287,0.0,10,0.5,0.5,-5.388435231018066,-0.1005,-0.02275,-0.001,0.564282952126862,10,1,100,0.039080716722670425,-10,-1,-100,15031.327244907268,-0.0032094614988598907,0.05216164136387593,0.9986334975991511,21.091731785229953,0.019336100798753583,12.706686745217647,-5.310280877997959,-54.55975341796875,5356.25390625,True
1599561299.7713218,0.0,10,0.5,0.5,-3.458888787841797,-0.1005,-0.02275,-0.001,0.8427178720470498,10,1,100,-0.21932008864777763,-10,-1,-100,15030.99459092971,-0.0008648352458874004,0.05467736638710369,0.9985036993747032,20.21442163017799,0.0184554398492809,13.457251967915866,-5.867633591086532,-71.84283447265625,5356.25390625,True
1599561299.806265,0.0,10,0.5,0.5,-2.0672651710510257,-0.1005,-0.02275,-0.001,0.7438880699498106,10,1,100,-0.16959292185393388,-10,-1,-100,15030.77115454129,0.0008079037815384217,0.056049160765563245,0.9984276833446455,18.72445612697001,0.01698287023322896,13.255343284783653,-6.23920678819759,-83.71343994140625,5356.25390625,True
1599561299.8411353,0.0,10,0.5,0.5,-1.245708893585205,-0.1005,-0.02275,-0.001,0.6684751175841495,10,1,100,-0.09373896950994491,-10,-1,-100,15030.664794655866,0.0016307746468189794,0.05659369355175123,0.998395960741139,17.71461162168915,0.016029924229940262,12.914197321445794,-6.424998910372692,-89.75411987304688,5356.25390625,True
1599561299.8700907,0.0,10,0.5,0.5,0.19662566452026364,-0.1005,-0.02275,-0.001,0.713759839385914,10,1,100,-0.19125490022199582,-10,-1,-100,15030.379781959928,0.0032566628895318262,0.05748616539049539,0.9983409913128483,17.261676792026908,0.01567249133023512,13.31245574256113,-6.796591301647184,-102.0448989868164,5356.25390625,True
1599561299.9049647,0.0,10,0.5,0.5,1.6889993703842165,-0.1005,-0.02275,-0.001,0.6966836812873737,10,1,100,-0.20250304207732722,-10,-1,-100,15030.096688051359,0.004826836223719565,0.05812721703079809,0.9982975149184354,19.52997040746753,0.017940386059664765,15.886092829721928,-7.168171201132443,-114.6147689819336,5356.25390625,True
1599561299.9368794,0.0,10,0.5,0.5,2.5544678916931156,-0.1005,-0.02275,-0.001,0.6590224485805578,10,1,100,-0.1256057754855814,-10,-1,-100,15029.919972542673,0.005544038285215959,0.05835417162068585,0.9982805488909193,20.358799647205228,0.01882181259367948,16.98996395642709,-7.35395561955195,-120.95487213134766,5356.25390625,True
1599561299.9708133,0.0,10,0.5,0.5,3.417105355644226,-0.1005,-0.02275,-0.001,0.6570756550461792,10,1,100,-0.12953707285035682,-10,-1,-100,15029.80672657839,0.006220631304724596,0.058531296023858204,0.9982661925217834,20.934614115483694,0.01946526445117054,17.912363766398567,-7.5397368522906465,-127.29541015625,5356.25390625,True
1599561300.009685,0.0,10,0.5,0.5,4.278021062278748,-0.1005,-0.02275,-0.001,0.6554725931252003,10,1,100,-0.1328098339479274,-10,-1,-100,15029.63487992587,0.00685408706073162,0.05866715774175368,0.9982540689088466,21.310035450291597,0.01990115581138619,18.683411108017438,-7.7255157207135525,-133.5950927734375,5356.25390625,True
1599561300.0475821,0.0,10,0.5,0.5,6.996292705345154,-0.1005,-0.02275,-0.001,0.6631412502545441,10,1,100,-0.29741894014696424,-10,-1,-100,15028.999197728233,0.00891492662386599,0.058850691575508506,0.9982269883069559,21.28236058689586,0.019835195942451478,20.456508173817227,-8.468628518687469,-158.17202758789062,5356.25390625,True
1599561300.084513,0.0,10,0.5,0.5,7.813954118156434,-0.1005,-0.02275,-0.001,0.6450405019243884,10,1,100,-0.13362204855146648,-10,-1,-100,15028.822445107624,0.009288332313917505,0.058846907303000906,0.9982238067606373,20.81165668218583,0.019309356839090484,20.443598233390343,-8.654414274142322,-164.14759826660156,5356.25390625,True
1599561300.119416,0.0,10,0.5,0.5,8.656843415260315,-0.1005,-0.02275,-0.001,0.6447689228224031,10,1,100,-0.13228624460217356,-10,-1,-100,15028.650572595187,0.009604286729140966,0.05883492063984947,0.9982215234053647,20.167699127362162,0.018622509762134327,20.237018326480445,-8.840206339413164,-170.0545196533203,5356.25390625,True
1599561300.154326,0.0,10,0.5,0.5,-26.48762263736725,-0.1005,-0.02275,-0.001,0.6520795137371563,10,1,100,-0.15191347338386768,-10,-1,-100,15028.296088085626,0.010060429984654944,0.05888670399597979,0.9982139769813955,18.44349787812719,0.01693032997841774,19.28620032591474,-9.211811396238774,178.3394775390625,5356.25390625,True
1599561300.189232,0.0,10,0.5,0.5,-25.020885981178285,-0.1005,-0.02275,-0.001,0.6594374994165225,10,1,100,-0.13826617892743526,-10,-1,-100,15027.707242150675,0.010342627970788158,0.058998090968428486,0.9982045157725639,19.48697700568982,0.01814704543878762,21.61277891404457,-9.769220820099918,161.44772338867188,5356.25390625,True
1599561300.223113,0.0,10,0.5,0.5,-25.609261928749085,-0.1005,-0.02275,-0.001,0.6485392419133207,10,1,100,-0.1109175656465107,-10,-1,-100,15027.707242150675,0.010342627970788158,0.058998090968428486,0.9982045157725639,19.48697700568982,0.01814704543878762,21.61277891404457,-9.769220820099918,161.44772338867188,5356.25390625,True
1599561300.2520356,0.0,10,0.5,0.5,-25.072420596313474,-0.1005,-0.02275,-0.001,0.6758379533694301,10,1,100,-0.10543685745314163,-10,-1,-100,15027.294186263694,0.010286361564410934,0.059244886594776815,0.9981904799075867,21.115828647733785,0.020029497090734514,24.311888355398636,-10.140782126620508,150.25277709960938,5356.25390625,True
1599561300.2859821,0.0,10,0.5,0.5,-24.526619545936587,-0.1005,-0.02275,-0.001,0.6955349013038368,10,1,100,-0.08732883012433192,-10,-1,-100,15026.878222270054,0.010065628650769104,0.059647293354893556,0.9981687650469233,22.056610583910164,0.02127273954855181,26.32746700813407,-10.512308144337835,138.8284454345703,5356.25390625,True
1599561300.3208828,0.0,10,0.5,0.5,-23.339046324539186,-0.1005,-0.02275,-0.001,0.7616757620358858,10,1,100,-0.04778870162259556,-10,-1,-100,15026.224057332147,0.009501396115292061,0.060613222669169034,0.9981161058261299,22.471038067648802,0.021898939360618146,28.24723190201656,-11.069556435774572,121.19293212890625,5356.25390625,True
1599561300.3498573,0.0,10,0.5,0.5,-23.92199281654358,-0.1005,-0.02275,-0.001,0.6652910232728692,10,1,100,-0.10454003165135656,-10,-1,-100,15026.224057332147,0.009501396115292061,0.060613222669169034,0.9981161058261299,22.471038067648802,0.021898939360618146,28.24723190201656,-11.069556435774572,121.19293212890625,5356.25390625,True
1599561300.3837652,0.0,10,0.5,0.5,-23.891238585281375,-0.1005,-0.02275,-0.001,0.7133692113938028,10,1,100,-0.0792939719767872,-10,-1,-100,15025.983884437708,0.00926947983729183,0.06104852795669805,0.9980917562919083,22.301514664465923,0.021703595019445885,28.505688728997114,-11.25530560347524,115.17916870117188,5356.25390625,True
1599561300.4146836,0.0,10,0.5,0.5,-22.6466870426178,-0.1005,-0.02275,-0.001,0.8539331709109605,10,1,100,-0.02166254173128586,-10,-1,-100,15025.324954249663,0.008534402443047585,0.06272011618062479,0.9979946648160145,20.63211388721926,0.01984522598145168,27.681146602024185,-11.812594187595568,96.73149108886719,5356.25390625,True
1599561300.4495888,0.0,10,0.5,0.5,-23.258634648513798,-0.1005,-0.02275,-0.001,0.6871616694060496,10,1,100,-0.09509488816862342,-10,-1,-100,15025.324954249663,0.008534402443047585,0.06272011618062479,0.9979946648160145,20.63211388721926,0.01984522598145168,27.681146602024185,-11.812594187595568,96.73149108886719,5356.25390625,True
1599561300.4834998,0.0,10,0.5,0.5,-22.582896309280397,-0.1005,-0.02275,-0.001,0.8434264532368936,10,1,100,-0.04499048483544166,-10,-1,-100,15024.844710388803,0.008079880489369654,0.06413717312859539,0.9979083818439196,18.84883119993274,0.018086527876748183,26.086418408087123,-12.184162877693385,84.09428405761719,5356.25390625,True
1599561300.515413,0.0,10,0.5,0.5,-20.405636107635498,-0.1005,-0.02275,-0.001,0.9930053672938877,10,1,100,-0.03547691344875989,-10,-1,-100,15024.062927693129,0.0075819922002337775,0.06678044187351169,0.9977388866719861,21.019690197265287,0.020634363250282468,30.42571454227161,-12.74148443469497,64.63133239746094,5356.25390625,True
1599561300.5493577,0.0,10,0.5,0.5,-20.20484176979065,-0.1005,-0.02275,-0.001,0.729456727892766,10,1,100,-0.08498967878529205,-10,-1,-100,15024.062927693129,0.0075819922002337775,0.06678044187351169,0.9977388866719861,21.019690197265287,0.020634363250282468,30.42571454227161,-12.74148443469497,64.63133239746094,5356.25390625,True
1599561300.5872228,0.0,10,0.5,0.5,-17.947179824829103,-0.1005,-0.02275,-0.001,1.0783677564845968,10,1,100,-0.0779196061353713,-10,-1,-100,15023.277362242225,0.0075202284813895475,0.06994528545079644,0.9975224825570571,23.133719402864866,0.023324186209246575,34.95489147608338,-13.298685876168925,44.558380126953125,5356.25390625,True
1599561300.6201432,0.0,10,0.5,0.5,-15.627208821105956,-0.1005,-0.02275,-0.001,1.147888772944936,10,1,100,-0.14085987427901797,-10,-1,-100,15022.434302417678,0.008038778568367055,0.07344469758082564,0.9972668922792884,23.383805014187516,0.02369160344565752,36.81816149430275,-13.855839688177207,23.872772216796875,5356.25390625,True
1599561300.6510613,0.0,10,0.5,0.5,-15.386370272445678,-0.1005,-0.02275,-0.001,0.799327300364609,10,1,100,-0.08880218057302705,-10,-1,-100,15022.434302417678,0.008038778568367055,0.07344469758082564,0.9972668922792884,23.383805014187516,0.02369160344565752,36.81816149430275,-13.855839688177207,23.872772216796875,5356.25390625,True
1599561300.6839726,0.0,10,0.5,0.5,-13.003002659988404,-0.1005,-0.02275,-0.001,1.2061620494055962,10,1,100,-0.24054883429076096,-10,-1,-100,15021.580588100478,0.009419623254480022,0.07713153032218766,0.9969764278697371,21.75970440293934,0.02182142858342819,35.6442938363046,-14.413059638575351,2.5726318359375,5356.25390625,True
1599561300.715887,0.0,10,0.5,0.5,-12.75444161720276,-0.1005,-0.02275,-0.001,0.8391306060346968,10,1,100,-0.10245618839338301,-10,-1,-100,15021.580588100478,0.009419623254480022,0.07713153032218766,0.9969764278697371,21.75970440293934,0.02182142858342819,35.6442938363046,-14.413059638575351,2.5726318359375,5356.25390625,True
1599561300.7527888,0.0,10,0.5,0.5,-11.02205749168396,-0.1005,-0.02275,-0.001,1.1056691065864044,10,1,100,-0.24314823642273783,-10,-1,-100,15021.03816335497,0.010698505378913077,0.0795399866886891,0.9967742635623276,19.81409326092996,0.019944647764356477,33.29753183612121,-14.78459105507714,-11.97125244140625,5356.25390625,True
1599561300.7866962,0.0,10,0.5,0.5,-9.284954184722901,-0.1005,-0.02275,-0.001,1.1117099902879541,10,1,100,-0.29970226259852206,-10,-1,-100,15020.43128269678,0.01237328563641765,0.08176911880960626,0.9965744894445473,21.941365913745944,0.02255449091038944,37.80303099199044,-15.156084789426385,-26.79241943359375,5356.25390625,True
1599561300.8206074,0.0,10,0.5,0.5,-6.709252458572387,-0.1005,-0.02275,-0.001,1.2065370621377138,10,1,100,-0.464200436438918,-10,-1,-100,15019.455486431601,0.015387761193431436,0.0846403495703206,0.9962927421345937,24.097835133859792,0.025608314131878147,43.051278937748435,-15.713193867498529,-49.546173095703125,5356.25390625,True
1599561300.8525229,0.0,10,0.5,0.5,-6.4279741722106944,-0.1005,-0.02275,-0.001,0.9214643037104523,10,1,100,-0.16348366880794568,-10,-1,-100,15019.455486431601,0.015387761193431436,0.0846403495703206,0.9962927421345937,24.097835133859792,0.025608314131878147,43.051278937748435,-15.713193867498529,-49.546173095703125,5356.25390625,True
1599561301.0962658,0.0,10,0.5,0.5,-5.384178690719605,-0.1005,-0.02275,-0.001,1.0097131566348414,10,1,100,-0.28480136205861833,-10,-1,-100,15019.152982535306,0.016483553160261916,0.08542637558990886,0.9962081242535541,24.19069628883759,0.02585913934569343,43.73009493576774,-15.898877578496034,-57.270721435546875,5356.25390625,True
1599561301.130172,0.0,10,0.5,0.5,-4.323425569152832,-0.1005,-0.02275,-0.001,1.0096617996184563,10,1,100,-0.30042144006045374,-10,-1,-100,15018.849485627492,0.017613636056524468,0.08612352696782523,0.9961287556975205,24.097806473660793,0.02582894985020969,44.073207537976536,-16.084561565176717,-65.0653076171875,5356.25390625,True
1599561301.1610928,0.0,10,0.5,0.5,-3.28352975692749,-0.1005,-0.02275,-0.001,1.0061627333104204,10,1,100,-0.3113890437262107,-10,-1,-100,15018.544991878094,0.01873151380683809,0.08671078376175158,0.9960574131895846,23.699915977680238,0.025401208846414437,43.84822523517103,-16.270252494204044,-72.9302978515625,5356.25390625,True
1599561301.195253,0.0,10,0.5,0.5,-1.453260612487793,-0.1005,-0.02275,-0.001,1.0498591437473306,10,1,100,-0.45791940532875697,-10,-1,-100,15017.873448059545,0.021070139835111378,0.0876298335909466,0.9959302493006987,22.313944938038443,0.023843352830876102,42.231158456241374,-16.641670076300365,-88.87026977539062,5356.25390625,True
1599561301.233152,0.0,10,0.5,0.5,-0.3930375717163087,-0.1005,-0.02275,-0.001,0.9921277958046142,10,1,100,-0.348877258402974,-10,-1,-100,15017.503464777488,0.02219302456033748,0.08792760742163545,0.9958796139664529,21.303855084035014,0.022785975744132287,40.77185478661523,-16.827397991185478,-96.94586181640625,5356.25390625,True
1599561301.2860103,0.0,10,0.5,0.5,1.4859770553588871,-0.1005,-0.02275,-0.001,1.000431494455419,10,1,100,-0.4732371571986372,-10,-1,-100,15016.834724039654,0.024332761207498277,0.08826398445808768,0.9957998723536781,21.06995138402243,0.022884564066663317,41.219181609609,-17.198854064732608,-113.30729675292969,5356.25390625,True
1599561301.3179255,0.0,10,0.5,0.5,5.1308967243194585,-0.1005,-0.02275,-0.001,0.9560046472878175,10,1,100,-0.643054502668458,-10,-1,-100,15015.422797658364,0.027808212992867357,0.08815578092230615,0.9957184650191649,24.558208038431093,0.027770425451803013,50.12901856117127,-17.94154641652819,-146.78172302246094,5356.25390625,True
1599561301.3493514,0.0,10,0.5,0.5,5.404116118621826,-0.1005,-0.02275,-0.001,0.9676865802893324,10,1,100,-0.2972202948929455,-10,-1,-100,15015.422797658364,0.027808212992867357,0.08815578092230615,0.9957184650191649,24.558208038431093,0.027770425451803013,50.12901856117127,-17.94154641652819,-146.78172302246094,5356.25390625,True
1599561301.3776245,0.0,10,0.5,0.5,8.21972594718933,-0.1005,-0.02275,-0.001,0.934206543738799,10,1,100,-0.48670576510750985,-10,-1,-100,15014.31929462403,0.029516776424493896,0.08784561089719885,0.9956966950611035,23.788432542917487,0.026963498564042076,50.07385675236423,-18.49853998200088,-171.83230590820312,5356.25390625,True
1599561301.4095383,0.0,10,0.5,0.5,-26.40445096931458,-0.1005,-0.02275,-0.001,0.9473525499712625,10,1,100,-0.3974152373550601,-10,-1,-100,15013.579063414247,0.03024543927801297,0.08768023342073562,0.9956894044179466,22.09231288095126,0.025065847314424388,47.44326120964138,-18.869931576435874,171.78668212890625,5356.25390625,True
1599561301.437464,0.0,10,0.5,0.5,-25.74357032737732,-0.1005,-0.02275,-0.001,0.9639997790879276,10,1,100,-0.35340922594966706,-10,-1,-100,15013.21286060079,0.03049429842472257,0.08767846517605654,0.9956819695605394,20.9204665339134,0.02388014210756648,45.37180861647263,-19.055642103038046,163.70004272460938,5356.25390625,True
1599561301.471374,0.0,10,0.5,0.5,-24.62564481315613,-0.1005,-0.02275,-0.001,0.9826785210358759,10,1,100,-0.3642475826878454,-10,-1,-100,15012.411148302606,0.0308063274872925,0.08784461707170586,0.9956577190170682,23.164171852157157,0.027063697231361202,51.223436228326335,-19.427008079831857,147.65353393554688,5356.25390625,True
1599561301.4993002,0.0,10,0.5,0.5,-25.125626686477663,-0.1005,-0.02275,-0.001,0.9662354404813317,10,1,100,-0.3343639455739292,-10,-1,-100,15012.411148302606,0.0308063274872925,0.08784461707170586,0.9956577190170682,23.164171852157157,0.027063697231361202,51.223436228326335,-19.427008079831857,147.65353393554688,5356.25390625,True
1599561301.5342362,0.0,10,0.5,0.5,-24.807836518478396,-0.1005,-0.02275,-0.001,0.9857637464600826,10,1,100,-0.3433258448688936,-10,-1,-100,15012.041072169552,0.030876822195719036,0.08802111636850364,0.9956399474329746,24.162675491429162,0.0285917544911243,53.945324975263915,-19.61265904834367,139.57847595214844,5356.25390625,True
1599561301.5631318,0.0,10,0.5,0.5,-23.678123348236085,-0.1005,-0.02275,-0.001,1.034801699390721,10,1,100,-0.34358276699187357,-10,-1,-100,15011.23749297252,0.0309343287841697,0.08862701413516419,0.9955844111215072,25.16923995345005,0.030356362264161153,57.263030796580004,-19.983920825466594,123.24833679199219,5356.25390625,True
1599561301.5970395,0.0,10,0.5,0.5,-23.356742556381228,-0.1005,-0.02275,-0.001,1.020778648900309,10,1,100,-0.339324304959701,-10,-1,-100,15010.806923708762,0.030939947569537975,0.08904971218520319,0.9955465174486458,25.19239583031924,0.03053576508836551,57.851534739339556,-20.169545968423446,114.98574829101562,5356.25390625,True
1599561301.630948,0.0,10,0.5,0.5,-20.462072025299072,-0.1005,-0.02275,-0.001,1.2581571036038435,10,1,100,-0.35873919715676084,-10,-1,-100,15009.196205395041,0.03111554804315328,0.09159125479370067,0.9953104363540501,22.805586201944035,0.02777819544029492,54.31268196691078,-20.912139081399655,81.26850891113281,5356.25390625,True
1599561301.6598692,0.0,10,0.5,0.5,-20.142011127471925,-0.1005,-0.02275,-0.001,1.0954537323084765,10,1,100,-0.3576525387991215,-10,-1,-100,15008.765756514855,0.0312622994567793,0.09241950335885742,0.9952292720934091,21.571559689974762,0.02643176000762082,51.8334846063709,-21.097818954648627,72.67153930664062,5356.25390625,True
1599561301.6927817,0.0,10,0.5,0.5,-19.770441791152955,-0.1005,-0.02275,-0.001,1.1112531193854522,10,1,100,-0.3666681463040009,-10,-1,-100,15008.332402917556,0.03147452982242558,0.09331221128021192,0.9951392792963477,22.165620690869233,0.027442482272177465,53.73327239246964,-21.283485792100635,64.00727844238281,5356.25390625,True
1599561301.721705,0.0,10,0.5,0.5,-19.42936843185425,-0.1005,-0.02275,-0.001,1.1264452475084066,10,1,100,-0.3777562589754183,-10,-1,-100,15007.899073388893,0.03176648776693696,0.09425690455494012,0.9950409670956639,23.643178185530758,0.029640755163294553,57.81885560524091,-21.469127461601964,55.27552795410156,5356.25390625,True
1599561301.7586062,0.0,10,0.5,0.5,-16.472921408462522,-0.1005,-0.02275,-0.001,1.3665568727956119,10,1,100,-0.5039208360105409,-10,-1,-100,15006.59627985477,0.033177472009094856,0.09729257078809109,0.9947026746825052,25.987776123844103,0.033572091379177035,65.21319989260742,-22.025948007244317,28.67340087890625,5356.25390625,True
1599561301.7925165,0.0,10,0.5,0.5,-16.192337925338744,-0.1005,-0.02275,-0.001,1.0639516600417191,10,1,100,-0.36309072915318874,-10,-1,-100,15006.59627985477,0.033177472009094856,0.09729257078809109,0.9947026746825052,25.987776123844103,0.033572091379177035,65.21319989260742,-22.025948007244317,28.67340087890625,5356.25390625,True
1599561301.8204398,0.0,10,0.5,0.5,-14.086920482254028,-0.1005,-0.02275,-0.001,1.2895556995220296,10,1,100,-0.5213519725268481,-10,-1,-100,15005.67216037563,0.03461405499929012,0.09933492755271538,0.9944518285792444,25.817065339593675,0.03355625113744719,65.88532411981242,-22.397152404448857,10.59716796875,5356.25390625,True
1599561301.8533523,0.0,10,0.5,0.5,-10.988506379318238,-0.1005,-0.02275,-0.001,1.3885521021998062,10,1,100,-0.6944284646444308,-10,-1,-100,15004.310906451428,0.03749000062098021,0.10208113708082542,0.9940693845530726,23.255433026289893,0.030508065520352776,60.83696244490402,-22.954056787299994,-17.03521728515625,5356.25390625,True
1599561301.8832724,0.0,10,0.5,0.5,-9.710807700347901,-0.1005,-0.02275,-0.001,1.1995853724001178,10,1,100,-0.5306216193393087,-10,-1,-100,15003.876673997147,0.03860933152117439,0.10284702999846254,0.9939475881252409,22.56594128527092,0.029912756951107674,59.51503478037467,-23.13970604168898,-26.38531494140625,5356.25390625,True
1599561301.9161847,0.0,10,0.5,0.5,-9.379741240310668,-0.1005,-0.02275,-0.001,1.1244180822227352,10,1,100,-0.4194560295935907,-10,-1,-100,15003.876673997147,0.03860933152117439,0.10284702999846254,0.9939475881252409,22.56594128527092,0.029912756951107674,59.51503478037467,-23.13970604168898,-26.38531494140625,5356.25390625,True
1599561301.951092,0.0,10,0.5,0.5,-5.190825867843627,-0.1005,-0.02275,-0.001,1.3555144894144564,10,1,100,-0.9604215011796309,-10,-1,-100,15001.950092591462,0.04352022727745509,0.10493536341128432,0.9935263254305143,26.513095773386365,0.036886488207997774,72.18812115179949,-23.882067476064638,-64.48675537109375,5356.25390625,True
1599561301.9810116,0.0,10,0.5,0.5,-3.912686819458008,-0.1005,-0.02275,-0.001,1.1764593422312142,10,1,100,-0.6125342498806462,-10,-1,-100,15001.516722126864,0.044810789608415585,0.10519394325889501,0.9934416074618149,26.44731337366206,0.037009459508850324,72.57340671077405,-24.06763663308092,-74.18771362304688,5356.25390625,True
1599561302.0159547,0.0,10,0.5,0.5,-1.597523314666748,-0.1005,-0.02275,-0.001,1.1717721949166995,10,1,100,-0.7472216071759444,-10,-1,-100,15000.524886508356,0.047196141802744535,0.10537479229031821,0.9933119738273105,25.25930597414434,0.03557272700411214,70.39239703202138,-24.43881011716014,-93.80110931396484,5356.25390625,True
1599561302.0498269,0.0,10,0.5,0.5,-1.258122628211975,-0.1005,-0.02275,-0.001,1.1548935498753907,10,1,100,-0.5102585489410815,-10,-1,-100,15000.524886508356,0.047196141802744535,0.10537479229031821,0.9933119738273105,25.25930597414434,0.03557272700411214,70.39239703202138,-24.43881011716014,-93.80110931396484,5356.25390625,True
1599561302.0807452,0.0,10,0.5,0.5,2.1203744960784916,-0.1005,-0.02275,-0.001,1.1180527261424307,10,1,100,-0.8645524923998562,-10,-1,-100,14999.034940432291,0.05040296887597357,0.10502976854025914,0.9931909627301625,23.372900795844643,0.033712946374280704,66.63436356790912,-24.995653778128816,-123.74542236328125,5356.25390625,True
1599561302.1156516,0.0,10,0.5,0.5,4.498675635910035,-0.1005,-0.02275,-0.001,1.096178299941161,10,1,100,-0.7321864192694841,-10,-1,-100,14998.036950473557,0.052099278735117605,0.1045102183495101,0.9931582348326062,25.9914535054767,0.03843135306068428,75.2103341537672,-25.36679001559554,-144.05569458007812,5356.25390625,True
1599561302.1451726,0.0,10,0.5,0.5,5.904060536575317,-0.1005,-0.02275,-0.001,1.1220203718399628,10,1,100,-0.6375787468267852,-10,-1,-100,14997.536951794638,0.05276410721510944,0.10426626642285335,0.9931487777146135,26.625796381508376,0.03972753122033942,77.61471918850464,-25.552334483893187,-154.23043823242188,5356.25390625,True
1599561302.1790812,0.0,10,0.5,0.5,6.2688685970306395,-0.1005,-0.02275,-0.001,1.1469086983926524,10,1,100,-0.5729109040491834,-10,-1,-100,14997.536951794638,0.05276410721510944,0.10426626642285335,0.9931487777146135,26.625796381508376,0.03972753122033942,77.61471918850464,-25.552334483893187,-154.23043823242188,5356.25390625,True
1599561302.2139883,0.0,10,0.5,0.5,-26.894057960128787,-0.1005,-0.02275,-0.001,1.0721759623892457,10,1,100,-0.7381202589099352,-10,-1,-100,14995.978322911076,0.05425212488966707,0.10358489143251144,0.9931399081760187,25.860705918298045,0.039086442344083205,77.0434819518576,-26.108999810305242,175.57296752929688,5356.25390625,True
1599561302.2429113,0.0,10,0.5,0.5,-26.01554900245667,-0.1005,-0.02275,-0.001,1.124543910283787,10,1,100,-0.6262101973822884,-10,-1,-100,14995.418743274291,0.05457328331322404,0.10344086109357459,0.9931373243437356,24.960506693145057,0.03790261308590477,74.89607673058173,-26.294583817742954,165.64035034179688,5356.25390625,True
1599561302.2778172,0.0,10,0.5,0.5,-25.461249485397342,-0.1005,-0.02275,-0.001,1.1299071576854351,10,1,100,-0.623212683559772,-10,-1,-100,14994.920696311863,0.05482348270735109,0.10335814136992415,0.9931321565413092,23.683688273978984,0.036246844348362825,71.57212016108309,-26.480181499767887,155.7773895263672,5356.25390625,True
1599561302.311727,0.0,10,0.5,0.5,-21.977919819641116,-0.1005,-0.02275,-0.001,1.198531187597984,10,1,100,-0.6745438922194424,-10,-1,-100,14992.734370841645,0.05550730836670914,0.10390823027675725,0.9930367658846451,27.147498720922638,0.04353227918745509,84.36390628332192,-27.222373381878246,116.42474365234375,5356.25390625,True
1599561302.3421562,0.0,10,0.5,0.5,-21.438982364654546,-0.1005,-0.02275,-0.001,1.1828902068430915,10,1,100,-0.6256887704873614,-10,-1,-100,14992.176871708478,0.05567510647878091,0.10426728919699935,0.9929897355572643,27.346669349493187,0.04416641363309062,85.56808057841155,-27.407887950566135,106.4549560546875,5356.25390625,True
1599561302.376065,0.0,10,0.5,0.5,-21.904534700965883,-0.1005,-0.02275,-0.001,1.1468735645095496,10,1,100,-0.6097568557477878,-10,-1,-100,14992.176871708478,0.05567510647878091,0.10426728919699935,0.9929897355572643,27.346669349493187,0.04416641363309062,85.56808057841155,-27.407887950566135,106.4549560546875,5356.25390625,True
