Timestamp,Input Throttle,horizon,dT,dt,Input Roll,Roll P,Roll I,Roll D,Input Pitch,Pitch P,Pitch I,Pitch D,Input Yaw,Yaw P,Yaw I,Yaw D,Altitude,Direction X,Direction Y,Direction Z,Drag X,Drag Y,Drag Z,Vertical Velocity,Roll,Mass,Has Fuel
1599562232.3022013,0.0,10,0.5,0.5,-8.746340675354004,-0.15025,-0.00825,-0.5,-0.0002831899465292824,10,1,100,0.1749951541142712,-10,-1,-100,14993.921665393864,-0.016812234782256682,-7.509140650641084e-05,0.9998586615731782,28.644491260459493,0.027275163407880186,-87.50360119994879,27.00897898355578,-31.791839599609375,5356.25390625,True
1599562232.3460836,0.0,10,0.5,0.5,-8.794174869537354,-0.15025,-0.00825,-0.5,-0.00044214123011660064,10,1,100,0.17372977316982655,-10,-1,-100,14994.402136753662,-0.016847927526520628,-7.221611581915494e-05,0.9998580609881053,28.571757747454168,0.027439496789373918,-86.68203667906609,26.82301139534713,-31.791259765625,5356.25390625,True
1599562232.387973,0.0,10,0.5,0.5,-8.816546460723877,-0.15025,-0.00825,-0.5,0.0037311695067061296,10,1,100,0.18206654495285046,-10,-1,-100,14996.02616414777,-0.01694084801249123,-3.159737566342553e-05,0.9998564930379877,28.35413487766633,0.027923827985057714,-84.23737095700339,26.26513241377653,-31.83026123046875,5356.25390625,True
1599562232.4288628,0.0,10,0.5,0.5,-8.884037227630616,-0.15025,-0.00825,-0.5,-0.0003338642464331544,10,1,100,0.17446858115703917,-10,-1,-100,14996.02616414777,-0.01694084801249123,-3.159737566342553e-05,0.9998564930379877,28.35413487766633,0.027923827985057714,-84.23737095700339,26.26513241377653,-31.83026123046875,5356.25390625,True
1599562232.4707506,0.0,10,0.5,0.5,-8.613232515716554,-0.15025,-0.00825,-0.5,0.013093934230807638,10,1,100,0.18165488452601014,-10,-1,-100,14997.590620855568,-0.016990777272197794,9.05022444711848e-05,0.9998556422289322,28.16085754602976,0.028411926707157337,-81.89087424314717,25.707287735306046,-32.320526123046875,5356.25390625,True
1599562232.51563,0.0,10,0.5,0.5,-8.712470989990235,-0.15025,-0.00825,-0.5,0.007593829315224232,10,1,100,0.17889589821221136,-10,-1,-100,14998.068159554037,-0.016995639653376318,0.00015141867059328032,0.9998555522199989,28.10657788854938,0.028577098688562143,-81.14339329988526,25.52134664961464,-32.618072509765625,5356.25390625,True
1599562232.5575197,0.0,10,0.5,0.5,-7.688829734039306,-0.15025,-0.00825,-0.5,0.04215328502665391,10,1,100,0.17366512845748505,-10,-1,-100,15000.11014943372,-0.016937056966083486,0.0005208364565621884,0.999856422108051,27.93493558868984,0.029222846995060663,-78.3035980429393,24.777614241639213,-34.493896484375,5356.25390625,True
1599562232.5974145,0.0,10,0.5,0.5,-8.672534256744385,-0.15025,-0.00825,-0.5,0.005263590075419308,10,1,100,0.18121710288337659,-10,-1,-100,15000.11014943372,-0.016937056966083486,0.0005208364565621884,0.999856422108051,27.93493558868984,0.029222846995060663,-78.3035980429393,24.777614241639213,-34.493896484375,5356.25390625,True
1599562232.6383023,0.0,10,0.5,0.5,-6.783908449554442,-0.15025,-0.00825,-0.5,0.06707551415818294,10,1,100,0.1600178187414944,-10,-1,-100,15002.023227909463,-0.016728938876642663,0.0010822895514449832,0.9998594757531624,27.811856123262483,0.029770396675906707,-75.62440768670348,24.033928960677084,-37.468780517578125,5356.25390625,True
1599562232.6789415,0.0,10,0.5,0.5,-8.314688722229004,-0.15025,-0.00825,-0.5,0.011038433625047974,10,1,100,0.18250252157324098,-10,-1,-100,15002.023227909463,-0.016728938876642663,0.0010822895514449832,0.9998594757531624,27.811856123262483,0.029770396675906707,-75.62440768670348,24.033928960677084,-37.468780517578125,5356.25390625,True
1599562232.7178373,0.0,10,0.5,0.5,-5.708627327728271,-0.15025,-0.00825,-0.5,0.09174050314921443,10,1,100,0.14275267508354883,-10,-1,-100,15003.940206565894,-0.016352368509575787,0.0018149608293451828,0.9998646438200097,27.68723660915092,0.03008504802552083,-72.96154545720377,23.29028881394603,-41.543212890625,5356.25390625,True
1599562232.756772,0.0,10,0.5,0.5,-6.145094918823242,-0.15025,-0.00825,-0.5,0.06673626551109801,10,1,100,0.15260297400474118,-10,-1,-100,15004.832776109688,-0.016099998044500994,0.00225199614687535,0.9998678505564229,27.60304390149846,0.03010290005861475,-71.58112889565038,22.918486615247378,-43.992584228515625,5356.25390625,True
1599562232.7966654,0.0,10,0.5,0.5,-6.496121057891846,-0.15025,-0.00825,-0.5,0.0464641680039407,10,1,100,0.160934042331338,-10,-1,-100,15005.313240882824,-0.015946987269658444,0.0024628962652352587,0.9998698053941865,27.550866929389624,0.030066942294409184,-70.86762789433283,22.732590559516236,-45.3206787109375,5356.25390625,True
1599562232.8345642,0.0,10,0.5,0.5,-6.240736611175537,-0.15025,-0.00825,-0.5,0.04978151012290316,10,1,100,0.1580620048719762,-10,-1,-100,15005.730226815445,-0.015782680643573594,0.0026825135796976537,0.9998718473447473,27.490297224156297,0.029997699633690433,-70.1348998503243,22.546698041742022,-46.717529296875,5356.25390625,True
1599562232.87397,0.0,10,0.5,0.5,-2.84678341140747,-0.15025,-0.00825,-0.5,0.13379805386574434,10,1,100,0.08830501509072994,-10,-1,-100,15007.518289211206,-0.015000209410365962,0.00364348507145715,0.9998808522689987,27.130527370297248,0.02933707009352143,-66.93954819869505,21.803168836162595,-52.9921875,5356.25390625,True
1599562232.9108708,0.0,10,0.5,0.5,-5.967058392333984,-0.15025,-0.00825,-0.5,0.03805620297249332,10,1,100,0.16635308162530996,-10,-1,-100,15007.518289211206,-0.015000209410365962,0.00364348507145715,0.9998808522689987,27.130527370297248,0.02933707009352143,-66.93954819869505,21.803168836162595,-52.9921875,5356.25390625,True
1599562232.9487703,0.0,10,0.5,0.5,-2.42021061630249,-0.15025,-0.00825,-0.5,0.11902056947207988,10,1,100,0.085678224754592,-10,-1,-100,15008.765339715872,-0.014268615648125808,0.00437635016108897,0.9998886208807227,26.688860194402988,0.028391270757719158,-64.16965360775792,21.245575312327357,-58.420928955078125,5356.25390625,True
1599562232.9876661,0.0,10,0.5,0.5,-3.84855269317627,-0.15025,-0.00825,-0.5,0.07194876482753411,10,1,100,0.1289741233312684,-10,-1,-100,15009.244824130903,-0.013999555343439052,0.004611160642436093,0.9998913689235024,26.499080200680286,0.02798688531603931,-63.15733361341072,21.059723259384548,-60.368316650390625,5356.25390625,True
1599562233.0265617,0.0,10,0.5,0.5,-2.13445445022583,-0.15025,-0.00825,-0.5,0.10580013537411945,10,1,100,0.09077113470557097,-10,-1,-100,15010.07293431682,-0.013410325625874428,0.005128645972097095,0.9998969247662987,26.043454484544583,0.02704861681604582,-60.97859019997956,20.688040882696427,-64.46896362304688,5356.25390625,True
1599562233.0654588,0.0,10,0.5,0.5,-1.3163890159606932,-0.15025,-0.00825,-0.5,0.10428320105322705,10,1,100,0.0804992397844522,-10,-1,-100,15010.840497301775,-0.012784298304488025,0.005581618363034755,0.9999026988929028,25.473096894860983,0.025952417960019996,-58.574428536146605,20.316390968924576,-68.84591674804688,5356.25390625,True
1599562233.103095,0.0,10,0.5,0.5,-0.45397151412963854,-0.15025,-0.00825,-0.5,0.11090660258844814,10,1,100,0.06687563274082936,-10,-1,-100,15011.674466304597,-0.012094917621533046,0.006049533888015011,0.9999085538725359,24.77089790540889,0.02472676752619538,-55.920674393644106,19.944777736286415,-73.49798583984375,5356.25390625,True
1599562233.3803535,0.0,10,0.5,0.5,0.45085403366088883,-0.15025,-0.00825,-0.5,0.11076382611523192,10,1,100,0.05572954864272861,-10,-1,-100,15012.441052696435,-0.011370750282398551,0.006469764058187214,0.9999144204335922,23.920664794347665,0.023411936605568444,-52.9980273468385,19.57320422684059,-78.42608642578125,5356.25390625,True
1599562233.4102738,0.0,10,0.5,0.5,-0.31530825805664064,-0.15025,-0.00825,-0.5,0.09124080204504853,10,1,100,0.08622260803904938,-10,-1,-100,15012.857061273651,-0.010993925284753838,0.006670475114149994,0.9999173157659511,23.4347648737525,0.02273519135509992,-51.43010956311358,19.387432961966535,-80.9935302734375,5356.25390625,True
1599562233.4451778,0.0,10,0.5,0.5,1.8892385818481445,-0.15025,-0.00825,-0.5,0.11249322175095733,10,1,100,0.037470396005141154,-10,-1,-100,15013.620718119899,-0.010212657961118483,0.0070423184543072235,0.9999230507234831,22.354062500593997,0.021393105383681343,-48.12104842862236,19.01592107546214,-86.31277465820312,5356.25390625,True
1599562233.4751031,0.0,10,0.5,0.5,1.0067535133361818,-0.15025,-0.00825,-0.5,0.09443018330109897,10,1,100,0.071192835525987,-10,-1,-100,15013.976178751793,-0.009814046228623537,0.007212184955019984,0.9999258316919296,21.76527862679266,0.020746322970466333,-46.39727807251946,18.830179618939848,-88.99554443359375,5356.25390625,True
1599562233.5100124,0.0,10,0.5,0.5,3.212926276397705,-0.15025,-0.00825,-0.5,0.11239409253919341,10,1,100,0.01903881493221006,-10,-1,-100,15014.744718975853,-0.00898225916021356,0.007526673039756477,0.9999313317490015,21.62618682765583,0.02059521295828628,-45.19395759038627,18.458712774574163,-94.40554809570312,5356.25390625,True
1599562233.54392,0.0,10,0.5,0.5,2.284899574661255,-0.15025,-0.00825,-0.5,0.09628176461030269,10,1,100,0.05619796318316674,-10,-1,-100,15015.097251749481,-0.008569370400531509,0.007662565419283101,0.9999339233080022,22.0648856093946,0.021073731824304387,-45.64809165944554,18.272977209298855,-97.08576202392578,5356.25390625,True
1599562233.574833,0.0,10,0.5,0.5,5.972560974693298,-0.15025,-0.00825,-0.5,0.12128621831907177,10,1,100,-0.0438818662634633,-10,-1,-100,15016.153872274677,-0.007289381483349002,0.00801042969324321,0.9999413472467873,23.296307647344207,0.02264799830623532,-46.72995137208919,17.715754416821337,-104.76876068115234,5356.25390625,True
1599562233.6097372,0.0,10,0.5,0.5,2.1676920124053956,-0.15025,-0.00825,-0.5,0.08683971782814151,10,1,100,0.08344600806877842,-10,-1,-100,15016.153872274677,-0.007289381483349002,0.00801042969324321,0.9999413472467873,23.296307647344207,0.02264799830623532,-46.72995137208919,17.715754416821337,-104.76876068115234,5356.25390625,True
1599562233.644644,0.0,10,0.5,0.5,5.313583580589294,-0.15025,-0.00825,-0.5,0.10627595062887146,10,1,100,-0.01197555765494493,-10,-1,-100,15016.857961711357,-0.006427477198717449,0.008184502915321532,0.9999458492582931,23.897411668877872,0.02360062399558525,-46.93302789482322,17.34425852526365,-109.55560302734375,5356.25390625,True
1599562233.6755614,0.0,10,0.5,0.5,7.287858223533631,-0.15025,-0.00825,-0.5,0.10892950586791868,10,1,100,-0.06545675005210537,-10,-1,-100,15017.853064411902,-0.00516351411917437,0.008364508269791083,0.9999516853945223,24.564173917884247,0.024837911687026728,-46.696047122791256,16.786997788639706,-116.22090148925781,5356.25390625,True
1599562233.7124639,0.0,10,0.5,0.5,3.9904553979873656,-0.15025,-0.00825,-0.5,0.09116046785914114,10,1,100,0.06024641755196663,-10,-1,-100,15017.853064411902,-0.00516351411917437,0.008364508269791083,0.9999516853945223,24.564173917884247,0.024837911687026728,-46.696047122791256,16.786997788639706,-116.22090148925781,5356.25390625,True
1599562233.7473626,0.0,10,0.5,0.5,6.6874021554946905,-0.15025,-0.00825,-0.5,0.09844804844037511,10,1,100,-0.03235862385640233,-10,-1,-100,15018.556180321844,-0.004327293048337583,0.008429036507609934,0.9999551119317441,24.912296416903814,0.0255292858072452,-46.311951386902884,16.415483096773983,-120.32050323486328,5356.25390625,True
1599562233.7782893,0.0,10,0.5,0.5,8.332936154937745,-0.15025,-0.00825,-0.5,0.09623624174212994,10,1,100,-0.08167094979153,-10,-1,-100,15019.487808992853,-0.0031248587774724496,0.008465992516194424,0.9999592802851207,25.22032731973839,0.026217693431481986,-45.296038326792484,15.858209179415462,-125.95355224609375,5356.25390625,True
1599562233.8131993,0.0,10,0.5,0.5,5.549115290832519,-0.15025,-0.00825,-0.5,0.09268300828986965,10,1,100,0.03786369737661878,-10,-1,-100,15019.487808992853,-0.0031248587774724496,0.008465992516194424,0.9999592802851207,25.22032731973839,0.026217693431481986,-45.296038326792484,15.858209179415462,-125.95355224609375,5356.25390625,True
1599562233.8491008,0.0,10,0.5,0.5,7.79777413482666,-0.15025,-0.00825,-0.5,0.09036492585327241,10,1,100,-0.04863804769684517,-10,-1,-100,15020.130380942486,-0.002344560356305642,0.008443779214442473,0.9999616020774565,25.306663544326597,0.026446393967243517,-44.388272301036515,15.48669759911719,-129.36480712890625,5356.25390625,True
1599562233.879025,0.0,10,0.5,0.5,9.112251193237306,-0.15025,-0.00825,-0.5,0.08487466495791571,10,1,100,-0.09272388511168789,-10,-1,-100,15021.060062664328,-0.0012404520867498902,0.008372840108187741,0.9999641777719556,25.29632461422138,0.02647726684764095,-42.7763653620339,14.929445485668241,-133.96498107910156,5356.25390625,True
1599562233.9149234,0.0,10,0.5,0.5,6.8425895738601685,-0.15025,-0.00825,-0.5,0.09203960305227933,10,1,100,0.016954050012509124,-10,-1,-100,15021.060062664328,-0.0012404520867498902,0.008372840108187741,0.9999641777719556,25.29632461422138,0.02647726684764095,-42.7763653620339,14.929445485668241,-133.96498107910156,5356.25390625,True
1599562233.9548233,0.0,10,0.5,0.5,8.636994384002685,-0.15025,-0.00825,-0.5,0.083075695425153,10,1,100,-0.06100663005656998,-10,-1,-100,15021.639160392573,-0.0005372176583006249,0.008291020574836643,0.9999654845918509,25.217449401836447,0.026317737988644063,-41.5836989718933,14.557958419271433,-136.6875,5356.25390625,True
1599562233.996715,0.0,10,0.5,0.5,10.30502906513214,-0.15025,-0.00825,-0.5,0.06870703554331,10,1,100,-0.13431877671445044,-10,-1,-100,15022.733883497538,0.0007624220973384859,0.008085759917517442,0.9999670190556795,24.944292932806405,0.02567194396197879,-39.03749434559457,13.815026892622923,-141.3056640625,5356.25390625,True
1599562234.0345755,0.0,10,0.5,0.5,8.660782061958312,-0.15025,-0.00825,-0.5,0.08359126424142367,10,1,100,-0.03790350798543907,-10,-1,-100,15023.020991404774,0.0010608740692047958,0.008034560256299023,0.9999671596546044,24.860459700069836,0.025460564428873695,-38.38408966354243,13.629303614449848,-142.28781127929688,5356.25390625,True
1599562234.0734625,0.0,10,0.5,0.5,9.838091637229919,-0.15025,-0.00825,-0.5,0.07226079846657588,10,1,100,-0.10068763421289151,-10,-1,-100,15023.823726437637,0.001897300292797937,0.007885310828159565,0.9999671105215122,24.62216090791389,0.02478306495552983,-36.46449485134268,13.0721572793724,-144.82049560546875,5356.25390625,True
1599562234.1128669,0.0,10,0.5,0.5,9.469365627479553,-0.15025,-0.00825,-0.5,0.07308392102368667,10,1,100,-0.07535553400820674,-10,-1,-100,15024.34032867453,0.0024209770265564107,0.007757548096226184,0.9999669791136964,24.47443480806828,0.024308087481583893,-35.21742249326281,12.700745057945714,-146.1646270751953,5356.25390625,True
1599562234.1667242,0.0,10,0.5,0.5,8.818621294784545,-0.15025,-0.00825,-0.5,0.0857930453758864,10,1,100,-0.023662687639848776,-10,-1,-100,15024.34032867453,0.0024209770265564107,0.007757548096226184,0.9999669791136964,24.47443480806828,0.024308087481583893,-35.21742249326281,12.700745057945714,-146.1646270751953,5356.25390625,True
1599562234.2066154,0.0,10,0.5,0.5,10.044691374206542,-0.15025,-0.00825,-0.5,0.0653542625327441,10,1,100,-0.12377185388700976,-10,-1,-100,15025.306152066332,0.0033260186871633024,0.007572385019852134,0.9999657977075036,24.18757983624511,0.02332301384553658,-32.77199926547159,11.957962231572303,-148.02452087402344,5356.25390625,True
1599562234.2475066,0.0,10,0.5,0.5,9.468823579788207,-0.15025,-0.00825,-0.5,0.0721072820997761,10,1,100,-0.07818857595953631,-10,-1,-100,15025.760255662375,0.0037285259634065038,0.007466258407845418,0.999965175933406,24.05864041152682,0.022836931274187844,-31.586290637617054,11.58658963381549,-148.54104614257812,5356.25390625,True
1599562234.288397,0.0,10,0.5,0.5,9.382454836654661,-0.15025,-0.00825,-0.5,0.0759934706437633,10,1,100,-0.0771300575487048,-10,-1,-100,15026.210452884552,0.004079297786874844,0.007405997311699739,0.9999642546278266,23.943954605875202,0.02236700067452827,-30.42945807325807,11.215227757255306,-148.78106689453125,5356.25390625,True
1599562234.33592,0.0,10,0.5,0.5,9.274667731475828,-0.15025,-0.00825,-0.5,0.0819228959786824,10,1,100,-0.04258485018923326,-10,-1,-100,15026.210452884552,0.004079297786874844,0.007405997311699739,0.9999642546278266,23.943954605875202,0.02236700067452827,-30.42945807325807,11.215227757255306,-148.78106689453125,5356.25390625,True
1599562234.3847885,0.0,10,0.5,0.5,9.26384213218689,-0.15025,-0.00825,-0.5,0.07353870154810192,10,1,100,-0.07862857377315036,-10,-1,-100,15026.661627090536,0.0044021318650253405,0.007330656310327633,0.9999634406882597,23.845226446037,0.021919368218894668,-29.3017938056135,10.84387549367594,-148.74562072753906,5356.25390625,True
1599562234.4306662,0.0,10,0.5,0.5,9.089014504241945,-0.15025,-0.00825,-0.5,0.07442016523725176,10,1,100,-0.07762722577074205,-10,-1,-100,15027.112801055773,0.0046820239092099656,0.007271050855585725,0.9999626045365742,23.76273586366805,0.021498493544134134,-28.201613665338094,10.472531410958082,-148.4342041015625,5356.25390625,True
1599562234.476543,0.0,10,0.5,0.5,8.86884392929077,-0.15025,-0.00825,-0.5,0.07340827634180191,10,1,100,-0.07722753539109328,-10,-1,-100,15027.501475115772,0.004929274398824753,0.007208405733190748,0.9999618698433891,23.695731620966928,0.021107851625583582,-27.126007541399442,10.101194421635798,-147.84710693359375,5356.25390625,True
1599562234.521423,0.0,10,0.5,0.5,8.60572951965332,-0.15025,-0.00825,-0.5,0.07499387609087257,10,1,100,-0.07534943552866687,-10,-1,-100,15027.888195637148,0.005133457208516483,0.007166621214662419,0.999961142823787,23.64201182659837,0.02074988945659617,-26.070592916221447,9.729863373591607,-146.98397827148438,5356.25390625,True
1599562234.567302,0.0,10,0.5,0.5,7.37864725112915,-0.15025,-0.00825,-0.5,0.07099652403324998,10,1,100,-0.08813980644993524,-10,-1,-100,15028.604995352449,0.00543241208305166,0.007092949078761457,0.9999600886897066,23.558758310637348,0.020137812447806873,-23.997678286185952,8.987215792588845,-144.43045043945312,5356.25390625,True
1599562234.6121798,0.0,10,0.5,0.5,8.653980471420288,-0.15025,-0.00825,-0.5,0.0782972777215997,10,1,100,-0.05854546250206701,-10,-1,-100,15028.604995352449,0.00543241208305166,0.007092949078761457,0.9999600886897066,23.558758310637348,0.020137812447806873,-23.997678286185952,8.987215792588845,-144.43045043945312,5356.25390625,True
1599562234.6561317,0.0,10,0.5,0.5,6.274755708312988,-0.15025,-0.00825,-0.5,0.07346589543795086,10,1,100,-0.07465859648350669,-10,-1,-100,15029.315933804843,0.005576157451013389,0.007049631602562344,0.999959603765247,23.46796434463999,0.01966558799559842,-21.931368131408565,8.244584319444373,-140.77371215820312,5356.25390625,True
1599562234.7040033,0.0,10,0.5,0.5,8.097142931747436,-0.15025,-0.00825,-0.5,0.07774536771613312,10,1,100,-0.06050907356371883,-10,-1,-100,15029.315933804843,0.005576157451013389,0.007049631602562344,0.999959603765247,23.46796434463999,0.01966558799559842,-21.931368131408565,8.244584319444373,-140.77371215820312,5356.25390625,True
1599562234.7563787,0.0,10,0.5,0.5,5.836827250289916,-0.15025,-0.00825,-0.5,0.07448779891442264,10,1,100,-0.06189682265864886,-10,-1,-100,15029.803237820975,0.005587093686887656,0.007020396092369779,0.9999597484013244,23.354856374635045,0.019393462389110144,-20.35221732212998,7.687620074965331,-137.3074951171875,5356.25390625,True
1599562234.8022554,0.0,10,0.5,0.5,6.719508781814575,-0.15025,-0.00825,-0.5,0.07665825655682429,10,1,100,-0.059134744434255,-10,-1,-100,15029.902847347199,0.005570555193915215,0.007013900335506853,0.9999598862539013,23.30142721807097,0.019314738890910753,-19.815592757518107,7.501967116826068,-136.0142059326172,5356.25390625,True
1599562234.845648,0.0,10,0.5,0.5,5.539343953704833,-0.15025,-0.00825,-0.5,0.075006768773384,10,1,100,-0.05462846569093659,-10,-1,-100,15030.229018433369,0.005513198341358247,0.0069933380284876384,0.9999603481474993,23.161964410730807,0.019168400813252412,-18.722673851468905,7.130663455819565,-133.22100830078125,5356.25390625,True
1599562234.8985083,0.0,10,0.5,0.5,2.7530159114837653,-0.15025,-0.00825,-0.5,0.07113691670186931,10,1,100,-0.03610627696985525,-10,-1,-100,15030.751475243713,0.005291662153863597,0.006939771201712619,0.9999619182185476,22.701510366363863,0.018868140777386567,-16.44035094527298,6.388062770614345,-126.80790710449219,5356.25390625,True
1599562234.9453812,0.0,10,0.5,0.5,5.941724814605713,-0.15025,-0.00825,-0.5,0.07646047141398396,10,1,100,-0.058320859543785575,-10,-1,-100,15030.751475243713,0.005291662153863597,0.006939771201712619,0.9999619182185476,22.701510366363863,0.018868140777386567,-16.44035094527298,6.388062770614345,-126.80790710449219,5356.25390625,True
1599562235.0052233,0.0,10,0.5,0.5,1.037783770751953,-0.15025,-0.00825,-0.5,0.06570361206004029,10,1,100,-0.0205037340403129,-10,-1,-100,15031.21045283298,0.004947540660418356,0.006842225784432656,0.9999643522584833,21.893276226367743,0.01842625939751241,-14.012620557410273,5.645461593522614,-119.29297637939453,5356.25390625,True
1599562235.062071,0.0,10,0.5,0.5,4.772404056739807,-0.15025,-0.00825,-0.5,0.07542571424501354,10,1,100,-0.054897291730027234,-10,-1,-100,15031.21045283298,0.004947540660418356,0.006842225784432656,0.9999643522584833,21.893276226367743,0.01842625939751241,-14.012620557410273,5.645461593522614,-119.29297637939453,5356.25390625,True
1599562235.112943,0.0,10,0.5,0.5,0.6166854484558102,-0.15025,-0.00825,-0.5,0.0630593434188729,10,1,100,-0.018134953106142403,-10,-1,-100,15031.574704249506,0.004613778374221797,0.006730032161735313,0.9999667093039725,21.037212703626988,0.017925451597323096,-12.136724818840644,5.088499470319839,-112.93391418457031,5356.25390625,True
1599562235.1628,0.0,10,0.5,0.5,0.789803646469116,-0.15025,-0.00825,-0.5,0.06335155444154725,10,1,100,-0.023794765893346784,-10,-1,-100,15031.70946504001,0.004362555170025719,0.006631024347595701,0.999968498318067,20.365321447970558,0.017496021674798638,-10.891953546064766,4.717179762389744,-108.35040283203125,5356.25390625,True
1599562235.5734415,0.0,10,0.5,0.5,-1.7163655475616455,-0.15025,-0.00825,-0.5,0.052486036163839636,10,1,100,-0.004020226396651075,-10,-1,-100,15032.006333249388,0.003955505172860222,0.006442620356994135,0.9999714229025563,19.171424938611867,0.01664322614044323,-9.042919680188742,4.160171485837974,-101.01295471191406,5356.25390625,True
1599562235.6141422,0.0,10,0.5,0.5,-1.425784700012207,-0.15025,-0.00825,-0.5,0.054247683322926725,10,1,100,-0.012529142255764743,-10,-1,-100,15032.142069556401,0.003664286821681851,0.006287910804480384,0.9999735172392334,18.162968002495486,0.01584520948784825,-7.8025879882021165,3.7888092379209306,-95.86825561523438,5356.25390625,True
1599562235.6580243,0.0,10,0.5,0.5,1.1123774757385254,-0.15025,-0.00825,-0.5,0.0696453900455129,10,1,100,-0.04145869668708121,-10,-1,-100,15032.142069556401,0.003664286821681851,0.006287910804480384,0.9999735172392334,18.162968002495486,0.01584520948784825,-7.8025879882021165,3.7888092379209306,-95.86825561523438,5356.25390625,True
1599562235.7019074,0.0,10,0.5,0.5,-3.846989942550659,-0.15025,-0.00825,-0.5,0.03981841547779087,10,1,100,0.007394628498388504,-10,-1,-100,15032.376435246086,0.0032218986548796114,0.006017416480711117,0.9999767047626437,16.53999210078119,0.01445863633135568,-6.060739793816004,3.231721548970288,-88.29232788085938,5356.25390625,True
1599562235.7597535,0.0,10,0.5,0.5,-1.6580773517608642,-0.15025,-0.00825,-0.5,0.055570250687156604,10,1,100,-0.020017986467307132,-10,-1,-100,15032.413542587543,0.003071016184462516,0.005915598253322178,0.999977787031742,16.615097590540135,0.014510798541186603,-5.738434489823079,3.046014474780691,-85.89019775390625,5356.25390625,True
1599562235.812613,0.0,10,0.5,0.5,-3.6649252441406253,-0.15025,-0.00825,-0.5,0.04041555483516589,10,1,100,-0.00036750755811601477,-10,-1,-100,15032.545372798806,0.002757228353971966,0.005686197332449036,0.9999800322264942,17.526822351334797,0.015262723445423496,-5.315243328672731,2.674588078415774,-81.00875854492188,5356.25390625,True
1599562235.863476,0.0,10,0.5,0.5,-4.40483186378479,-0.15025,-0.00825,-0.5,0.0372662783919048,10,1,100,0.0011574116301388826,-10,-1,-100,15032.61763292132,0.0024604078189054135,0.005450160867506773,0.9999821209101104,18.353042757596878,0.015939094622608868,-4.792908146572128,2.303154577865831,-76.17547607421875,5356.25390625,True
1599562235.914341,0.0,10,0.5,0.5,-5.010729439353943,-0.15025,-0.00825,-0.5,0.031037593541064817,10,1,100,0.005793598470881348,-10,-1,-100,15032.68989263568,0.0021506848456031733,0.005180223368839739,0.9999842697965523,19.025113817071087,0.016492628384326937,-4.1672070785858475,1.931721592125109,-71.5819091796875,5356.25390625,True
1599562235.9597383,0.0,10,0.5,0.5,-5.564694295501709,-0.15025,-0.00825,-0.5,0.02701339891487078,10,1,100,0.007909783216836278,-10,-1,-100,15032.762153008254,0.0018524230592877422,0.004899752966554848,0.9999862803807242,19.558590344184317,0.01693370399439696,-3.460366907406034,1.5602907638055363,-67.25836181640625,5356.25390625,True
1599562236.01659,0.0,10,0.5,0.5,-6.073115304183959,-0.15025,-0.00825,-0.5,0.02210195582682115,10,1,100,0.010753583136585091,-10,-1,-100,15032.833436968387,0.0015579335772895738,0.004601794281127386,0.9999881980965389,19.950600829409094,0.017256790584959665,-2.6894994108844297,1.1888587703830429,-63.20989990234375,5356.25390625,True
1599562236.0801349,0.0,10,0.5,0.5,-6.539326739120484,-0.15025,-0.00825,-0.5,0.017556688518723162,10,1,100,0.01309270176754483,-10,-1,-100,15032.843197734095,0.0012715008075486378,0.004291446891634684,0.9999899833344696,20.203874160942064,0.017469876022285575,-1.8727142091106568,0.8174198521302434,-59.43719482421875,5356.25390625,True
1599562236.1266208,0.0,10,0.5,0.5,-6.96108542022705,-0.15025,-0.00825,-0.5,0.013180854616320611,10,1,100,0.01527443016305521,-10,-1,-100,15032.854912280804,0.0009937134899752485,0.003971488205224348,0.9999916198723545,20.341082809816655,0.01759176527612148,-1.028675073145174,0.44597006075739376,-55.94036865234375,5356.25390625,True
1599562236.1734953,0.0,10,0.5,0.5,-7.340073488616943,-0.15025,-0.00825,-0.5,0.008991510996335758,10,1,100,0.017361888863259414,-10,-1,-100,15032.862720914767,0.0007246304615718624,0.0036446375688507777,0.9999930957400086,20.38113407971624,0.01763455418454861,-0.1721977155723411,0.07450638366663442,-52.7193603515625,5356.25390625,True
1599562236.214845,0.0,10,0.5,0.5,-8.570600633239746,-0.15025,-0.00825,-0.5,-0.01338588649067552,10,1,100,0.033397695224061344,-10,-1,-100,15032.844160274952,0.00033690188370704837,0.0031464727161161833,0.9999949930907491,20.417021441595484,0.01768347658655906,1.1176406415801552,-0.4827172103840198,-48.40496826171875,5356.25390625,True
1599562236.2587273,0.0,10,0.5,0.5,-8.848315474700927,-0.15025,-0.00825,-0.5,-0.01899484116853537,10,1,100,0.0355043722743522,-10,-1,-100,15032.824625658686,-3.2107526835269836e-05,0.0026452150290720033,0.9999965008971563,20.438564817776903,0.017725982238927317,2.4104601073950516,-1.039967735000313,-44.71099853515625,5356.25390625,True
1599562236.300617,0.0,10,0.5,0.5,-8.412639632415772,-0.15025,-0.00825,-0.5,-0.00459292029391908,10,1,100,0.025123680190197964,-10,-1,-100,15032.769936385565,-0.0002703796777347953,0.002323425851732215,0.9999972642898286,20.41624776068264,0.0177253530251788,3.2680604431289395,-1.411481699662894,-42.59283447265625,5356.25390625,True
1599562236.3460116,0.0,10,0.5,0.5,-7.385250738525391,-0.15025,-0.00825,-0.5,0.027249720291988046,10,1,100,0.0015992259034160895,-10,-1,-100,15032.769936385565,-0.0002703796777347953,0.002323425851732215,0.9999972642898286,20.41624776068264,0.0177253530251788,3.2680604431289395,-1.411481699662894,-42.59283447265625,5356.25390625,True
1599562236.389893,0.0,10,0.5,0.5,-9.629954106140136,-0.15025,-0.00825,-0.5,-0.04203888320940844,10,1,100,0.05249015310949831,-10,-1,-100,15032.599035135238,-0.0007305419364295062,0.0016963719426429512,0.9999982943139011,20.35182518565793,0.017719520317022664,4.972979801428579,-2.1545368372527443,-39.183380126953125,5356.25390625,True
1599562236.4377656,0.0,10,0.5,0.5,-8.791478318023682,-0.15025,-0.00825,-0.5,-0.014595237853823384,10,1,100,0.03077368044940569,-10,-1,-100,15032.542393547134,-0.0009488294867129171,0.0013789777570909361,0.999998599070494,20.32773895247251,0.017732929259809897,5.823797626126534,-2.526075901961691,-37.892303466796875,5356.25390625,True
1599562236.4833536,0.0,10,0.5,0.5,-8.170166986083984,-0.15025,-0.00825,-0.5,0.01679210318043173,10,1,100,0.009225050675664663,-10,-1,-100,15032.542393547134,-0.0009488294867129171,0.0013789777570909361,0.999998599070494,20.32773895247251,0.017732929259809897,5.823797626126534,-2.526075901961691,-37.892303466796875,5356.25390625,True
1599562236.5272374,0.0,10,0.5,0.5,-8.851722132110595,-0.15025,-0.00825,-0.5,-0.013916292908358583,10,1,100,0.03405635715663698,-10,-1,-100,15032.42618220963,-0.0011722897610272087,0.0011027403531237846,0.9999987048493761,20.312346322062695,0.017761795520969553,6.6755146289624205,-2.897621383444031,-36.87628173828125,5356.25390625,True
1599562236.571119,0.0,10,0.5,0.5,-9.145648255157472,-0.15025,-0.00825,-0.5,-0.049432636720041764,10,1,100,0.05851240863345019,-10,-1,-100,15032.127354646102,-0.0015955415778579794,0.0005316384117188096,0.9999985858028363,20.33256559561439,0.017891900768382166,8.396352719149332,-3.640729262500329,-35.671630859375,5356.25390625,True
1599562236.6140423,0.0,10,0.5,0.5,-8.560044524383546,-0.15025,-0.00825,-0.5,0.0073335724411051776,10,1,100,0.016446152457156443,-10,-1,-100,15032.127354646102,-0.0015955415778579794,0.0005316384117188096,0.9999985858028363,20.33256559561439,0.017891900768382166,8.396352719149332,-3.640729262500329,-35.671630859375,5356.25390625,True
1599562236.6568897,0.0,10,0.5,0.5,-8.641102431488038,-0.15025,-0.00825,-0.5,-0.047414876109566684,10,1,100,0.06315435552215662,-10,-1,-100,15031.828528034966,-0.0020180523584130447,3.675524231009444e-05,0.9999979630547909,20.459273017494294,0.018154724511792304,10.17389656852817,-4.383854300222376,-35.568603515625,5356.25390625,True
1599562236.7027695,0.0,10,0.5,0.5,-8.36472904586792,-0.15025,-0.00825,-0.5,-0.02566021840472368,10,1,100,0.04331000498972682,-10,-1,-100,15031.64688877028,-0.0022196090138572695,-0.00021254191667761376,0.9999975140777898,20.558472331835127,0.018331050448630957,11.090160882827245,-4.755421540460702,-35.930694580078125,5356.25390625,True
1599562236.7446563,0.0,10,0.5,0.5,-8.368309863281251,-0.15025,-0.00825,-0.5,-0.01214270705398161,10,1,100,0.03490433536564348,-10,-1,-100,15031.496497971937,-0.002324438520872151,-0.00031369126989083,0.9999972492878918,20.616866874480273,0.01842976092070479,11.556398185066003,-4.941206011394879,-36.214752197265625,5356.25390625,True
1599562236.7885392,0.0,10,0.5,0.5,-7.692627933502196,-0.15025,-0.00825,-0.5,-0.0350266126014539,10,1,100,0.058531876816342976,-10,-1,-100,15031.223063750658,-0.0026326665778528225,-0.0006112833531329356,0.9999963476930064,20.82453904150395,0.018762708635767168,12.990312604893953,-5.498561251066543,-37.480377197265625,5356.25390625,True
1599562236.8294291,0.0,10,0.5,0.5,-7.965757926940919,-0.15025,-0.00825,-0.5,-0.01588416914956885,10,1,100,0.03903591539356446,-10,-1,-100,15031.070720018237,-0.002733490355900794,-0.0007051314799678355,0.9999960154020967,20.902972108873357,0.01888323091988226,13.48011815427849,-5.684346611978475,-38.040008544921875,5356.25390625,True
1599562236.8703463,0.0,10,0.5,0.5,-7.83784841003418,-0.15025,-0.00825,-0.5,-0.01645956889879193,10,1,100,0.0402399269002679,-10,-1,-100,15030.977948066313,-0.0028342730328967344,-0.0007934956807901263,0.9999956686211092,20.98500391004757,0.019006781515816012,13.975657870574226,-5.870131880621658,-38.668487548828125,5356.25390625,True
1599562236.912209,0.0,10,0.5,0.5,-6.069230694580077,-0.15025,-0.00825,-0.5,-0.040277290851146993,10,1,100,0.07405458826989925,-10,-1,-100,15030.488694327767,-0.0032315856212113436,-0.0010883765416155448,0.9999941861285377,21.33181430712856,0.01950217601448984,16.00674368375662,-6.613268802875801,-41.87066650390625,5356.25390625,True
1599562236.9551308,0.0,10,0.5,0.5,-6.357270848846436,-0.15025,-0.00825,-0.5,-0.024598201739025424,10,1,100,0.05584227947808991,-10,-1,-100,15030.182055844693,-0.0034251372069040867,-0.0012116698283478142,0.9999934001238914,21.501812786985877,0.019726244569956308,17.041724028273944,-6.984832585206149,-43.884918212890625,5356.25390625,True
1599562236.9999728,0.0,10,0.5,0.5,-7.35861457824707,-0.15025,-0.00825,-0.5,-0.01250031408394564,10,1,100,0.036712405653403286,-10,-1,-100,15030.182055844693,-0.0034251372069040867,-0.0012116698283478142,0.9999934001238914,21.501812786985877,0.019726244569956308,17.041724028273944,-6.984832585206149,-43.884918212890625,5356.25390625,True
1599562237.0428572,0.0,10,0.5,0.5,-4.195343979644775,-0.15025,-0.00825,-0.5,-0.03139613221371883,10,1,100,0.07709943626903604,-10,-1,-100,15029.569755096105,-0.003790628761928888,-0.0013818651674911463,0.9999918607580005,21.784942405988858,0.020042585060758268,19.10525669818511,-7.727946228008511,-48.73919677734375,5356.25390625,True
1599562237.0857444,0.0,10,0.5,0.5,-4.764796460723876,-0.15025,-0.00825,-0.5,-0.021713801676973475,10,1,100,0.060062151946506354,-10,-1,-100,15029.262140013976,-0.003966013875215646,-0.001446827467669936,0.9999910886724043,21.872840249748922,0.02009368143862118,20.105826223164545,-8.099495016276599,-51.579498291015625,5356.25390625,True
1599562237.1595473,0.0,10,0.5,0.5,-4.145957856750488,-0.15025,-0.00825,-0.5,-0.018552053500379813,10,1,100,0.06004069907501364,-10,-1,-100,15028.95159479964,-0.004123488987083853,-0.0014757922273998204,0.9999904093919475,21.905756210017877,0.020045348311295865,21.06110324331896,-8.471038838631735,-54.69488525390625,5356.25390625,True
1599562237.2213817,0.0,10,0.5,0.5,-5.688170880889892,-0.15025,-0.00825,-0.5,-0.015781902558463585,10,1,100,0.04448357588551557,-10,-1,-100,15028.95159479964,-0.004123488987083853,-0.0014757922273998204,0.9999904093919475,21.905756210017877,0.020045348311295865,21.06110324331896,-8.471038838631735,-54.69488525390625,5356.25390625,True
1599562237.2732413,0.0,10,0.5,0.5,-1.084106076049805,-0.15025,-0.00825,-0.5,-0.01801335732953851,10,1,100,0.07621424579345291,-10,-1,-100,15028.213317280868,-0.004410314122186727,-0.0014950217244482206,0.9999891569609078,21.744484577840765,0.019581806417598057,22.742949889121224,-9.214116735889723,-61.75189208984375,5356.25390625,True
1599562237.3211157,0.0,10,0.5,0.5,-4.5925854942321775,-0.15025,-0.00825,-0.5,-0.016178781461830015,10,1,100,0.04770949703759887,-10,-1,-100,15028.213317280868,-0.004410314122186727,-0.0014950217244482206,0.9999891569609078,21.744484577840765,0.019581806417598057,22.742949889121224,-9.214116735889723,-61.75189208984375,5356.25390625,True
1599562237.3755062,0.0,10,0.5,0.5,-0.6614820983886718,-0.15025,-0.00825,-0.5,-0.012710734818218045,10,1,100,0.06710117968838955,-10,-1,-100,15027.627380806021,-0.004585077761042746,-0.0014627759456476751,0.9999884186071646,21.36155800687734,0.018878734223791955,23.696328625446828,-9.77142624682108,-67.767333984375,5356.25390625,True
1599562237.4303644,0.0,10,0.5,0.5,0.6691789146423339,-0.15025,-0.00825,-0.5,-0.008971989324320338,10,1,100,0.06519422369835745,-10,-1,-100,15027.037539295852,-0.004725026192158702,-0.0013988645692800568,0.9999878585789931,20.696392938000375,0.017881008854974074,24.270660518630407,-10.328748655392058,-74.40228271484375,5356.25390625,True
1599562237.4737642,0.0,10,0.5,0.5,0.44766439437866223,-0.15025,-0.00825,-0.5,-0.009066457841218359,10,1,100,0.05839831744284402,-10,-1,-100,15026.603946024901,-0.004789113399422225,-0.001341339860892509,0.9999876325236354,20.073077425851974,0.017080411689777242,24.3884351033171,-10.700309348242454,-79.1221923828125,5356.25390625,True
1599562237.5146542,0.0,10,0.5,0.5,-0.33788373565673835,-0.15025,-0.00825,-0.5,-0.011487723855901293,10,1,100,0.054953287383854355,-10,-1,-100,15026.388124896097,-0.004814816063495959,-0.001310938298825906,0.9999875494160171,19.74325746603892,0.016684167905853454,24.405195474616345,-10.886094347158629,-81.49871826171875,5356.25390625,True
1599562237.870411,0.0,10,0.5,0.5,0.030138478851318373,-0.15025,-0.00825,-0.5,-0.010846407074683602,10,1,100,0.05483284154971181,-10,-1,-100,15026.171329377219,-0.004835823815201156,-0.001277380118508399,0.999987491475799,19.395243629767446,0.01629128332003215,24.385192196859563,-11.07188230290187,-83.8443603515625,5356.25390625,True
1599562237.927261,0.0,10,0.5,0.5,1.8765203361511231,-0.15025,-0.00825,-0.5,-0.0063865718143363845,10,1,100,0.05593296532451534,-10,-1,-100,15025.735782388248,-0.00486397271920112,-0.0012064237113520383,0.9999874430767697,18.644357661763593,0.015529698635635839,24.229901813946697,-11.443466155990835,-88.44296264648438,5356.25390625,True
1599562237.9731336,0.0,10,0.5,0.5,1.0937429168701172,-0.15025,-0.00825,-0.5,-0.009314360002260588,10,1,100,0.0539129934696995,-10,-1,-100,15025.519961216021,-0.004870382925208229,-0.0011687526917876741,0.9999874566149853,18.244896905554363,0.01516948856475121,24.09678934461531,-11.629261348874952,-90.72840881347656,5356.25390625,True
1599562238.0170174,0.0,10,0.5,0.5,4.34589391746521,-0.15025,-0.00825,-0.5,-0.00037092781030061313,10,1,100,0.05205963161828106,-10,-1,-100,15024.742617990822,-0.004858682646621684,-0.0010534815081982634,0.9999876416134609,19.146405105060193,0.016008106501487027,26.50303056314307,-12.186634508578468,-97.44143676757812,5356.25390625,True
1599562238.0758615,0.0,10,0.5,0.5,1.024645845413208,-0.15025,-0.00825,-0.5,-0.01185581509732153,10,1,100,0.05330317884288936,-10,-1,-100,15024.742617990822,-0.004858682646621684,-0.0010534815081982634,0.9999876416134609,19.146405105060193,0.016008106501487027,26.50303056314307,-12.186634508578468,-97.44143676757812,5356.25390625,True
1599562238.1257272,0.0,10,0.5,0.5,3.7681710681915286,-0.15025,-0.00825,-0.5,-0.0031725225101502264,10,1,100,0.04986520337493078,-10,-1,-100,15024.245546885533,-0.00482702071643621,-0.0009749438848751152,0.9999878746041997,20.048667672500827,0.016946678498371875,28.600778292124637,-12.55819351236414,-101.61534118652344,5356.25390625,True
1599562238.173447,0.0,10,0.5,0.5,6.609188124847412,-0.15025,-0.00825,-0.5,0.005522969396462015,10,1,100,0.03999961765366966,-10,-1,-100,15023.251404722803,-0.004708171176443179,-0.0008249689171026628,0.999988576209978,21.548382450932696,0.01878609091843321,32.56534557766546,-13.301245272282276,-109.14334106445312,5356.25390625,True
1599562238.2193239,0.0,10,0.5,0.5,3.9911609981536866,-0.15025,-0.00825,-0.5,-0.005626722672508822,10,1,100,0.04751797852470882,-10,-1,-100,15022.972106437082,-0.004668362972172234,-0.0007905686988715729,0.9999887906313213,21.85107285575672,0.019212650702964417,33.48558319285858,-13.486993972818738,-110.85320281982422,5356.25390625,True
1599562238.2711844,0.0,10,0.5,0.5,4.233321937370301,-0.15025,-0.00825,-0.5,-0.005294029110445754,10,1,100,0.04663734414659057,-10,-1,-100,15022.69183319679,-0.004624219440506651,-0.0007568242825249255,0.9999890218455257,22.130877765602087,0.019625195853098115,34.38312728565521,-13.672737130580781,-112.494140625,5356.25390625,True
1599562238.3200564,0.0,10,0.5,0.5,6.372557367897033,-0.15025,-0.00825,-0.5,0.001544589345588405,10,1,100,0.03418064545963882,-10,-1,-100,15021.850033603609,-0.004470996145437392,-0.000664509659498906,0.9999897842580094,22.950640822371962,0.020859216902753136,37.115350679862246,-14.229933005068894,-117.0034408569336,5356.25390625,True
1599562238.3669286,0.0,10,0.5,0.5,5.8779128032684325,-0.15025,-0.00825,-0.5,-0.0016990689774645787,10,1,100,0.036019678956123485,-10,-1,-100,15021.290461725672,-0.004348733290722525,-0.0006106627402660309,0.9999903577584055,23.394776129518508,0.021580685025076703,38.82504776730176,-14.601370506981416,-119.66505432128906,5356.25390625,True
1599562238.416797,0.0,10,0.5,0.5,6.128135831451416,-0.15025,-0.00825,-0.5,-0.0018905369605315483,10,1,100,0.0336557926865356,-10,-1,-100,15020.667413272313,-0.0042165381753713725,-0.0005640577202442463,0.9999909512814122,23.77046874624324,0.022217684757268413,40.45609396006265,-14.972789042934084,-122.051025390625,5356.25390625,True
1599562238.467659,0.0,10,0.5,0.5,6.954009600830078,-0.15025,-0.00825,-0.5,-0.00018737013640981234,10,1,100,0.022545808190224788,-10,-1,-100,15019.764091375284,-0.003995949515580072,-0.0005067901545425243,0.9999918877426998,24.229517403993746,0.023020046138902482,42.77828621725524,-15.529884384027541,-125.11312866210938,5356.25390625,True
1599562238.5265024,0.0,10,0.5,0.5,6.554689553833008,-0.15025,-0.00825,-0.5,-0.002597341933983588,10,1,100,0.027004812470395982,-10,-1,-100,15019.140065982938,-0.0038367457123255626,-0.0004772393498254888,0.999992525784539,24.48041672443173,0.023461563202260883,44.25945242856354,-15.901261683567638,-126.8099594116211,5356.25390625,True
1599562238.576371,0.0,10,0.5,0.5,6.214971012306213,-0.15025,-0.00825,-0.5,-0.004053925183508502,10,1,100,0.03389042212837287,-10,-1,-100,15018.79826767696,-0.0037555404671069767,-0.0004641405043132946,0.9999928402190648,24.592636370066362,0.023657364818377467,44.98390483142599,-16.086945035548226,-127.55500793457031,5356.25390625,True
1599562238.6272361,0.0,10,0.5,0.5,6.306955333518982,-0.15025,-0.00825,-0.5,-0.004054129471663151,10,1,100,0.03271842235291956,-10,-1,-100,15018.455494320835,-0.003672065830021882,-0.00045277008465260124,0.9999931554424712,24.697501914717517,0.02383827562931998,45.69957048494433,-16.27262498665676,-128.2311553955078,5356.25390625,True
1599562238.6770985,0.0,10,0.5,0.5,7.301440273857117,-0.15025,-0.00825,-0.5,-0.00208653035437285,10,1,100,0.0015644030509068887,-10,-1,-100,15017.144944180618,-0.0033140113980047845,-0.000425020778258625,0.9999944183273184,25.059041166515765,0.024437671417474098,48.49527227054926,-17.015312713897078,-130.24668884277344,5356.25390625,True
1599562238.733948,0.0,10,0.5,0.5,6.526719237709045,-0.15025,-0.00825,-0.5,-0.004468970400538284,10,1,100,0.026876554592533485,-10,-1,-100,15016.801192367217,-0.0032198852554389725,-0.0004218162711736451,0.9999947271910863,25.138413366059346,0.02456295288306684,49.182409262023505,-17.2009770920092,-130.57830810546875,5356.25390625,True
1599562238.8117414,0.0,10,0.5,0.5,6.75520214729309,-0.15025,-0.00825,-0.5,-0.0038950211608937205,10,1,100,0.004885898765757825,-10,-1,-100,15015.710370523622,-0.0029357177798782132,-0.00041402059203389275,0.9999956050643755,25.358601440630643,0.024900300807259006,51.22824377462821,-17.75795324163019,-131.15965270996094,5356.25390625,True
1599562238.8775635,0.0,10,0.5,0.5,6.5079685424804685,-0.15025,-0.00825,-0.5,-0.005156490831022849,10,1,100,0.010748928941128336,-10,-1,-100,15015.018962828675,-0.002732218987017826,-0.00041871315680846544,0.9999961798220528,25.493318137517573,0.02510458181889712,52.583176174474765,-18.129256890568378,-131.20277404785156,5356.25390625,True
1599562238.946379,0.0,10,0.5,0.5,6.346900700950622,-0.15025,-0.00825,-0.5,-0.0051033961012567335,10,1,100,0.008678839239409014,-10,-1,-100,15014.270914353314,-0.002529981793636771,-0.0004227198967899218,0.9999967102445952,25.619775078008203,0.025302236872492192,53.93247045264934,-18.500549844497215,-130.97021484375,5356.25390625,True
1599562239.0221786,0.0,10,0.5,0.5,6.1420737756729125,-0.15025,-0.00825,-0.5,-0.005311561171433176,10,1,100,0.006060887155462394,-10,-1,-100,15013.521889765048,-0.002323983645706375,-0.0004284256545414644,0.9999972077718383,25.737463532086338,0.025500291291704613,55.27399511194858,-18.87183264295682,-130.46205139160156,5356.25390625,True
1599562239.08176,0.0,10,0.5,0.5,5.893439729118347,-0.15025,-0.00825,-0.5,-0.0055320799018417355,10,1,100,0.0034699392784928174,-10,-1,-100,15012.770911913947,-0.0021148790346423507,-0.0004357407246517653,0.9999976687056276,25.844836108559715,0.02570488693367784,56.60325603025587,-19.243105387704748,-129.6782684326172,5356.25390625,True
1599562239.147611,0.0,10,0.5,0.5,5.6002209955215445,-0.15025,-0.00825,-0.5,-0.005545679875397273,10,1,100,0.001001120594446528,-10,-1,-100,15011.96036412369,-0.001904050191530033,-0.0004425790149024444,0.9999980893565166,25.938820457909287,0.02592058118249131,57.91209239247493,-19.614368537592565,-128.61886596679688,5356.25390625,True
1599562239.2463186,0.0,10,0.5,0.5,5.263326460647583,-0.15025,-0.00825,-0.5,-0.005556522370375265,10,1,100,-0.001414575717915114,-10,-1,-100,15011.209386397386,-0.0016921837272435433,-0.00044892571993460995,0.9999984674887913,26.01511182233185,0.026150316621068606,59.189018380530456,-19.98562267914816,-127.28385925292969,5356.25390625,True
1599562239.3141832,0.0,10,0.5,0.5,4.292474404144287,-0.15025,-0.00825,-0.5,-0.005633195014154534,10,1,100,-0.015559571664531448,-10,-1,-100,15009.927157928701,-0.0013728627572319164,-0.0004554063074385526,0.9999989539259253,26.08611812422446,0.02652476239410995,61.01568927327263,-20.54248922982316,-124.7646255493164,5356.25390625,True
1599562239.4089305,0.0,10,0.5,0.5,3.507908139991761,-0.15025,-0.00825,-0.5,-0.005172076534378172,10,1,100,-0.01892301849820177,-10,-1,-100,15008.708407592028,-0.0010540843615268799,-0.00045710336787800084,0.999999339981117,26.08812596412822,0.026930633339637498,62.68653195943989,-21.09934155504688,-121.62533569335938,5356.25390625,True
1599562239.4957006,0.0,10,0.5,0.5,3.485565218925476,-0.15025,-0.00825,-0.5,-0.004561259606077497,10,1,100,-0.010289585217423756,-10,-1,-100,15007.833407153375,-0.0008448260561988995,-0.0004530641029387482,0.9999995405008212,26.032148987833633,0.027200523104340332,63.66095043487512,-21.470571222077734,-119.18800354003906,5356.25390625,True
1599562239.5635169,0.0,10,0.5,0.5,2.930767243385315,-0.15025,-0.00825,-0.5,-0.004010940658201437,10,1,100,-0.01202410494054406,-10,-1,-100,15006.956453446299,-0.0006409820167807692,-0.0004443607372571316,0.9999996958427484,25.919361586368566,0.027453115445042295,64.48972288884917,-21.841799162731775,-116.47509765625,5356.25390625,True
1599562239.6233573,0.0,10,0.5,0.5,2.3318812852859496,-0.15025,-0.00825,-0.5,-0.0034672421534566217,10,1,100,-0.013967613762305413,-10,-1,-100,15006.079500166,-0.0004400871150783633,-0.0004314782910077788,0.9999998100748898,25.7395077314809,0.027666563099135774,65.13966321775246,-22.213028110797993,-113.4866714477539,5356.25390625,True
1599562239.679211,0.0,10,0.5,0.5,2.772677043533325,-0.15025,-0.00825,-0.5,-0.0038642126861258433,10,1,100,-0.004904450373769422,-10,-1,-100,15005.674225964583,-0.00034193153694644837,-0.00042336419459245166,0.9999998519227804,25.620916638844882,0.027749516565667202,65.38593075344126,-22.398643645888306,-111.88912963867188,5356.25390625,True
1599562239.7310698,0.0,10,0.5,0.5,2.472106536865234,-0.15025,-0.00825,-0.5,-0.003648715850326193,10,1,100,-0.005924856775109229,-10,-1,-100,15005.204500197666,-0.00024541190795679136,-0.0004140280954368824,0.999999884176859,25.481558178534407,0.02781106100483468,65.57383667318062,-22.584260313560527,-110.22269439697266,5356.25390625,True
1599562239.7819374,0.0,10,0.5,0.5,-0.23084548358917223,-0.15025,-0.00825,-0.5,-0.0008452224981313049,10,1,100,-0.027472585467535983,-10,-1,-100,15003.795319351717,3.63320412942768e-05,-0.00038006751805650643,0.9999999271143295,25.02072398466543,0.027923455083551898,65.98997071030085,-23.14111941363206,-104.8102035522461,5356.25390625,True
1599562239.82781,0.0,10,0.5,0.5,1.192161905288696,-0.15025,-0.00825,-0.5,-0.0027706836889113606,10,1,100,-0.009657773132769864,-10,-1,-100,15003.325593803078,0.0001285544184101589,-0.00036674907054197903,0.9999999244844374,24.828611238904166,0.027897653069137773,66.01349589847186,-23.326742759693573,-102.86830139160156,5356.25390625,True
1599562239.8726895,0.0,10,0.5,0.5,-3.2441749198913574,-0.15025,-0.00825,-0.5,0.0025872944188614654,10,1,100,-0.03864072711701442,-10,-1,-100,15001.449617404374,0.0004740265205450566,-0.00030600143540752885,0.999999840830977,23.797669469951945,0.027276872259851915,65.3066313943191,-24.069259721712335,-94.58526611328125,5356.25390625,True
1599562239.9165459,0.0,10,0.5,0.5,-1.9442499130249022,-0.15025,-0.00825,-0.5,0.00025129611160480767,10,1,100,-0.02262442754993854,-10,-1,-100,15000.443758263602,0.0006405200625599206,-0.0002721425919735684,0.9999997578362001,23.215869260963323,0.02670136015574882,64.70301146144405,-24.44053126073908,-90.25675201416016,5356.25390625,True
1599562239.9614246,0.0,10,0.5,0.5,-2.604613258743286,-0.15025,-0.00825,-0.5,0.0005910808670357526,10,1,100,-0.02209324373364146,-10,-1,-100,14999.505281606456,0.0007852185362254672,-0.00023843947627101843,0.9999996632891767,23.291664169542493,0.026723657727177667,65.91089887046343,-24.811801667964588,-85.95663452148438,5356.25390625,True
1599562240.0092976,0.0,10,0.5,0.5,-0.48398119087219227,-0.15025,-0.00825,-0.5,-0.0027573643140585435,10,1,100,-0.0078073266568620325,-10,-1,-100,14999.505281606456,0.0007852185362254672,-0.00023843947627101843,0.9999996632891767,23.291664169542493,0.026723657727177667,65.91089887046343,-24.811801667964588,-85.95663452148438,5356.25390625,True
1599562240.051185,0.0,10,0.5,0.5,-5.621102369689941,-0.15025,-0.00825,-0.5,0.004845721700075568,10,1,100,-0.037665228524294804,-10,-1,-100,14997.437899870332,0.0010551721490271975,-0.00016951562580313354,0.9999994289379311,25.17932663240362,0.028326325101245265,73.40847213335852,-25.55424650869779,-78.09857177734375,5356.25390625,True
1599562240.0920753,0.0,10,0.5,0.5,-1.7237316314697264,-0.15025,-0.00825,-0.5,-0.002019178835567522,10,1,100,-0.01083948266070257,-10,-1,-100,14997.437899870332,0.0010551721490271975,-0.00016951562580313354,0.9999994289379311,25.17932663240362,0.028326325101245265,73.40847213335852,-25.55424650869779,-78.09857177734375,5356.25390625,True
1599562240.1399486,0.0,10,0.5,0.5,-6.2826499124526975,-0.15025,-0.00825,-0.5,0.004894199007291914,10,1,100,-0.035819547107210324,-10,-1,-100,14995.369541335269,0.0012809043173917175,-0.00010690488420005198,0.9999991739273966,26.631969670077332,0.029044970961953288,79.92487236214002,-26.296561479760648,-71.1324462890625,5356.25390625,True
1599562240.5026236,0.0,10,0.5,0.5,-4.854070479011536,-0.15025,-0.00825,-0.5,0.002133229459697676,10,1,100,-0.02488477525493609,-10,-1,-100,14994.304111701786,0.001385233057380299,-7.537344163937309e-05,0.9999990377236476,27.22077355687571,0.029182356144618362,82.85818130625893,-26.667673566767395,-68.02462768554688,5356.25390625,True
1599562240.5430343,0.0,10,0.5,0.5,-5.177197444534301,-0.15025,-0.00825,-0.5,0.0013228106731427707,10,1,100,-0.023870395029699145,-10,-1,-100,14993.237705865176,0.0014693733235356396,-5.438380523816188e-05,0.9999989189916346,27.72595315663757,0.029219217505029496,85.58407947423207,-27.03875828410855,-65.1915283203125,5356.25390625,True
1599562240.5811586,0.0,10,0.5,0.5,-3.7933331689834593,-0.15025,-0.00825,-0.5,-0.0007435845956965156,10,1,100,-0.015599672542389208,-10,-1,-100,14993.237705865176,0.0014693733235356396,-5.438380523816188e-05,0.9999989189916346,27.72595315663757,0.029219217505029496,85.58407947423207,-27.03875828410855,-65.1915283203125,5356.25390625,True
1599562240.6220493,0.0,10,0.5,0.5,-5.487348330497741,-0.15025,-0.00825,-0.5,0.0015978294491794346,10,1,100,-0.02438004246922965,-10,-1,-100,14992.17227677314,0.0015479759420477114,-3.338219143502035e-05,0.9999988013273375,28.158540806933928,0.02918957599737376,88.12637927685748,-27.409817853750884,-62.6341552734375,5356.25390625,True
1599562240.6649354,0.0,10,0.5,0.5,-5.718443974113464,-0.15025,-0.00825,-0.5,0.0012239463792021006,10,1,100,-0.024003789909523548,-10,-1,-100,14991.041417561239,0.001615036072496355,-1.793658792647882e-05,0.9999986956675311,28.52948569493032,0.02912100172246562,90.51052401782141,-27.780854528046387,-60.35284423828125,5356.25390625,True
1599562240.7098148,0.0,10,0.5,0.5,-5.906451734161377,-0.15025,-0.00825,-0.5,0.0011501330496970952,10,1,100,-0.023995485102034416,-10,-1,-100,14989.914464434492,0.0016750384055543696,-4.797256826983924e-06,0.9999985971106792,28.8489611342132,0.02903411472455563,92.76134043926989,-28.151870588323188,-58.34747314453125,5356.25390625,True
1599562240.7517025,0.0,10,0.5,0.5,-6.051007131958007,-0.15025,-0.00825,-0.5,0.0005656721255372522,10,1,100,-0.023326958743759396,-10,-1,-100,14988.78360526904,0.0017226995415597654,1.6219064807001048e-06,0.9999985161507285,29.126170945942157,0.0289433882846676,94.90223598137898,-28.522867534472084,-56.618194580078125,5356.25390625,True
1599562240.797581,0.0,10,0.5,0.5,-6.921149462890625,-0.15025,-0.00825,-0.5,3.3915406698123085e-05,10,1,100,-0.026311387880701337,-10,-1,-100,14986.461340317852,0.0017923067655320208,2.405119877555577e-06,0.999998393814047,29.58577264975521,0.028782663501129156,98.93960394662018,-29.264810191767744,-53.987548828125,5356.25390625,True
1599562240.8463113,0.0,10,0.5,0.5,-6.211812350463867,-0.15025,-0.00825,-0.5,-0.0008012443176532111,10,1,100,-0.02171557136365796,-10,-1,-100,14985.270910587744,0.0018131357875186725,-4.631520660934022e-06,0.9999983562572315,29.781246963885824,0.028718264493197587,100.8723170949929,-29.635758015651056,-53.086212158203125,5356.25390625,True
1599562240.8891807,0.0,10,0.5,0.5,-6.188463278961182,-0.15025,-0.00825,-0.5,-0.0014833015364486507,10,1,100,-0.020855488522394938,-10,-1,-100,14984.079504208057,0.0018235632692782452,-1.737888141692147e-05,0.9999983371561062,29.960521119700356,0.028662656415587393,102.76675251946247,-30.006691229031404,-52.460784912109375,5356.25390625,True
1599562240.9334257,0.0,10,0.5,0.5,-5.891153776550293,-0.15025,-0.00825,-0.5,-0.0001996128605715927,10,1,100,-0.019867006241626323,-10,-1,-100,14984.079504208057,0.0018235632692782452,-1.737888141692147e-05,0.9999983371561062,29.960521119700356,0.028662656415587393,102.76675251946247,-30.006691229031404,-52.460784912109375,5356.25390625,True
1599562240.9812975,0.0,10,0.5,0.5,-6.131267910766601,-0.15025,-0.00825,-0.5,-0.0019681061166561408,10,1,100,-0.02010600343766273,-10,-1,-100,14982.886144937482,0.001825337489049578,-3.350881516334686e-05,0.9999983335087166,30.127143517006097,0.0286112804239309,104.63317268556118,-30.377610424030063,-52.11126708984375,5356.25390625,True
1599562241.025179,0.0,10,0.5,0.5,-5.97184450378418,-0.15025,-0.00825,-0.5,-0.004027878213845936,10,1,100,-0.01825228975302294,-10,-1,-100,14981.03653477144,0.0018097748697399607,-6.691656944370883e-05,0.999998360117202,30.35776147695637,0.02852683142022504,107.39234487695785,-30.93396388905286,-52.104278564453125,5356.25390625,True
1599562241.0780673,0.0,10,0.5,0.5,-5.757965383148194,-0.15025,-0.00825,-0.5,-0.003658796543709091,10,1,100,-0.017473286269159984,-10,-1,-100,14979.779698640341,0.0017882357281995506,-9.39205738207888e-05,0.9999983966946678,30.499670321192852,0.028452766618360322,109.20664279263114,-31.30484979639959,-52.444427490234375,5356.25390625,True
1599562241.1149738,0.0,10,0.5,0.5,-5.535953649902343,-0.15025,-0.00825,-0.5,-0.00426643148642309,10,1,100,-0.01623612699266237,-10,-1,-100,14978.52383937675,0.001757189369934516,-0.00012393858784063807,0.9999984484611686,30.63117708394498,0.02835227795664113,110.99604280043104,-31.67572323007008,-53.060333251953125,5356.25390625,True
1599562241.1588466,0.0,10,0.5,0.5,-5.582424988555908,-0.15025,-0.00825,-0.5,-0.003059761572251808,10,1,100,-0.017281735165019584,-10,-1,-100,14977.86270719918,0.0017383417064446062,-0.00014016159954811287,0.9999984792602623,30.69248735030093,0.028288605679367255,111.87901744058271,-31.861155372505998,-53.471710205078125,5356.25390625,True
1599562241.2027056,0.0,10,0.5,0.5,-4.273946684265137,-0.15025,-0.00825,-0.5,-0.009274844799819425,10,1,100,-0.008340864246529979,-10,-1,-100,14975.291417812463,0.001639869273739428,-0.00021128749013032182,0.9999986330922467,30.897348228624445,0.02790819150214319,115.28822664127615,-32.602855699329915,-55.806488037109375,5356.25390625,True
1599562241.2456195,0.0,10,0.5,0.5,-5.442005258178711,-0.15025,-0.00825,-0.5,-0.002183546681259632,10,1,100,-0.018179824490265763,-10,-1,-100,14975.291417812463,0.001639869273739428,-0.00021128749013032182,0.9999986330922467,30.897348228624445,0.02790819150214319,115.28822664127615,-32.602855699329915,-55.806488037109375,5356.25390625,True
1599562241.2854831,0.0,10,0.5,0.5,-3.831370043182373,-0.15025,-0.00825,-0.5,-0.00851463413201014,10,1,100,-0.007493847455175482,-10,-1,-100,14973.311924364069,0.0015428626075038733,-0.000268648564582592,0.9999987737007097,30.991493145083634,0.027449059240481972,117.64421503965193,-33.15910455441674,-58.2811279296875,5356.25390625,True
1599562241.3283956,0.0,10,0.5,0.5,-3.7676348663330073,-0.15025,-0.00825,-0.5,-0.007188720638294091,10,1,100,-0.008775471782098396,-10,-1,-100,14971.993564924342,0.0014665715622435907,-0.00030850122137458113,0.9999988769967941,31.0139483678323,0.027040509600947515,119.06781455900767,-33.529927103777744,-60.275390625,5356.25390625,True
1599562241.3682961,0.0,10,0.5,0.5,-4.042742534637451,-0.15025,-0.00825,-0.5,-0.00555497135315664,10,1,100,-0.011767592408221419,-10,-1,-100,14971.269932700321,0.0014247417010690292,-0.00032961398646608745,0.9999989307322809,31.0102114456963,0.026802706425798094,119.72286292123057,-33.71533605360708,-61.3758544921875,5356.25390625,True
1599562241.4101791,0.0,10,0.5,0.5,-3.02014186706543,-0.15025,-0.00825,-0.5,-0.0076028025778837605,10,1,100,-0.006319438756070654,-10,-1,-100,14969.95254948351,0.001337548450043702,-0.00036714020667856777,0.9999990380856436,30.966893760554985,0.02625753529465563,120.89317159045822,-34.08615056675995,-63.783355712890625,5356.25390625,True
1599562241.4540567,0.0,10,0.5,0.5,-2.4696728935241694,-0.15025,-0.00825,-0.5,-0.008139676424306333,10,1,100,-0.004367718052882007,-10,-1,-100,14968.569736748468,0.0012409823872998767,-0.0004058323223923776,0.9999991476310569,30.867867034560362,0.025620805448570677,121.84073518918774,-34.456962745546825,-66.46630859375,5356.25390625,True
1599562241.495922,0.0,10,0.5,0.5,0.22707798004150437,-0.15025,-0.00825,-0.5,-0.01246620577120476,10,1,100,0.009844810032055562,-10,-1,-100,14965.74356441677,0.0010245073408355486,-0.0004800309527831462,0.9999993599772917,30.46014763363203,0.02410950206239869,122.86735635133948,-35.19859088478882,-72.65835571289062,5356.25390625,True
1599562241.539807,0.0,10,0.5,0.5,-2.8522690887451168,-0.15025,-0.00825,-0.5,-0.005084953770024136,10,1,100,-0.011726321775640845,-10,-1,-100,14965.74356441677,0.0010245073408355486,-0.0004800309527831462,0.9999993599772917,30.46014763363203,0.02410950206239869,122.86735635133948,-35.19859088478882,-72.65835571289062,5356.25390625,True
1599562241.5877097,0.0,10,0.5,0.5,0.6205749389648436,-0.15025,-0.00825,-0.5,-0.010478167625012053,10,1,100,0.007890536978107545,-10,-1,-100,14963.638094501803,0.000846838335827926,-0.0005287364493149068,0.9999995016511758,29.92556649233858,0.022848827568395083,122.65598294739601,-35.7548283039269,-77.97427368164062,5356.25390625,True
1599562241.6286006,0.0,10,0.5,0.5,-0.8436515396118165,-0.15025,-0.00825,-0.5,-0.0071490257379341485,10,1,100,-0.003113570986131046,-10,-1,-100,14962.916415674845,0.0007861688612873622,-0.000542395997325102,0.9999995438724477,29.7045021810643,0.022430952178755088,122.39396691596241,-35.94024579218816,-79.77899169921875,5356.25390625,True
1599562241.672488,0.0,10,0.5,0.5,0.7107556510925295,-0.15025,-0.00825,-0.5,-0.009064105213515848,10,1,100,0.005623457687226505,-10,-1,-100,14961.473055965733,0.0006523633514131012,-0.000571922573924027,0.9999996236632428,29.211199614113543,0.021638179879106503,121.62885512977326,-36.31108957926649,-83.52676391601562,5356.25390625,True
1599562241.7123833,0.0,10,0.5,0.5,1.312900559234619,-0.15025,-0.00825,-0.5,-0.008612830255448598,10,1,100,0.0066189862003332624,-10,-1,-100,14960.025790149579,0.0005225694522467355,-0.0005943345665917168,0.9999996868437462,28.627623746761078,0.020920689716725168,120.44207905810221,-36.68194678012959,-87.29940795898438,5356.25390625,True
1599562241.7522743,0.0,10,0.5,0.5,3.2013724739074707,-0.15025,-0.00825,-0.5,-0.009645858837720055,10,1,100,0.016815552178457958,-10,-1,-100,14957.795320474193,0.00031280648334459406,-0.0006238041961266215,0.9999997565101848,28.168909049082668,0.020473640926079822,120.34845039354467,-37.23824984338467,-93.06773376464844,5356.25390625,True
