Timestamp,Input Throttle,horizon,dT,dt,Input Roll,Roll P,Roll I,Roll D,Input Pitch,Pitch P,Pitch I,Pitch D,Input Yaw,Yaw P,Yaw I,Yaw D,Altitude,Direction X,Direction Y,Direction Z,Drag X,Drag Y,Drag Z,Vertical Velocity,Roll,Mass,Has Fuel
1599558534.1699436,0.0,10,0.5,0.5,-0.05820806884765625,-0.001,-0.00825,-0.001,-0.000555383303734536,10,1,100,0.17107596034384148,-10,-1,-100,14994.460727548809,-0.016772867219322137,-7.706444981928843e-05,0.9998593225980911,28.581056619394072,0.026959497692930108,-86.70265920110967,26.823644869842937,-31.79248046875,5356.25390625,True
1599558534.2038531,0.0,10,0.5,0.5,-0.10622982177734375,-0.001,-0.00825,-0.001,-0.0005088223578961523,10,1,100,0.17321048601153619,-10,-1,-100,14995.012486876454,-0.016807453829289252,-7.461418995311879e-05,0.9998587419873364,28.508529751558097,0.027123980241198442,-85.88466253482348,26.637681249620567,-31.79193115234375,5356.25390625,True
1599558534.2357678,0.0,10,0.5,0.5,-0.15425214996337894,-0.001,-0.00825,-0.001,-0.0005056716286561415,10,1,100,0.17535523948768533,-10,-1,-100,14995.548621082213,-0.01684311445737954,-7.229020690900709e-05,0.999858142072915,28.43604422556407,0.027286965544887343,-85.06983229787993,26.451721718894966,-31.79132080078125,5356.25390625,True
1599558534.273666,0.0,10,0.5,0.5,-0.2022722351074219,-0.001,-0.00825,-0.001,0.0033245805879507607,10,1,100,0.1794212751173243,-10,-1,-100,14996.580850562197,-0.016897185248224356,-3.529130198438006e-05,0.9998572317512192,28.291212540163336,0.027608437199272345,-83.44970534937842,26.079814221026066,-31.79205322265625,5356.25390625,True
1599558534.302589,0.0,10,0.5,0.5,-0.25021108856201174,-0.001,-0.00825,-0.001,0.012911166080300716,10,1,100,0.18105711801892305,-10,-1,-100,14998.135540958145,-0.016945850734235792,8.552692633390262e-05,0.9998564051042719,28.07881624384099,0.028082695004996983,-81.05629498622382,25.52198199299598,-31.833770751953125,5356.25390625,True
1599558534.3364983,0.0,10,0.5,0.5,-0.29823994522094727,-0.001,-0.00825,-0.001,0.0008378959411058371,10,1,100,0.17788515449120304,-10,-1,-100,14998.135540958145,-0.016945850734235792,8.552692633390262e-05,0.9998564051042719,28.07881624384099,0.028082695004996983,-81.05629498622382,25.52198199299598,-31.833770751953125,5356.25390625,True
1599558534.3694108,0.0,10,0.5,0.5,-0.345942172241211,-0.001,-0.00825,-0.001,0.02501388289261952,10,1,100,0.17859465237026084,-10,-1,-100,14999.6355410869,-0.016936895396105194,0.0003052308741419053,0.9998565139100983,27.87757573056447,0.028549518888978987,-78.72109574431647,24.964184106483046,-31.976226806640625,5356.25390625,True
1599558534.405314,0.0,10,0.5,0.5,-0.39395424118042,-0.001,-0.00825,-0.001,0.0030740111992334446,10,1,100,0.18118387572293115,-10,-1,-100,14999.6355410869,-0.016936895396105194,0.0003052308741419053,0.9998565139100983,27.87757573056447,0.028549518888978987,-78.72109574431647,24.964184106483046,-31.976226806640625,5356.25390625,True
1599558534.4352338,0.0,10,0.5,0.5,-0.44095117340087886,-0.001,-0.00825,-0.001,0.05492611358552376,10,1,100,0.16897088136240843,-10,-1,-100,15001.600379630225,-0.016810470997013074,0.0007763361404953247,0.9998583926572079,27.633246527176208,0.0291583495521308,-75.71256547921672,24.220504986805317,-32.412567138671875,5356.25390625,True
1599558534.4681478,0.0,10,0.5,0.5,-0.4885631004333496,-0.001,-0.00825,-0.001,0.024645296948133995,10,1,100,0.17777250160260477,-10,-1,-100,15002.069127736962,-0.016760272208206556,0.0009286277439853486,0.9998591055373851,27.57718060391141,0.029307299513179872,-74.98046237558722,24.034594123997536,-32.57958984375,5356.25390625,True
1599558534.5020618,0.0,10,0.5,0.5,-0.536101961517334,-0.001,-0.00825,-0.001,0.009508999373530136,10,1,100,0.18446840770407724,-10,-1,-100,15002.069127736962,-0.016760272208206556,0.0009286277439853486,0.9998591055373851,27.57718060391141,0.029307299513179872,-74.98046237558722,24.034594123997536,-32.57958984375,5356.25390625,True
1599558534.5389638,0.0,10,0.5,0.5,-0.5346217247009277,-0.001,-0.00825,-0.001,0.046304378117354814,10,1,100,0.16947212132379036,-10,-1,-100,15003.033966755262,-0.016623953782032234,0.001262216921480296,0.9998610158262478,27.47146066648182,0.02959962700757226,-73.54045266849049,23.662782827116583,-32.995025634765625,5356.25390625,True
1599558534.5688827,0.0,10,0.5,0.5,-0.5329651397705079,-0.001,-0.00825,-0.001,0.055617097565356696,10,1,100,0.164378887994015,-10,-1,-100,15003.96364844183,-0.016453892637100582,0.0016489255949925985,0.999863265882625,27.374539999053336,0.029882403133589974,-72.1324622556288,23.290984901150484,-33.534759521484375,5356.25390625,True
1599558534.6027925,0.0,10,0.5,0.5,-0.5299210899353027,-0.001,-0.00825,-0.001,0.09061451966589537,10,1,100,0.14509684504003445,-10,-1,-100,15005.325942237396,-0.01612435413469042,0.0023170725756433146,0.9998673093858096,27.245336522129975,0.030280497704827512,-70.07725286489027,22.73331228692251,-34.60748291015625,5356.25390625,True
1599558534.6357043,0.0,10,0.5,0.5,-0.5286710838317872,-0.001,-0.00825,-0.001,0.02403505798858653,10,1,100,0.17797341216969734,-10,-1,-100,15005.325942237396,-0.01612435413469042,0.0023170725756433146,0.9998673093858096,27.245336522129975,0.030280497704827512,-70.07725286489027,22.73331228692251,-34.60748291015625,5356.25390625,True
1599558534.672607,0.0,10,0.5,0.5,-0.5245876052856445,-0.001,-0.00825,-0.001,0.07864764319672206,10,1,100,0.14760096090226532,-10,-1,-100,15006.259527987684,-0.015848987756440624,0.0028115219451269927,0.9998704440733551,27.168300674542856,0.030520552214904118,-68.73910858428131,22.361546213744752,-35.50506591796875,5356.25390625,True
1599558534.7025273,0.0,10,0.5,0.5,-0.5203690895080566,-0.001,-0.00825,-0.001,0.0865337497880172,10,1,100,0.13900598167432937,-10,-1,-100,15007.13842499815,-0.01552151565866666,0.0033302350727432077,0.99987398810351,27.096264040429073,0.030732439718795135,-67.4198128270942,21.989792331622187,-36.5487060546875,5356.25390625,True
1599558534.740426,0.0,10,0.5,0.5,-0.5139661178588867,-0.001,-0.00825,-0.001,0.12899969368287764,10,1,100,0.10861385024783118,-10,-1,-100,15008.426496364176,-0.014948808356574382,0.004185096493076133,0.9998795017881215,26.991919404632924,0.030980169193666064,-65.46109972431698,21.432183977440218,-38.3858642578125,5356.25390625,True
1599558534.7703476,0.0,10,0.5,0.5,-0.50770599899292,-0.001,-0.00825,-0.001,0.10901677863033812,10,1,100,0.11633638373228636,-10,-1,-100,15009.29074381385,-0.014500177556385113,0.004777053224156675,0.9998834555153551,26.92034054290841,0.031085652894451418,-64.15771578457007,21.060460233701274,-39.79052734375,5356.25390625,True
1599558534.8067608,0.0,10,0.5,0.5,-0.5015120651245117,-0.001,-0.00825,-0.001,0.08246701216018865,10,1,100,0.13377236980860988,-10,-1,-100,15009.70187132759,-0.01425294060548929,0.005070197178061571,0.9998855668448625,26.882684578338832,0.031117049114616036,-63.50384785452233,20.874602978129705,-40.546417236328125,5356.25390625,True
1599558534.8376777,0.0,10,0.5,0.5,-0.4941127418518067,-0.001,-0.00825,-0.001,0.08628670611070041,10,1,100,0.1296551771559978,-10,-1,-100,15010.113975123153,-0.013993030109289992,0.005367651108948787,0.9998876854076826,26.843201622541695,0.031132693567514358,-62.84727076034728,20.68874876503623,-41.33770751953125,5356.25390625,True
1599558534.8935275,0.0,10,0.5,0.5,-0.48251256942749027,-0.001,-0.00825,-0.001,0.1590501160126622,10,1,100,0.06141167445451179,-10,-1,-100,15011.31903711392,-0.013138868035548864,0.006295513842168669,0.99989386269354,26.708978024260432,0.03107392968811966,-60.851475312072324,20.131205350413044,-43.92071533203125,5356.25390625,True
1599558534.9264417,0.0,10,0.5,0.5,-0.4722941024780274,-0.001,-0.00825,-0.001,0.13529958698685954,10,1,100,0.07625277928015811,-10,-1,-100,15012.128596398514,-0.012500444453968699,0.006918535793115185,0.9998979311664431,26.60113688813955,0.03093538489739215,-59.48923092489647,19.759526558388846,-45.814605712890625,5356.25390625,True
1599558535.008222,0.0,10,0.5,0.5,-0.4599973663330079,-0.001,-0.00825,-0.001,0.14046444077840523,10,1,100,0.0635949936667149,-10,-1,-100,15012.921554769506,-0.01180858264530373,0.007527082046445957,0.9999019453985352,26.473541134547208,0.03070799704112701,-58.09266340982906,19.38786231150863,-47.844482421875,5356.25390625,True
1599558535.0431926,0.0,10,0.5,0.5,-0.44219247283935553,-0.001,-0.00825,-0.001,0.2099761460450659,10,1,100,-0.036777752911647504,-10,-1,-100,15014.399074463407,-0.01027106127897718,0.00870749413419739,0.9999093383132824,26.140935080059247,0.029962935795952134,-55.16824188694776,18.64458131971554,-52.301605224609375,5356.25390625,True
1599558535.0761034,0.0,10,0.5,0.5,-0.42720618057250975,-0.001,-0.00825,-0.001,0.15322498596352138,10,1,100,0.023796785105101567,-10,-1,-100,15015.139299926464,-0.009429313375974137,0.009258866920904149,0.9999126769036377,25.92676419237353,0.029436824919638897,-53.62796461706981,18.27296750732434,-54.7244873046875,5356.25390625,True
1599558535.1150005,0.0,10,0.5,0.5,-0.4112553398132324,-0.001,-0.00825,-0.001,0.1251301922108597,10,1,100,0.06006337875943084,-10,-1,-100,15015.5338272464,-0.008999620383174789,0.009498846470180844,0.999914385709444,25.80565371539375,0.029134615747955766,-52.83585974016318,18.08716797681726,-55.98333740234375,5356.25390625,True
1599558535.1459172,0.0,10,0.5,0.5,-0.3912626014709472,-0.001,-0.00825,-0.001,0.15379096218915014,10,1,100,0.0038558829899579816,-10,-1,-100,15016.203740944038,-0.008103942151157893,0.009971954322600991,0.9999174397161991,25.532218392603525,0.02845304790191473,-51.20432225034597,17.715584819637925,-58.59234619140625,5356.25390625,True
1599558535.173842,0.0,10,0.5,0.5,-0.3745044242858887,-0.001,-0.00825,-0.001,0.13267996762370154,10,1,100,0.0413667914895093,-10,-1,-100,15016.601197999902,-0.007636920077688833,0.010204873457997478,0.9999187657052113,25.37873613211304,0.02807487335768035,-50.363905316618954,17.52980157108021,-59.940765380859375,5356.25390625,True
1599558535.2037618,0.0,10,0.5,0.5,-0.3536626739501953,-0.001,-0.00825,-0.001,0.15612336260709797,10,1,100,-0.017976200403634054,-10,-1,-100,15017.27013709175,-0.006679112136850835,0.010624805517085306,0.9999212483834852,25.03585588726372,0.027249136574730538,-48.632662911248104,17.158253093243193,-62.723876953125,5356.25390625,True
1599558535.2399867,0.0,10,0.5,0.5,-0.33528207168579105,-0.001,-0.00825,-0.001,0.1347457963021707,10,1,100,0.02378897881344442,-10,-1,-100,15017.596305969986,-0.006194946391215768,0.010807170778630335,0.9999224108394468,24.845236458369943,0.02680413371919463,-47.740999438437306,16.97248821671366,-64.15753173828125,5356.25390625,True
1599558535.2709033,0.0,10,0.5,0.5,-0.31199770889282225,-0.001,-0.00825,-0.001,0.15467941009181033,10,1,100,-0.03802898516395084,-10,-1,-100,15018.266222763574,-0.005199903389678544,0.011149227032968284,0.9999243250073003,24.429701919027888,0.0258655121798695,-45.91725017324706,16.600978299751922,-67.10336303710938,5356.25390625,True
1599558535.3048122,0.0,10,0.5,0.5,-0.2897282562255859,-0.001,-0.00825,-0.001,0.1533509817496877,10,1,100,-0.05144259143023583,-10,-1,-100,15018.917585902615,-0.004180594208265632,0.011443698176355486,0.999925779447712,23.998185093957268,0.024909673607777683,-44.09905991292304,16.22949566619477,-70.14816284179688,5356.25390625,True
1599558535.3372364,0.0,10,0.5,0.5,-0.27269787139892576,-0.001,-0.00825,-0.001,0.12435638364929148,10,1,100,0.049656341686485056,-10,-1,-100,15018.917585902615,-0.004180594208265632,0.011443698176355486,0.999925779447712,23.998185093957268,0.024909673607777683,-44.09905991292304,16.22949566619477,-70.14816284179688,5356.25390625,True
1599558535.3731422,0.0,10,0.5,0.5,-0.24481808700561525,-0.001,-0.00825,-0.001,0.16140309794063556,10,1,100,-0.12116067765190289,-10,-1,-100,15019.860942044877,-0.002634646749223049,0.011776925927976878,0.9999271786746241,23.23410617551508,0.023399806432866748,-41.23248016996211,15.672324596201905,-74.88778686523438,5356.25390625,True
1599558535.4040585,0.0,10,0.5,0.5,-0.22439756088256835,-0.001,-0.00825,-0.001,0.14608033683141253,10,1,100,-0.08333520026759912,-10,-1,-100,15020.49765967473,-0.0015800501395232388,0.011937772026827225,0.9999274938917283,22.64307186315465,0.022374388306079296,-39.23343421558221,15.300913541742883,-78.15106201171875,5356.25390625,True
1599558535.4364855,0.0,10,0.5,0.5,-0.2050126838684082,-0.001,-0.00825,-0.001,0.13704825161419182,10,1,100,-0.03768633980047623,-10,-1,-100,15020.771097310586,-0.0010434512833485748,0.011999450519165605,0.9999274595672716,22.32243236181203,0.02186466547530014,-38.20951517825867,15.115218704978506,-79.81167602539062,5356.25390625,True
1599558535.4703941,0.0,10,0.5,0.5,-0.18365737457275394,-0.001,-0.00825,-0.001,0.1347258687182293,10,1,100,-0.03983745168584529,-10,-1,-100,15021.09726920852,-0.0005433114597771853,0.012032136027647213,0.9999274636268723,21.98497621946653,0.021360749430282724,-37.17061819930497,14.929530990196023,-81.49044799804688,5356.25390625,True
1599558535.5062997,0.0,10,0.5,0.5,-0.16305477066040042,-0.001,-0.00825,-0.001,0.13456713411917431,10,1,100,-0.0468324475573108,-10,-1,-100,15021.373637164827,-3.192132196385453e-05,0.012058534191998134,0.9999272927239108,21.630326029291993,0.020864966644737158,-36.11716899338913,14.74385017924842,-83.1856689453125,5356.25390625,True
1599558535.5372164,0.0,10,0.5,0.5,-0.13869812927246095,-0.001,-0.00825,-0.001,0.13362210743850836,10,1,100,-0.1096737083537465,-10,-1,-100,15021.955670007388,0.0009973493571470207,0.012072256225462007,0.9999266302703846,20.868638448105806,0.019906336783729703,-33.96961818195193,14.37250803879327,-86.62307739257812,5356.25390625,True
1599558535.6030405,0.0,10,0.5,0.5,-0.10834826278686524,-0.001,-0.00825,-0.001,0.11674327553984049,10,1,100,-0.22743682876400942,-10,-1,-100,15023.06895731308,0.002996645195073845,0.011929971010706386,0.9999243450927968,20.486042310861126,0.01943699698430937,-31.627296141745862,13.629880204377114,-93.65829467773438,5356.25390625,True
1599558535.639941,0.0,10,0.5,0.5,-0.08026068267822267,-0.001,-0.00825,-0.001,0.10458869063467874,10,1,100,-0.18220057744826337,-10,-1,-100,15023.856072926428,0.004394592225240276,0.011689103861579737,0.9999220231648501,21.25811906418601,0.020379260081252123,-31.48069961148944,13.072914981883157,-99.05062866210938,5356.25390625,True
1599558535.6708617,0.0,10,0.5,0.5,-0.05201759185791015,-0.001,-0.00825,-0.001,0.10643382914114877,10,1,100,-0.13518721046134735,-10,-1,-100,15024.368772499263,0.005229336647678778,0.011486416915315592,0.9999203549606703,21.771581194679136,0.02111577589292625,-31.3269509498002,12.701600051444325,-102.69009399414062,5356.25390625,True
1599558535.7037718,0.0,10,0.5,0.5,-0.028809963989257815,-0.001,-0.00825,-0.001,0.12670679564145934,10,1,100,-0.05265376130309162,-10,-1,-100,15024.368772499263,0.005229336647678778,0.011486416915315592,0.9999203549606703,21.771581194679136,0.02111577589292625,-31.3269509498002,12.701600051444325,-102.69009399414062,5356.25390625,True
1599558535.7376804,0.0,10,0.5,0.5,0.00905208282470703,-0.001,-0.00825,-0.001,0.08592416004817376,10,1,100,-0.18227838172221622,-10,-1,-100,15025.140263838228,0.006399187805256325,0.011115626847432123,0.999917743234523,22.433680172771357,0.022224219043130964,-30.86643028107383,12.144616734127933,-108.19757080078125,5356.25390625,True
1599558535.7745824,0.0,10,0.5,0.5,0.0384066780090332,-0.001,-0.00825,-0.001,0.08966075654857503,10,1,100,-0.14564402923207603,-10,-1,-100,15025.600229013711,0.0071214367126396574,0.01081311520761493,0.9999161773262072,22.78538697790602,0.022909265843264703,-30.39321282876099,11.773286753776691,-111.88832092285156,5356.25390625,True
1599558535.8055005,0.0,10,0.5,0.5,0.06624309043884277,-0.001,-0.00825,-0.001,0.1043062745518259,10,1,100,-0.10875815624423882,-10,-1,-100,15025.841441814206,0.007434790067778564,0.010672268114009956,0.9999154097172174,22.969104582783075,0.02326070057024646,-30.155785068951356,11.587619475623374,-113.73528289794922,5356.25390625,True
1599558535.9351523,0.0,10,0.5,0.5,0.09238310413360595,-0.001,-0.00825,-0.001,0.11825826567180772,10,1,100,-0.07827064486546086,-10,-1,-100,15025.841441814206,0.007434790067778564,0.010672268114009956,0.9999154097172174,22.969104582783075,0.02326070057024646,-30.155785068951356,11.587619475623374,-113.73528289794922,5356.25390625,True
1599558536.0089564,0.0,10,0.5,0.5,0.12636972122192383,-0.001,-0.00825,-0.001,0.08440522272935669,10,1,100,-0.14523508326193402,-10,-1,-100,15026.30140639178,0.008036304869994178,0.010365749421727345,0.9999139808218316,23.292994562024365,0.023906880392664222,-29.602312458284942,11.216281104661803,-117.42759704589844,5356.25390625,True
1599558536.0727866,0.0,10,0.5,0.5,0.16559763679504397,-0.001,-0.00825,-0.001,0.037948413930355834,10,1,100,-0.20216727071813972,-10,-1,-100,15027.13734919508,0.009093367097799373,0.009666300334907027,0.9999119327784123,23.713741458745996,0.024844467712311132,-28.143821862072187,10.473594819733371,-124.7629165649414,5356.25390625,True
1599558536.1425974,0.0,10,0.5,0.5,0.20059192714691162,-0.001,-0.00825,-0.001,0.04861457252317173,10,1,100,-0.16697082924135526,-10,-1,-100,15027.752586038085,0.009727005093523642,0.009129589839451023,0.9999110140213848,23.83093996291495,0.02516806079198966,-26.78030461326,9.916581044421683,-130.19503784179688,5356.25390625,True
1599558536.1775043,0.0,10,0.5,0.5,0.23952435970306396,-0.001,-0.00825,-0.001,0.02907083597524468,10,1,100,-0.17451199551850607,-10,-1,-100,15028.517235428211,0.010365477183157577,0.008466546676029188,0.9999104332239703,23.80722082797386,0.025131096520626468,-24.7518403324084,9.173911666572886,-137.305908203125,5356.25390625,True
1599558536.23934,0.0,10,0.5,0.5,0.2709397626876831,-0.001,-0.00825,-0.001,0.06203098444563413,10,1,100,-0.13712223794170555,-10,-1,-100,15028.875634199707,0.01060057139125577,0.008166347474636106,0.9999104653193217,23.710512469177388,0.024908504678603765,-23.654341128395256,8.802587085773807,-140.7887420654297,5356.25390625,True
1599558536.2772388,0.0,10,0.5,0.5,0.30911801929473876,-0.001,-0.00825,-0.001,0.05124574626068649,10,1,100,-0.1418572126701731,-10,-1,-100,15029.382468904601,0.010852455682746035,0.007798409734816216,0.9999107005184323,23.43292931622048,0.024320347095867258,-21.899362727399613,8.245614910928108,-145.90359497070312,5356.25390625,True
1599558536.3410678,0.0,10,0.5,0.5,0.3463025285720825,-0.001,-0.00825,-0.001,0.06404114662872332,10,1,100,-0.12869205908999462,-10,-1,-100,15029.688131965348,0.010956646261521865,0.007583595435762559,0.999911216550233,23.164317207626873,0.023785575814828375,-20.674171603478037,7.874309678253278,-149.2277069091797,5356.25390625,True
1599558536.3799644,0.0,10,0.5,0.5,0.3864968885421753,-0.001,-0.00825,-0.001,0.058681221258367014,10,1,100,-0.1272889195972529,-10,-1,-100,15030.11000412621,0.011034466011878363,0.00734279405272115,0.9999121581095672,22.64537282726417,0.02282074343129416,-18.78238079688277,7.317363518737536,-154.06201171875,5356.25390625,True
1599558536.4417987,0.0,10,0.5,0.5,0.42267819919586186,-0.001,-0.00825,-0.001,0.0688688431483996,10,1,100,-0.11960572972051872,-10,-1,-100,15030.413712775451,0.01103180675941465,0.007219653286370069,0.999913084145841,22.22823022577752,0.022100707031326702,-17.501428104926905,6.946071547978392,-157.1731719970703,5356.25390625,True
1599558536.507623,0.0,10,0.5,0.5,0.4643676223754883,-0.001,-0.00825,-0.001,0.06816105021080726,10,1,100,-0.11201648565728915,-10,-1,-100,15030.820934755611,0.010957126114153157,0.007104411394643373,0.9999147307276027,21.509780271195506,0.020956158865693006,-15.578488041592855,6.389136097130479,-161.65533447265625,5356.25390625,True
1599558536.574445,0.0,10,0.5,0.5,0.5078970415115357,-0.001,-0.00825,-0.001,0.07520485679571015,10,1,100,-0.10242759067622653,-10,-1,-100,15031.174445179873,0.010798860722227252,0.00706692414995401,0.9999167181271452,20.696828401565575,0.019782303082386446,-13.683558231192935,5.8321956537425885,-165.89410400390625,5356.25390625,True
1599558536.6402752,0.0,10,0.5,0.5,0.5541081060409546,-0.001,-0.00825,-0.001,0.08675444597512036,10,1,100,-0.08244063967826817,-10,-1,-100,15031.627562487964,0.010470772124265688,0.007140840033932657,0.9999196824419108,19.505019173711442,0.018251492817190264,-11.254072413985842,5.089581432706627,-171.1265869140625,5356.25390625,True
1599558536.6761787,0.0,10,0.5,0.5,0.5942772624969481,-0.001,-0.00825,-0.001,0.09506613744734005,10,1,100,-0.0789663112059677,-10,-1,-100,15031.911735853762,0.01013967277180111,0.007285892996661583,0.9999220483614321,18.562749405347095,0.017172318215125385,-9.53852085856765,4.532588784744572,-174.702392578125,5356.25390625,True
1599558536.7398376,0.0,10,0.5,0.5,0.6296603504180908,-0.001,-0.00825,-0.001,0.08715940465915406,10,1,100,-0.09809146775549142,-10,-1,-100,15031.961538289324,0.010012163267576002,0.007347556025470542,0.9999228820299871,18.245205431303614,0.016830659764553037,-8.991369008924048,4.346917175789215,-175.8225555419922,5356.25390625,True
1599558536.7827227,0.0,10,0.5,0.5,0.6684926300048828,-0.001,-0.00825,-0.001,0.11700500812814191,10,1,100,-0.04589084434790982,-10,-1,-100,15032.273053176119,0.009422015609043873,0.007675954256515448,0.9999261499471424,16.97518207270647,0.015558712860557313,-6.93630364628149,3.604183024009819,-179.91065979003906,5356.25390625,True
1599558536.8909495,0.0,10,0.5,0.5,-0.01973172683715818,-0.001,-0.00825,-0.001,0.1080265027294334,10,1,100,-0.06736813608063792,-10,-1,-100,15032.423439619364,0.009081837258659659,0.007893321138584486,0.9999276052362044,16.83335617570981,0.01541943646911972,-6.169624151675571,3.232783183680705,178.29525756835938,5356.25390625,True
1599558536.955294,0.0,10,0.5,0.5,0.07842114791870118,-0.001,-0.00825,-0.001,0.15700885346916518,10,1,100,0.0105845581532905,-10,-1,-100,15032.661712201661,0.008065533009296556,0.008536135209550474,0.9999310384086295,17.065936255359563,0.015654567508030227,-4.458320974998494,2.304194162877794,174.58975219726562,5356.25390625,True
1599558537.0131392,0.0,10,0.5,0.5,-0.18867326316833496,-0.001,-0.00825,-0.001,0.14484905595708172,10,1,100,-0.012276802658940308,-10,-1,-100,15032.7906142883,0.007352078892943312,0.009009102078706262,0.9999323892222349,17.128057604260686,0.015716120979184057,-3.392574292434014,1.7469985081332253,172.70950317382812,5356.25390625,True
1599558537.1143842,0.0,10,0.5,0.5,-0.4564205295562744,-0.001,-0.00825,-0.001,0.1530628661127003,10,1,100,0.007067164232666928,-10,-1,-100,15032.849205962848,0.00653097762189751,0.009512228135693523,0.9999334297077964,17.187462822944102,0.015752268393565687,-2.318553479744239,1.1897877607042129,170.84976196289062,5356.25390625,True
1599558537.1762197,0.0,10,0.5,0.5,-0.7226147979736328,-0.001,-0.00825,-0.001,0.20536467401261232,10,1,100,0.10092183168731196,-10,-1,-100,15032.931237113313,0.004935389334211388,0.010443002282181759,0.9999332905926545,17.27799676068947,0.015751493445129956,-0.511493719189153,0.26109431084651336,167.7075653076172,5356.25390625,True
1599558537.2520201,0.0,10,0.5,0.5,-0.9932601650238037,-0.001,-0.00825,-0.001,0.1779943153672426,10,1,100,0.06439826357226948,-10,-1,-100,15032.920498637017,0.0038223612707970643,0.011037304072315395,0.9999317814096774,17.424869200011376,0.015820803706403444,0.5850629311701545,-0.2961243414624499,165.59695434570312,5356.25390625,True
1599558537.308865,0.0,10,0.5,0.5,-1.2621997150421145,-0.001,-0.00825,-0.001,0.20663268038232951,10,1,100,0.1423195865523294,-10,-1,-100,15032.869728105608,0.0021084841855575254,0.011834317763553707,0.9999277489986517,17.951465977207334,0.01623473094164429,2.115076018768753,-1.0390887301737526,162.2713623046875,5356.25390625,True
1599558537.3866568,0.0,10,0.5,0.5,-1.5366525592803955,-0.001,-0.00825,-0.001,0.17187614823456798,10,1,100,0.07664604997593488,-10,-1,-100,15032.811142577906,0.0011550483387058113,0.012238640392672867,0.9999244379175228,18.251343426268452,0.01649477483028593,2.91926671891059,-1.4105787090432784,160.30833435058594,5356.25390625,True
1599558537.4425087,0.0,10,0.5,0.5,-1.8000227828979494,-0.001,-0.00825,-0.001,0.260186006756138,10,1,100,0.34945247249970873,-10,-1,-100,15032.577787189512,-0.0021836020682545134,0.01340452081716273,0.9999077710987497,19.265695369215635,0.017503999476268888,5.516657872859427,-2.5251102294615455,152.82000732421875,5356.25390625,True
1599558537.5133197,0.0,10,0.5,0.5,-2.0756640209198,-0.001,-0.00825,-0.001,0.16593691036047503,10,1,100,0.08475871821360062,-10,-1,-100,15032.54068834614,-0.0028013448853121616,0.013602095813291403,0.9999035630781198,19.44070240833777,0.017692055415111294,5.9763806803444055,-2.710875409183361,151.33140563964844,5356.25390625,True
1599558537.6419737,0.0,10,0.5,0.5,-2.3440583080291746,-0.001,-0.00825,-0.001,0.18611386367766272,10,1,100,0.17175206097627846,-10,-1,-100,15032.41278380563,-0.004142665689121317,0.01395974889305847,0.9998939762453972,19.78575128880619,0.01807319789696215,6.916279183005972,-3.0824141871267527,148.1468963623047,5356.25390625,True
1599558537.708795,0.0,10,0.5,0.5,-2.2913831451416016,-0.001,-0.00825,-0.001,0.31619785883473606,10,1,100,0.7214213950413596,-10,-1,-100,15031.754753725952,-0.010347019908677849,0.01546195489631604,0.999826918586309,20.862562924098487,0.019321846946348396,10.810461309632618,-4.568648012270062,132.65325927734375,5356.25390625,True
1599558537.7736213,0.0,10,0.5,0.5,-2.253481751251221,-0.001,-0.00825,-0.001,0.26389856651262283,10,1,100,0.4974507632654989,-10,-1,-100,15031.356465906836,-0.013934506589477804,0.016345852405724833,0.9997692947051524,20.94161313993207,0.019389254757865806,12.6175548814106,-5.311779553593457,123.25454711914062,5356.25390625,True
1599558537.8185024,0.0,10,0.5,0.5,-2.206535446929932,-0.001,-0.00825,-0.001,0.2507658692979557,10,1,100,0.4996045482894348,-10,-1,-100,15031.049981168006,-0.01719608653998407,0.017023337666574927,0.9997072074274543,20.637659120067784,0.01898139228157879,13.740044025588421,-5.869123629479257,115.48220825195312,5356.25390625,True
1599558537.87535,0.0,10,0.5,0.5,-2.1575794136047364,-0.001,-0.00825,-0.001,0.24102398373573752,10,1,100,0.4295268313135493,-10,-1,-100,15030.78253682633,-0.01950251900960728,0.017543842480844955,0.9996558734601059,20.214635310206216,0.01845198594995791,14.311109702905211,-6.240686175428481,109.95713806152344,5356.25390625,True
1599558537.9793487,0.0,10,0.5,0.5,-2.0917105339050295,-0.001,-0.00825,-0.001,0.3203067889295478,10,1,100,0.7808576894436605,-10,-1,-100,15030.24383324373,-0.02477097641195319,0.01873132614085356,0.9995176517443818,18.75795378409018,0.016808693683594746,14.86270206571522,-6.983826416740229,98.08221435546875,5356.25390625,True
1599558538.1296444,0.0,10,0.5,0.5,-2.015113824462891,-0.001,-0.00825,-0.001,0.42864608887051897,10,1,100,1.0889995878476066,-10,-1,-100,15029.515004642424,-0.03233577918350103,0.020788764902080634,0.9992608391398324,17.596206780149807,0.015690821692275862,15.798969307689564,-7.912807620504671,81.69622802734375,5356.25390625,True
1599558538.3510518,0.0,10,0.5,0.5,-1.921195185852051,-0.001,-0.00825,-0.001,0.6781404933298407,10,1,100,1.5148618962631326,-10,-1,-100,15028.469419133384,-0.04305303517653197,0.024919154319064055,0.9987619695954142,21.46625867055486,0.019846740402479014,21.993183119828444,-9.027523475564841,59.781158447265625,5356.25390625,True
1599558538.4477932,0.0,10,0.5,0.5,-1.785273296737671,-0.001,-0.00825,-0.001,1.6056808428731233,10,1,100,2.4730646666492038,-10,-1,-100,15026.686815542751,-0.061466740279601445,0.037094711044963924,0.9974195818470232,23.13619047162225,0.021482684530791586,28.10351217959191,-10.699393764762725,22.33013916015625,5356.25390625,True
1599558538.5096273,0.0,10,0.5,0.5,-1.678261092758179,-0.001,-0.00825,-0.001,1.3006852135205973,10,1,100,1.4933828232624604,-10,-1,-100,15025.786725430284,-0.06924637985322935,0.04536917490146102,0.9965673970414559,21.235540651260017,0.019217419772450665,27.591158589230005,-11.442507970761733,3.92559814453125,5356.25390625,True
1599558538.5495322,0.0,10,0.5,0.5,-1.5360744583129882,-0.001,-0.00825,-0.001,1.5635812984389386,10,1,100,1.427067398223321,-10,-1,-100,15024.817622639937,-0.07565550738801897,0.05525250001654497,0.995602031659128,21.309447328623374,0.01950370873204112,29.491028622895765,-12.185685699973774,-15.565093994140625,5356.25390625,True
1599558538.5884285,0.0,10,0.5,0.5,-1.4001940425872803,-0.001,-0.00825,-0.001,1.1728222438165352,10,1,100,1.0689992292953165,-10,-1,-100,15024.324831658741,-0.07816181011875596,0.060647447123578085,0.9950942762353485,23.226144047458856,0.021744988441798334,33.12692061562953,-12.55722516367149,-25.719451904296875,5356.25390625,True
1599558538.6477797,0.0,10,0.5,0.5,-1.2588346515655517,-0.001,-0.00825,-0.001,1.2525335931570665,10,1,100,1.0394634398466687,-10,-1,-100,15023.832050228724,-0.0801101101606109,0.06623551540377005,0.9945829411111231,24.5908976120796,0.023578770007237508,36.11459647677195,-12.928720456730899,-36.1475830078125,5356.25390625,True
1599558538.7155983,0.0,10,0.5,0.5,-1.1054414501190186,-0.001,-0.00825,-0.001,1.637065683792153,10,1,100,1.051737433236367,-10,-1,-100,15023.03913026012,-0.0819327141353207,0.0747659695160835,0.9938295025590355,25.734645878033245,0.025280985264080822,39.42891213464171,-13.485898614042044,-52.30487060546875,5356.25390625,True
1599558538.7749586,0.0,10,0.5,0.5,-0.9496184894561768,-0.001,-0.00825,-0.001,1.7140771089964513,10,1,100,0.9314420723151353,-10,-1,-100,15022.17577925336,-0.0824371811697772,0.08316853836381706,0.9931198847003353,25.591243359851408,0.025147073129277015,40.83535752750149,-14.043059852093789,-69.08282470703125,5356.25390625,True
1599558538.8482726,0.0,10,0.5,0.5,-0.7956254249572753,-0.001,-0.00825,-0.001,1.4701707139338653,10,1,100,0.8485668142005081,-10,-1,-100,15021.613453226513,-0.08208516279809544,0.08853024763765772,0.9926854593987087,24.534845704854394,0.02390023325601101,40.18970528663988,-14.414533591599241,-80.61434936523438,5356.25390625,True
1599558538.908112,0.0,10,0.5,0.5,-0.5996703643798829,-0.001,-0.00825,-0.001,2.25276327914548,10,1,100,0.5799037869542192,-10,-1,-100,15020.118764454033,-0.07927065113397654,0.10045555309625773,0.9917786273765533,22.9126813380011,0.022711994393895468,39.96273214247193,-15.343341123936895,-110.64530944824219,5356.25390625,True
1599558538.9421115,0.0,10,0.5,0.5,-0.44610210609436035,-0.001,-0.00825,-0.001,1.510863380156173,10,1,100,0.6861620503023371,-10,-1,-100,15019.501337919733,-0.07763532031344181,0.10447977098763296,0.991492175710026,25.234441864975288,0.025784560565261204,45.0830113461959,-15.714792423868046,-123.10403442382812,5356.25390625,True
1599558538.9790123,0.0,10,0.5,0.5,-0.26947253913879393,-0.001,-0.00825,-0.001,1.685804721279775,10,1,100,0.5616605447444963,-10,-1,-100,15018.552036147797,-0.07498538562139631,0.1096561988839445,0.9911370793132175,27.117204784407484,0.028737163388076616,50.17274715181742,-16.27186473827825,-142.20803833007812,5356.25390625,True
1599558539.0418441,0.0,10,0.5,0.5,-0.1528325466156006,-0.001,-0.00825,-0.001,1.1754180804325196,10,1,100,0.8280058784832255,-10,-1,-100,15018.552036147797,-0.07498538562139631,0.1096561988839445,0.9911370793132175,27.117204784407484,0.028737163388076616,50.17274715181742,-16.27186473827825,-142.20803833007812,5356.25390625,True
1599558539.0827353,0.0,10,0.5,0.5,0.03284611167907715,-0.001,-0.00825,-0.001,1.9101268605652943,10,1,100,0.3870931141924555,-10,-1,-100,15016.84515965532,-0.07097187048623643,0.11627692686334928,0.9906778840162428,26.128415693980354,0.027787868883350966,51.11755845299809,-17.200318125873906,-174.76724243164062,5356.25390625,True
1599558539.142575,0.0,10,0.5,0.5,-0.5752249576568603,-0.001,-0.00825,-0.001,1.3683329003487108,10,1,100,0.7179272171122504,-10,-1,-100,15016.47719567956,-0.07033506096890903,0.1173148940909785,0.9906009261165276,25.309951233563396,0.026889497875942147,50.05445817642406,-17.386043417127045,178.65957641601562,5356.25390625,True
1599558539.175487,0.0,10,0.5,0.5,-0.3640459079742432,-0.001,-0.00825,-0.001,1.4831189727231995,10,1,100,0.6690784014483029,-10,-1,-100,15015.771536126616,-0.06931917830998445,0.11925049454953006,0.9904414021375122,23.104663281878697,0.024797739996444232,46.6760966221287,-17.75752512763525,165.47711181640625,5356.25390625,True
1599558539.2083995,0.0,10,0.5,0.5,-0.5171711017608643,-0.001,-0.00825,-0.001,1.509147074370241,10,1,100,0.6879652832722714,-10,-1,-100,15015.070797441644,-0.06857715748377148,0.12119855500032661,0.9902565747003547,25.228185398238388,0.027920771845438848,52.03940118760961,-18.128964084920536,152.27828979492188,5356.25390625,True
1599558539.245301,0.0,10,0.5,0.5,-0.6725890193939209,-0.001,-0.00825,-0.001,1.5129828261804108,10,1,100,0.7253800544524196,-10,-1,-100,15014.312506553018,-0.06825486879489881,0.12296217807615753,0.9900613999386899,27.353518144047147,0.03139520683469165,57.586917438312085,-18.500314806318425,138.99728393554688,5356.25390625,True
1599558539.276219,0.0,10,0.5,0.5,-0.8172619449615479,-0.001,-0.00825,-0.001,1.6575718801282178,10,1,100,0.7710456496925484,-10,-1,-100,15013.20992933237,-0.06838991386390199,0.1258437416903363,0.9896899374850002,28.69987383083689,0.03419084116696305,62.25234996746857,-19.057236883327064,118.86019897460938,5356.25390625,True
1599558539.3440382,0.0,10,0.5,0.5,-0.9884020557403564,-0.001,-0.00825,-0.001,1.4876020132578955,10,1,100,0.7797286289044365,-10,-1,-100,15012.821635302156,-0.06860406850940767,0.12688424300981163,0.9895422530947244,28.67628828656297,0.0343469069905751,62.81124481687883,-19.242872355992304,112.07846069335938,5356.25390625,True
1599558539.380939,0.0,10,0.5,0.5,-1.1237088584899904,-0.001,-0.00825,-0.001,1.9229879271191799,10,1,100,0.922136993385362,-10,-1,-100,15011.223947706749,-0.07010307293935268,0.13176418098087947,0.988799150371246,26.239884469575994,0.031576103386129775,59.71026014139233,-19.985530380716867,84.46743774414062,5356.25390625,True
1599558539.4437704,0.0,10,0.5,0.5,-1.2942595222473143,-0.001,-0.00825,-0.001,1.766245128345117,10,1,100,0.8812162549498208,-10,-1,-100,15010.439056030358,-0.07110064502386512,0.13475074968391035,0.9883253177657723,23.794274958569368,0.0291129931138991,55.16002848249407,-20.356938085120124,70.31402587890625,5356.25390625,True
1599558539.4776807,0.0,10,0.5,0.5,-1.4693932037353516,-0.001,-0.00825,-0.001,1.6532173895067563,10,1,100,0.8411000663376422,-10,-1,-100,15009.996394610498,-0.07164636769567256,0.13641547401468063,0.9880574965280949,25.463606776787156,0.03166131740070488,59.57290742220369,-20.54261973479001,63.13880920410156,5356.25390625,True
1599558539.5135832,0.0,10,0.5,0.5,-1.5872358257293702,-0.001,-0.00825,-0.001,2.347104878373533,10,1,100,1.0021422323644331,-10,-1,-100,15008.369827456656,-0.07360953437749172,0.14421260123677818,0.9868051287327456,29.990079212039948,0.03987390310569784,72.71992022755185,-21.2851109921142,33.766937255859375,5356.25390625,True
1599558539.5425067,0.0,10,0.5,0.5,-1.7886483959197998,-0.001,-0.00825,-0.001,1.5701857236011207,10,1,100,0.8060893305716428,-10,-1,-100,15008.369827456656,-0.07360953437749172,0.14421260123677818,0.9868051287327456,29.990079212039948,0.03987390310569784,72.71992022755185,-21.2851109921142,33.766937255859375,5356.25390625,True
1599558539.5764155,0.0,10,0.5,0.5,-1.623640288925171,-0.001,-0.00825,-0.001,2.343150355395051,10,1,100,0.9031192965914979,-10,-1,-100,15007.073969701887,-0.07448864818366442,0.15121509997386318,0.9856903341474262,30.331142967797202,0.04110107364819173,75.48788109732247,-21.841906129775374,11.031097412109375,5356.25390625,True
1599558539.647226,0.0,10,0.5,0.5,-1.487967444229126,-0.001,-0.00825,-0.001,2.2033368548752277,10,1,100,0.8246821000797269,-10,-1,-100,15006.164006255334,-0.07457007761201107,0.1562809173615563,0.9848936888789414,29.13628801223292,0.03966259545131258,73.75924963567803,-22.213170890176322,-4.464263916015625,5356.25390625,True
1599558539.6831307,0.0,10,0.5,0.5,-1.3584521396636964,-0.001,-0.00825,-0.001,1.9922653116588502,10,1,100,0.8015041517651409,-10,-1,-100,15005.709057867993,-0.07442794763480429,0.15893548062807278,0.9844795546929324,28.040375403559544,0.03839105029644285,71.58465549777652,-22.39883029786727,-12.31329345703125,5356.25390625,True
1599558539.7499511,0.0,10,0.5,0.5,-1.17731491355896,-0.001,-0.00825,-0.001,2.9250249797489287,10,1,100,0.5992747715448556,-10,-1,-100,15003.887364883674,-0.07245467776366835,0.1697956503052231,0.9828121676127078,30.124600298643536,0.044304431169952675,79.4824724915509,-23.14137718113305,-44.39080810546875,5356.25390625,True
1599558539.796827,0.0,10,0.5,0.5,-1.0251550495147705,-0.001,-0.00825,-0.001,2.718856479453397,10,1,100,0.46984361292631177,-10,-1,-100,15002.453061118023,-0.06948045392619458,0.17775431645575046,0.9816190042493874,32.23383873910999,0.04981699622069431,87.11390176717282,-23.698040563257532,-69.16845703125,5356.25390625,True
1599558539.847691,0.0,10,0.5,0.5,-0.8666767574310303,-0.001,-0.00825,-0.001,2.473263586114022,10,1,100,0.48829093802664847,-10,-1,-100,15001.528252130374,-0.06694352031538804,0.18271055931364835,0.9808850170142659,31.76593191288427,0.049850669861621316,87.20825783692092,-24.069155710765518,-86.03207397460938,5356.25390625,True
1599558539.9244866,0.0,10,0.5,0.5,-0.6912480739593506,-0.001,-0.00825,-0.001,2.7220944481191753,10,1,100,0.2537355663560396,-10,-1,-100,15000.035708389012,-0.06250776779276199,0.18943201849511804,0.9799021835542727,28.36051505632591,0.045544045590195446,79.68268188999829,-24.62597268338556,-111.84717559814453,5356.25390625,True
1599558540.0132482,0.0,10,0.5,0.5,-0.5139361139297486,-0.001,-0.00825,-0.001,2.6850684757393446,10,1,100,0.17049008547295474,-10,-1,-100,14998.531016816618,-0.05772630010710217,0.19515612593953638,0.9790718874445413,30.76855774120967,0.052417001605446746,88.42646452263683,-25.1827436575599,-138.2692108154297,5356.25390625,True
1599558540.0870519,0.0,10,0.5,0.5,-1.0038747858047485,-0.001,-0.00825,-0.001,2.975364173509327,10,1,100,-0.18368282450808082,-10,-1,-100,14995.975338242599,-0.050172412181755256,0.20294551118516665,0.9779038033189439,32.81403694895224,0.059624105002923686,97.82047980180688,-26.110328837650414,176.56991577148438,5356.25390625,True
1599558540.1458936,0.0,10,0.5,0.5,-0.7144232507705688,-0.001,-0.00825,-0.001,2.9708432084108414,10,1,100,-0.12201740055421573,-10,-1,-100,14993.279071075958,-0.04388714257847114,0.20993227726216396,0.9767304426912364,31.497157039961987,0.06180206996692006,97.2789200800768,-27.03815143653508,130.35748291015625,5356.25390625,True
1599558540.2441838,0.0,10,0.5,0.5,-0.8027302629470825,-0.001,-0.00825,-0.001,2.610140099213402,10,1,100,0.24417229983122313,-10,-1,-100,14992.211143590277,-0.04152927875335232,0.2129450184521617,0.9761812014798457,33.929271792091534,0.06922593182597764,106.24626881696102,-27.409103921646693,111.56117248535156,5356.25390625,True
1599558540.3189824,0.0,10,0.5,0.5,-0.8086528806686402,-0.001,-0.00825,-0.001,3.2359669705068415,10,1,100,-0.19930057588355293,-10,-1,-100,14989.43029341253,-0.03538415765077389,0.22131709116530157,0.9745597501156482,31.11636665225453,0.06703640602944357,100.78334866393969,-28.336583609960293,63.655670166015625,5356.25390625,True
1599558540.4117343,0.0,10,0.5,0.5,-0.8540660444259643,-0.001,-0.00825,-0.001,3.033176324671433,10,1,100,-0.0684922690795492,-10,-1,-100,14987.715600436088,-0.031022473910249208,0.2270253912389216,0.9733946156853872,32.56714537444755,0.07429204240808397,107.58529391490246,-28.89313362302669,34.310028076171875,5356.25390625,True
1599558540.481069,0.0,10,0.5,0.5,-0.8218800161361696,-0.001,-0.00825,-0.001,3.498468724586597,10,1,100,-0.6649609986130827,-10,-1,-100,14984.742491867626,-0.021674323399216967,0.23638278593179507,0.9714182426845346,34.835914612303746,0.08505704469077685,118.82889783831853,-29.820316866100505,-15.68792724609375,5356.25390625,True
1599558540.5454156,0.0,10,0.5,0.5,-0.8342026845932007,-0.001,-0.00825,-0.001,3.11464441549208,10,1,100,-0.48765455958803944,-10,-1,-100,14982.942678556312,-0.014834045429746643,0.2413396627193421,0.9703273253365086,30.599590251628307,0.07826220527623448,106.36095267161825,-30.376822808386876,-46.365509033203125,5356.25390625,True
1599558540.5843105,0.0,10,0.5,0.5,-0.8212777204513549,-0.001,-0.00825,-0.001,3.056373228658801,10,1,100,-0.6036816489886158,-10,-1,-100,14981.086688420619,-0.0076104977434015165,0.2452583714220245,0.9694278784785972,35.945111057386555,0.09759829146718405,127.26391240706187,-30.9330503715395,-77.572998046875,5356.25390625,True
1599558540.6476574,0.0,10,0.5,0.5,-0.7960092046737672,-0.001,-0.00825,-0.001,2.99110124409783,10,1,100,-0.686547292884913,-10,-1,-100,14979.234969447018,-0.00034425128636868604,0.24817059055381024,0.9687162843037298,35.546724208102226,0.10011824470588394,128.15355200754524,-31.489228583208547,-109.30036926269531,5356.25390625,True
1599558540.7443986,0.0,10,0.5,0.5,-0.7653478534698487,-0.001,-0.00825,-0.001,2.933792687858928,10,1,100,-0.7075044100864739,-10,-1,-100,14977.307592855068,0.006395434270487719,0.25024367691502664,0.968161763645177,30.76190034855999,0.09062708019139994,112.89906246017338,-32.04561024690492,-141.5452880859375,5356.25390625,True
1599558540.8201973,0.0,10,0.5,0.5,-1.4052004943847656,-0.001,-0.00825,-0.001,3.048506458184584,10,1,100,-1.1152107030427576,-10,-1,-100,14974.036204580101,0.016170549499616493,0.2531210737454789,0.9672994548508835,36.86246725837013,0.11725763849869626,139.2662901022903,-32.972417720015486,163.60995483398438,5356.25390625,True
1599558540.8959937,0.0,10,0.5,0.5,-1.022274578857422,-0.001,-0.00825,-0.001,2.9928034975682216,10,1,100,-0.7279294541606605,-10,-1,-100,14972.028075384791,0.021475967480185976,0.25518488434705006,0.966653742361541,32.29269801769466,0.1070599080092498,124.10153158254766,-33.528663633840324,130.0706024169922,5356.25390625,True
1599558540.9658062,0.0,10,0.5,0.5,-0.9645731349945068,-0.001,-0.00825,-0.001,3.174214729784138,10,1,100,-1.0346288485066495,-10,-1,-100,14969.33381902834,0.02902783003834117,0.258669130089455,0.9655297334738221,37.805940040762636,0.13416486035478126,148.55598938208763,-34.26998531094878,84.56854248046875,5356.25390625,True
1599558541.025646,0.0,10,0.5,0.5,-0.9181686408996583,-0.001,-0.00825,-0.001,3.148008974688517,10,1,100,-0.9993709712051799,-10,-1,-100,14967.216442567063,0.035508490653203724,0.26155682470746544,0.964534693279863,35.33796240603391,0.129882933049377,141.15647644473626,-34.82600880647368,49.749725341796875,5356.25390625,True
1599558541.1124148,0.0,10,0.5,0.5,-0.8706585472106934,-0.001,-0.00825,-0.001,3.133432284829385,10,1,100,-1.1919150595925068,-10,-1,-100,14965.122531809378,0.0430859532445054,0.2640129046946263,0.9635563225819851,35.85499486237916,0.13860461503355198,145.55196445985612,-35.382074303699106,14.32147216796875,5356.25390625,True
1599558541.1543024,0.0,10,0.5,0.5,-0.817541798400879,-0.001,-0.00825,-0.001,3.0546229595772862,10,1,100,-1.3642364837728087,-10,-1,-100,14962.990063671721,0.05147374270445989,0.26549563125933917,0.9627369960660078,38.565529856210716,0.15509802930223426,159.05896675365193,-35.937869550854685,-21.70574951171875,5356.25390625,True
1599558541.2111492,0.0,10,0.5,0.5,-0.7507201614379884,-0.001,-0.00825,-0.001,2.889791701784252,10,1,100,-1.8090193170221358,-10,-1,-100,14960.105062704999,0.06307598791022724,0.2653186322970255,0.9620953399248875,34.588223539050155,0.14741325276953582,145.6605291134924,-36.67917436995759,-70.6478271484375,5356.25390625,True
1599558541.2440622,0.0,10,0.5,0.5,-0.7548447807312013,-0.001,-0.00825,-0.001,2.8625933735169506,10,1,100,-0.9656625912512788,-10,-1,-100,14959.353268678184,0.06588577692360797,0.26488866755651247,0.9620254976866818,36.9874212494116,0.16029343190612885,156.56432363033582,-36.86442429529279,-83.04010009765625,5356.25390625,True
1599558541.2819614,0.0,10,0.5,0.5,-0.6876735633850098,-0.001,-0.00825,-0.001,2.6870488076697763,10,1,100,-1.5578355546149676,-10,-1,-100,14957.07779353729,0.07375670635301762,0.26288408510640404,0.9620041091729928,38.479009805457686,0.1730518862851773,165.37864388378236,-37.42010828303717,-120.56666564941406,5356.25390625,True
1599558541.34679,0.0,10,0.5,0.5,-0.6653294151306153,-0.001,-0.00825,-0.001,2.699730312084799,10,1,100,-1.291946811466519,-10,-1,-100,14955.591077910387,0.0784275618441865,0.2611636479241215,0.9621032514996204,35.216336402581916,0.1623040100697927,152.8883357822298,-37.790699946658755,-145.85467529296875,5356.25390625,True
1599558541.3806965,0.0,10,0.5,0.5,-1.3304674537658694,-0.001,-0.00825,-0.001,2.579728097785522,10,1,100,-1.5067985167624087,-10,-1,-100,14953.300321146497,0.08456150767741749,0.25849875765477204,0.9623033532677007,37.80101159310621,0.18205227600687143,166.56721956372303,-38.346479515426715,175.84796142578125,5356.25390625,True
1599558541.422586,0.0,10,0.5,0.5,-0.9931450469970704,-0.001,-0.00825,-0.001,2.7551736843249506,10,1,100,-1.1050560326903118,-10,-1,-100,14952.5637905302,0.08642344407226496,0.2576662012112589,0.9623612196405501,38.860740080621994,0.18930705134351966,172.07875416572426,-38.53167047685648,162.98989868164062,5356.25390625,True
1599558541.4794335,0.0,10,0.5,0.5,-0.9553916316986084,-0.001,-0.00825,-0.001,2.600853411305872,10,1,100,-1.510314680960057,-10,-1,-100,14950.20411619218,0.091741239891313,0.25550416440165147,0.9624454098163794,36.447932019609,0.18353823744658648,163.77407671266647,-39.087388055195014,124.10494995117188,5356.25390625,True
1599558541.5163345,0.0,10,0.5,0.5,-0.9744131595611573,-0.001,-0.00825,-0.001,2.68901445406596,10,1,100,-1.376705666816686,-10,-1,-100,14948.647598287906,0.09530396013473241,0.25434301765954354,0.9624067666794922,35.89022429870183,0.1860778772601554,162.82747720600062,-39.4579068658419,97.86447143554688,5356.25390625,True
1599558541.5781689,0.0,10,0.5,0.5,-0.9606441715240478,-0.001,-0.00825,-0.001,2.632508085132297,10,1,100,-1.662177717027581,-10,-1,-100,14946.217538830824,0.10108363765841136,0.2527802934555466,0.9622287781179022,39.26585186986708,0.2107249575833023,180.6965149083201,-40.01340424079642,58.01240539550781,5356.25390625,True
1599558541.617065,0.0,10,0.5,0.5,-0.9827527137756348,-0.001,-0.00825,-0.001,2.658441992985491,10,1,100,-1.5593007252371298,-10,-1,-100,14944.591115547344,0.10534991940510274,0.25160560935170484,0.9620790049804099,36.69015375568739,0.20115572719205788,170.44263041127724,-40.38384360086062,31.118133544921875,5356.25390625,True
1599558541.6869593,0.0,10,0.5,0.5,-0.971534733581543,-0.001,-0.00825,-0.001,2.50584019458819,10,1,100,-1.9022140207514342,-10,-1,-100,14942.162028574967,0.11229677260976982,0.2491630529281529,0.9619288996162617,38.231669615851125,0.2178428136314971,180.0942637512136,-40.939453542715434,-9.72784423828125,5356.25390625,True
1599558541.7797213,0.0,10,0.5,0.5,-1.0074966918945312,-0.001,-0.00825,-0.001,2.4958977333465002,10,1,100,-1.7395245828528276,-10,-1,-100,14940.535117705003,0.1170883526470257,0.2468668479676075,0.9619496229267642,39.558673228272404,0.22986097614700032,188.06415725586683,-41.30972593479258,-37.299346923828125,5356.25390625,True
1599558541.8226068,0.0,10,0.5,0.5,-0.9608516029357911,-0.001,-0.00825,-0.001,2.025315251277104,10,1,100,-2.2604219004525614,-10,-1,-100,14937.215542205377,0.1261332168629619,0.24051774982065252,0.9624144760055362,36.837522778673346,0.2243047981335715,178.33620103427938,-42.05048986314011,-93.27570343017578,5356.25390625,True
1599558541.879455,0.0,10,0.5,0.5,-0.9251984872817993,-0.001,-0.00825,-0.001,1.784215368729591,10,1,100,-2.1482164327029523,-10,-1,-100,14933.766426302376,0.13328815597926202,0.23257435833233947,0.9634020112714882,37.68495551292913,0.23837566984918213,185.7166485568707,-42.790992912052275,-150.34796142578125,5356.25390625,True
1599558541.9173543,0.0,10,0.5,0.5,-0.9206821924209595,-0.001,-0.00825,-0.001,2.1265309214842296,10,1,100,-1.7369615604202542,-10,-1,-100,14932.054745864938,0.13600409216047846,0.22849104317672594,0.9639993413398247,34.76770584941518,0.22480553485486957,172.8540039173141,-43.161371818043605,-179.28875732421875,5356.25390625,True
1599558541.9791877,0.0,10,0.5,0.5,-1.288854433631897,-0.001,-0.00825,-0.001,1.8969932890345653,10,1,100,-1.8297006704419279,-10,-1,-100,14929.4653393263,0.13926944188497856,0.22271951248069674,0.964883434056885,39.14761389885276,0.25999307713146613,197.18120246159103,-43.71667491624583,136.82086181640625,5356.25390625,True
1599558542.017087,0.0,10,0.5,0.5,-0.8622743165969851,-0.001,-0.00825,-0.001,1.901647629629856,10,1,100,-1.8233987985916666,-10,-1,-100,14926.809011972859,0.14213261007423744,0.21754674829765516,0.9656457598201327,34.26001125032383,0.23418126574967044,174.8050411447305,-44.27214813130088,92.38034057617188,5356.25390625,True
1599558542.0839078,0.0,10,0.5,0.5,-0.8206751832962037,-0.001,-0.00825,-0.001,2.0595653230081785,10,1,100,-1.7613209875982148,-10,-1,-100,14925.041361423791,0.14412533617345694,0.2143143575402421,0.9660731047001574,38.77237259023738,0.26994820654230667,199.51248298417678,-44.642320775772326,62.44691467285156,5356.25390625,True
1599558542.146739,0.0,10,0.5,0.5,-0.7306311902999879,-0.001,-0.00825,-0.001,1.833261100678451,10,1,100,-1.9338872122234152,-10,-1,-100,14922.317374914302,0.14746130614566855,0.20935489906697755,0.9666569657466236,36.70536815157286,0.26166944621679156,191.2783059173366,-45.197632841815505,17.067947387695312,5356.25390625,True
1599558542.1821623,0.0,10,0.5,0.5,-0.6504110029220582,-0.001,-0.00825,-0.001,1.7029342854419953,10,1,100,-1.9996636752158101,-10,-1,-100,14919.588327192701,0.1510498124489852,0.20370098885675886,0.9673106333013738,38.426673980874554,0.2812164356381709,202.756566286611,-45.752962000121485,-28.842041015625,5356.25390625,True
1599558542.222055,0.0,10,0.5,0.5,-0.5850687520980836,-0.001,-0.00825,-0.001,1.785941299863429,10,1,100,-1.89270518335695,-10,-1,-100,14917.75297575153,0.1532981956232435,0.19935922936084122,0.9678613335015037,38.605181459175824,0.2865171972379079,205.3827789835647,-46.1230972223572,-59.734588623046875,5356.25390625,True
1599558542.2814126,0.0,10,0.5,0.5,-0.5125210432052613,-0.001,-0.00825,-0.001,1.6894852925658328,10,1,100,-1.8788198939417475,-10,-1,-100,14915.89964990539,0.1551786764024188,0.19458057868327186,0.9685339316664524,34.4852282636713,0.2603439792615301,184.97047086970565,-46.49335376286919,-90.82693481445312,5356.25390625,True
1599558542.465921,0.0,10,0.5,0.5,-0.40551135692596435,-0.001,-0.00825,-0.001,1.3189450900486899,10,1,100,-1.8879117607201303,-10,-1,-100,14913.10235205642,0.15693623015078584,0.18691533647103872,0.9697595973528583,38.62642897193776,0.2980049805331007,209.70470500528262,-47.0485209970618,-137.79782104492188,5356.25390625,True
1599558542.5317438,0.0,10,0.5,0.5,-1.0094862983703612,-0.001,-0.00825,-0.001,0.9777483191262646,10,1,100,-1.7339027127747682,-10,-1,-100,14909.272980364272,0.15710592129226364,0.17689387510003166,0.9716101514738323,36.171447338195534,0.2870180277552183,199.5341111487857,-47.788914515622785,159.069580078125,5356.25390625,True
1599558542.6105325,0.0,10,0.5,0.5,-0.8725930198669434,-0.001,-0.00825,-0.001,1.2444054558903348,10,1,100,-1.6125344678939604,-10,-1,-100,14906.389441974228,0.15613518577167884,0.17025823008172797,0.9729511492636619,37.382122314916124,0.30183007255557376,208.66110485729956,-48.34406437262199,111.42190551757812,5356.25390625,True
1599558542.6913211,0.0,10,0.5,0.5,-1.0317108108520507,-0.001,-0.00825,-0.001,1.054613571719177,10,1,100,-1.5464943700565126,-10,-1,-100,14902.476257461589,0.1546340334147966,0.1625533836754368,0.9745074207852589,37.9167643295361,0.3139417219176166,214.95592555075157,-49.084335719754094,47.23881530761719,5356.25390625,True
1599558542.7601342,0.0,10,0.5,0.5,-0.8919778789520264,-0.001,-0.00825,-0.001,0.9862513263760715,10,1,100,-1.5799202553074818,-10,-1,-100,14898.507989704725,0.1535592533276126,0.15498219937460322,0.9759098696060394,35.34307865169808,0.2993919748761434,203.45756380244467,-49.8246186336123,-17.7666015625,5356.25390625,True
1599558542.8508902,0.0,10,0.5,0.5,-0.7679304889678955,-0.001,-0.00825,-0.001,1.0410583693459086,10,1,100,-1.5793048087586627,-10,-1,-100,14895.48267034418,0.15256619769495303,0.14865442726350125,0.977049341935127,37.34426594207045,0.3210187300331538,217.42824348910457,-50.37969866865605,-66.85739135742188,5356.25390625,True
1599558542.914721,0.0,10,0.5,0.5,-0.5460156059265138,-0.001,-0.00825,-0.001,0.41023615107831746,10,1,100,-1.252739413062607,-10,-1,-100,14890.399441420217,0.148686970012097,0.1372268505694093,0.9793165864169885,37.21132038296168,0.32796671253855225,220.72655625828548,-51.30492024205034,-149.02220153808594,5356.25390625,True
1599558543.018443,0.0,10,0.5,0.5,-1.112516303253174,-0.001,-0.00825,-0.001,0.8492130961702987,10,1,100,-1.1933619779793743,-10,-1,-100,14887.306505711284,0.14461949028704718,0.13089441493788698,0.9807914432575271,35.00828651029541,0.3129311206355585,209.96116040761885,-51.86011713246947,161.65792846679688,5356.25390625,True
1599558543.0832694,0.0,10,0.5,0.5,-0.7950113433837892,-0.001,-0.00825,-0.001,0.5345312464409859,10,1,100,-0.7093729881733102,-10,-1,-100,14882.064165191608,0.1365277272861849,0.12234309897889008,0.9830525651328674,34.61308112788673,0.3158117845430925,211.38876339995142,-52.78529755541386,79.66427612304688,5356.25390625,True
1599558543.1510873,0.0,10,0.5,0.5,-0.8608486587524414,-0.001,-0.00825,-0.001,0.7928855059408504,10,1,100,-0.8440402328737514,-10,-1,-100,14877.78694806504,0.13041107266298416,0.11698786513014799,0.9845337940056603,35.25170693815371,0.32640149952627495,218.38749191241453,-53.52536360584463,14.084075927734375,5356.25390625,True
1599558543.2144318,0.0,10,0.5,0.5,-0.9144703720092774,-0.001,-0.00825,-0.001,0.8979253040514138,10,1,100,-0.959913563180564,-10,-1,-100,14874.55388192262,0.12592638746626308,0.11314491680825405,0.9855662193582682,36.98700553358868,0.346362837407882,231.57682056572745,-54.08043431215841,-35.17095947265625,5356.25390625,True
1599558543.2533278,0.0,10,0.5,0.5,-0.9498562522888183,-0.001,-0.00825,-0.001,0.8173013132744333,10,1,100,-0.8841028446133767,-10,-1,-100,14871.307991073234,0.12118840333925543,0.10898544607188954,0.9866283714958702,34.187505503217224,0.3235549897231019,216.30978276505223,-54.635498312670464,-84.43911743164062,5356.25390625,True
1599558543.2927377,0.0,10,0.5,0.5,-0.7325086654663087,-0.001,-0.00825,-0.001,0.9223240290176393,10,1,100,-0.9503432718879515,-10,-1,-100,14869.105827731197,0.11751598303352007,0.1062205959356129,0.987373879911125,36.984560985236634,0.3525377189331862,235.63533309112887,-55.0054831123862,-117.29965209960938,5356.25390625,True
1599558543.3515813,0.0,10,0.5,0.5,-0.5109294998168944,-0.001,-0.00825,-0.001,0.9100296176251879,10,1,100,-0.8632315126473837,-10,-1,-100,14866.889910625876,0.11342060240133563,0.10365354446647194,0.9881253511930839,36.40487775807783,0.34910202920778616,233.54877454993894,-55.37545547042074,-150.17185974121094,5356.25390625,True
1599558543.4184034,0.0,10,0.5,0.5,-1.0023477210998535,-0.001,-0.00825,-0.001,0.8178395055604595,10,1,100,-0.5038241610966073,-10,-1,-100,14863.571471630363,0.10646765629526404,0.10053531469321807,0.9892205460171808,37.00301731507891,0.3584669196736386,239.83576471976153,-55.93046973028825,160.53305053710938,5356.25390625,True
1599558543.4802372,0.0,10,0.5,0.5,-0.7731352264404296,-0.001,-0.00825,-0.001,0.9729357156902518,10,1,100,-0.650035436402349,-10,-1,-100,14861.28549460962,0.10151880015346239,0.099160023068423,0.9898793982301436,37.15306459467686,0.3619438420021274,242.45136957031377,-56.30039719882833,127.73065185546875,5356.25390625,True
1599558543.5131495,0.0,10,0.5,0.5,-0.8354560676574707,-0.001,-0.00825,-0.001,0.9943756459879793,10,1,100,-0.037093860283565094,-10,-1,-100,14856.783654151135,0.09149405060305511,0.09814966132512963,0.9909568520808603,38.53995058400344,0.38039645041495307,254.91284295688743,-57.040257468046654,62.22230529785156,5356.25390625,True
1599558543.5510476,0.0,10,0.5,0.5,-1.0752411323547364,-0.001,-0.00825,-0.001,1.0915041013928888,10,1,100,-1.0338495233833882,-10,-1,-100,14856.783654151135,0.09149405060305511,0.09814966132512963,0.9909568520808603,38.53995058400344,0.38039645041495307,254.91284295688743,-57.040257468046654,62.22230529785156,5356.25390625,True
1599558543.61388,0.0,10,0.5,0.5,-0.8620615711212158,-0.001,-0.00825,-0.001,1.1794375841615434,10,1,100,-0.030092002926456307,-10,-1,-100,14852.158793171286,0.082417278089523,0.09897882458085627,0.991670602850012,38.428539391560065,0.3843169006965284,257.5861285584129,-57.780063292647284,-3.35028076171875,5356.25390625,True
1599558543.651778,0.0,10,0.5,0.5,-0.7607116008758545,-0.001,-0.00825,-0.001,1.161512639231865,10,1,100,-0.2332982198590985,-10,-1,-100,14848.704662259319,0.07606218727587842,0.09959089556342708,0.9921170279698277,38.746809547371775,0.39103714131838263,262.3039030634024,-58.33475870448645,-52.56805419921875,5356.25390625,True
1599558543.6903088,0.0,10,0.5,0.5,-0.6892942722320557,-0.001,-0.00825,-0.001,1.1627204346625408,10,1,100,-0.44143940401189613,-10,-1,-100,14846.34954355401,0.07222643265157888,0.10017411911474007,0.9923449442033817,39.230432185391585,0.3990847242417275,267.32355276506996,-58.70461176932632,-85.3916015625,5356.25390625,True
1599558543.7471564,0.0,10,0.5,0.5,-0.6150523212432862,-0.001,-0.00825,-0.001,1.144913976205491,10,1,100,-0.37710261598317923,-10,-1,-100,14843.994422900141,0.06820332124269522,0.10055423708240917,0.9925911305145944,41.08450123819396,0.4206807540778865,281.7857881391399,-59.07430332207585,-118.20833587646484,5356.25390625,True
1599558543.781066,0.0,10,0.5,0.5,-0.5544405263900757,-0.001,-0.00825,-0.001,1.1639780607903458,10,1,100,-0.3106433625552987,-10,-1,-100,14841.584615107626,0.06398994045990804,0.10108077346650655,0.9928181932032423,38.20792662594846,0.3939349903816128,263.7632476313511,-59.444097869651706,-150.9927978515625,5356.25390625,True
1599558543.821957,0.0,10,0.5,0.5,-1.2139477354049684,-0.001,-0.00825,-0.001,1.1932693443925757,10,1,100,-0.24470418062018312,-10,-1,-100,14839.229544546572,0.0596088072239401,0.10183039986886,0.9930142797381554,41.478179669087496,0.43112563915748414,288.18823493367086,-59.81379780769435,176.26699829101562,5356.25390625,True
1599558543.8793182,0.0,10,0.5,0.5,-1.0906256990432739,-0.001,-0.00825,-0.001,1.2385601430561435,10,1,100,-0.17387152738092637,-10,-1,-100,14836.804286488215,0.05503094543013728,0.10292527035393885,0.9931656376293101,42.112372917737524,0.4405007521954019,294.47778771141856,-60.18340978748509,143.57984924316406,5356.25390625,True
1599558543.9142246,0.0,10,0.5,0.5,-1.01134925365448,-0.001,-0.00825,-0.001,1.4143108637346664,10,1,100,0.14204019520733746,-10,-1,-100,14833.195602625608,0.048044088785755154,0.1055161682959419,0.9932563132247834,42.605229830206646,0.4514818580332638,300.787108164434,-60.737912506273474,94.59124755859375,5356.25390625,True
1599558543.9501274,0.0,10,0.5,0.5,-0.9675733777999878,-0.001,-0.00825,-0.001,1.4189980345299877,10,1,100,-0.05792818430536151,-10,-1,-100,14830.71722407767,0.04355890866040295,0.10790836239114986,0.9932061250326514,44.095086830753736,0.47061070484590706,313.2815295289801,-61.10740567746829,61.87901306152344,5356.25390625,True
1599558544.0124595,0.0,10,0.5,0.5,-0.9672617040634156,-0.001,-0.00825,-0.001,1.3365995607521464,10,1,100,-0.26125745746658957,-10,-1,-100,14829.533800068777,0.04137349752240543,0.10932513571511669,0.9931446261263437,42.811063938713986,0.45860108887530054,305.1230360312583,-61.29219754507492,45.5086669921875,5356.25390625,True
1599558544.0463698,0.0,10,0.5,0.5,-0.8715395875930787,-0.001,-0.00825,-0.001,1.7166960261498996,10,1,100,0.16589438193107225,-10,-1,-100,14825.801280026557,0.035549125723411346,0.11405837435471158,0.9928378250751035,45.435175846822474,0.4938344607279865,326.88819593484646,-61.84651129369209,-3.6431884765625,5356.25390625,True
1599558544.0852644,0.0,10,0.5,0.5,-0.8220734514236451,-0.001,-0.00825,-0.001,1.8003014058190439,10,1,100,0.13497169219260824,-10,-1,-100,14822.067157092737,0.030577965042281045,0.11910765879699566,0.9924103756358916,43.76620609598044,0.4817424274494469,317.84629502708947,-62.40065557584175,-52.83135986328125,5356.25390625,True
