Timestamp,Input Throttle,horizon,dT,dt,Input Roll,Roll P,Roll I,Roll D,Input Pitch,Pitch P,Pitch I,Pitch D,Input Yaw,Yaw P,Yaw I,Yaw D,Altitude,Direction X,Direction Y,Direction Z,Drag X,Drag Y,Drag Z,Vertical Velocity,Roll,Mass,Has Fuel
1599564050.88417,0.0,10,0.5,0.5,-11.641798484802248,-0.2,-0.02275,-0.12575,-0.0002967110319833489,10,1,100,0.17494372653109286,-10,-1,-100,14994.547641578596,-0.01680915076776319,-7.525485617101043e-05,0.9998587134126367,28.576544470228,0.027199664468149393,-86.6927649838353,26.823329803073506,-31.791717529296875,5356.25390625,True
1599564050.934,0.0,10,0.5,0.5,-11.774477980804445,-0.2,-0.02275,-0.12575,-0.00022098277339186324,10,1,100,0.1776842686257447,-10,-1,-100,14995.574012226774,-0.016881076639320796,-7.035402640796186e-05,0.9998575019980639,28.431452401100824,0.0275255789044945,-85.05980109266326,26.45140654546475,-31.790496826171875,5356.25390625,True
1599564050.9894629,0.0,10,0.5,0.5,-11.861876966857912,-0.2,-0.02275,-0.12575,0.007418410745626444,10,1,100,0.18047186757103373,-10,-1,-100,14997.14823606459,-0.016956459170567317,3.6142635735286758e-06,0.9998562289046031,28.21744367724586,0.028005818628158517,-82.643808293482,25.893550994128244,-31.928253173828125,5356.25390625,True
1599564051.0373023,0.0,10,0.5,0.5,-12.011313051605224,-0.2,-0.02275,-0.12575,2.1943173834742394e-05,10,1,100,0.17462926036343832,-10,-1,-100,14997.14823606459,-0.016956459170567317,3.6142635735286758e-06,0.9998562289046031,28.21744367724586,0.028005818628158517,-82.643808293482,25.893550994128244,-31.928253173828125,5356.25390625,True
1599564051.0887194,0.0,10,0.5,0.5,-11.799543707275392,-0.2,-0.02275,-0.12575,0.024315861122455956,10,1,100,0.17975678249938754,-10,-1,-100,14999.202925253892,-0.016987658045284522,0.00022446477741229107,0.9998556741298718,27.989867989969976,0.028659900893138607,-79.62866380639028,25.14979482481004,-32.983917236328125,5356.25390625,True
1599564051.1425385,0.0,10,0.5,0.5,-12.06200505142212,-0.2,-0.02275,-0.12575,0.002253256216320948,10,1,100,0.17833566083219551,-10,-1,-100,14999.202925253892,-0.016987658045284522,0.00022446477741229107,0.9998556741298718,27.989867989969976,0.028659900893138607,-79.62866380639028,25.14979482481004,-32.983917236328125,5356.25390625,True
1599564051.1919162,0.0,10,0.5,0.5,-11.4911970703125,-0.2,-0.02275,-0.12575,0.04820780985863928,10,1,100,0.1694088727930983,-10,-1,-100,15001.134561950224,-0.01689106210125156,0.0006420293879993556,0.9998571297037175,27.83424598797051,0.02928866794657917,-76.85018371131497,24.406090011556813,-35.1343994140625,5356.25390625,True
1599564051.2407868,0.0,10,0.5,0.5,-11.886439445495606,-0.2,-0.02275,-0.12575,0.006515551738732759,10,1,100,0.18075757340651954,-10,-1,-100,15001.134561950224,-0.01689106210125156,0.0006420293879993556,0.9998571297037175,27.83424598797051,0.02928866794657917,-76.85018371131497,24.406090011556813,-35.1343994140625,5356.25390625,True
1599564051.2886589,0.0,10,0.5,0.5,-11.526759243774416,-0.2,-0.02275,-0.12575,0.038128430241407454,10,1,100,0.17175010526379256,-10,-1,-100,15002.101354736136,-0.016793820516225633,0.0009288355294891262,0.9998585424233911,27.773657664830036,0.029563394843252794,-75.517468402098,24.034255029380677,-36.621734619140625,5356.25390625,True
1599564051.336533,0.0,10,0.5,0.5,-10.597560115814211,-0.2,-0.02275,-0.12575,0.08620380077006567,10,1,100,0.146689037446262,-10,-1,-100,15004.030053951312,-0.016462324076482487,0.0016257728124408205,0.9998631650124749,27.65544786988922,0.02994935881841108,-72.87489942117892,23.29061843911842,-40.421173095703125,5356.25390625,True
1599564051.3874342,0.0,10,0.5,0.5,-10.43495375366211,-0.2,-0.02275,-0.12575,0.06127238489294452,10,1,100,0.15562461520368426,-10,-1,-100,15004.93239019229,-0.016227230452623028,0.002031224950048131,0.9998662666162109,27.581402688509705,0.03001966332866493,-71.52222053793813,22.91881749551884,-42.733306884765625,5356.25390625,True
1599564051.4392955,0.0,10,0.5,0.5,-10.700812461853028,-0.2,-0.02275,-0.12575,0.02093781911283536,10,1,100,0.17907578555811615,-10,-1,-100,15004.93239019229,-0.016227230452623028,0.002031224950048131,0.9998662666162109,27.581402688509705,0.03001966332866493,-71.52222053793813,22.91881749551884,-42.733306884765625,5356.25390625,True
1599564051.4871285,0.0,10,0.5,0.5,-9.833091137695314,-0.2,-0.02275,-0.12575,0.06757790984572978,10,1,100,0.14727493365967453,-10,-1,-100,15005.833747586701,-0.015938726204625102,0.002453315248550393,0.999869960670519,27.484307578646742,0.029978599338230567,-70.11690979520247,22.547029304154716,-45.320648193359375,5356.25390625,True
1599564051.9391441,0.0,10,0.5,0.5,-8.695856646728517,-0.2,-0.02275,-0.12575,0.10315578112418594,10,1,100,0.11849840749539749,-10,-1,-100,15007.156972454046,-0.015415770044011689,0.0031582418942793446,0.999876182105608,27.270707766653864,0.02966104845107513,-67.8551040866455,21.98937443501263,-49.717041015625,5356.25390625,True
1599564051.9910073,0.0,10,0.5,0.5,-8.141444054412842,-0.2,-0.02275,-0.12575,0.08693067455467204,10,1,100,0.12459632585649112,-10,-1,-100,15008.059303716407,-0.014997191600488124,0.003648715487373078,0.9998808784647252,27.06408187811487,0.02925102503535816,-66.20508697960665,21.61762616317409,-52.991912841796875,5356.25390625,True
1599564052.03688,0.0,10,0.5,0.5,-6.739338408660889,-0.2,-0.02275,-0.12575,0.11923715083647857,10,1,100,0.08599756855013745,-10,-1,-100,15009.321003701887,-0.01426757746399512,0.004385182855738385,0.9998885969970006,26.622352023289654,0.028308223736220186,-63.44860631155226,21.060043581110957,-58.420623779296875,5356.25390625,True
1599564052.0827584,0.0,10,0.5,0.5,-7.364130301666259,-0.2,-0.02275,-0.12575,0.04600648580778046,10,1,100,0.15868697414130895,-10,-1,-100,15009.321003701887,-0.01426757746399512,0.004385182855738385,0.9998885969970006,26.622352023289654,0.028308223736220186,-63.44860631155226,21.060043581110957,-58.420623779296875,5356.25390625,True
1599564052.1336217,0.0,10,0.5,0.5,-6.02012322692871,-0.2,-0.02275,-0.12575,0.10103664817046115,10,1,100,0.09751260945330972,-10,-1,-100,15010.157903655083,-0.01371383186195627,0.004882054192246629,0.9998940425677744,26.21803299398064,0.027458205713480805,-61.38482852381641,20.688353609689134,-62.383880615234375,5356.25390625,True
1599564052.1916287,0.0,10,0.5,0.5,-4.351591403961182,-0.2,-0.02275,-0.12575,0.12977075590809142,10,1,100,0.05066275469000717,-10,-1,-100,15011.354169158381,-0.012787407389744833,0.005591120000501446,0.9999026060519038,25.406645794849222,0.02587611054434377,-57.886209394993976,20.13087703245648,-68.84564208984375,5356.25390625,True
1599564052.238507,0.0,10,0.5,0.5,-3.5753574844360347,-0.2,-0.02275,-0.12575,0.10914562501374431,10,1,100,0.06774624139608608,-10,-1,-100,15012.130520689068,-0.012104149942450135,0.006043985650356295,0.9999084757074664,24.704669997904464,0.02465363514428777,-55.250571302641454,19.759270745380704,-73.49795532226562,5356.25390625,True
1599564052.286887,0.0,10,0.5,0.5,-1.6433830657958985,-0.2,-0.02275,-0.12575,0.13107517027114468,10,1,100,0.015958252124751673,-10,-1,-100,15013.325811252696,-0.011016168882564672,0.00665102464089351,0.9999172005193115,23.36872316576957,0.022666070033638592,-50.79277073050666,19.201936281825645,-80.99374389648438,5356.25390625,True
1599564052.354705,0.0,10,0.5,0.5,-1.6401043807983398,-0.2,-0.02275,-0.12575,0.09167263596422218,10,1,100,0.08206255396027076,-10,-1,-100,15013.685177840642,-0.010632780718964478,0.0068404735934181875,0.9999200727534177,22.84411442366736,0.021989539728023862,-49.17356860177058,19.016178623049377,-83.63021850585938,5356.25390625,True
1599564052.3985875,0.0,10,0.5,0.5,0.8328247879028321,-0.2,-0.02275,-0.12575,0.12658830485254907,10,1,100,-0.008590210825920139,-10,-1,-100,15014.817969079595,-0.009465215844665892,0.007325743041385984,0.9999283690234544,21.11460152072326,0.020092124263238535,-44.12267862573255,18.458962641182385,-91.953857421875,5356.25390625,True
1599564052.4514463,0.0,10,0.5,0.5,0.8409541820526123,-0.2,-0.02275,-0.12575,0.09444334082433649,10,1,100,0.06233252649348727,-10,-1,-100,15015.17440650484,-0.00905443039853448,0.00747024065947038,0.9999311040239961,21.603827533722207,0.020577747449578996,-44.69206046381229,18.273231572994597,-94.86632537841797,5356.25390625,True
1599564052.5012357,0.0,10,0.5,0.5,2.5176878164291385,-0.2,-0.02275,-0.12575,0.10695766360036872,10,1,100,0.014171961550028034,-10,-1,-100,15015.889236601884,-0.008248948802243092,0.00771144870226995,0.9999362421687547,22.602149763903213,0.021708259612729434,-45.809429330967795,17.9017615947247,-100.82261657714844,5356.25390625,True
1599564052.5530999,0.0,10,0.5,0.5,2.834456776618958,-0.2,-0.02275,-0.12575,0.09445935076829162,10,1,100,0.05037178641426957,-10,-1,-100,15016.247629649588,-0.00785191688874243,0.00781341432160077,0.9999386470968162,23.061019501918754,0.022293465303992406,-46.25580892663283,17.716021238430493,-103.76032257080078,5356.25390625,True
1599564052.6059558,0.0,10,0.5,0.5,6.21541650390625,-0.2,-0.02275,-0.12575,0.11730586430773653,10,1,100,-0.09029564014461362,-10,-1,-100,15017.608933632262,-0.006218016417365848,0.008110689342745685,0.9999477751313911,24.376799888123134,0.024315552991157025,-46.84930340386075,16.97302256474928,-114.95672607421875,5356.25390625,True
1599564052.67042,0.0,10,0.5,0.5,6.63125986289978,-0.2,-0.02275,-0.12575,0.0964908452297628,10,1,100,-0.017528234110020816,-10,-1,-100,15018.322790209553,-0.005401492008289462,0.00818832509172584,0.9999518864506816,24.843216615141642,0.025128781902009113,-46.702854607395565,16.601505436636533,-120.16062927246094,5356.25390625,True
1599564052.7222817,0.0,10,0.5,0.5,6.108311138916016,-0.2,-0.02275,-0.12575,0.0890578974216952,10,1,100,0.06329297281225114,-10,-1,-100,15018.322790209553,-0.005401492008289462,0.00818832509172584,0.9999518864506816,24.843216615141642,0.025128781902009113,-46.702854607395565,16.601505436636533,-120.16062927246094,5356.25390625,True
1599564052.77315,0.0,10,0.5,0.5,7.8306747631073,-0.2,-0.02275,-0.12575,0.09571081100455264,10,1,100,-0.019722443005775844,-10,-1,-100,15018.974148009554,-0.004653520878472358,0.008246445028759795,0.9999551694390212,25.165903785010638,0.025718264555913212,-46.25285757666017,16.22998227199357,-125.08963012695312,5356.25390625,True
1599564052.825012,0.0,10,0.5,0.5,8.844231938552857,-0.2,-0.02275,-0.12575,0.09144733458915873,10,1,100,-0.02923764430787929,-10,-1,-100,15019.625507230056,-0.0038938185932231206,0.008258520222852169,0.9999583166414948,25.33629370891846,0.02604194692481682,-45.50207760597049,15.85845901278101,-129.7435302734375,5356.25390625,True
1599564052.8803725,0.0,10,0.5,0.5,9.796288764572143,-0.2,-0.02275,-0.12575,0.086541102620152,10,1,100,-0.03593617302076145,-10,-1,-100,15020.21339030331,-0.003148759300415196,0.00822343420359794,0.9999612294708067,25.37487793808184,0.02610784764246436,-44.505692096512334,15.486941570678601,-134.12228393554688,5356.25390625,True
1599564052.9362237,0.0,10,0.5,0.5,11.943894053268433,-0.2,-0.02275,-0.12575,0.07778070358532976,10,1,100,-0.11196129651686487,-10,-1,-100,15021.454589881818,-0.0017870988400966418,0.00811064059431373,0.9999655112987076,25.13552753843973,0.025558561936352083,-41.97447269911091,14.743945743421605,-142.05279541015625,5356.25390625,True
1599564052.9965758,0.0,10,0.5,0.5,11.060607319259644,-0.2,-0.02275,-0.12575,0.08913855426904352,10,1,100,0.023436937814533626,-10,-1,-100,15021.454589881818,-0.0017870988400966418,0.00811064059431373,0.9999655112987076,25.13552753843973,0.025558561936352083,-41.97447269911091,14.743945743421605,-142.05279541015625,5356.25390625,True
1599564053.0464425,0.0,10,0.5,0.5,13.392089023017883,-0.2,-0.02275,-0.12575,0.0717169536809193,10,1,100,-0.11244976004629503,-10,-1,-100,15022.563957220176,-0.0005583718882331429,0.007951680225390017,0.9999682289965154,24.617182057980152,0.024366460722162697,-39.04096911802096,14.001026847750627,-148.88052368164062,5356.25390625,True
1599564053.0978153,0.0,10,0.5,0.5,12.642833931541443,-0.2,-0.02275,-0.12575,0.08763701372560272,10,1,100,0.009653877448653859,-10,-1,-100,15022.563957220176,-0.0005583718882331429,0.007951680225390017,0.9999682289965154,24.617182057980152,0.024366460722162697,-39.04096911802096,14.001026847750627,-148.88052368164062,5356.25390625,True
1599564053.1536677,0.0,10,0.5,0.5,14.610378274536133,-0.2,-0.02275,-0.12575,0.06633607860689023,10,1,100,-0.11129654698183791,-10,-1,-100,15023.676258070976,0.0005345469293163194,0.007757909664398276,0.9999697640915046,24.00912429146585,0.022899692131460612,-36.05982215122608,13.258196421633276,-154.60545349121094,5356.25390625,True
1599564053.2025356,0.0,10,0.5,0.5,14.778487302017211,-0.2,-0.02275,-0.12575,0.07202411818995968,10,1,100,-0.05764928096410051,-10,-1,-100,15024.139147624373,0.001034268378430325,0.0076337847685049144,0.9999703273692823,23.670676343662365,0.022111945402352617,-34.5572955626156,12.88681461498403,-157.05462646484375,5356.25390625,True
1599564053.2563915,0.0,10,0.5,0.5,14.554437644195557,-0.2,-0.02275,-0.12575,0.08438115374697379,10,1,100,-0.008320712091371942,-10,-1,-100,15024.139147624373,0.001034268378430325,0.0076337847685049144,0.9999703273692823,23.670676343662365,0.022111945402352617,-34.5572955626156,12.88681461498403,-157.05462646484375,5356.25390625,True
1599564053.3172317,0.0,10,0.5,0.5,15.963987492752077,-0.2,-0.02275,-0.12575,0.06775410199152691,10,1,100,-0.10511200547307731,-10,-1,-100,15025.186999466969,0.0019083385360942648,0.007483133880112871,0.9999701800310666,22.993631164896538,0.02056512867779518,-31.63723674452696,12.144111580144349,-161.12405395507812,5356.25390625,True
1599564053.3687298,0.0,10,0.5,0.5,15.534235300064088,-0.2,-0.02275,-0.12575,0.08274285971586658,10,1,100,-0.018361175648139983,-10,-1,-100,15025.186999466969,0.0019083385360942648,0.007483133880112871,0.9999701800310666,22.993631164896538,0.02056512867779518,-31.63723674452696,12.144111580144349,-161.12405395507812,5356.25390625,True
1599564053.42857,0.0,10,0.5,0.5,16.571821487045288,-0.2,-0.02275,-0.12575,0.06826063298264248,10,1,100,-0.10038173842877023,-10,-1,-100,15026.11473558261,0.0026487053276187966,0.007352182170122415,0.9999694644225018,22.377574026657626,0.019161103600290507,-28.909507368039947,11.401476842406703,-164.09011840820312,5356.25390625,True
1599564053.4724526,0.0,10,0.5,0.5,16.45245203437805,-0.2,-0.02275,-0.12575,0.07697087063590352,10,1,100,-0.04518771945232461,-10,-1,-100,15026.343251185725,0.0028147318159206527,0.007313111187009351,0.9999692973734596,22.237772944840287,0.01883898637609169,-28.26176759761175,11.215826793157675,-164.6593780517578,5356.25390625,True
1599564053.525345,0.0,10,0.5,0.5,16.853651178741455,-0.2,-0.02275,-0.12575,0.07284508627923672,10,1,100,-0.07787915325186384,-10,-1,-100,15026.972160245175,0.003258676357412681,0.007240810007670781,0.9999684753525137,21.86386551147365,0.017948875762255827,-26.40861461941021,10.658893230151365,-165.95286560058594,5356.25390625,True
1599564053.5741801,0.0,10,0.5,0.5,16.840896789932252,-0.2,-0.02275,-0.12575,0.07757536399774247,10,1,100,-0.048525812256563335,-10,-1,-100,15027.204582124949,0.0033908266813595118,0.00721887494260999,0.9999681945636969,21.75632234976387,0.017677756430604884,-25.821611572628733,10.473253329953792,-166.24612426757812,5356.25390625,True
1599564053.6321018,0.0,10,0.5,0.5,16.967143845748904,-0.2,-0.02275,-0.12575,0.07654181634897687,10,1,100,-0.061990874681775436,-10,-1,-100,15027.603021064657,0.003629782817386202,0.007190204273277566,0.9999675622935011,21.569447400420138,0.017172723088176977,-24.69338774449033,10.10197899481919,-166.6256103515625,5356.25390625,True
1599564053.6819754,0.0,10,0.5,0.5,16.987877153396607,-0.2,-0.02275,-0.12575,0.07872953429326797,10,1,100,-0.05027327362927875,-10,-1,-100,15027.770991682191,0.0037366846090190237,0.007184720624243565,0.999967207951183,21.49591617291329,0.016942176228871397,-24.15749941421192,9.916343951088772,-166.71182250976562,5356.25390625,True
1599564053.7328439,0.0,10,0.5,0.5,16.892288256835936,-0.2,-0.02275,-0.12575,0.07863370564892211,10,1,100,-0.07806682475060236,-10,-1,-100,15028.567870174418,0.004083625668261165,0.007179385400209652,0.9999658896315797,21.315895468775306,0.016136580020713776,-22.163233540338034,9.173812422319397,-166.3671112060547,5356.25390625,True
1599564053.7841473,0.0,10,0.5,0.5,16.765858024978638,-0.2,-0.02275,-0.12575,0.080819775330121,10,1,100,-0.05733714846996845,-10,-1,-100,15028.904786107363,0.004207802885666593,0.007194821647615444,0.9999652638648676,21.291094532547067,0.015793551560649037,-21.242353203463892,8.802548392787166,-165.7808837890625,5356.25390625,True
1599564053.8330147,0.0,10,0.5,0.5,16.73022386741638,-0.2,-0.02275,-0.12575,0.08126479893922844,10,1,100,-0.05053227062680747,-10,-1,-100,15029.071778108366,0.0042559437079089405,0.007213299326358858,0.9999649270129345,21.294315597636597,0.01563497325836921,-20.7979123004524,8.616916000628454,-165.38424682617188,5356.25390625,True
1599564053.8858697,0.0,10,0.5,0.5,16.638111584091185,-0.2,-0.02275,-0.12575,0.08176664745489373,10,1,100,-0.05034011986330232,-10,-1,-100,15029.242678316543,0.0042958270801230145,0.007234904779498695,0.9999646003846984,21.307185568436427,0.015484079106925052,-20.3625304890536,8.431283161261332,-164.91860961914062,5356.25390625,True
1599564053.9447472,0.0,10,0.5,0.5,16.334584476852417,-0.2,-0.02275,-0.12575,0.08440684615620948,10,1,100,-0.052701434780034306,-10,-1,-100,15029.576663920772,0.004351380746338801,0.007278773569729249,0.9999640418239653,21.36082494660496,0.015204046387064352,-19.51555256546994,8.06001505636904,-163.78057861328125,5356.25390625,True
1599564053.996608,0.0,10,0.5,0.5,15.465957811355592,-0.2,-0.02275,-0.12575,0.09359769040543778,10,1,100,-0.048156021985908355,-10,-1,-100,15030.185065336758,0.004359014258025898,0.0074022741527503665,0.9999631019853011,21.56144947091907,0.014720061882099041,-17.885181365873148,7.317465853121404,-160.6768798828125,5356.25390625,True
1599564054.0474722,0.0,10,0.5,0.5,15.206901305389405,-0.2,-0.02275,-0.12575,0.08943577589467856,10,1,100,-0.04206691228051312,-10,-1,-100,15030.45850350277,0.00430919437819957,0.007476630766339262,0.9999627647248647,21.69533759852277,0.01451195969520923,-17.083628349507034,6.946183250434956,-158.7113037109375,5356.25390625,True
1599564054.0988445,0.0,10,0.5,0.5,15.437597955703737,-0.2,-0.02275,-0.12575,0.08202369661165589,10,1,100,-0.047153952065224575,-10,-1,-100,15030.45850350277,0.00430919437819957,0.007476630766339262,0.9999627647248647,21.69533759852277,0.01451195969520923,-17.083628349507034,6.946183250434956,-158.7113037109375,5356.25390625,True
1599564054.1467237,0.0,10,0.5,0.5,14.690366864395141,-0.2,-0.02275,-0.12575,0.09050081925905644,10,1,100,-0.037591272473991744,-10,-1,-100,15030.732918257825,0.004221426047645781,0.007553461194203149,0.9999625616922425,21.84048847694978,0.014324620923921137,-16.279112479875593,6.574894691869638,-156.4700469970703,5356.25390625,True
1599564054.2050483,0.0,10,0.5,0.5,13.219498519134522,-0.2,-0.02275,-0.12575,0.10049453100527803,10,1,100,-0.01570687378000293,-10,-1,-100,15031.214363855659,0.003942149719714929,0.007713828729116947,0.9999624774469916,22.12294960803602,0.01400968193960972,-14.62799935109666,5.83230049135469,-151.1604461669922,5356.25390625,True
1599564054.2569442,0.0,10,0.5,0.5,13.851801442337036,-0.2,-0.02275,-0.12575,0.08451068832438556,10,1,100,-0.043655053084157715,-10,-1,-100,15031.214363855659,0.003942149719714929,0.007713828729116947,0.9999624774469916,22.12294960803602,0.01400968193960972,-14.62799935109666,5.83230049135469,-151.1604461669922,5356.25390625,True
1599564054.3048575,0.0,10,0.5,0.5,11.728585914230347,-0.2,-0.02275,-0.12575,0.09928042746029327,10,1,100,0.0028073804341289532,-10,-1,-100,15031.63526082586,0.003519892574956456,0.007847613227326192,0.9999630119773906,22.308385810941502,0.013772676482591591,-12.873058563424284,5.089687789199364,-144.74871826171875,5356.25390625,True
1599564054.3586793,0.0,10,0.5,0.5,11.308047639846803,-0.2,-0.02275,-0.12575,0.09285001311002067,10,1,100,-0.010408354010483331,-10,-1,-100,15031.845221063704,0.0032567908567731466,0.007910183739259655,0.9999634104838668,22.324274795386756,0.013672783327587493,-11.942683332987118,4.718375759592703,-141.12948608398438,5356.25390625,True
1599564054.4075844,0.0,10,0.5,0.5,10.439427450180053,-0.2,-0.02275,-0.12575,0.08962313753014813,10,1,100,-0.0049336040019725275,-10,-1,-100,15031.992680124124,0.002968745342757436,0.007937097259006778,0.9999640938744705,22.262658731671227,0.01356936280913588,-10.97270766148635,4.347059591360025,-137.23521423339844,5356.25390625,True
1599564054.4544575,0.0,10,0.5,0.5,9.507864977264404,-0.2,-0.02275,-0.12575,0.08882160035398237,10,1,100,0.001607362702737522,-10,-1,-100,15032.20166249713,0.002648628888825213,0.007953639036739468,0.9999648615781869,22.1037966589169,0.013445550781563747,-9.96401630128858,3.9757372444441312,-133.06549072265625,5356.25390625,True
1599564054.503294,0.0,10,0.5,0.5,8.514399571228028,-0.2,-0.02275,-0.12575,0.08615988670398067,10,1,100,0.007408759441728606,-10,-1,-100,15032.349120666157,0.0023064219165846492,0.007943866105617342,0.9999657871193587,21.829002523744403,0.01328336458368429,-8.921249432552479,3.6044061690694167,-128.62057495117188,5356.25390625,True
1599564054.563134,0.0,10,0.5,0.5,8.242843116760254,-0.2,-0.02275,-0.12575,0.085486735842627,10,1,100,-0.006955427227872433,-10,-1,-100,15032.39013416355,0.0021277741773090926,0.007928369713173225,0.9999663061977347,21.64162560862572,0.013180900613474083,-8.389139849705762,3.4187362584088063,-126.29493713378906,5356.25390625,True
1599564054.615072,0.0,10,0.5,0.5,6.0543842567443855,-0.2,-0.02275,-0.12575,0.07730946580387085,10,1,100,0.037236300976286475,-10,-1,-100,15032.579583790619,0.001565607267203406,0.007839532593374577,0.9999680447907334,20.863346485323778,0.012764846753493384,-6.769885195829657,2.8617031385528895,-118.90534210205078,5356.25390625,True
1599564054.6629117,0.0,10,0.5,0.5,6.893067269325257,-0.2,-0.02275,-0.12575,0.0862294679664392,10,1,100,-0.018706031323182565,-10,-1,-100,15032.579583790619,0.001565607267203406,0.007839532593374577,0.9999680447907334,20.863346485323778,0.012764846753493384,-6.769885195829657,2.8617031385528895,-118.90534210205078,5356.25390625,True
1599564054.7172878,0.0,10,0.5,0.5,3.2844018161773687,-0.2,-0.02275,-0.12575,0.06147823685795564,10,1,100,0.06804966798443657,-10,-1,-100,15032.747545430437,0.0007793334723890887,0.007614261336570934,0.9999707074027904,19.3024943436117,0.011881933937373855,-4.637806555491646,2.11891797528003,-108.08966827392578,5356.25390625,True
1599564054.7741778,0.0,10,0.5,0.5,3.6096672384262085,-0.2,-0.02275,-0.12575,0.07573560986166303,10,1,100,0.012803039103785933,-10,-1,-100,15032.791488007526,0.0005696564816977386,0.0075391722825945496,0.9999714177779214,18.86299681623954,0.011616713806313718,-4.135007838876343,1.933204808005502,-105.21378326416016,5356.25390625,True
1599564054.831983,0.0,10,0.5,0.5,0.9219237785339358,-0.2,-0.02275,-0.12575,0.0531879546248096,10,1,100,0.05674819568523708,-10,-1,-100,15032.915506482008,-1.7394484909392472e-05,0.007266089600868735,0.9999736014712308,17.27621415543019,0.010621877800530442,-2.6956838785273014,1.3760210993072874,-96.17354583740234,5356.25390625,True
1599564054.8888295,0.0,10,0.5,0.5,-0.12700706958770747,-0.2,-0.02275,-0.12575,0.055834779374033715,10,1,100,0.04241123136256388,-10,-1,-100,15032.936986589804,-0.0004175254270189682,0.007042423318498629,0.9999751146635205,16.06197047334241,0.009865595115608002,-1.829647624743436,1.004543322661839,-89.80291748046875,5356.25390625,True
1599564054.9407237,0.0,10,0.5,0.5,-1.6040030462265016,-0.2,-0.02275,-0.12575,0.051513717658710156,10,1,100,0.04273894048085244,-10,-1,-100,15032.959443838336,-0.0007809197152086675,0.006800596828405375,0.9999765707491229,16.14340492559979,0.009909645952655272,-1.1589030272311898,0.6330633702555564,-83.16796875,5356.25390625,True
1599564054.9925537,0.0,10,0.5,0.5,-3.0890978036880496,-0.2,-0.02275,-0.12575,0.046052395274247315,10,1,100,0.04575014058592805,-10,-1,-100,15032.977994896704,-0.0011352439190109305,0.006532139361580573,0.9999780209467631,17.417696248148477,0.010707038534739767,-0.5166756851899059,0.2615874153005948,-76.42526245117188,5356.25390625,True
1599564055.045413,0.0,10,0.5,0.5,-2.3700590059280398,-0.2,-0.02275,-0.12575,0.07275599198921158,10,1,100,0.010696107486485364,-10,-1,-100,15032.977994896704,-0.0011352439190109305,0.006532139361580573,0.9999780209467631,17.417696248148477,0.010707038534739767,-0.5166756851899059,0.2615874153005948,-76.42526245117188,5356.25390625,True
1599564055.0953095,0.0,10,0.5,0.5,-6.711107083320618,-0.2,-0.02275,-0.12575,0.00800551151025726,10,1,100,0.08127226915108628,-10,-1,-100,15032.95943281555,-0.0017737166015658519,0.00594478201790284,0.9999807565629335,19.291632894649815,0.0119069195532417,1.0530983794100484,-0.4813663575087108,-63.463470458984375,5356.25390625,True
1599564055.1446953,0.0,10,0.5,0.5,-5.224103326988221,-0.2,-0.02275,-0.12575,0.06654288710850353,10,1,100,0.017815149973481628,-10,-1,-100,15032.95943281555,-0.0017737166015658519,0.00594478201790284,0.9999807565629335,19.291632894649815,0.0119069195532417,1.0530983794100484,-0.4813663575087108,-63.463470458984375,5356.25390625,True
1599564055.2105129,0.0,10,0.5,0.5,-9.222968448257447,-0.2,-0.02275,-0.12575,-0.0032943396129397964,10,1,100,0.07835960251399834,-10,-1,-100,15032.87544166483,-0.002321084966598941,0.0053116206391401475,0.9999831994842531,20.285394868284676,0.012519608919608015,2.816658324152259,-1.2243615518488722,-51.574798583984375,5356.25390625,True
1599564055.2593892,0.0,10,0.5,0.5,-9.682760753059387,-0.2,-0.02275,-0.12575,0.021472664442623045,10,1,100,0.050495829926545895,-10,-1,-100,15032.833446827135,-0.0025618521910759974,0.004963472069819393,0.9999844003075065,20.46010316293576,0.0126336516838765,3.7030388165543466,-1.5958787325600219,-46.04412841796875,5356.25390625,True
1599564055.3072548,0.0,10,0.5,0.5,-9.128432582855226,-0.2,-0.02275,-0.12575,0.0560224424480233,10,1,100,0.02675322604518675,-10,-1,-100,15032.833446827135,-0.0025618521910759974,0.004963472069819393,0.9999844003075065,20.46010316293576,0.0126336516838765,3.7030388165543466,-1.5958787325600219,-46.04412841796875,5356.25390625,True
1599564055.3601122,0.0,10,0.5,0.5,-12.597209319114686,-0.2,-0.02275,-0.12575,-0.013220783024923806,10,1,100,0.07261935766046469,-10,-1,-100,15032.686957348255,-0.0029759701978760026,0.004336329747531488,0.9999861698272142,20.35092556613421,0.012606815025621129,5.39853011324535,-2.3389422310969192,-35.80877685546875,5356.25390625,True
1599564055.41101,0.0,10,0.5,0.5,-12.979765029144287,-0.2,-0.02275,-0.12575,0.013595464609271024,10,1,100,0.05021807547370539,-10,-1,-100,15032.582463099388,-0.0031461034789845893,0.004012647851083652,0.9999870002605648,20.10501437480478,0.012496123236404403,6.180654857156195,-2.710482036839361,-31.10479736328125,5356.25390625,True
1599564055.4598527,0.0,10,0.5,0.5,-13.964480124664307,-0.2,-0.02275,-0.12575,0.014432126824392516,10,1,100,0.05182170470341395,-10,-1,-100,15032.41546931141,-0.003312868020215232,0.0037287519430571005,0.9999875605798443,19.755330359924756,0.012339585955934816,6.905833292327133,-3.0820231208045836,-26.675933837890625,5356.25390625,True
1599564055.5097523,0.0,10,0.5,0.5,-14.88892453765869,-0.2,-0.02275,-0.12575,0.010461494245730632,10,1,100,0.05116451999935811,-10,-1,-100,15032.310975496774,-0.003456195971019848,0.0034373606803954444,0.9999881195599091,19.327003164266312,0.012151379703787128,7.5707838934975795,-3.453564003408703,-22.52288818359375,5356.25390625,True
1599564055.5685627,0.0,10,0.5,0.5,-15.13208860244751,-0.2,-0.02275,-0.12575,0.02407024013016536,10,1,100,0.044443440174618515,-10,-1,-100,15032.226013131789,-0.0035232834260245853,0.0032989888393626047,0.9999883515054252,19.121193851597397,0.01206756027053665,7.893189017394056,-3.6393346099217685,-20.549652099609375,5356.25390625,True
1599564055.6194258,0.0,10,0.5,0.5,-16.804833515167235,-0.2,-0.02275,-0.12575,-0.005197002409885333,10,1,100,0.05853988358498888,-10,-1,-100,15031.976012692321,-0.003710250562025883,0.0029100696430797604,0.9999888827059227,18.56342145595227,0.011866099939560379,8.836845797232918,-4.19664911426654,-15.0430908203125,5356.25390625,True
1599564055.6722846,0.0,10,0.5,0.5,-17.306189402770997,-0.2,-0.02275,-0.12575,0.006496687153770567,10,1,100,0.051806668110575875,-10,-1,-100,15031.808043143596,-0.003817249150477435,0.0026655718355602493,0.999989161609121,18.15113017849023,0.01170840778443107,9.405895207984189,-4.568197587168317,-11.716461181640625,5356.25390625,True
1599564056.126178,0.0,10,0.5,0.5,-17.005590171813964,-0.2,-0.02275,-0.12575,0.030618546887487417,10,1,100,0.0413111625203118,-10,-1,-100,15031.808043143596,-0.003817249150477435,0.0026655718355602493,0.999989161609121,18.15113017849023,0.01170840778443107,9.405895207984189,-4.568197587168317,-11.716461181640625,5356.25390625,True
1599564056.1730564,0.0,10,0.5,0.5,-18.99441178741455,-0.2,-0.02275,-0.12575,-0.016793871938308762,10,1,100,0.06409305639315167,-10,-1,-100,15031.40960461914,-0.00402299712733609,0.002236955345147175,0.9999894057063291,17.368432606097958,0.011384308610450374,10.465193074130791,-5.311318900314092,-5.88946533203125,5356.25390625,True
1599564056.2188265,0.0,10,0.5,0.5,-19.167463505554203,-0.2,-0.02275,-0.12575,0.004375024168498286,10,1,100,0.052859403491544485,-10,-1,-100,15031.179135900224,-0.004106588311796383,0.002042227151855964,0.9999894825650407,17.037519657394938,0.011226183506049033,10.984444239613724,-5.682894570850159,-3.389251708984375,5356.25390625,True
1599564056.2666993,0.0,10,0.5,0.5,-19.674867401885987,-0.2,-0.02275,-0.12575,0.005236835388791064,10,1,100,0.05555981741836244,-10,-1,-100,15030.948667016346,-0.004205725209621613,0.0018756918462465829,0.9999893967715653,16.73253645840372,0.011053266009390694,11.49369930024387,-6.054480850266633,-1.164337158203125,5356.25390625,True
1599564056.3178146,0.0,10,0.5,0.5,-20.108888328552247,-0.2,-0.02275,-0.12575,0.004538366931204586,10,1,100,0.054985414202215296,-10,-1,-100,15030.71819852374,-0.004289509855668897,0.0017201833441702545,0.9999893204802042,16.46180692444812,0.010868146067653281,12.002308474387647,-6.426077103829829,0.78497314453125,5356.25390625,True
1599564056.3706734,0.0,10,0.5,0.5,-20.48160106201172,-0.2,-0.02275,-0.12575,0.0051274828579336434,10,1,100,0.05629233324097108,-10,-1,-100,15030.426207059878,-0.00437651933753995,0.0015862516366228687,0.9999891648834168,16.90727346351316,0.011120783302348993,13.040588320021516,-6.797679075942554,2.45892333984375,5356.25390625,True
1599564056.426037,0.0,10,0.5,0.5,-20.792934581756594,-0.2,-0.02275,-0.12575,0.005609707469534968,10,1,100,0.05730609605719289,-10,-1,-100,15030.132262078347,-0.004463867936372628,0.0014708271265092884,0.9999889552143116,17.340644102151643,0.011333033855650702,14.106752033632809,-7.169284206144632,3.857391357421875,5356.25390625,True
1599564056.474907,0.0,10,0.5,0.5,-20.677092364501956,-0.2,-0.02275,-0.12575,0.016955505125504384,10,1,100,0.04867200337046037,-10,-1,-100,15030.132262078347,-0.004463867936372628,0.0014708271265092884,0.9999889552143116,17.340644102151643,0.011333033855650702,14.106752033632809,-7.169284206144632,3.857391357421875,5356.25390625,True
1599564056.525283,0.0,10,0.5,0.5,-21.374564990234376,-0.2,-0.02275,-0.12575,-0.0021035584726246254,10,1,100,0.06800762149303359,-10,-1,-100,15029.544373046025,-0.004638791206113886,0.0012992248771743458,0.9999883967481146,18.034157067336587,0.011563625564975167,16.193692030107897,-7.912498969887261,5.82806396484375,5356.25390625,True
1599564056.5741515,0.0,10,0.5,0.5,-21.360610549926758,-0.2,-0.02275,-0.12575,0.00834559836430887,10,1,100,0.05984176023185549,-10,-1,-100,15029.188904721872,-0.004722733130191513,0.001239679571538253,0.9999880794221204,18.300904568215202,0.011595990034704028,17.206075482524795,-8.284106638837924,6.40020751953125,5356.25390625,True
1599564056.6394875,0.0,10,0.5,0.5,-21.329878919219972,-0.2,-0.02275,-0.12575,0.014157539701515957,10,1,100,0.05153811622206423,-10,-1,-100,15029.188904721872,-0.004722733130191513,0.001239679571538253,0.9999880794221204,18.300904568215202,0.011595990034704028,17.206075482524795,-8.284106638837924,6.40020751953125,5356.25390625,True
1599564056.6868727,0.0,10,0.5,0.5,-21.482494319152835,-0.2,-0.02275,-0.12575,0.009182743744006471,10,1,100,0.06662127547445873,-10,-1,-100,15028.685976121924,-0.00485902959250445,0.0011957504194372776,0.9999874799278007,18.606959460607158,0.01155895239829348,18.67278591145857,-8.841516969829131,6.7421875,5356.25390625,True
1599564056.7387638,0.0,10,0.5,0.5,-21.377743444824223,-0.2,-0.02275,-0.12575,0.013127255297663235,10,1,100,0.06751901194313133,-10,-1,-100,15028.120548948762,-0.0049903366784449,0.001192620572493007,0.9999868370113708,18.802721664934374,0.011436999594949305,20.0609799238216,-9.398925530418872,6.46441650390625,5356.25390625,True
1599564056.7945836,0.0,10,0.5,0.5,-21.262671785736085,-0.2,-0.02275,-0.12575,0.016558088057224803,10,1,100,0.06441047054757189,-10,-1,-100,15027.763127967366,-0.005080643881734179,0.0012217370154300141,0.9999863471150054,18.87152322547665,0.01131829638063433,20.9320028082731,-9.770530071100975,5.93511962890625,5356.25390625,True
1599564056.8444502,0.0,10,0.5,0.5,-21.08325517883301,-0.2,-0.02275,-0.12575,0.01902618895153883,10,1,100,0.06508936745239088,-10,-1,-100,15027.34418437141,-0.005168117748702685,0.0012712382942581632,0.9999858371557742,18.889099383562698,0.011176603577123074,21.75003956306635,-10.142133744301876,5.13043212890625,5356.25390625,True
1599564056.8993034,0.0,10,0.5,0.5,-21.029626388549808,-0.2,-0.02275,-0.12575,0.017650329677792155,10,1,100,0.06111796111716415,-10,-1,-100,15027.135199969867,-0.005210737017541962,0.0013041397771132491,0.9999855736155275,18.877870464206996,0.011099088099093702,22.136213512479948,-10.327935331567618,4.62481689453125,5356.25390625,True
1599564056.9531603,0.0,10,0.5,0.5,-20.469519326782226,-0.2,-0.02275,-0.12575,0.029146325716983314,10,1,100,0.07056909727371119,-10,-1,-100,15026.506296569365,-0.00533464284729173,0.0014388157363009828,0.999984735580983,18.75941521018837,0.010850314249550385,23.187399350088548,-10.885339593529846,2.695068359375,5356.25390625,True
1599564057.007015,0.0,10,0.5,0.5,-20.455168025970462,-0.2,-0.02275,-0.12575,0.021782892935689004,10,1,100,0.0626695696863855,-10,-1,-100,15026.29438227322,-0.005374679009987724,0.0014943372297237091,0.9999844397698313,18.68988803461836,0.010765017983488322,23.49678375896259,-11.071140671319377,1.9141845703125,5356.25390625,True
1599564057.0638638,0.0,10,0.5,0.5,-19.651291763305665,-0.2,-0.02275,-0.12575,0.038859528613387415,10,1,100,0.07045454759281236,-10,-1,-100,15025.604932368617,-0.005481020037884675,0.0017000320843568873,0.999983534019564,18.383122584089794,0.010516066647882962,24.277919648707762,-11.628543759731325,-0.841461181640625,5356.25390625,True
1599564057.1067493,0.0,10,0.5,0.5,-19.272100847625733,-0.2,-0.02275,-0.12575,0.036268677092871786,10,1,100,0.06700819445211402,-10,-1,-100,15025.123489429126,-0.005545597553937582,0.0018631098409212868,0.9999828874383254,18.80922803212309,0.010776074250271378,25.636810872799742,-12.000139863024465,-3.022705078125,5356.25390625,True
1599564057.1526275,0.0,10,0.5,0.5,-19.524955141448974,-0.2,-0.02275,-0.12575,0.02002324446337015,10,1,100,0.06063272928919796,-10,-1,-100,15025.123489429126,-0.005545597553937582,0.0018631098409212868,0.9999828874383254,18.80922803212309,0.010776074250271378,25.636810872799742,-12.000139863024465,-3.022705078125,5356.25390625,True
1599564057.2074797,0.0,10,0.5,0.5,-17.813451303863523,-0.2,-0.02275,-0.12575,0.06383379872913575,10,1,100,0.07044957566443016,-10,-1,-100,15024.095172221423,-0.005634093553327196,0.002260820852183353,0.99998157266967,19.93648737483011,0.011644720895526863,28.86161260342009,-12.743297692601894,-8.2109375,5356.25390625,True
1599564057.2713094,0.0,10,0.5,0.5,-18.43185317153931,-0.2,-0.02275,-0.12575,0.024169204646203726,10,1,100,0.06167748212155098,-10,-1,-100,15024.095172221423,-0.005634093553327196,0.002260820852183353,0.99998157266967,19.93648737483011,0.011644720895526863,28.86161260342009,-12.743297692601894,-8.2109375,5356.25390625,True
1599564057.3251662,0.0,10,0.5,0.5,-17.418910405731204,-0.2,-0.02275,-0.12575,0.04955458116702325,10,1,100,0.06518492836640867,-10,-1,-100,15023.613728634431,-0.005665394194757828,0.0024906259112092667,0.9999808498622303,20.523153614412916,0.012198830017289886,30.580243551191987,-13.11485420244552,-11.218017578125,5356.25390625,True
1599564057.3770263,0.0,10,0.5,0.5,-15.529878649139404,-0.2,-0.02275,-0.12575,0.0840867207666558,10,1,100,0.06131040057141557,-10,-1,-100,15022.522912104148,-0.0056580947521829884,0.0030123146076878665,0.9999794557512067,21.83362584165564,0.013600101096941087,34.38314470251511,-13.857906599251436,-18.058074951171875,5356.25390625,True
1599564057.4299216,0.0,10,0.5,0.5,-16.337262010192873,-0.2,-0.02275,-0.12575,0.03209195875013879,10,1,100,0.06208934252924753,-10,-1,-100,15022.522912104148,-0.0056580947521829884,0.0030123146076878665,0.9999794557512067,21.83362584165564,0.013600101096941087,34.38314470251511,-13.857906599251436,-18.058074951171875,5356.25390625,True
1599564057.4787834,0.0,10,0.5,0.5,-15.037046195220947,-0.2,-0.02275,-0.12575,0.0637438350353497,10,1,100,0.057881538916451473,-10,-1,-100,15021.91744556243,-0.005619435303216987,0.003298506051343807,0.9999787706770091,22.457548324862703,0.01436666765111224,36.31750473479201,-14.22939737393153,-21.89111328125,5356.25390625,True
1599564057.5356026,0.0,10,0.5,0.5,-14.124786528778076,-0.2,-0.02275,-0.12575,0.06766372831236668,10,1,100,0.053848897347570666,-10,-1,-100,15021.368618974462,-0.005547371069479955,0.0035926248568993228,0.9999781596219264,23.0745487152676,0.015159808382172539,38.29341446339702,-14.600861578402384,-25.99957275390625,5356.25390625,True
1599564057.5814798,0.0,10,0.5,0.5,-13.149941986846924,-0.2,-0.02275,-0.12575,0.07323407327020805,10,1,100,0.052220108851392465,-10,-1,-100,15020.761199355125,-0.005466893968790586,0.003908737554632735,0.9999774171655392,23.665915868853226,0.015938084793856878,40.278147014468324,-14.972298319236085,-30.38323974609375,5356.25390625,True
1599564057.6298995,0.0,10,0.5,0.5,-10.508786679077147,-0.2,-0.02275,-0.12575,0.11150983316364162,10,1,100,0.029967317217362097,-10,-1,-100,15019.54635878629,-0.0051914477042809696,0.004542066273903165,0.999976208969342,24.572794440476216,0.017168995246593502,43.905586698869485,-15.715093549454192,-39.977081298828125,5356.25390625,True
1599564057.6787689,0.0,10,0.5,0.5,-9.9339465675354,-0.2,-0.02275,-0.12575,0.08332467053670817,10,1,100,0.03733280269424216,-10,-1,-100,15018.876438599313,-0.0050083229225617336,0.004859155488965086,0.9999756523583149,24.839830723242276,0.01751346983005594,45.43628232556305,-16.086458627354247,-45.18719482421875,5356.25390625,True
1599564057.729635,0.0,10,0.5,0.5,-9.610881644439697,-0.2,-0.02275,-0.12575,0.06807878071358756,10,1,100,0.04395486967642022,-10,-1,-100,15018.542453871923,-0.004902534888683479,0.005006095735494787,0.9999754517772687,24.91556765164757,0.01759682532348102,46.103290280939675,-16.27213543009782,-47.895751953125,5356.25390625,True
1599564057.7755094,0.0,10,0.5,0.5,-8.956460141754151,-0.2,-0.02275,-0.12575,0.06965309357375962,10,1,100,0.04200092571245519,-10,-1,-100,15018.269017612096,-0.004789265875180515,0.0051514940084476145,0.9999752622149498,24.94858975720764,0.017615274186919633,46.693633310161495,-16.457809837777816,-50.67315673828125,5356.25390625,True
1599564057.824381,0.0,10,0.5,0.5,-5.365788158416749,-0.2,-0.02275,-0.12575,0.11703561058210168,10,1,100,-0.0042439247196668015,-10,-1,-100,15016.86472269881,-0.004266654338684117,0.005711796526520327,0.9999745851976409,24.623844082128947,0.017030123970111798,48.176099316645,-17.200502804219248,-62.4715576171875,5356.25390625,True
1599564057.8782353,0.0,10,0.5,0.5,-4.676458861541748,-0.2,-0.02275,-0.12575,0.08870366100303395,10,1,100,0.014446627778139723,-10,-1,-100,15016.19284802163,-0.003962738637172973,0.00596067093712644,0.9999743832241267,24.198496995545167,0.01639943389802193,48.37163477118085,-17.571860079016858,-68.7843017578125,5356.25390625,True
1599564057.9400704,0.0,10,0.5,0.5,-4.292955972290039,-0.2,-0.02275,-0.12575,0.07539971128538578,10,1,100,0.02762127130957329,-10,-1,-100,15015.858862909372,-0.0038077623552804285,0.006063295079944797,0.9999743683708194,23.9189173861642,0.016023282347928176,48.320882036386855,-17.757544469078706,-72.04425048828125,5356.25390625,True
1599564057.98894,0.0,10,0.5,0.5,-1.2596786293029782,-0.2,-0.02275,-0.12575,0.09675884076756688,10,1,100,-0.011586902988069317,-10,-1,-100,15014.724098012084,-0.0033121189984876395,0.0063479900410065345,0.9999743661165417,22.71417286691554,0.014716155432682688,47.335410679647346,-18.31462839944616,-82.23733520507812,5356.25390625,True
1599564058.0398028,0.0,10,0.5,0.5,-0.078311605834961,-0.2,-0.02275,-0.12575,0.0853054836604201,10,1,100,-0.0007492061165320432,-10,-1,-100,15013.99265228922,-0.0029621562059670152,0.006499909955552541,0.9999744880751615,21.583629207040044,0.01380217900180631,45.897514317252245,-18.686045825140404,-89.37734985351562,5356.25390625,True
1599564058.0951703,0.0,10,0.5,0.5,-0.8319840049743652,-0.2,-0.02275,-0.12575,0.0704042207156848,10,1,100,0.0339885516491791,-10,-1,-100,15013.99265228922,-0.0029621562059670152,0.006499909955552541,0.9999744880751615,21.583629207040044,0.01380217900180631,45.897514317252245,-18.686045825140404,-89.37734985351562,5356.25390625,True
1599564058.148029,0.0,10,0.5,0.5,1.7179598915100098,-0.2,-0.02275,-0.12575,0.08257074861252986,10,1,100,-0.003575327346973963,-10,-1,-100,15013.258276948705,-0.002622943431240918,0.006608159143341205,0.9999747258808558,21.16490103423204,0.013568365832380472,45.90775732001972,-19.05747420922469,-96.79325866699219,5356.25390625,True
1599564058.2093828,0.0,10,0.5,0.5,3.3779790527343754,-0.2,-0.02275,-0.12575,0.08081098895503183,10,1,100,-0.007879879687731389,-10,-1,-100,15012.462377880001,-0.0022777708913676166,0.006688691414563247,0.9999750362718698,22.754559589768434,0.014850660006969945,50.32434282004633,-19.428866389905888,-104.35523223876953,5356.25390625,True
1599564058.2742095,0.0,10,0.5,0.5,7.5710312421798704,-0.2,-0.02275,-0.12575,0.07974954581572992,10,1,100,-0.04818938660771022,-10,-1,-100,15010.866672477685,-0.0016000099304204387,0.006750589872657269,0.9999759344627218,25.10782339765319,0.017256680314190368,57.66642624131853,-20.171509057364066,-119.73316955566406,5356.25390625,True
1599564058.3365576,0.0,10,0.5,0.5,5.80068574962616,-0.2,-0.02275,-0.12575,0.07373414942004394,10,1,100,0.019256456991181257,-10,-1,-100,15010.866672477685,-0.0016000099304204387,0.006750589872657269,0.9999759344627218,25.10782339765319,0.017256680314190368,57.66642624131853,-20.171509057364066,-119.73316955566406,5356.25390625,True
1599564058.3824348,0.0,10,0.5,0.5,10.71077687778473,-0.2,-0.02275,-0.12575,0.07000304935466486,10,1,100,-0.04719493246304697,-10,-1,-100,15009.212372499984,-0.0009988057135136004,0.006715217057640905,0.9999769538579454,26.420795922089976,0.018725877163703008,62.93159554093405,-20.913996753542087,-134.3240509033203,5356.25390625,True
1599564058.4417949,0.0,10,0.5,0.5,11.282552987480164,-0.2,-0.02275,-0.12575,0.06779725150025878,10,1,100,-0.01718495365081331,-10,-1,-100,15008.352019652724,-0.0007280451860960266,0.006662095044830409,0.9999775429677512,26.705792579335593,0.01892564088793693,64.74776279587601,-21.285209054139962,-141.21005249023438,5356.25390625,True
1599564058.5175917,0.0,10,0.5,0.5,11.669256590843203,-0.2,-0.02275,-0.12575,0.07053742960005632,10,1,100,-0.0034848567871220704,-10,-1,-100,15007.952604250633,-0.0006093862176145861,0.006638075357630205,0.9999777820551736,26.74734900763912,0.018878805281276223,65.41823649838227,-21.47081253678664,-144.54957580566406,5356.25390625,True
1599564058.5950418,0.0,10,0.5,0.5,14.543098448371888,-0.2,-0.02275,-0.12575,0.06228697233792981,10,1,100,-0.027341736163607758,-10,-1,-100,15006.634242987842,-0.00028754132115219386,0.006540712593903701,0.9999785679697104,26.519416376117373,0.01824733361595532,66.55623736272939,-22.027627855496917,-154.15460205078125,5356.25390625,True
1599564058.6578763,0.0,10,0.5,0.5,13.498878180122377,-0.2,-0.02275,-0.12575,0.07204252096586994,10,1,100,0.004540295714897924,-10,-1,-100,15006.634242987842,-0.00028754132115219386,0.006540712593903701,0.9999785679697104,26.519416376117373,0.01824733361595532,66.55623736272939,-22.027627855496917,-154.15460205078125,5356.25390625,True
1599564058.7157185,0.0,10,0.5,0.5,17.5034831155777,-0.2,-0.02275,-0.12575,0.05497701094612924,10,1,100,-0.03235940646648692,-10,-1,-100,15004.852013789234,4.54790487832912e-05,0.006385534500416648,0.9999796112325491,25.554488400539842,0.016708313165272493,66.3153303728406,-22.770093413415353,-165.99569702148438,5356.25390625,True
1599564058.7845354,0.0,10,0.5,0.5,17.982594146156313,-0.2,-0.02275,-0.12575,0.060275032740722406,10,1,100,-0.012996034501942842,-10,-1,-100,15003.928184453514,0.0001694599715426494,0.006292731318520298,0.9999801862116423,24.866432306695476,0.01587513616071911,65.59189320761078,-23.14135327239638,-171.50244140625,5356.25390625,True
1599564058.867314,0.0,10,0.5,0.5,19.163919566917418,-0.2,-0.02275,-0.12575,0.061229986413035065,10,1,100,-0.012097941694191679,-10,-1,-100,15003.006307886913,0.00027146687270543395,0.006217332939112659,0.9999806353509358,24.0830367791969,0.015116763454974534,64.55476037195021,-23.512630536027068,-176.73294067382812,5356.25390625,True
1599564058.9321415,0.0,10,0.5,0.5,18.670843570709227,-0.2,-0.02275,-0.12575,0.06872268850625389,10,1,100,-0.0021521753543205287,-10,-1,-100,15003.006307886913,0.00027146687270543395,0.006217332939112659,0.9999806353509358,24.0830367791969,0.015116763454974534,64.55476037195021,-23.512630536027068,-176.73294067382812,5356.25390625,True
1599564058.989987,0.0,10,0.5,0.5,-96.08225576133728,-0.2,-0.02275,-0.12575,0.05518598208574733,10,1,100,-0.013482815905162414,-10,-1,-100,15001.559039405547,0.0003727713533466094,0.0060947567506840035,0.9999813573170592,23.124191750240364,0.014448252828233789,63.46797185122392,-24.06956922286645,175.93865966796875,5356.25390625,True
1599564059.0528202,0.0,10,0.5,0.5,-50.22155053024292,-0.2,-0.02275,-0.12575,0.055442120904510644,10,1,100,-0.008181927845348295,-10,-1,-100,15000.113726395299,0.000414883006764125,0.005986248598757595,0.9999819961878336,24.511114133888416,0.01565023961675022,68.84783216787781,-24.626463097217684,169.23135375976562,5356.25390625,True
1599564059.133601,0.0,10,0.5,0.5,-50.31976968345643,-0.2,-0.02275,-0.12575,0.05948659699061265,10,1,100,-0.004425526365018152,-10,-1,-100,14999.063920637942,0.0004177320521222491,0.005925035487297136,0.9999823595716112,25.36968100639613,0.016595380496318386,72.34531420654626,-24.997684208482802,164.82363891601562,5356.25390625,True
1599564059.1844654,0.0,10,0.5,0.5,-50.058881112289434,-0.2,-0.02275,-0.12575,0.05952521101213251,10,1,100,-0.0017783555735639252,-10,-1,-100,14998.078568341909,0.0003952152886725796,0.005870408294853748,0.9999826909058612,26.174637360273106,0.01761975139450345,75.76132209516832,-25.368869797376483,160.18392944335938,5356.25390625,True
1599564059.2453036,0.0,10,0.5,0.5,-50.54732363433838,-0.2,-0.02275,-0.12575,0.06238366864336348,10,1,100,-0.001975083872494188,-10,-1,-100,14997.554153005593,0.00037562066870289407,0.005847431068428019,0.9999828330821551,26.55259301940173,0.018146584164633193,77.42372475591493,-25.554449075516004,157.76406860351562,5356.25390625,True
1599564059.3121247,0.0,10,0.5,0.5,-49.06270935440064,-0.2,-0.02275,-0.12575,0.058834322946654576,10,1,100,0.006093472142759489,-10,-1,-100,14995.981887383386,0.000283853994055551,0.005794906157639525,0.9999831691031276,27.60981899214166,0.01972159304619082,82.27980145386366,-26.111133191613874,150.093994140625,5356.25390625,True
1599564059.3699691,0.0,10,0.5,0.5,-48.94181849136353,-0.2,-0.02275,-0.12575,0.06200765815179762,10,1,100,0.006460024038682573,-10,-1,-100,14994.934035487939,0.0001965780041266586,0.005776682746456981,0.9999832955072474,28.242322057677278,0.020681419018584377,85.37417132867147,-26.482211672811204,144.63714599609375,5356.25390625,True
1599564059.5046105,0.0,10,0.5,0.5,-48.4675344657898,-0.2,-0.02275,-0.12575,0.06298560660794611,10,1,100,0.009563811342794219,-10,-1,-100,14993.884230685537,8.888258419452021e-05,0.005769559951123254,0.9999833520003505,28.735780303925303,0.02142902152239634,88.09660228408404,-26.85325957634862,138.9052276611328,5356.25390625,True
1599564059.5714316,0.0,10,0.5,0.5,-45.89151250343323,-0.2,-0.02275,-0.12575,0.06756482525614838,10,1,100,0.029104304674271567,-10,-1,-100,14991.725051420974,-0.00018658993931417413,0.005805189553410248,0.9999831323369627,29.192899544699014,0.02197694659188803,91.99968099419617,-27.595295122948787,126.61669921875,5356.25390625,True
1599564059.6342642,0.0,10,0.5,0.5,-45.99113443717956,-0.2,-0.02275,-0.12575,0.06877146719573049,10,1,100,0.019708449872514147,-10,-1,-100,14990.551224292722,-0.0003511862290224473,0.005848924248927081,0.9999828332293325,29.101781994693837,0.021694258752274004,92.96034191757587,-27.966302074365053,120.06019592285156,5356.25390625,True
1599564059.6921096,0.0,10,0.5,0.5,-46.38936499557495,-0.2,-0.02275,-0.12575,0.06742504184591147,10,1,100,0.013507292033118228,-10,-1,-100,14990.02583340893,-0.0004438790092157074,0.005876777749571471,0.9999826330765486,28.965069295114983,0.021416725785283107,93.14492828261676,-28.151807693171524,116.67890930175781,5356.25390625,True
1599564059.7599454,0.0,10,0.5,0.5,-45.55591432075501,-0.2,-0.02275,-0.12575,0.06832151293292249,10,1,100,0.014919413373654766,-10,-1,-100,14989.43892063119,-0.0005402402303394012,0.005910447013676574,0.9999823872231909,28.76405193713467,0.021058412950222132,93.11572455180688,-28.33731651432852,113.22892761230469,5356.25390625,True
1599564059.816316,0.0,10,0.5,0.5,-43.54761328964234,-0.2,-0.02275,-0.12575,0.07433328053450325,10,1,100,0.027468734276635896,-10,-1,-100,14988.330524129444,-0.0007410577820815844,0.005995776778863838,0.9999817505805702,28.158646335191047,0.020146596301068645,92.365146238763,-28.70834946734274,106.12307739257812,5356.25390625,True
1599564059.8721638,0.0,10,0.5,0.5,-39.40985347061157,-0.2,-0.02275,-0.12575,0.09229309115362686,10,1,100,0.055944668944450784,-10,-1,-100,14985.982872575172,-0.0011814378807962465,0.0062365559880337785,0.9999798545840519,26.08464208727366,0.017987719637152032,87.80551758971963,-29.450502009767632,91.08769226074219,5356.25390625,True
1599564059.931522,0.0,10,0.5,0.5,-41.14335921134949,-0.2,-0.02275,-0.12575,0.06825178500595086,10,1,100,0.012064324389931458,-10,-1,-100,14985.982872575172,-0.0011814378807962465,0.0062365559880337785,0.9999798545840519,26.08464208727366,0.017987719637152032,87.80551758971963,-29.450502009767632,91.08769226074219,5356.25390625,True
1599564059.9837494,0.0,10,0.5,0.5,-35.73637198944092,-0.2,-0.02275,-0.12575,0.1084759481279361,10,1,100,0.06619028993029624,-10,-1,-100,14983.567841272685,-0.001672076605209109,0.00660187644830673,0.9999768094246926,27.031963710281424,0.01902257921400115,93.32222771350045,-30.192689687384487,74.95477294921875,5356.25390625,True
1599564060.047578,0.0,10,0.5,0.5,-34.83239763412475,-0.2,-0.02275,-0.12575,0.09631829579224477,10,1,100,0.043832959849525586,-10,-1,-100,14982.332495008712,-0.0019130852352144646,0.006822728236147976,0.999974894927017,28.48366483549317,0.02060641143609515,99.56052986688947,-30.563699022971182,66.47665405273438,5356.25390625,True
1599564060.1288736,0.0,10,0.5,0.5,-32.86978705902099,-0.2,-0.02275,-0.12575,0.10538820600134191,10,1,100,0.0480971282290357,-10,-1,-100,14981.158673173748,-0.0021690312811791152,0.007105005367459364,0.9999724067203203,29.624109715894164,0.022030589724498062,104.82230786745346,-30.93465019457217,57.72479248046875,5356.25390625,True
1599564060.2001991,0.0,10,0.5,0.5,-33.78564816169739,-0.2,-0.02275,-0.12575,0.07729403741183673,10,1,100,0.022728315019108002,-10,-1,-100,14981.158673173748,-0.0021690312811791152,0.007105005367459364,0.9999724067203203,29.624109715894164,0.022030589724498062,104.82230786745346,-30.93465019457217,57.72479248046875,5356.25390625,True
1599564060.254058,0.0,10,0.5,0.5,-27.6591487033844,-0.2,-0.02275,-0.12575,0.15010690905674104,10,1,100,0.07459560794545725,-10,-1,-100,14978.62157989468,-0.002638749906562413,0.007765758913491177,0.9999663644280382,31.02672572807553,0.023681531559621126,112.45716298611885,-31.676422176071565,39.3985595703125,5356.25390625,True
1599564060.7078452,0.0,10,0.5,0.5,-29.780167269134523,-0.2,-0.02275,-0.12575,0.08422323792001618,10,1,100,0.02785250177488147,-10,-1,-100,14978.62157989468,-0.002638749906562413,0.007765758913491177,0.9999663644280382,31.02672572807553,0.023681531559621126,112.45716298611885,-31.676422176071565,39.3985595703125,5356.25390625,True
1599564060.7547164,0.0,10,0.5,0.5,-26.485592480087284,-0.2,-0.02275,-0.12575,0.1265272899989911,10,1,100,0.051326037439143504,-10,-1,-100,14977.32080842182,-0.0028501503481490253,0.008148623949514659,0.9999627375911176,31.085780873955688,0.02352542802620503,114.01059968377878,-32.047281772350914,29.824462890625,5356.25390625,True
1599564060.8005939,0.0,10,0.5,0.5,-27.499789980316166,-0.2,-0.02275,-0.12575,0.08846460409022676,10,1,100,0.03041698429226323,-10,-1,-100,14977.32080842182,-0.0028501503481490253,0.008148623949514659,0.9999627375911176,31.085780873955688,0.02352542802620503,114.01059968377878,-32.047281772350914,29.824462890625,5356.25390625,True
1599564060.8494637,0.0,10,0.5,0.5,-22.480838439941408,-0.2,-0.02275,-0.12575,0.16062348498474815,10,1,100,0.05875634166468752,-10,-1,-100,14975.371605420485,-0.0031058635128382757,0.008802656642036989,0.9999564324748764,30.218820851177824,0.0221374026795372,112.78666707001905,-32.60360575931122,14.949951171875,5356.25390625,True
1599564060.904317,0.0,10,0.5,0.5,-19.131892611312864,-0.2,-0.02275,-0.12575,0.17278029389490618,10,1,100,0.05359759151004005,-10,-1,-100,14973.420453321072,-0.0032896828196662155,0.009505415442918722,0.999949411252491,28.160389175799263,0.020098829727343722,106.93005378184068,-33.16002599266514,-0.54107666015625,5356.25390625,True
1599564060.9531863,0.0,10,0.5,0.5,-17.395756566619873,-0.2,-0.02275,-0.12575,0.1574822882003042,10,1,100,0.04017590140589741,-10,-1,-100,14972.05718497932,-0.0033328593295277095,0.010002242610628567,0.9999444220512697,27.863695923454475,0.020049567986890008,107.00938267225239,-33.53101210082352,-11.210845947265625,5356.25390625,True
1599564061.0000606,0.0,10,0.5,0.5,-18.541453271484375,-0.2,-0.02275,-0.12575,0.10813960804555194,10,1,100,0.03602432869217988,-10,-1,-100,14972.05718497932,-0.0033328593295277095,0.010002242610628567,0.9999444220512697,27.863695923454475,0.020049567986890008,107.00938267225239,-33.53101210082352,-11.210845947265625,5356.25390625,True
1599564061.050925,0.0,10,0.5,0.5,-12.983655844116212,-0.2,-0.02275,-0.12575,0.18988489912011947,10,1,100,0.033003259925402005,-10,-1,-100,14970.04743929347,-0.003304104364289444,0.010742491152784198,0.9999368388944285,30.620186353633056,0.023038382925211463,119.58322260508307,-34.0873519319738,-27.729827880859375,5356.25390625,True
1599564061.0997941,0.0,10,0.5,0.5,-11.16748449783325,-0.2,-0.02275,-0.12575,0.16990925694591005,10,1,100,0.026992055650684996,-10,-1,-100,14968.680265087169,-0.003222284290590766,0.011230540820628028,0.9999317435889444,31.7481685476525,0.02460125286851859,125.36150388421176,-34.45815492589586,-39.085235595703125,5356.25390625,True
1599564061.1496618,0.0,10,0.5,0.5,-6.658951675415038,-0.2,-0.02275,-0.12575,0.1953256241818437,10,1,100,0.009361235590584799,-10,-1,-100,14966.606066784007,-0.0029866647203097736,0.011901529734037117,0.999924713877919,32.432422292545965,0.02554646292366606,130.167122922112,-35.014281789640464,-56.633148193359375,5356.25390625,True
1599564061.1975331,0.0,10,0.5,0.5,-8.647129549407959,-0.2,-0.02275,-0.12575,0.12864030992298944,10,1,100,0.03295798410005877,-10,-1,-100,14966.606066784007,-0.0029866647203097736,0.011901529734037117,0.999924713877919,32.432422292545965,0.02554646292366606,130.167122922112,-35.014281789640464,-56.633148193359375,5356.25390625,True
1599564061.2464025,0.0,10,0.5,0.5,-4.506048046875,-0.2,-0.02275,-0.12575,0.1728129115314434,10,1,100,0.010445671703185583,-10,-1,-100,14965.181273023132,-0.002781691048689338,0.012299339047913475,0.9999204910661119,32.001155563430615,0.0249378440170648,129.82136321611148,-35.385032343021074,-68.6749267578125,5356.25390625,True
1599564061.3002598,0.0,10,0.5,0.5,2.3174228149414065,-0.2,-0.02275,-0.12575,0.20246209068075777,10,1,100,-0.0238000595029659,-10,-1,-100,14962.327774978708,-0.0022840887537961645,0.012926748493614477,0.9999138373439722,28.852979445393487,0.021867037557535916,119.55322256803746,-36.12668451989827,-93.58248901367188,5356.25390625,True
1599564061.3461366,0.0,10,0.5,0.5,1.550408280181885,-0.2,-0.02275,-0.12575,0.15258179204692635,10,1,100,0.011706251285264696,-10,-1,-100,14961.554339650902,-0.0021550222761447875,0.013039319707085922,0.9999126621963368,28.042724483080576,0.02135214163530578,116.80501223440639,-36.31213404775979,-99.98114013671875,5356.25390625,True
1599564061.3940449,0.0,10,0.5,0.5,3.1139568180084227,-0.2,-0.02275,-0.12575,0.15286892987682174,10,1,100,0.010448166612904082,-10,-1,-100,14960.840476367739,-0.002027116382382706,0.013140416005908966,0.9999116062264524,29.381500130808806,0.022617334765827894,123.01955062818617,-36.497557976312734,-106.44840240478516,5356.25390625,True
1599564061.4508638,0.0,10,0.5,0.5,10.993887458229064,-0.2,-0.02275,-0.12575,0.17281258480174685,10,1,100,-0.027730801938398827,-10,-1,-100,14957.863920551725,-0.001564904552530136,0.013410323140008335,0.9999088529996232,32.84280196017152,0.02673851967037342,140.36343822275745,-37.2390224577579,-132.39544677734375,5356.25390625,True
1599564061.500731,0.0,10,0.5,0.5,12.121109831809997,-0.2,-0.02275,-0.12575,0.1528897417756653,10,1,100,-0.0018161653224100724,-10,-1,-100,14956.37466407835,-0.0013819068171522406,0.013471478252107583,0.9999083005992359,33.41954257597327,0.027444221969405023,144.27857710993032,-37.60967014686795,-145.02589416503906,5356.25390625,True
1599564061.5511074,0.0,10,0.5,0.5,14.862407161903382,-0.2,-0.02275,-0.12575,0.1510747794913943,10,1,100,0.002810185492729208,-10,-1,-100,14954.886383264675,-0.001259376567412125,0.013507420300848547,0.9999079775496732,33.230275996741256,0.02703418041136256,144.90485625715291,-37.9803150748555,-157.3824462890625,5356.25390625,True
1599564061.6019714,0.0,10,0.5,0.5,13.603530439186097,-0.2,-0.02275,-0.12575,0.14775706753210444,10,1,100,0.014858737687053033,-10,-1,-100,14954.886383264675,-0.001259376567412125,0.013507420300848547,0.9999079775496732,33.230275996741256,0.02703418041136256,144.90485625715291,-37.9803150748555,-157.3824462890625,5356.25390625,True
1599564061.6503546,0.0,10,0.5,0.5,17.807836483192443,-0.2,-0.02275,-0.12575,0.1486961250193788,10,1,100,0.005698210232977069,-10,-1,-100,14953.33462468523,-0.0011778835066688696,0.013513887296659931,0.9999079894873217,32.24846682998579,0.025759431558512624,142.02660119763246,-38.350997104005295,-169.4628143310547,5356.25390625,True
1599564061.7002218,0.0,10,0.5,0.5,-96.87958808689118,-0.2,-0.02275,-0.12575,0.14787975513169097,10,1,100,0.011524100015459282,-10,-1,-100,14951.782866474008,-0.0011584058869372402,0.01351087905972528,0.9999080528942822,30.578107285366787,0.024145772043550336,136.00275793866544,-38.72174037259496,178.73367309570312,5356.25390625,True
1599564061.7525926,0.0,10,0.5,0.5,-49.87456555347443,-0.2,-0.02275,-0.12575,0.1476891308644075,10,1,100,0.017519058937949424,-10,-1,-100,14950.231107804342,-0.0011968606399614624,0.013504948306149667,0.9999080877239952,30.07615065357517,0.02399431360137009,135.08221841097713,-39.09252110724123,167.20712280273438,5356.25390625,True
