Timestamp,Input Throttle,horizon,dT,dt,Input Roll,Roll P,Roll I,Roll D,Input Pitch,Pitch P,Pitch I,Pitch D,Input Yaw,Yaw P,Yaw I,Yaw D,Altitude,Direction X,Direction Y,Direction Z,Drag X,Drag Y,Drag Z,Vertical Velocity,Roll,Mass,Has Fuel
1599561248.6498573,0.0,10,0.5,0.5,-5.850157974243165,-0.1005,-0.0155,-0.5,-0.0005225425766632512,10,1,100,0.17111870849299538,-10,-1,-100,14993.937290825648,-0.016774341277468314,-7.638666483499042e-05,0.9998592979213548,28.649135143653755,0.027034411501092436,-87.5139504430396,27.009297948511733,-31.792205810546875,5356.25390625,True
1599561248.6858783,0.0,10,0.5,0.5,-5.940453587341309,-0.1005,-0.0155,-0.5,-0.0004945879055849997,10,1,100,0.17324023202874506,-10,-1,-100,14994.474401868065,-0.016809062960434815,-7.386923384182311e-05,0.9998587149921375,28.576529292994653,0.027199610095502223,-86.69271993200206,26.823330286182223,-31.7916259765625,5356.25390625,True
1599561248.7167957,0.0,10,0.5,0.5,-6.030753166198731,-0.1005,-0.0155,-0.5,-0.0004931535597046709,10,1,100,0.1753413682539504,-10,-1,-100,14995.009559971397,-0.016844448398851287,-7.150046685472091e-05,0.9998581196578951,28.503969418837663,0.027363317706743658,-85.87467490616434,26.6373670025334,-31.791015625,5356.25390625,True
1599561248.7508492,0.0,10,0.5,0.5,-6.09684836883545,-0.1005,-0.0155,-0.5,0.003386726239894369,10,1,100,0.17945027071794506,-10,-1,-100,14996.077922224416,-0.01689865750308544,-3.401040735476881e-05,0.99985720691401,28.358936659849522,0.027686201452484096,-84.24797562600311,26.265451620520093,-31.8306884765625,5356.25390625,True
1599561248.7837944,0.0,10,0.5,0.5,-5.9124248336792,-0.1005,-0.0155,-0.5,0.012878469067619226,10,1,100,0.1810781367295972,-10,-1,-100,14997.61894016678,-0.016947374872946883,8.63909546311907e-05,0.999856379197292,28.165811856389002,0.02817649355313518,-81.90174710924657,25.70760683313963,-32.32098388671875,5356.25390625,True
1599561248.8188603,0.0,10,0.5,0.5,-6.246975013732911,-0.1005,-0.0155,-0.5,0.0008469719644863958,10,1,100,0.1779011372307475,-10,-1,-100,14997.61894016678,-0.016947374872946883,8.63909546311907e-05,0.999856379197292,28.165811856389002,0.02817649355313518,-81.90174710924657,25.70760683313963,-32.32098388671875,5356.25390625,True
1599561248.850776,0.0,10,0.5,0.5,-5.6768867202758795,-0.1005,-0.0155,-0.5,0.02486077194287837,10,1,100,0.17833605630875204,-10,-1,-100,14999.158979109023,-0.016935921978316972,0.0003046196899305439,0.999856530585058,28.01723517357535,0.028671627924032887,-79.70648875702638,25.1497932876399,-33.419219970703125,5356.25390625,True
1599561248.8838084,0.0,10,0.5,0.5,-5.6680318603515625,-0.1005,-0.0155,-0.5,0.026109819847884207,10,1,100,0.17603039816134503,-10,-1,-100,15000.105266148923,-0.016889153434605793,0.0005140875032573449,0.9998572359143588,27.939897427864583,0.02898998726233613,-78.31416861423452,24.7779332647326,-34.49444580078125,5356.25390625,True
1599561248.9176784,0.0,10,0.5,0.5,-6.291678384399414,-0.1005,-0.0155,-0.5,0.005214447265529845,10,1,100,0.18239616787592355,-10,-1,-100,15000.105266148923,-0.016889153434605793,0.0005140875032573449,0.9998572359143588,27.939897427864583,0.02898998726233613,-78.31416861423452,24.7779332647326,-34.49444580078125,5356.25390625,True
1599561248.9526684,0.0,10,0.5,0.5,-5.099761935424805,-0.1005,-0.0155,-0.5,0.04975888124980626,10,1,100,0.16843754864928734,-10,-1,-100,15001.580847188598,-0.016746903120332186,0.0009185695508387146,0.9998593388401483,27.845515192286047,0.0294178292041695,-76.29698569493196,24.220165104149693,-36.622589111328125,5356.25390625,True
1599561248.9846141,0.0,10,0.5,0.5,-6.246568577575684,-0.1005,-0.0155,-0.5,0.009402533446753148,10,1,100,0.18433727038868128,-10,-1,-100,15001.580847188598,-0.016746903120332186,0.0009185695508387146,0.9998593388401483,27.845515192286047,0.0294178292041695,-76.29698569493196,24.220165104149693,-36.622589111328125,5356.25390625,True
1599561249.2281852,0.0,10,0.5,0.5,-5.180857835388184,-0.1005,-0.0155,-0.5,0.04592968342026633,10,1,100,0.16878338212513155,-10,-1,-100,15002.525177652366,-0.016605529079897312,0.001249730044947313,0.9998613376757758,27.788346894963382,0.029646345531462726,-74.97423207541135,23.848333690529735,-38.38482666015625,5356.25390625,True
1599561249.2572217,0.0,10,0.5,0.5,-4.154816352844239,-0.1005,-0.0155,-0.5,0.07531411078617925,10,1,100,0.1497546256655418,-10,-1,-100,15003.933370011742,-0.016304203560669826,0.0018167129253918023,0.9998654271952795,27.692354341593422,0.029855500364602456,-72.97198963826541,23.29060772542413,-41.54376220703125,5356.25390625,True
1599561249.2934957,0.0,10,0.5,0.5,-4.24822825164795,-0.1005,-0.0155,-0.5,0.06596145185345821,10,1,100,0.15141999574895515,-10,-1,-100,15004.873791200924,-0.016045902130165126,0.0022454111778691045,0.9998687349614805,27.608132251339295,0.02987418969357941,-71.59135772071126,22.91880556853105,-43.9932861328125,5356.25390625,True
1599561249.3233905,0.0,10,0.5,0.5,-5.454138188171387,-0.1005,-0.0155,-0.5,0.02331956876425037,10,1,100,0.17716486326213315,-10,-1,-100,15004.873791200924,-0.016045902130165126,0.0022454111778691045,0.9998687349614805,27.608132251339295,0.02987418969357941,-71.59135772071126,22.91880556853105,-43.9932861328125,5356.25390625,True
1599561249.397239,0.0,10,0.5,0.5,-3.799899864196778,-0.1005,-0.0155,-0.5,0.07321009112086106,10,1,100,0.1428785132028405,-10,-1,-100,15005.752687689266,-0.015735027559392267,0.002696998635453531,0.9998725594324838,27.495300468297934,0.02976985248777448,-70.1447756094916,22.547016794190395,-46.717926025390625,5356.25390625,True
1599561249.430154,0.0,10,0.5,0.5,-3.3385878082275395,-0.1005,-0.0155,-0.5,0.08089902480590067,10,1,100,0.13405762343829256,-10,-1,-100,15006.691153055057,-0.0153733265402061,0.0031750588052298946,0.9998767823250381,27.34195301200702,0.0295213787277142,-68.60599781753842,22.175243354711885,-49.717620849609375,5356.25390625,True
1599561249.46905,0.0,10,0.5,0.5,-1.801546447753906,-0.1005,-0.0155,-0.5,0.11773065611932393,10,1,100,0.0991776712839914,-10,-1,-100,15007.974337870488,-0.014728837499032402,0.003941882481407437,0.9998837546977299,27.007007318546865,0.028840922449603793,-66.06535694204302,21.617617369020504,-54.732818603515625,5356.25390625,True
1599561249.5009658,0.0,10,0.5,0.5,-4.277775846862793,-0.1005,-0.0155,-0.5,0.04139106799938466,10,1,100,0.16341054380780384,-10,-1,-100,15007.974337870488,-0.014728837499032402,0.003941882481407437,0.9998837546977299,27.007007318546865,0.028840922449603793,-66.06535694204302,21.617617369020504,-54.732818603515625,5356.25390625,True
1599561249.5318828,0.0,10,0.5,0.5,-0.8626563079833987,-0.1005,-0.0155,-0.5,0.12563608655517572,10,1,100,0.07886212148644366,-10,-1,-100,15009.258497805218,-0.013962179401506921,0.004704630109207219,0.9998914561100599,26.502468331457777,0.027763615418417206,-63.162876255654304,21.060041936041493,-60.367706298828125,5356.25390625,True
1599561249.5582256,0.0,10,0.5,0.5,-2.432655850219727,-0.1005,-0.0155,-0.5,0.07709897498635358,10,1,100,0.12430013754243888,-10,-1,-100,15009.664740722976,-0.01368082193491901,0.004953348701528303,0.9998941441211794,26.28770547826767,0.02731658201196286,-62.09951535767394,20.87419688961369,-62.383758544921875,5356.25390625,True
1599561249.5901403,0.0,10,0.5,0.5,0.47565053405761715,-0.1005,-0.0155,-0.5,0.1362949451510564,10,1,100,0.04969531423763694,-10,-1,-100,15010.883468978107,-0.012749604099963993,0.005713933714998687,0.999902394514982,25.47497345554694,0.025734546882321963,-58.57643015609234,20.31670973985074,-68.83905029296875,5356.25390625,True
1599561249.618066,0.0,10,0.5,0.5,-1.3335262329101565,-0.1005,-0.0155,-0.5,0.08758648225542018,10,1,100,0.10546783970292435,-10,-1,-100,15011.289711044636,-0.012413570776943803,0.005958512061220478,0.9999051952033162,25.1420062380706,0.0251386586794334,-57.28350043436201,20.13089835657441,-71.12258911132812,5356.25390625,True
1599561249.6509814,0.0,10,0.5,0.5,-2.429448460388184,-0.1005,-0.0155,-0.5,0.0635428275468239,10,1,100,0.13868210872657075,-10,-1,-100,15011.289711044636,-0.012413570776943803,0.005958512061220478,0.9999051952033162,25.1420062380706,0.0251386586794334,-57.28350043436201,20.13089835657441,-71.12258911132812,5356.25390625,True
1599561249.685024,0.0,10,0.5,0.5,1.8847137756347656,-0.1005,-0.0155,-0.5,0.13932645640169944,10,1,100,0.020591144077174522,-10,-1,-100,15012.50550977129,-0.011343318672270402,0.006644078595461755,0.9999135889371225,23.93894999490537,0.023221037946239007,-53.03647623515011,19.573522743607416,-78.23684692382812,5356.25390625,True
1599561249.7199252,0.0,10,0.5,0.5,-1.6193376113891602,-0.1005,-0.0155,-0.5,0.07120966971933107,10,1,100,0.12714609619872513,-10,-1,-100,15012.50550977129,-0.011343318672270402,0.006644078595461755,0.9999135889371225,23.93894999490537,0.023221037946239007,-53.03647623515011,19.573522743607416,-78.23684692382812,5356.25390625,True
1599561249.7518148,0.0,10,0.5,0.5,1.4261158065795898,-0.1005,-0.0155,-0.5,0.11904778103192193,10,1,100,0.04098746836239796,-10,-1,-100,15013.253541670158,-0.010564050881837539,0.00707538226197621,0.9999191666303898,22.963980378788698,0.021903301015566718,-49.91351921059917,19.20198921154155,-83.22702026367188,5356.25390625,True
1599561249.7848814,0.0,10,0.5,0.5,1.9719992385864258,-0.1005,-0.0155,-0.5,0.11619232331855776,10,1,100,0.03318404210611216,-10,-1,-100,15014.00645769341,-0.009789057447894491,0.007437972049179907,0.9999244226070677,21.888718632002142,0.020651872880923915,-46.658615229172824,18.830494470775328,-88.20458984375,5356.25390625,True
1599561249.8177938,0.0,10,0.5,0.5,1.0287496475219726,-0.1005,-0.0155,-0.5,0.10065622358519942,10,1,100,0.06343406407034397,-10,-1,-100,15014.41074766242,-0.009364008871303953,0.007623183594909308,0.9999270985475573,21.32285632303833,0.02006962687116714,-45.00539017233622,18.644760067147196,-90.69194030761719,5356.25390625,True
1599561249.8547037,0.0,10,0.5,0.5,2.8760088729858397,-0.1005,-0.0155,-0.5,0.11749489440741294,10,1,100,0.01255604458679703,-10,-1,-100,15015.153898250195,-0.008519950741487335,0.007941289915671158,0.999932170876524,21.8750315981614,0.02062844969803456,-45.25360403606332,18.273294359703826,-95.74639129638672,5356.25390625,True
1599561249.8856235,0.0,10,0.5,0.5,4.734842042922974,-0.1005,-0.0155,-0.5,0.1288890066780067,10,1,100,-0.045108010189757144,-10,-1,-100,15016.184153546114,-0.007233353969739936,0.008331117900817815,0.999939133680081,23.03743719535621,0.022067818947162754,-46.20902326188939,17.71608236097033,-102.9590835571289,5356.25390625,True
1599561249.9195328,0.0,10,0.5,0.5,3.8795771919250486,-0.1005,-0.0155,-0.5,0.1124013242815198,10,1,100,-0.012604511844332922,-10,-1,-100,15016.929259358207,-0.006365068223987228,0.008532548257165542,0.999943339158146,23.6378076629377,0.022988841602332704,-46.421604210382554,17.344595993290415,-107.4356689453125,5356.25390625,True
1599561249.9524424,0.0,10,0.5,0.5,4.224604766845703,-0.1005,-0.0155,-0.5,0.1099427493721283,10,1,100,-0.01839626432652683,-10,-1,-100,15017.611866501626,-0.005528869374261164,0.008690753705085218,0.9999469497945778,24.093380591451567,0.023815995624269642,-46.30527895478549,16.973101453471898,-111.63799285888672,5356.25390625,True
1599561249.9896162,0.0,10,0.5,0.5,3.3860505084991455,-0.1005,-0.0155,-0.5,0.10132675457989498,10,1,100,0.0179469882592505,-10,-1,-100,15017.891159114079,-0.005105340626565157,0.008753765758133835,0.9999486522227722,24.287179350590726,0.024200351068785212,-46.168082922290715,16.78735177784357,-113.6360092163086,5356.25390625,True
1599561250.0214984,0.0,10,0.5,0.5,4.728609189605713,-0.1005,-0.0155,-0.5,0.10580036525414484,10,1,100,-0.03111928048766425,-10,-1,-100,15018.572792107007,-0.004280901349278997,0.008849177490946747,0.9999516818033617,24.65709297267509,0.024937881910191254,-45.83625354602373,16.415848371671803,-117.4256362915039,5356.25390625,True
1599561250.0584323,0.0,10,0.5,0.5,2.8945382755279545,-0.1005,-0.0155,-0.5,0.09647970186240222,10,1,100,0.0506184055086526,-10,-1,-100,15018.572792107007,-0.004280901349278997,0.008849177490946747,0.9999516818033617,24.65709297267509,0.024937881910191254,-45.83625354602373,16.415848371671803,-117.4256362915039,5356.25390625,True
1599561250.0906887,0.0,10,0.5,0.5,7.010694644927979,-0.1005,-0.0155,-0.5,0.10517880224223011,10,1,100,-0.12391051307326242,-10,-1,-100,15019.875513678067,-0.002700695196100671,0.008926255586312923,0.99995651315778,25.090155070352765,0.0259581611015686,-44.53437166459632,15.672837911749113,-124.17903137207031,5356.25390625,True
1599561250.12161,0.0,10,0.5,0.5,3.697472721862793,-0.1005,-0.0155,-0.5,0.09765608003804614,10,1,100,0.033323766675996506,-10,-1,-100,15019.875513678067,-0.002700695196100671,0.008926255586312923,0.99995651315778,25.090155070352765,0.0259581611015686,-44.53437166459632,15.672837911749113,-124.17903137207031,5356.25390625,True
1599561250.1545172,0.0,10,0.5,0.5,4.663824063873291,-0.1005,-0.0155,-0.5,0.09676098342193945,10,1,100,-0.010601200652974412,-10,-1,-100,15020.155784310191,-0.0023078212769752937,0.008916765359314559,0.9999575817285852,25.145277334342396,0.026117171947487406,-44.1042320728681,15.487086976216824,-125.69541931152344,5356.25390625,True
1599561250.1854365,0.0,10,0.5,0.5,6.443398670196533,-0.1005,-0.0155,-0.5,0.09194226534184785,10,1,100,-0.09328169888527049,-10,-1,-100,15021.051285659545,-0.0012054369916534666,0.008863155368802118,0.9999599948990798,25.21140455895905,0.0263827098138197,-42.63194001370121,14.929843246634551,-129.83116149902344,5356.25390625,True
1599561250.2193105,0.0,10,0.5,0.5,4.42835897026062,-0.1005,-0.0155,-0.5,0.09739545093840503,10,1,100,0.016225278271928822,-10,-1,-100,15021.051285659545,-0.0012054369916534666,0.008863155368802118,0.9999599948990798,25.21140455895905,0.0263827098138197,-42.63194001370121,14.929843246634551,-129.83116149902344,5356.25390625,True
1599561250.2552605,0.0,10,0.5,0.5,5.919050470733643,-0.1005,-0.0155,-0.5,0.08863543797479781,10,1,100,-0.06279604673309361,-10,-1,-100,15021.667493181187,-0.0004925412343151595,0.00878303521688934,0.9999613070991854,25.18867785727593,0.026401887745987902,-41.535495445788506,14.558358121580662,-132.2442169189453,5356.25390625,True
1599561250.2862403,0.0,10,0.5,0.5,6.034332180786134,-0.1005,-0.0155,-0.5,0.08840160473426695,10,1,100,-0.06396868549699207,-10,-1,-100,15022.222178309574,0.00016086750930994928,0.00870784524300042,0.9999620730572079,25.126301068973188,0.02631473022382775,-40.37716993645902,14.186884034084954,-134.38136291503906,5356.25390625,True
1599561250.3191886,0.0,10,0.5,0.5,5.580830734634399,-0.1005,-0.0155,-0.5,0.08882176780017728,10,1,100,-0.035838068172380035,-10,-1,-100,15022.500497849658,0.0004939700852148742,0.008643294847757029,0.9999625240216404,25.0833385078701,0.0262369615242027,-39.78127419074254,14.001151352675905,-135.346923828125,5356.25390625,True
1599561250.3520653,0.0,10,0.5,0.5,6.167055238342286,-0.1005,-0.0155,-0.5,0.08182833279095567,10,1,100,-0.07147564139135257,-10,-1,-100,15023.053230774472,0.001115678264653847,0.008521136416461364,0.9999630720662547,24.980208298581797,0.026025716584211725,-38.56828850488446,13.629695596016585,-137.07107543945312,5356.25390625,True
1599561250.3890135,0.0,10,0.5,0.5,6.205218414688111,-0.1005,-0.0155,-0.5,0.08007232144414392,10,1,100,-0.07352709016647288,-10,-1,-100,15023.605964428396,0.0016946110715413407,0.008394417776743822,0.9999633303494212,24.86096269803557,0.025755707841159808,-37.3397057198986,13.258252965141674,-138.51951599121094,5356.25390625,True
1599561250.4219258,0.0,10,0.5,0.5,5.886577983093263,-0.1005,-0.0155,-0.5,0.08458834405568841,10,1,100,-0.04710979952316845,-10,-1,-100,15023.880378076923,0.0019753241515719127,0.008320687182300281,0.9999634314610263,24.797604559597914,0.02560419707460518,-36.7236184625368,13.072536589100322,-139.14047241210938,5356.25390625,True
1599561250.4538395,0.0,10,0.5,0.5,6.220828031158447,-0.1005,-0.0155,-0.5,0.07593904296915494,10,1,100,-0.07752597166012631,-10,-1,-100,15024.373542082263,0.002502777589801438,0.008175579876023133,0.9999634473309645,24.667484214274705,0.02527850723129399,-35.49448700910345,12.701113518941028,-140.17550659179688,5356.25390625,True
1599561250.4857554,0.0,10,0.5,0.5,6.349973367309571,-0.1005,-0.0155,-0.5,0.06566973638701631,10,1,100,-0.10443848338686998,-10,-1,-100,15025.076667880756,0.003222209483175129,0.007950989242942911,0.9999631988908917,24.507573659688,0.024794403988227857,-33.71970274042562,12.144002308415175,-141.21109008789062,5356.25390625,True
1599561250.5216603,0.0,10,0.5,0.5,6.063843961334229,-0.1005,-0.0155,-0.5,0.07137543636821751,10,1,100,-0.08052350331948267,-10,-1,-100,15025.564949964988,0.003653802266756645,0.0077995639182594214,0.9999629075779164,24.408184961332246,0.024469239478957,-32.557256656792276,11.77260913816821,-141.55682373046875,5356.25390625,True
1599561250.5545707,0.0,10,0.5,0.5,5.909151916503907,-0.1005,-0.0155,-0.5,0.0864116096915122,10,1,100,-0.0378501488871721,-10,-1,-100,15025.564949964988,0.003653802266756645,0.0077995639182594214,0.9999629075779164,24.408184961332246,0.024469239478957,-32.557256656792276,11.77260913816821,-141.55682373046875,5356.25390625,True
1599561250.5855892,0.0,10,0.5,0.5,5.9281055397033695,-0.1005,-0.0155,-0.5,0.06338681729774141,10,1,100,-0.10097782739005909,-10,-1,-100,15026.262216817238,0.004223272762911608,0.007591214525089271,0.9999622680027502,24.26681404641056,0.023992648781051673,-30.838916324362703,11.215539613221134,-141.55812072753906,5356.25390625,True
1599561250.6195302,0.0,10,0.5,0.5,5.859354163360596,-0.1005,-0.0155,-0.5,0.0764938304669317,10,1,100,-0.0633366042847924,-10,-1,-100,15026.477061283076,0.004394493173007126,0.007522044124374319,0.9999620529209813,24.22211030303569,0.02384049954808725,-30.27308385053432,11.029854687975094,-141.42066955566406,5356.25390625,True
1599561250.6565928,0.0,10,0.5,0.5,5.815135717010498,-0.1005,-0.0155,-0.5,0.0749130700152813,10,1,100,-0.06467036743420738,-10,-1,-100,15026.690929201315,0.004558424460212554,0.007445869393362656,0.9999618891714912,24.17849622076446,0.02369292503223736,-29.71044984468029,10.844172075124218,-141.21441650390625,5356.25390625,True
1599561250.689503,0.0,10,0.5,0.5,5.307000846099854,-0.1005,-0.0155,-0.5,0.06197734727867267,10,1,100,-0.09515867284651514,-10,-1,-100,15027.32667292899,0.004980924357443016,0.007260110727068696,0.9999612398412132,24.052269412278633,0.02328361823501883,-28.03880850165681,10.287137010173618,-140.1813507080078,5356.25390625,True
1599561250.723411,0.0,10,0.5,0.5,5.207870379638672,-0.1005,-0.0155,-0.5,0.06645192152103097,10,1,100,-0.07940479695691141,-10,-1,-100,15027.751478775288,0.005218284259480866,0.0071330635469041654,0.999960943694214,23.968225263360306,0.023042534289276752,-26.933244748613664,9.915790310390442,-139.1480712890625,5356.25390625,True
1599561250.7583191,0.0,10,0.5,0.5,5.353140630340577,-0.1005,-0.0155,-0.5,0.07222801547808111,10,1,100,-0.06749797493889262,-10,-1,-100,15027.899916474009,0.005322618812816977,0.007071222741118538,0.9999608330019325,23.924646976203203,0.022932175560725243,-26.38136669611731,9.730119745345919,-138.52801513671875,5356.25390625,True
1599561250.7922337,0.0,10,0.5,0.5,5.2484043800354,-0.1005,-0.0155,-0.5,0.07227492028132929,10,1,100,-0.06760124001426379,-10,-1,-100,15028.110854230239,0.005415364185024776,0.007016566110834935,0.9999607200439204,23.879232339264636,0.022828760776275627,-25.829314791456685,9.544451098081494,-137.83889770507812,5356.25390625,True
1599561250.8211508,0.0,10,0.5,0.5,4.637645612335206,-0.1005,-0.0155,-0.5,0.06485586053545364,10,1,100,-0.07634302166396052,-10,-1,-100,15028.47413572867,0.0055765010960334505,0.006900485916310234,0.9999606421903038,23.779429321398595,0.0226418483926306,-24.721550937290267,9.173118988104717,-136.25405883789062,5356.25390625,True
1599561250.8540618,0.0,10,0.5,0.5,4.884464273834229,-0.1005,-0.0155,-0.5,0.06985482848221178,10,1,100,-0.06786749439998957,-10,-1,-100,15028.684096950921,0.005643798683993548,0.006841358632918882,0.9999606709008462,23.723242135906904,0.02255770916643416,-24.16438465238682,8.987455460735227,-135.3582763671875,5356.25390625,True
1599561250.886129,0.0,10,0.5,0.5,4.1227190284729005,-0.1005,-0.0155,-0.5,0.06294071038752555,10,1,100,-0.07303124884676437,-10,-1,-100,15029.038588235271,0.005750112444003192,0.006725622033779906,0.9999608503412222,23.592982658110763,0.022405049229274318,-23.039617505338914,8.61613346169417,-133.35989379882812,5356.25390625,True
1599561250.9230306,0.0,10,0.5,0.5,2.9987594764709478,-0.1005,-0.0155,-0.5,0.0557210878391419,10,1,100,-0.0726716798749141,-10,-1,-100,15029.490735123283,0.00584158677137946,0.006555750322199603,0.9999614482577341,23.334784048767048,0.022200434768128163,-21.31549499920429,8.059162522295036,-129.8454132080078,5356.25390625,True
1599561250.956937,0.0,10,0.5,0.5,4.737845075225831,-0.1005,-0.0155,-0.5,0.07260471257688321,10,1,100,-0.0636860785381341,-10,-1,-100,15029.490735123283,0.00584158677137946,0.006555750322199603,0.9999614482577341,23.334784048767048,0.022200434768128163,-21.31549499920429,8.059162522295036,-129.8454132080078,5356.25390625,True
1599561250.992844,0.0,10,0.5,0.5,3.1060321891784675,-0.1005,-0.0155,-0.5,0.05991322418370683,10,1,100,-0.06573660605937096,-10,-1,-100,15029.844249219517,0.005858912391028547,0.006441251603899976,0.9999620909931383,23.10426849275017,0.0220628397798631,-20.133210837479727,7.687855841461516,-127.15786743164062,5356.25390625,True
1599561251.0287507,0.0,10,0.5,0.5,1.6969042823791507,-0.1005,-0.0155,-0.5,0.05159996271805262,10,1,100,-0.06010060504253,-10,-1,-100,15030.286628599511,0.00582224431971024,0.006262500044657516,0.9999634406138419,22.639427735213637,0.021813288967619537,-18.299761245247026,7.130904713697707,-122.60980224609375,5356.25390625,True
1599561251.0656493,0.0,10,0.5,0.5,1.9161429992675783,-0.1005,-0.0155,-0.5,0.055356131086562094,10,1,100,-0.05665686745315007,-10,-1,-100,15030.521000619396,0.0057568381677335365,0.006135052531134831,0.9999646093461261,22.258706496942757,0.021614760046527796,-17.055686213817804,6.7596083239716505,-119.23335266113281,5356.25390625,True
1599561251.1015544,0.0,10,0.5,0.5,3.5734999778747563,-0.1005,-0.0155,-0.5,0.06800108133725372,10,1,100,-0.06325133804164568,-10,-1,-100,15030.521000619396,0.0057568381677335365,0.006135052531134831,0.9999646093461261,22.258706496942757,0.021614760046527796,-17.055686213817804,6.7596083239716505,-119.23335266113281,5356.25390625,True
1599561251.1364598,0.0,10,0.5,0.5,1.3505624130249023,-0.1005,-0.0155,-0.5,0.053390026278300765,10,1,100,-0.053092858070633867,-10,-1,-100,15030.812012303155,0.005664093604947141,0.00600307582169888,0.9999659399821142,21.79540836490205,0.021351171117171965,-15.783765797846783,6.388313043233344,-115.58134460449219,5356.25390625,True
1599561251.1703684,0.0,10,0.5,0.5,-0.4575699806213378,-0.1005,-0.0155,-0.5,0.04190651402009206,10,1,100,-0.04099799981639623,-10,-1,-100,15031.129389146925,0.005469600991539238,0.005779622783763515,0.9999683392115327,20.90489794152789,0.020760685494246683,-13.819549787812063,5.831367402989477,-109.58694458007812,5356.25390625,True
1599561251.206273,0.0,10,0.5,0.5,1.2157370063781738,-0.1005,-0.0155,-0.5,0.05512628740120486,10,1,100,-0.051721891957187946,-10,-1,-100,15031.275871004676,0.005390376635270608,0.005697682382861978,0.9999692396544975,20.59837021019637,0.0205457140175267,-13.183547063854737,5.645716678085165,-107.45112609863281,5356.25390625,True
1599561251.2421792,0.0,10,0.5,0.5,0.9164560783386229,-0.1005,-0.0155,-0.5,0.05408771951482427,10,1,100,-0.05054851202712924,-10,-1,-100,15031.360829621204,0.005307917786615614,0.005614789288757173,0.9999701496294844,20.259166519151574,0.02029134630954422,-12.540195480105329,5.460064065760124,-105.24640655517578,5356.25390625,True
1599561251.2770839,0.0,10,0.5,0.5,-0.7604088359832764,-0.1005,-0.0155,-0.5,0.04275951511672289,10,1,100,-0.03880710529325699,-10,-1,-100,15031.589340421371,0.005126617130855315,0.005437458102083722,0.9999720755332028,19.467932068430773,0.019642744619600756,-11.231159117687461,5.088750979464206,-100.69078826904297,5356.25390625,True
1599561251.3169782,0.0,10,0.5,0.5,-1.3578710189819336,-0.1005,-0.0155,-0.5,0.03855746023643808,10,1,100,-0.034144043066475165,-10,-1,-100,15031.758280050824,0.004920056850502958,0.005239064062759919,0.9999741722906319,18.53003404276973,0.018799832325048872,-9.9101984276811,4.71742562233263,-95.97791290283203,5356.25390625,True
1599561251.3488932,0.0,10,0.5,0.5,-3.534225511550903,-0.1005,-0.0155,-0.5,0.02215809846192788,10,1,100,-0.01748452208779113,-10,-1,-100,15032.007294746465,0.004581662341213575,0.004910817725660405,0.9999774458653836,16.993928279398695,0.017290530743725337,-8.01568013353104,4.160410368404339,-88.5169677734375,5356.25390625,True
1599561251.3848016,0.0,10,0.5,0.5,0.13635365867614743,-0.1005,-0.0155,-0.5,0.05482968878405532,10,1,100,-0.05119624801174793,-10,-1,-100,15032.007294746465,0.004581662341213575,0.004910817725660405,0.9999774458653836,16.993928279398695,0.017290530743725337,-8.01568013353104,4.160410368404339,-88.5169677734375,5356.25390625,True
1599561251.419707,0.0,10,0.5,0.5,-4.2609156803131105,-0.1005,-0.0155,-0.5,0.014767084852049715,10,1,100,-0.010991197957926427,-10,-1,-100,15032.25337987463,0.0042172896879774675,0.004547841037477624,0.9999807656198122,17.90230418778056,0.018128920498182453,-7.313653606966351,3.603353464578483,-81.28228759765625,5356.25390625,True
1599561251.4556112,0.0,10,0.5,0.5,-2.0740679714202885,-0.1005,-0.0155,-0.5,0.03683762439477624,10,1,100,-0.03353947302447009,-10,-1,-100,15032.333454883657,0.0040924257297129995,0.004419946418148662,0.9999818578980858,18.3047173338747,0.018494462329293093,-7.092725380880788,3.417659602173727,-78.99807739257812,5356.25390625,True
1599561251.4885237,0.0,10,0.5,0.5,-3.710486832046509,-0.1005,-0.0155,-0.5,0.0181433756136905,10,1,100,-0.016633677510011248,-10,-1,-100,15032.436964644818,0.003826737092466603,0.004135290053578813,0.9999841276037326,19.001559268458255,0.01911356689326449,-6.562719464497414,3.0462652861947537,-74.47491455078125,5356.25390625,True
1599561251.52742,0.0,10,0.5,0.5,-2.8443750011444093,-0.1005,-0.0155,-0.5,0.03140469073867411,10,1,100,-0.028965710207748206,-10,-1,-100,15032.518016740563,0.003698981679960652,0.003998766937622547,0.9999851635886954,19.31147642094581,0.019386563981627452,-6.263213872341735,2.8605663211399035,-72.25717163085938,5356.25390625,True
1599561251.5683072,0.0,10,0.5,0.5,-4.34774376335144,-0.1005,-0.0155,-0.5,0.012341886095074639,10,1,100,-0.012330535271921697,-10,-1,-100,15032.620550093474,0.0034332211867309816,0.0037029757498533477,0.9999872504001633,19.833725935131124,0.01984274760697473,-5.597498201249434,2.48916678493858,-68.00341796875,5356.25390625,True
1599561251.608203,0.0,10,0.5,0.5,-5.810791366958618,-0.1005,-0.0155,-0.5,-0.009709171785387438,10,1,100,0.005655309341150994,-10,-1,-100,15032.740659461939,0.0030298922922656563,0.0032354238771798824,0.9999901758442591,20.36861438851286,0.020310166005873556,-4.46197710113732,1.9320614557102784,-62.12701416015625,5356.25390625,True
1599561251.650093,0.0,10,0.5,0.5,-5.085449667358398,-0.1005,-0.0155,-0.5,0.0008577521900273166,10,1,100,-0.004717361955988847,-10,-1,-100,15032.841240732581,0.0027595976049933136,0.0029086027249001184,0.9999919622933212,20.58289802247144,0.020503937669987357,-3.642196719670975,1.5606502311052108,-58.55328369140625,5356.25390625,True
1599561251.6875038,0.0,10,0.5,0.5,-4.374840634536744,-0.1005,-0.0155,-0.5,0.015025195775148017,10,1,100,-0.016593659725756174,-10,-1,-100,15032.857839918695,0.0026239933413125796,0.002742586487580688,0.9999927964132055,20.64907148519709,0.0205660085944321,-3.21913541468283,1.374941358653277,-56.869781494140625,5356.25390625,True
1599561251.7254028,0.0,10,0.5,0.5,-7.2234444900512695,-0.1005,-0.0155,-0.5,-0.042181392035990674,10,1,100,0.029622205850418474,-10,-1,-100,15032.931074503227,0.0020826598359186795,0.00207387227134829,0.9999956807815771,20.690196145564993,0.02061650533395209,-1.4828639440211155,0.6320751814813175,-50.82525634765625,5356.25390625,True
1599561251.7623048,0.0,10,0.5,0.5,-5.825983982849121,-0.1005,-0.0155,-0.5,-0.013914191642907671,10,1,100,0.00543872507751841,-10,-1,-100,15032.908610719605,0.0018126601130463117,0.0017255038469416934,0.9999968684449909,20.607834977943657,0.020547971542549462,-0.6089968477068092,0.2606199627695287,-48.216796875,5356.25390625,True
1599561251.8012047,0.0,10,0.5,0.5,-4.584219511413575,-0.1005,-0.0155,-0.5,0.0206041194098801,10,1,100,-0.021284346986901643,-10,-1,-100,15032.908610719605,0.0018126601130463117,0.0017255038469416934,0.9999968684449909,20.607834977943657,0.020547971542549462,-0.6089968477068092,0.2606199627695287,-48.216796875,5356.25390625,True
1599561251.8391025,0.0,10,0.5,0.5,-7.2718947280883794,-0.1005,-0.0155,-0.5,-0.05189895440933509,10,1,100,0.038816477430029646,-10,-1,-100,15032.913488808903,0.001268475008869601,0.0010689507551220425,0.9999986241567709,20.43553372429646,0.020410736173279567,1.1177077370834887,-0.4823387391250189,-43.826416015625,5356.25390625,True
1599561251.8770015,0.0,10,0.5,0.5,-6.2008976501464845,-0.1005,-0.0155,-0.5,-0.024466246829653635,10,1,100,0.014420775657964926,-10,-1,-100,15032.883213518304,0.0009981076127466737,0.0007245189184313064,0.999999239426476,20.397280796610758,0.02039167411821734,1.9749021526466668,-0.8538368413766717,-42.04510498046875,5356.25390625,True
1599561251.9099147,0.0,10,0.5,0.5,-5.833479055786133,-0.1005,-0.0155,-0.5,-0.006912715926118338,10,1,100,0.002906954086641586,-10,-1,-100,15032.840244227205,0.0008595616573557883,0.0005740773215947286,0.9999994657943503,20.374810834367302,0.02037954138607646,2.4019194554159347,-1.039589961801144,-41.257476806640625,5356.25390625,True
1599561251.9543104,0.0,10,0.5,0.5,-6.309351992797852,-0.1005,-0.0155,-0.5,-0.026709666828857018,10,1,100,0.01987332724317572,-10,-1,-100,15032.809969707974,0.0005819523237797684,0.0002604533068238769,0.9999997967477632,20.32917089750633,0.020356699532059618,3.2530484742871493,-1.4111036340807483,-39.88922119140625,5356.25390625,True
1599561251.9872196,0.0,10,0.5,0.5,-6.324810055541993,-0.1005,-0.0155,-0.5,-0.030817173208521162,10,1,100,0.022760875858015985,-10,-1,-100,15032.719148986856,0.00030592182299661255,-5.887083510745366e-05,0.9999999514730303,20.29283369763897,0.020346823287862054,4.102276070613906,-1.7826265893522115,-38.796783447265625,5356.25390625,True
1599561252.0241203,0.0,10,0.5,0.5,-5.81475304107666,-0.1005,-0.0155,-0.5,0.0007858115133831618,10,1,100,-0.004569777173372689,-10,-1,-100,15032.719148986856,0.00030592182299661255,-5.887083510745366e-05,0.9999999514730303,20.29283369763897,0.020346823287862054,4.102276070613906,-1.7826265893522115,-38.796783447265625,5356.25390625,True
1599561252.0650146,0.0,10,0.5,0.5,-6.335975759887695,-0.1005,-0.0155,-0.5,-0.032883535504115234,10,1,100,0.026460432058922494,-10,-1,-100,15032.627352328156,2.605962614119876e-05,-0.00036225810475743223,0.9999999340449783,20.277595520162432,0.02036279426324438,4.953661739518302,-2.1541577518430652,-37.97979736328125,5356.25390625,True
1599561252.101916,0.0,10,0.5,0.5,-6.441406449890137,-0.1005,-0.0155,-0.5,-0.06800335268341423,10,1,100,0.06114860737961654,-10,-1,-100,15032.441806991003,-0.0005413458432653311,-0.0009545131928034599,0.99999939792444,20.29624607325789,0.02046205345038554,6.668934394866389,-2.897241943031941,-37.1727294921875,5356.25390625,True
1599561252.13782,0.0,10,0.5,0.5,-6.059033930969239,-0.1005,-0.0155,-0.5,-0.009080682425226645,10,1,100,0.004670461006881957,-10,-1,-100,15032.441806991003,-0.0005413458432653311,-0.0009545131928034599,0.99999939792444,20.29624607325789,0.02046205345038554,6.668934394866389,-2.897241943031941,-37.1727294921875,5356.25390625,True
1599561252.1677394,0.0,10,0.5,0.5,-6.0703612808227545,-0.1005,-0.0155,-0.5,-0.03936277389911104,10,1,100,0.03678750470603477,-10,-1,-100,15032.347081220942,-0.0008311789623882552,-0.0012273685543480952,0.9999989013533785,20.33558371324358,0.020551941555995008,7.538991155131679,-3.2687938258840856,-37.182373046875,5356.25390625,True
1599561252.2046378,0.0,10,0.5,0.5,-5.921178367614746,-0.1005,-0.0155,-0.5,-0.039428067198827826,10,1,100,0.040582829658394715,-10,-1,-100,15032.191809436074,-0.0011267630801801542,-0.0014733280290212892,0.9999982798532606,20.401671108806884,0.02067546527771762,8.423490936264564,-3.640351084641188,-37.467315673828125,5356.25390625,True
1599561252.241542,0.0,10,0.5,0.5,-5.925763641357422,-0.1005,-0.0155,-0.5,-0.02991474651556233,10,1,100,0.027389069865045773,-10,-1,-100,15032.082435739343,-0.001273355154515936,-0.0016081316554361943,0.9999978962374017,20.44677044571046,0.02075166442176271,8.873094494658105,-3.82613155838129,-37.713348388671875,5356.25390625,True
1599561252.2764497,0.0,10,0.5,0.5,-5.636218113708496,-0.1005,-0.0155,-0.5,-0.041944834325060854,10,1,100,0.04589548678882581,-10,-1,-100,15031.92521137034,-0.0015727958643398628,-0.0018379242499234878,0.9999970741695301,20.55229566375401,0.020923298283637874,9.785370840990293,-4.197695508653322,-38.41156005859375,5356.25390625,True
1599561252.3103585,0.0,10,0.5,0.5,-5.050720837402344,-0.1005,-0.0155,-0.5,-0.05360408470653784,10,1,100,0.06627441786273233,-10,-1,-100,15031.656660391367,-0.0020280664671046777,-0.0021506270651330743,0.9999956308652712,20.7434029098622,0.021219625375585926,11.188351774602117,-4.755047358391776,-39.97528076171875,5356.25390625,True
1599561252.5562532,0.0,10,0.5,0.5,-5.832447796630859,-0.1005,-0.0155,-0.5,-0.022574911222774885,10,1,100,0.02100835946533929,-10,-1,-100,15031.656660391367,-0.0020280664671046777,-0.0021506270651330743,0.9999956308652712,20.7434029098622,0.021219625375585926,11.188351774602117,-4.755047358391776,-39.97528076171875,5356.25390625,True
1599561252.5851727,0.0,10,0.5,0.5,-4.997896516418457,-0.1005,-0.0155,-0.5,-0.04298895882912104,10,1,100,0.05500082408174334,-10,-1,-100,15031.435960058472,-0.002334967065171895,-0.002334307719527107,0.9999945494532834,20.886490429072065,0.02143208055327839,12.146350869371139,-5.1266176715910365,-41.36199951171875,5356.25390625,True
1599561252.6180878,0.0,10,0.5,0.5,-4.689201452636719,-0.1005,-0.0155,-0.5,-0.04282157883393573,10,1,100,0.058445327620582674,-10,-1,-100,15031.272877133219,-0.0026428804693241154,-0.002497699917306889,0.9999933883171168,21.03461669715479,0.021643176400728742,13.11966815313797,-5.49818823216902,-43.024078369140625,5356.25390625,True
1599561252.6529949,0.0,10,0.5,0.5,-4.951414356994629,-0.1005,-0.0155,-0.5,-0.03445896859433731,10,1,100,0.044805818008531985,-10,-1,-100,15031.103933571838,-0.0027963798947207045,-0.002568273238735296,0.9999927920900509,21.107905342139585,0.021743692187473036,13.610554213167273,-5.6839731907216215,-43.95831298828125,5356.25390625,True
1599561252.688898,0.0,10,0.5,0.5,-4.805663105773926,-0.1005,-0.0155,-0.5,-0.03468757286061003,10,1,100,0.046533053549016455,-10,-1,-100,15030.992606989807,-0.002949576937220685,-0.0026330419696854804,0.99999218351239,21.17936622166382,0.021838485228817133,14.103342954708268,-5.869757840635462,-44.961395263671875,5356.25390625,True
1599561252.7716777,0.0,10,0.5,0.5,-3.2400942901611325,-0.1005,-0.0155,-0.5,-0.046392793724660465,10,1,100,0.08181525771891701,-10,-1,-100,15030.656674404046,-0.0034074049854979855,-0.002796807797698032,0.9999902836815003,21.368629284591865,0.02206544816727202,15.581654769725159,-6.427108348238145,-48.38360595703125,5356.25390625,True
1599561252.804589,0.0,10,0.5,0.5,-3.3571587097167974,-0.1005,-0.0155,-0.5,-0.03907017125000009,10,1,100,0.06949398952254329,-10,-1,-100,15030.37249830633,-0.003709258749398398,-0.0028776897649913026,0.999988980089854,21.45875321707366,0.022143122019890823,16.552845956973837,-6.798671441301915,-51.00921630859375,5356.25390625,True
1599561252.846477,0.0,10,0.5,0.5,-2.907087785339356,-0.1005,-0.0155,-0.5,-0.03602726356360772,10,1,100,0.07130477652437903,-10,-1,-100,15030.083439085167,-0.003997785238716172,-0.0029222793365307363,0.9999877389231651,21.504490363968362,0.022136399314424616,17.495656529460273,-7.170230737153627,-53.909942626953125,5356.25390625,True
1599561252.8773947,0.0,10,0.5,0.5,-4.332346223449707,-0.1005,-0.0155,-0.5,-0.03169972117777381,10,1,100,0.04272457060102164,-10,-1,-100,15030.083439085167,-0.003997785238716172,-0.0029222793365307363,0.9999877389231651,21.504490363968362,0.022136399314424616,17.495656529460273,-7.170230737153627,-53.909942626953125,5356.25390625,True
1599561252.9083114,0.0,10,0.5,0.5,-2.401120483398438,-0.1005,-0.0155,-0.5,-0.03469152982771341,10,1,100,0.07408006994625388,-10,-1,-100,15029.79535639903,-0.00428063069696885,-0.0029484918196332715,0.9999864912071691,21.490860604209672,0.02202375433408373,18.39165503854099,-7.541786762189467,-57.085968017578125,5356.25390625,True
1599561252.938232,0.0,10,0.5,0.5,-0.7918990432739257,-0.1005,-0.0155,-0.5,-0.03119517979747341,10,1,100,0.09031379195680726,-10,-1,-100,15029.33637688402,-0.00468329443708553,-0.002939811017856576,0.9999847120153362,21.323446940321944,0.021615923419080422,19.59868231795813,-8.09911675596166,-62.3660888671875,5356.25390625,True
1599561252.975133,0.0,10,0.5,0.5,-2.2577001419067386,-0.1005,-0.0155,-0.5,-0.0306608675999335,10,1,100,0.06464584180938972,-10,-1,-100,15029.158643909614,-0.004813593537696915,-0.0029263445563067416,0.9999841327865115,21.220437634162195,0.02141032068010596,19.952006985355474,-8.284893280463068,-64.26376342773438,5356.25390625,True
1599561253.0080457,0.0,10,0.5,0.5,-0.773217971801758,-0.1005,-0.0155,-0.5,-0.026510606328320502,10,1,100,0.07771646846923605,-10,-1,-100,15028.810013829381,-0.0050486178474581185,-0.002875834455304247,0.9999831203745471,20.931482121409896,0.020891416598206827,20.56425361924698,-8.65644849565262,-68.25680541992188,5356.25390625,True
1599561253.0409582,0.0,10,0.5,0.5,-2.730628240966797,-0.1005,-0.0155,-0.5,-0.03159942988236971,10,1,100,0.05445461123092914,-10,-1,-100,15028.810013829381,-0.0050486178474581185,-0.002875834455304247,0.9999831203745471,20.931482121409896,0.020891416598206827,20.56425361924698,-8.65644849565262,-68.25680541992188,5356.25390625,True
1599561253.079051,0.0,10,0.5,0.5,2.5287894882202147,-0.1005,-0.0155,-0.5,-0.01471012791382383,10,1,100,0.10093900977548434,-10,-1,-100,15028.104940582649,-0.0054691557997243135,-0.0027220157453933125,0.9999813393084492,19.98691494223567,0.019454954487436595,21.324884016472282,-9.399577405978825,-76.95248413085938,5356.25390625,True
1599561253.1129613,0.0,10,0.5,0.5,1.0605904891967772,-0.1005,-0.0155,-0.5,-0.018625948929009095,10,1,100,0.07947683103582778,-10,-1,-100,15027.690879757982,-0.005654061787003519,-0.0026176980421798676,0.9999805894327493,19.308403735623525,0.01857151476423011,21.416897132900264,-9.77115672495357,-81.66531372070312,5356.25390625,True
1599561253.140886,0.0,10,0.5,0.5,-1.2442376586914063,-0.1005,-0.0155,-0.5,-0.02903980827480178,10,1,100,0.0612108979880578,-10,-1,-100,15027.690879757982,-0.005654061787003519,-0.0026176980421798676,0.9999805894327493,19.308403735623525,0.01857151476423011,21.416897132900264,-9.77115672495357,-81.66531372070312,5356.25390625,True
1599561253.1728013,0.0,10,0.5,0.5,0.229411814880371,-0.1005,-0.0155,-0.5,-0.02295876369908393,10,1,100,0.06940144889901495,-10,-1,-100,15027.51607577398,-0.005726753337978034,-0.0025626521748758975,0.9999803183613347,18.94614302252195,0.018131847454376005,21.41547345827474,-9.956950852339347,-84.04022216796875,5356.25390625,True
1599561253.204716,0.0,10,0.5,0.5,3.2198688026428224,-0.1005,-0.0155,-0.5,-0.007882675074975563,10,1,100,0.08418003759027064,-10,-1,-100,15026.860804398428,-0.005925615583239679,-0.0023758820599818985,0.999979620924545,17.782693545437454,0.016877399827169796,21.22810312320237,-10.514348953266248,-90.91983795166016,5356.25390625,True
1599561253.2406192,0.0,10,0.5,0.5,1.2382416706085206,-0.1005,-0.0155,-0.5,-0.019000686301455055,10,1,100,0.07049019576623583,-10,-1,-100,15026.684046699782,-0.005980193762036746,-0.0023076606005703938,0.999979455781528,17.803217356605018,0.016900124437570756,21.629035240582315,-10.700150320655665,-93.2525863647461,5356.25390625,True
1599561253.2731185,0.0,10,0.5,0.5,4.269076750183106,-0.1005,-0.0155,-0.5,-0.003389710770975829,10,1,100,0.0777507438325137,-10,-1,-100,15025.966274180915,-0.006094270213304726,-0.002104305706481999,0.9999792156680362,19.29537143520954,0.018485678148603375,24.66605765244078,-11.257532590265058,-100.14875793457031,5356.25390625,True
1599561253.3010433,0.0,10,0.5,0.5,2.1914847854614257,-0.1005,-0.0155,-0.5,-0.015711883968784403,10,1,100,0.06950146226009954,-10,-1,-100,15025.790492816479,-0.006121699904002562,-0.002032216927573877,0.9999791972259445,19.770132839975723,0.01904046133356311,25.69115915275017,-11.4433176618783,-102.33348846435547,5356.25390625,True
1599561253.3359506,0.0,10,0.5,0.5,1.1581275943756104,-0.1005,-0.0155,-0.5,-0.02283134909672333,10,1,100,0.06688930382694655,-10,-1,-100,15025.790492816479,-0.006121699904002562,-0.002032216927573877,0.9999791972259445,19.770132839975723,0.01904046133356311,25.69115915275017,-11.4433176618783,-102.33348846435547,5356.25390625,True
1599561253.364873,0.0,10,0.5,0.5,4.903211452484131,-0.1005,-0.0155,-0.5,0.0003377924528179914,10,1,100,0.07126966375707604,-10,-1,-100,15025.065883101546,-0.0061605458287705165,-0.0018223552930578017,0.9999793631351985,20.98193688401768,0.02060472964075068,28.597614622538718,-12.000641819832957,-108.48213958740234,5356.25390625,True
1599561253.3987827,0.0,10,0.5,0.5,1.8912351589202883,-0.1005,-0.0155,-0.5,-0.020543023082564896,10,1,100,0.06749626407841179,-10,-1,-100,15025.065883101546,-0.0061605458287705165,-0.0018223552930578017,0.9999793631351985,20.98193688401768,0.02060472964075068,28.597614622538718,-12.000641819832957,-108.48213958740234,5356.25390625,True
1599561253.4307349,0.0,10,0.5,0.5,4.195380561828613,-0.1005,-0.0155,-0.5,-0.0050656014174955966,10,1,100,0.0668367483925618,-10,-1,-100,15024.589319716906,-0.006153921695236384,-0.0016824693328774767,0.9999796490652763,21.629801100006514,0.021547579533421162,30.396055569174894,-12.37216460698038,-112.23780059814453,5356.25390625,True
1599561253.46265,0.0,10,0.5,0.5,4.454798544692993,-0.1005,-0.0155,-0.5,-0.005031242885895439,10,1,100,0.06432219264762365,-10,-1,-100,15024.050256204675,-0.00612458573988025,-0.0015558381357983638,0.9999800342092885,22.237855120341997,0.022469702280752474,32.191862205945746,-12.74366588694003,-115.71800231933594,5356.25390625,True
1599561253.4951086,0.0,10,0.5,0.5,3.750292309188843,-0.1005,-0.0155,-0.5,-0.010338196926147278,10,1,100,0.06457631179938642,-10,-1,-100,15023.806115085375,-0.006099799114615357,-0.0014899292296436247,0.9999802860865068,22.51450061214071,0.022903878425277167,33.06891163292722,-12.929408448688214,-117.35466003417969,5356.25390625,True
1599561253.524994,0.0,10,0.5,0.5,4.825133552932739,-0.1005,-0.0155,-0.5,-0.0034807346355898786,10,1,100,0.059862896871854566,-10,-1,-100,15023.261191663332,-0.006034077459781857,-0.001368646678629915,0.9999808581745344,22.999577056502368,0.023692695234858667,34.755189621531905,-13.300878272434526,-120.42132568359375,5356.25390625,True
1599561253.55794,0.0,10,0.5,0.5,4.196224891662598,-0.1005,-0.0155,-0.5,-0.009284398474360276,10,1,100,0.062051186770098604,-10,-1,-100,15023.020956462715,-0.005994125443665856,-0.0013120660629529568,0.9999811742942023,23.211216163378786,0.024046632343577366,35.566450232784156,-13.48660590522123,-121.8512954711914,5356.25390625,True
1599561253.593076,0.0,10,0.5,0.5,5.118831867218018,-0.1005,-0.0155,-0.5,-0.0030082036486950518,10,1,100,0.05531347450845939,-10,-1,-100,15022.474079887732,-0.005896540834198563,-0.0012044779089565997,0.99998188985559,23.58055595262834,0.02467407955567725,37.13106040423322,-13.858047573338752,-124.50452423095703,5356.25390625,True
1599561253.6230292,0.0,10,0.5,0.5,5.909576770401001,-0.1005,-0.0155,-0.5,0.0017393166201990964,10,1,100,0.045220888389413,-10,-1,-100,15021.626420166926,-0.005716256523945244,-0.0010643292463313513,0.9999830956644256,24.02217896438964,0.025423657894189263,39.35289281360206,-14.41517909243616,-127.9676513671875,5356.25390625,True
1599561253.6569042,0.0,10,0.5,0.5,4.217746154785157,-0.1005,-0.0155,-0.5,-0.01217876087420149,10,1,100,0.06320877507673915,-10,-1,-100,15021.626420166926,-0.005716256523945244,-0.0010643292463313513,0.9999830956644256,24.02217896438964,0.025423657894189263,39.35289281360206,-14.41517909243616,-127.9676513671875,5356.25390625,True
1599561253.6913228,0.0,10,0.5,0.5,5.437010425949096,-0.1005,-0.0155,-0.5,-0.003414021978157794,10,1,100,0.047494688381557834,-10,-1,-100,15021.016066233162,-0.005573769775243648,-0.0009855296997139018,0.9999839807825441,24.257967635579764,0.0258075012876482,40.76703604042433,-14.786581877968084,-129.93190002441406,5356.25390625,True
1599561253.7252314,0.0,10,0.5,0.5,5.5022008453369144,-0.1005,-0.0155,-0.5,-0.0037421962641670725,10,1,100,0.04481363679043911,-10,-1,-100,15020.409618277103,-0.005420396603826142,-0.0009176379013829811,0.9999848885064909,24.458660523067675,0.02611132579559721,42.140923579888046,-15.15797153823356,-131.62060546875,5356.25390625,True
1599561253.760138,0.0,10,0.5,0.5,5.1386999584198,-0.1005,-0.0155,-0.5,-0.007229708098519949,10,1,100,0.05045674405665587,-10,-1,-100,15020.106882906635,-0.005332940286071238,-0.0008884452081141473,0.9999853850997111,24.548661798546306,0.026237123295099567,42.8162936659809,-15.343661797782245,-132.36163330078125,5356.25390625,True
1599561253.794047,0.0,10,0.5,0.5,5.565231727600098,-0.1005,-0.0155,-0.5,-0.004579884439850483,10,1,100,0.03929456008477207,-10,-1,-100,15019.493598960806,-0.005152706489648896,-0.0008385389301770881,0.9999863731413015,24.71300283820885,0.026444777942457122,44.150687590461814,-15.715033636437663,-133.63699340820312,5356.25390625,True
1599561253.82297,0.0,10,0.5,0.5,5.55571615524292,-0.1005,-0.0155,-0.5,-0.005151570717233274,10,1,100,0.036219788101661564,-10,-1,-100,15018.82367456751,-0.0049617886378277905,-0.0007990188247610791,0.9999873710314701,24.86201392070027,0.026604452287859334,45.471240070526626,-16.08639446991147,-134.63681030273438,5356.25390625,True
1599561253.8588743,0.0,10,0.5,0.5,5.320738885498047,-0.1005,-0.0155,-0.5,-0.007364094796135911,10,1,100,0.04393157693303058,-10,-1,-100,15018.519962667953,-0.00485936868052722,-0.0007838334118318971,0.9999878859972301,24.93255993181449,0.02667019578724252,46.1290305345672,-16.272070836583246,-135.03338623046875,5356.25390625,True
1599561253.892784,0.0,10,0.5,0.5,5.497284948730469,-0.1005,-0.0155,-0.5,-0.0063406061184934455,10,1,100,0.030822435697097573,-10,-1,-100,15017.844178130152,-0.004648153534272087,-0.0007612556968875256,0.9999889075177213,25.068595592673873,0.02678085584978165,47.44422477148879,-16.64341556847487,-135.619873046875,5356.25390625,True
1599561253.9227042,0.0,10,0.5,0.5,5.412104469680786,-0.1005,-0.0155,-0.5,-0.006917010967115162,10,1,100,0.027518137654785963,-10,-1,-100,15017.172300402308,-0.004427324302664037,-0.0007464712822583539,0.9999899207392762,25.200790509289916,0.026872763735207472,48.763811244511125,-17.01474981975046,-135.93081665039062,5356.25390625,True
1599561253.956613,0.0,10,0.5,0.5,5.244197470855713,-0.1005,-0.0155,-0.5,-0.007975571084349861,10,1,100,0.010604686910134428,-10,-1,-100,15016.129327980918,-0.004074147464006736,-0.0007430705487764208,0.9999914245475314,25.396428501535073,0.02699614200349797,50.75946356111064,-17.57173133061419,-135.880615234375,5356.25390625,True
1599561253.9925175,0.0,10,0.5,0.5,5.2815632728576665,-0.1005,-0.0155,-0.5,-0.008283518562787683,10,1,100,0.04575815986987066,-10,-1,-100,15016.129327980918,-0.004074147464006736,-0.0007430705487764208,0.9999914245475314,25.396428501535073,0.02699614200349797,50.75946356111064,-17.57173133061419,-135.880615234375,5356.25390625,True
1599561254.027424,0.0,10,0.5,0.5,5.201026486968995,-0.1005,-0.0155,-0.5,-0.008405357083823317,10,1,100,0.03226031070434099,-10,-1,-100,15015.763115681475,-0.0039529325707382285,-0.0007444702250563401,0.9999919100113638,25.461293935501775,0.027037456836409388,51.4296627457099,-17.757386438364318,-135.72607421875,5356.25390625,True
1599561254.060336,0.0,10,0.5,0.5,4.502466174316407,-0.1005,-0.0155,-0.5,-0.01103386095397164,10,1,100,-0.011982062024289163,-10,-1,-100,15014.286548260367,-0.0034420073131470434,-0.0007698572927436675,0.999993779933358,25.715518319531512,0.027224915191528636,54.127736981160744,-18.49998026945733,-134.4191436767578,5356.25390625,True
1599561254.0942454,0.0,10,0.5,0.5,5.160269179534913,-0.1005,-0.0155,-0.5,-0.00848037612437497,10,1,100,0.03891262480576144,-10,-1,-100,15014.286548260367,-0.0034420073131470434,-0.0007698572927436675,0.999993779933358,25.715518319531512,0.027224915191528636,54.127736981160744,-18.49998026945733,-134.4191436767578,5356.25390625,True
1599561254.1261604,0.0,10,0.5,0.5,4.522852294921875,-0.1005,-0.0155,-0.5,-0.010640116524412,10,1,100,0.009359108410571661,-10,-1,-100,15013.549241492059,-0.0031750580122570675,-0.0007895991035761591,0.9999946477556139,25.834941353697186,0.027340707024933963,55.47692892727454,-18.87126134850126,-133.35235595703125,5356.25390625,True
1599561254.1600695,0.0,10,0.5,0.5,4.673400379943848,-0.1005,-0.0155,-0.5,-0.009223166697653154,10,1,100,0.02147611998293409,-10,-1,-100,15013.17912323901,-0.0030443293425398313,-0.000794709333022981,0.9999950502357151,25.890962006626445,0.027405824064566188,56.14744735956535,-19.056898014955312,-132.71554565429688,5356.25390625,True
1599561254.1919844,0.0,10,0.5,0.5,4.1000076705932615,-0.1005,-0.0155,-0.5,-0.011214477062609968,10,1,100,0.003935028118457685,-10,-1,-100,15012.434980517952,-0.002767763770661002,-0.0008174617353758248,0.9999958356113395,25.99240760035616,0.02755236207042969,57.47244746278657,-19.428163957738555,-131.23541259765625,5356.25390625,True
1599561254.222901,0.0,10,0.5,0.5,3.1906649475097657,-0.1005,-0.0155,-0.5,-0.012281195431351706,10,1,100,-0.014865493073390874,-10,-1,-100,15011.202555275988,-0.002347328153490594,-0.0008478126060273859,0.9999968856273127,26.10565352271312,0.027814692041054037,59.38822387780689,-19.985045524472138,-128.4984893798828,5356.25390625,True
1599561254.2598026,0.0,10,0.5,0.5,4.548088411712647,-0.1005,-0.0155,-0.5,-0.009254764057109581,10,1,100,0.026947986105571774,-10,-1,-100,15011.202555275988,-0.002347328153490594,-0.0008478126060273859,0.9999968856273127,26.10565352271312,0.027814692041054037,59.38822387780689,-19.985045524472138,-128.4984893798828,5356.25390625,True
1599561254.2927139,0.0,10,0.5,0.5,2.5207021926879882,-0.1005,-0.0155,-0.5,-0.0119692003510108,10,1,100,-0.020137925809294504,-10,-1,-100,15009.96817873884,-0.0019211653144001492,-0.0008723971711321524,0.9999977740210279,26.15324380624229,0.028127904133217353,61.16573422849843,-20.541909648873567,-125.14151000976562,5356.25390625,True
1599561254.3236322,0.0,10,0.5,0.5,3.4278483543396003,-0.1005,-0.0155,-0.5,-0.010146441175106234,10,1,100,0.006675836653342478,-10,-1,-100,15009.598060588003,-0.0017794632850233597,-0.0008780586681533934,0.9999980312597583,26.147711716122238,0.028238803324538035,61.709293037815804,-20.72752791023558,-123.88472747802734,5356.25390625,True
1599561254.3565443,0.0,10,0.5,0.5,1.5254300174713133,-0.1005,-0.0155,-0.5,-0.011724444382861809,10,1,100,-0.027661061810812404,-10,-1,-100,15008.29630141484,-0.001340575712442128,-0.0008974282508619569,0.9999986987388002,26.049079097203414,0.028570755998421578,63.14036539846998,-21.284377599650224,-119.70118713378906,5356.25390625,True
1599561254.3924482,0.0,10,0.5,0.5,3.5923616146087647,-0.1005,-0.0155,-0.5,-0.009802781914586025,10,1,100,0.01596645976148116,-10,-1,-100,15008.29630141484,-0.001340575712442128,-0.0008974282508619569,0.9999986987388002,26.049079097203414,0.028570755998421578,63.14036539846998,-21.284377599650224,-119.70118713378906,5356.25390625,True
1599561254.4263585,0.0,10,0.5,0.5,0.6850165744781496,-0.1005,-0.0155,-0.5,-0.01043085636910582,10,1,100,-0.03208260618117485,-10,-1,-100,15007.000401186524,-0.0009056764144186232,-0.0009030220450320293,0.9999991821503748,25.798014869307398,0.028849101698449762,64.18069635065531,-21.841226320839517,-114.89763641357422,5356.25390625,True
1599561254.4602673,0.0,10,0.5,0.5,3.0565335983276367,-0.1005,-0.0155,-0.5,-0.009884793427327416,10,1,100,0.01115369053130278,-10,-1,-100,15007.000401186524,-0.0009056764144186232,-0.0009030220450320293,0.9999991821503748,25.798014869307398,0.028849101698449762,64.18069635065531,-21.841226320839517,-114.89763641357422,5356.25390625,True
1599561254.494176,0.0,10,0.5,0.5,0.8981357189178469,-0.1005,-0.0155,-0.5,-0.01002548884093264,10,1,100,-0.021965576620882506,-10,-1,-100,15006.134189644596,-0.0006066552417604283,-0.0009041979824816624,0.9999994071975372,25.52620627783311,0.028955888286451355,64.5928229694107,-22.212463169502783,-111.35093688964844,5356.25390625,True
1599561254.5270886,0.0,10,0.5,0.5,0.36966308479309085,-0.1005,-0.0155,-0.5,-0.008536981039671402,10,1,100,-0.022854139971303346,-10,-1,-100,15005.258213130059,-0.00032895603079531566,-0.0008916355922885369,0.9999995483868482,25.19778329691251,0.02899948689888534,64.83666452382775,-22.583706393617888,-107.57290649414062,5356.25390625,True
1599561254.5619948,0.0,10,0.5,0.5,1.0354787845611573,-0.1005,-0.0155,-0.5,-0.009278514474384988,10,1,100,-0.01157234920583802,-10,-1,-100,15004.76407257514,-0.00018128103482204866,-0.000886889019831353,0.9999995902824425,25.022954094008025,0.02900010653194943,64.92075141400473,-22.769330877163632,-105.59701538085938,5356.25390625,True
1599561254.5929165,0.0,10,0.5,0.5,-0.5024583042144775,-0.1005,-0.0155,-0.5,-0.007781414585712769,10,1,100,-0.028163048685078077,-10,-1,-100,15003.838291035383,0.00010182436849340497,-0.0008689284309607075,0.9999996172975165,24.593374078226127,0.028868796124060337,64.85622110107262,-23.14058646315735,-101.4498291015625,5356.25390625,True
1599561254.6229403,0.0,10,0.5,0.5,-1.067025802230835,-0.1005,-0.0155,-0.5,-0.006877452401286791,10,1,100,-0.030057784296900966,-10,-1,-100,15002.90274423,0.0003741912838676764,-0.0008443635886517633,0.9999995735154158,24.04656493039036,0.028513963423012555,64.44142977626663,-23.511852777797273,-97.12637329101562,5356.25390625,True
1599561254.6599035,0.0,10,0.5,0.5,-3.046738021469116,-0.1005,-0.0155,-0.5,-0.0041296811749875935,10,1,100,-0.04698275027723775,-10,-1,-100,15001.472080521053,0.0007735742098489231,-0.0007970776604795308,0.9999993831248823,23.105968186298,0.02759643344829964,63.402284228228055,-24.068771124404716,-90.30203247070312,5356.25390625,True
1599561254.6933236,0.0,10,0.5,0.5,0.31337921142578123,-0.1005,-0.0155,-0.5,-0.00885017589144346,10,1,100,-0.007299761428600302,-10,-1,-100,15001.472080521053,0.0007735742098489231,-0.0007970776604795308,0.9999993831248823,23.105968186298,0.02759643344829964,63.402284228228055,-24.068771124404716,-90.30203247070312,5356.25390625,True
1599561254.724242,0.0,10,0.5,0.5,-2.4107625373840333,-0.1005,-0.0155,-0.5,-0.00482495421581749,10,1,100,-0.03503837500066227,-10,-1,-100,15000.534581010463,0.0010238214696655856,-0.0007605759639650969,0.99999918665657,23.129836637346312,0.027560857073170228,64.45701689396134,-24.440052113320945,-85.84146118164062,5356.25390625,True
1599561254.7591484,0.0,10,0.5,0.5,-2.7596665756225587,-0.1005,-0.0155,-0.5,-0.004276339856841366,10,1,100,-0.035740092346926156,-10,-1,-100,14999.543370810221,0.0012555487752084888,-0.0007225296114039166,0.9999989507735665,24.160573185313822,0.028568828760376603,68.36307939438271,-24.811301779712572,-81.6337890625,5356.25390625,True
1599561254.794095,0.0,10,0.5,0.5,-1.9422555683135987,-0.1005,-0.0155,-0.5,-0.005674298174652476,10,1,100,-0.025879218031945452,-10,-1,-100,14999.047277468257,0.0013746008999389152,-0.000700814814177152,0.9999988096647725,24.62745427601122,0.02896389962063238,70.21105713087469,-24.99691394280532,-79.577392578125,5356.25390625,True
1599561254.8240151,0.0,10,0.5,0.5,-3.3458622825622557,-0.1005,-0.0155,-0.5,-0.0033070400599805056,10,1,100,-0.03769788468222016,-10,-1,-100,14997.987707712338,0.0015881995489560206,-0.0006597373858656708,0.9999985211832938,25.489256090976884,0.029585133856456794,73.75890010032151,-25.368112590305756,-75.61892700195312,5356.25390625,True
1599561254.8589222,0.0,10,0.5,0.5,-2.5531744644165038,-0.1005,-0.0155,-0.5,-0.005126808832117779,10,1,100,-0.02776722710458362,-10,-1,-100,14997.48770840664,0.0016901061111833148,-0.0006391598585988594,0.9999983675066714,25.87828682961325,0.02981362598826238,75.43851324652555,-25.553699288773938,-73.7352294921875,5356.25390625,True
1599561254.8918335,0.0,10,0.5,0.5,-3.8037883911132813,-0.1005,-0.0155,-0.5,-0.002596253600747545,10,1,100,-0.039264155949852386,-10,-1,-100,14996.48868586251,0.0018854304643996813,-0.000597677491465383,0.9999980439648769,26.573713050599228,0.030131183375375875,78.60343509110996,-25.924848603584344,-70.1715087890625,5356.25390625,True
1599561254.9268181,0.0,10,0.5,0.5,-4.977097904968262,-0.1005,-0.0155,-0.5,-0.0003913018271092493,10,1,100,-0.0489777194862418,-10,-1,-100,14994.866617026506,0.002149424352655171,-0.0005401841520640253,0.9999975440850012,27.430821908063265,0.03034741066035773,82.90069095404404,-26.48151692668381,-65.34176635742188,5356.25390625,True
1599561254.9607291,0.0,10,0.5,0.5,-2.618194186401367,-0.1005,-0.0155,-0.5,-0.006107761339355346,10,1,100,-0.02278309065910898,-10,-1,-100,14994.866617026506,0.002149424352655171,-0.0005401841520640253,0.9999975440850012,27.430821908063265,0.03034741066035773,82.90069095404404,-26.48151692668381,-65.34176635742188,5356.25390625,True
1599561254.9956398,0.0,10,0.5,0.5,-4.3938428497314455,-0.1005,-0.0155,-0.5,-0.002234878983145612,10,1,100,-0.040411967133298775,-10,-1,-100,14993.806070741382,0.0023080730178125443,-0.0005052526574044711,0.9999972087554527,27.896067127953643,0.030380264772380653,85.50164293331044,-26.8525957173929,-62.46685791015625,5356.25390625,True
1599561255.0245624,0.0,10,0.5,0.5,-4.560103779602051,-0.1005,-0.0155,-0.5,-0.0027302661773883686,10,1,100,-0.04010185263779668,-10,-1,-100,14992.745524705388,0.0024480848554438066,-0.00047826556857351516,0.9999968890664543,28.29060290031539,0.03036459719353461,87.9229925423702,-27.223650651252107,-59.868072509765625,5356.25390625,True
1599561255.0604663,0.0,10,0.5,0.5,-4.026053715515137,-0.1005,-0.0155,-0.5,-0.0036784575542109974,10,1,100,-0.03388366670870069,-10,-1,-100,14992.183025191072,0.0025173170988026317,-0.00046264160223640275,0.9999967245333218,28.464962981425938,0.030346986100985483,89.07478096112933,-27.409169822274905,-58.672119140625,5356.25390625,True
1599561255.0993629,0.0,10,0.5,0.5,-4.7821339385986334,-0.1005,-0.0155,-0.5,-0.002665294916105076,10,1,100,-0.04061240758406565,-10,-1,-100,14991.058026216808,0.0026400681501511205,-0.00043949827645781825,0.9999964184343,28.77457340786976,0.0303049464073124,91.27697895267227,-27.78019312779716,-56.48736572265625,5356.25390625,True
1599561255.137499,0.0,10,0.5,0.5,-4.8749217010498045,-0.1005,-0.0155,-0.5,-0.003216494844314753,10,1,100,-0.04028456353094016,-10,-1,-100,14989.933026838931,0.0027474209605532034,-0.00042372709903823496,0.9999961360592405,29.040470666057622,0.030266442050103117,93.36556553140267,-28.15119794330225,-54.578643798828125,5356.25390625,True
1599561255.170445,0.0,10,0.5,0.5,-4.939739402770996,-0.1005,-0.0155,-0.5,-0.0034311998468317664,10,1,100,-0.04017365607855938,-10,-1,-100,14988.804121510591,0.002842758156751077,-0.0004115934266025311,0.9999958746499474,29.271683208016363,0.03024138594911707,95.36437252523983,-28.52218569861572,-52.945953369140625,5356.25390625,True
1599561255.2013638,0.0,10,0.5,0.5,-5.318377537536621,-0.1005,-0.0155,-0.5,-0.004369374744088047,10,1,100,-0.04328646248081533,-10,-1,-100,14987.115645702812,0.0029565860673080205,-0.00040931726341718756,0.999995545519181,29.57070432341791,0.030239783403377313,98.24182529393293,-29.078638143717964,-51.014495849609375,5356.25390625,True
