Timestamp,Input Throttle,horizon,dT,dt,Input Roll,Roll P,Roll I,Roll D,Input Pitch,Pitch P,Pitch I,Pitch D,Input Yaw,Yaw P,Yaw I,Yaw D,Altitude,Direction X,Direction Y,Direction Z,Drag X,Drag Y,Drag Z,Vertical Velocity,Roll,Mass,Has Fuel
1599558489.1895456,0.0,10,0.5,0.5,-0.05848223876953125,-0.001,-0.001,-0.5,-0.0005358101501370344,10,1,100,0.17111103444093645,-10,-1,-100,14993.980258755037,-0.016774539522475998,-7.652093590421757e-05,0.9998592945851708,28.649094731782125,0.027034344986067844,-87.51382764876467,27.009297613979804,-31.79241943359375,5356.25390625,True
1599558489.2224553,0.0,10,0.5,0.5,-0.06491511840820313,-0.001,-0.001,-0.5,-2.7091958653039467e-06,10,1,100,0.18117839147566112,-10,-1,-100,14995.548622887349,-0.016881408088827394,-6.951955175178763e-05,0.9998574964603557,28.431399526691422,0.02752544312583988,-85.0596459377515,26.451406911840294,-31.7906494140625,5356.25390625,True
1599558489.2563298,0.0,10,0.5,0.5,-0.06985104370117187,-0.001,-0.001,-0.5,-0.0007097995662834768,10,1,100,0.17217967564940428,-10,-1,-100,14995.548622887349,-0.016881408088827394,-6.951955175178763e-05,0.9998574964603557,28.431399526691422,0.02752544312583988,-85.0596459377515,26.451406911840294,-31.7906494140625,5356.25390625,True
1599558489.2922337,0.0,10,0.5,0.5,-0.06833311157226563,-0.001,-0.001,-0.5,0.011256195858029278,10,1,100,0.17975179096152635,-10,-1,-100,14997.118938718457,-0.01693489876612957,3.932542442537539e-05,0.9998565935459405,28.21609461479634,0.028004596829251428,-82.63986215341266,25.89355149755946,-31.8052978515625,5356.25390625,True
1599558489.3231933,0.0,10,0.5,0.5,-0.06618749389648437,-0.001,-0.001,-0.5,0.012153590510142115,10,1,100,0.1782306693384798,-10,-1,-100,14998.136517961393,-0.016954302913680098,0.00014639778558343542,0.9998562547588526,28.07658997188823,0.028318993349874012,-81.05336175858172,25.521667139617527,-31.8358154296875,5356.25390625,True
1599558489.3560965,0.0,10,0.5,0.5,-0.08726270141601562,-0.001,-0.001,-0.5,0.001460994172894456,10,1,100,0.17798568487479502,-10,-1,-100,14998.136517961393,-0.016954302913680098,0.00014639778558343542,0.9998562547588526,28.07658997188823,0.028318993349874012,-81.05336175858172,25.521667139617527,-31.8358154296875,5356.25390625,True
1599558489.3900394,0.0,10,0.5,0.5,-0.08205552978515626,-0.001,-0.001,-0.5,0.009457433036314728,10,1,100,0.1792661167315595,-10,-1,-100,14998.617963317782,-0.016950530200638247,0.00021895959544581658,0.999856305467247,28.008228343377137,0.028474548834490326,-80.26848363129362,25.335730644867652,-31.857818603515625,5356.25390625,True
1599558489.4259095,0.0,10,0.5,0.5,-0.07011214904785157,-0.001,-0.001,-0.5,0.022491950124835337,10,1,100,0.17814374299434743,-10,-1,-100,14999.636516768835,-0.016921487490988603,0.00040322143285685425,0.9998567400750811,27.874427245544954,0.028782097878651054,-78.71557527435044,24.963869097618417,-31.91522216796875,5356.25390625,True
1599558489.4558632,0.0,10,0.5,0.5,-0.04193625183105469,-0.001,-0.001,-0.5,0.04544532407281246,10,1,100,0.17187694033864004,-10,-1,-100,15001.121864370885,-0.016822730923990687,0.000779032665091356,0.999858184360345,27.680848130616923,0.029232919434682918,-76.42690390601551,24.40610497760581,-32.04034423828125,5356.25390625,True
1599558489.489393,0.0,10,0.5,0.5,-0.05497654113769532,-0.001,-0.001,-0.5,0.042434671515444514,10,1,100,0.1713348064324236,-10,-1,-100,15002.068149624742,-0.01671273034491426,0.0010926014596329297,0.9998597355961827,27.55658700863735,0.02952537985149374,-74.92766611777685,24.034280763612134,-32.1507568359375,5356.25390625,True
1599558489.5234816,0.0,10,0.5,0.5,-0.11596776428222656,-0.001,-0.001,-0.5,0.011187052207250437,10,1,100,0.18400613737455782,-10,-1,-100,15002.068149624742,-0.01671273034491426,0.0010926014596329297,0.9998597355961827,27.55658700863735,0.02952537985149374,-74.92766611777685,24.034280763612134,-32.1507568359375,5356.25390625,True
1599558489.5585535,0.0,10,0.5,0.5,-0.05293998718261719,-0.001,-0.001,-0.5,0.05054109428650059,10,1,100,0.16728828452776032,-10,-1,-100,15003.017362945713,-0.016560806054650247,0.0014493026399938064,0.9998618100641098,27.43592780463323,0.029810298338355204,-73.44847718562472,23.66247108180993,-32.2764892578125,5356.25390625,True
1599558489.5914655,0.0,10,0.5,0.5,-0.007387008666992184,-0.001,-0.001,-0.5,0.08438753775935941,10,1,100,0.15024292578603748,-10,-1,-100,15004.448016997543,-0.016268026713152917,0.0020798906335371876,0.9998655036362704,27.260914724607723,0.030221748004086214,-71.26425606749616,23.104783672059394,-32.4927978515625,5356.25390625,True
1599558489.6232214,0.0,10,0.5,0.5,-0.031425772094726565,-0.001,-0.001,-0.5,0.07299495869312664,10,1,100,0.151701283553235,-10,-1,-100,15005.32496249536,-0.016015679092744116,0.0025476295359878826,0.9998684951567108,27.148383422326436,0.030484749117455735,-69.8309733755113,22.733009956559087,-32.660552978515625,5356.25390625,True
1599558489.6573827,0.0,10,0.5,0.5,-0.07129163208007813,-0.001,-0.001,-0.5,0.053307669327095304,10,1,100,0.16088903171610408,-10,-1,-100,15005.7937082774,-0.015870632802647094,0.0027915910856959,0.999870156587171,27.09328043537932,0.030612560529762713,-69.12082890805534,22.547128335255003,-32.74822998046875,5356.25390625,True
1599558489.6958044,0.0,10,0.5,0.5,-0.02553529052734374,-0.001,-0.001,-0.5,0.0865376889335276,10,1,100,0.14006751901956924,-10,-1,-100,15006.670652329572,-0.015550471214509514,0.003313060678852471,0.9998735952478919,26.98484451167397,0.030860121998849903,-67.71189555276236,22.175375745270337,-32.9268798828125,5356.25390625,True
1599558489.756707,0.0,10,0.5,0.5,-0.018871893310546867,-0.001,-0.001,-0.5,0.09669265034322756,10,1,100,0.13214968031646837,-10,-1,-100,15007.5485727099,-0.01518871108408277,0.0038765629919072903,0.9998771301089819,26.878740209783846,0.0310967180262905,-66.31778370003336,21.803637127551713,-33.118255615234375,5356.25390625,True
1599558489.7905529,0.0,10,0.5,0.5,0.039728363037109374,-0.001,-0.001,-0.5,0.13791142247218582,10,1,100,0.09765250306733089,-10,-1,-100,15008.840549902292,-0.014547829189717714,0.0047602288382236,0.999882843580824,26.724139154495916,0.031430529132598924,-64.25420204581212,21.24605530901268,-33.42596435546875,5356.25390625,True
1599558489.8264885,0.0,10,0.5,0.5,-0.11397493286132812,-0.001,-0.001,-0.5,0.049980538581091534,10,1,100,0.1615033266737095,-10,-1,-100,15008.840549902292,-0.014547829189717714,0.0047602288382236,0.999882843580824,26.724139154495916,0.031430529132598924,-64.25420204581212,21.24605530901268,-33.42596435546875,5356.25390625,True
1599558489.8573258,0.0,10,0.5,0.5,-0.007086431884765626,-0.001,-0.001,-0.5,0.11867620055738526,10,1,100,0.10752609091757748,-10,-1,-100,15009.700891696732,-0.014059195138965853,0.005381115586941604,0.9998866848933855,26.62352447515771,0.03163805939783704,-62.89504264670246,20.874351242830265,-33.6390380859375,5356.25390625,True
1599558489.8912446,0.0,10,0.5,0.5,0.04565663452148437,-0.001,-0.001,-0.5,0.16280084679431797,10,1,100,0.06496096162609169,-10,-1,-100,15010.92157933896,-0.013230438949456061,0.006342792584177989,0.9998923564401514,26.475228285059497,0.03192567291950328,-60.87810462679612,20.316820955758633,-33.9566650390625,5356.25390625,True
1599558489.9241552,0.0,10,0.5,0.5,-0.002740350341796871,-0.001,-0.001,-0.5,0.13850948439678848,10,1,100,0.0792116635987594,-10,-1,-100,15011.71551549877,-0.012609741787285465,0.0069914409315748475,0.9998960516802526,26.378139483256234,0.032101955469076744,-59.54781036199993,19.945151222558742,-34.17669677734375,5356.25390625,True
1599558489.960958,0.0,10,0.5,0.5,-0.05789163818359375,-0.001,-0.001,-0.5,0.10916438426929041,10,1,100,0.1043626774888443,-10,-1,-100,15012.127619879437,-0.012277709097283299,0.007309309302329663,0.9998979107173119,26.33009946063266,0.032185516103005116,-58.88683239086875,19.759321394677123,-34.28582763671875,5356.25390625,True
1599558489.9908788,0.0,10,0.5,0.5,-0.005986505126953132,-0.001,-0.001,-0.5,0.14933936951295146,10,1,100,0.060146860053774454,-10,-1,-100,15012.867845346453,-0.01157752678206785,0.007958753670077512,0.9999013046864322,26.24547451256579,0.032356631252240385,-57.59603200438938,19.387671952544693,-34.49798583984375,5356.25390625,True
1599558490.0245109,0.0,10,0.5,0.5,-0.11188186340332032,-0.001,-0.001,-0.5,0.08493604515157557,10,1,100,0.12972127634425182,-10,-1,-100,15012.867845346453,-0.01157752678206785,0.007958753670077512,0.9999013046864322,26.24547451256579,0.032356631252240385,-57.59603200438938,19.387671952544693,-34.49798583984375,5356.25390625,True
1599558490.0566351,0.0,10,0.5,0.5,-0.002388345336914066,-0.001,-0.001,-0.5,0.15864752803034227,10,1,100,0.046861484855975646,-10,-1,-100,15013.660806054831,-0.01082815877401132,0.008624160639353225,0.9999041828249502,26.168010083264036,0.03252392308779251,-56.327706574109264,19.016035900015503,-34.7161865234375,5356.25390625,True
1599558490.0935032,0.0,10,0.5,0.5,-0.054968661499023436,-0.001,-0.001,-0.5,0.12753693752431877,10,1,100,0.07765815822693767,-10,-1,-100,15014.056310356944,-0.010431177899550946,0.008941424243221387,0.9999056162759217,26.129718213564942,0.0326034130766484,-55.69690483451513,18.830222885659076,-34.828643798828125,5356.25390625,True
1599558490.124455,0.0,10,0.5,0.5,0.12583567810058593,-0.001,-0.001,-0.5,0.2375539882858768,10,1,100,-0.0714742986445975,-10,-1,-100,15015.534815328196,-0.00871886161774077,0.010225396288887231,0.9999097072850258,25.978945014331522,0.032893910163294425,-53.194561282916915,18.0870042414741,-35.301422119140625,5356.25390625,True
1599558490.1573644,0.0,10,0.5,0.5,-0.048367797851562505,-0.001,-0.001,-0.5,0.14518894521628353,10,1,100,0.04868525441703195,-10,-1,-100,15015.86098575592,-0.008259869087175402,0.010547993059359275,0.9999102531752949,25.941793143310026,0.03295975316216445,-52.57399927752464,17.90120790297074,-35.4251708984375,5356.25390625,True
1599558490.1902792,0.0,10,0.5,0.5,-0.11004226684570312,-0.001,-0.001,-0.5,0.11350804459119276,10,1,100,0.0939557114633145,-10,-1,-100,15015.86098575592,-0.008259869087175402,0.010547993059359275,0.9999102531752949,25.941793143310026,0.03295975316216445,-52.57399927752464,17.90120790297074,-35.4251708984375,5356.25390625,True
1599558490.2261505,0.0,10,0.5,0.5,0.015860314941406245,-0.001,-0.001,-0.5,0.1794123456793843,10,1,100,-0.011948408194477372,-10,-1,-100,15016.54653045407,-0.007302376477606194,0.011142425907913363,0.9999112568836626,25.86798945537268,0.033083241769345795,-51.33851048977025,17.529625252971137,-35.676116943359375,5356.25390625,True
1599558490.257066,0.0,10,0.5,0.5,0.01574808044433594,-0.001,-0.001,-0.5,0.18743588261072222,10,1,100,-0.027518059018012603,-10,-1,-100,15017.272116105887,-0.006295775518212822,0.011751397348407666,0.9999111299865525,25.79420442031984,0.033195705282968405,-50.10920496236411,17.158055724174503,-35.925994873046875,5356.25390625,True
1599558490.2909744,0.0,10,0.5,0.5,0.09657935180664062,-0.001,-0.001,-0.5,0.22222179214213428,10,1,100,-0.10375303469842241,-10,-1,-100,15018.265284861322,-0.004693378472823369,0.012616916056945475,0.9999093887086584,25.684291417781363,0.03334541015846011,-48.27820409380018,16.600726187345998,-36.33636474609375,5356.25390625,True
1599558490.3238866,0.0,10,0.5,0.5,0.03252100830078125,-0.001,-0.001,-0.5,0.19349496475410632,10,1,100,-0.06804300343378822,-10,-1,-100,15018.919587262906,-0.0035681853799882316,0.013137773173220851,0.9999073291906321,25.611390560849145,0.033432515627847346,-47.06584953730663,16.229189643614706,-36.617645263671875,5356.25390625,True
1599558490.359791,0.0,10,0.5,0.5,-0.10790728454589843,-0.001,-0.001,-0.5,0.14192715507688303,10,1,100,0.043675371709517546,-10,-1,-100,15018.919587262906,-0.0035681853799882316,0.013137773173220851,0.9999073291906321,25.611390560849145,0.033432515627847346,-47.06584953730663,16.229189643614706,-36.617645263671875,5356.25390625,True
1599558490.3907413,0.0,10,0.5,0.5,0.09011773071289061,-0.001,-0.001,-0.5,0.21659739863520452,10,1,100,-0.15097164006510655,-10,-1,-100,15019.860028936411,-0.0018059483105844485,0.01381188536965728,0.9999029804802239,25.500580982650803,0.033543547801254736,-45.25610262799065,15.671909230968827,-37.012481689453125,5356.25390625,True
1599558490.4246168,0.0,10,0.5,0.5,0.026374215698242193,-0.001,-0.001,-0.5,0.197904064001005,10,1,100,-0.11178645631055541,-10,-1,-100,15020.515313238837,-0.0005683455638618623,0.014250059119988306,0.9998983012278783,25.425243179620978,0.03360562197606476,-44.054748644883155,15.300405073402938,-37.278839111328125,5356.25390625,True
1599558490.4585266,0.0,10,0.5,0.5,-0.038644375610351556,-0.001,-0.001,-0.5,0.17131083826315097,10,1,100,-0.05725366356190019,-10,-1,-100,15020.771179052652,5.202896968390573e-05,0.014401816263693506,0.999896287112465,25.387522434459573,0.03363368196125101,-43.45633279831978,15.114657876013583,-37.414398193359375,5356.25390625,True
1599558490.4934332,0.0,10,0.5,0.5,-0.1062126190185547,-0.001,-0.001,-0.5,0.15655276589011163,10,1,100,0.003906700733934149,-10,-1,-100,15020.771179052652,5.202896968390573e-05,0.014401816263693506,0.999896287112465,25.387522434459573,0.03363368196125101,-43.45633279831978,15.114657876013583,-37.414398193359375,5356.25390625,True
1599558490.525169,0.0,10,0.5,0.5,0.08884851684570312,-0.001,-0.001,-0.5,0.20424281929998148,10,1,100,-0.2091822359793137,-10,-1,-100,15021.696981655667,0.0019816448506617414,0.014831858728142928,0.9998880382574611,25.272397272693933,0.03370464264198851,-41.66726063559313,14.557435243682239,-37.8033447265625,5356.25390625,True
1599558490.5580428,0.0,10,0.5,0.5,-0.03967349243164063,-0.001,-0.001,-0.5,0.17476213318505773,10,1,100,-0.08992897488212642,-10,-1,-100,15021.954802821623,0.0026424100834509467,0.014950905762353292,0.9998847374001846,25.2333790228934,0.03372412857199461,-41.073048013205835,14.371700692230275,-37.93450927734375,5356.25390625,True
1599558490.5919852,0.0,10,0.5,0.5,0.10643647155761718,-0.001,-0.001,-0.5,0.1912757967944917,10,1,100,-0.24765003901703475,-10,-1,-100,15022.811278045294,0.004667892890339339,0.01520579229912626,0.9998734893257848,25.115361923100146,0.03377139250003959,-39.298637610842555,13.814515641618778,-38.356597900390625,5356.25390625,True
1599558490.627856,0.0,10,0.5,0.5,0.040807186889648434,-0.001,-0.001,-0.5,0.1774293922475692,10,1,100,-0.1990549064253525,-10,-1,-100,15023.341575042694,0.006057499992669355,0.0153084905685381,0.9998644692208798,25.035436264429475,0.03379285417074526,-38.12197469064059,13.443074236633873,-38.6463623046875,5356.25390625,True
1599558490.657776,0.0,10,0.5,0.5,-0.032091299438476564,-0.001,-0.001,-0.5,0.16698682055627756,10,1,100,-0.13653257232433147,-10,-1,-100,15023.595493244007,0.006742620795264185,0.01530447327579931,0.9998601453016125,24.99503078472,0.03380051031172715,-37.5354701678109,13.257357996466215,-38.789581298828125,5356.25390625,True
1599558490.6916916,0.0,10,0.5,0.5,0.03254535827636719,-0.001,-0.001,-0.5,0.16200373960267148,10,1,100,-0.2220301253100079,-10,-1,-100,15024.1121203308,0.008133334910060859,0.015253550728183464,0.9998505778632244,24.91237345272333,0.033808915429840776,-36.36480503191284,12.88593437949609,-39.06109619140625,5356.25390625,True
1599558490.724604,0.0,10,0.5,0.5,-0.10296774291992188,-0.001,-0.001,-0.5,0.16730757211975225,10,1,100,-0.08412886585934538,-10,-1,-100,15024.1121203308,0.008133334910060859,0.015253550728183464,0.9998505778632244,24.91237345272333,0.033808915429840776,-36.36480503191284,12.88593437949609,-39.06109619140625,5356.25390625,True
1599558490.761506,0.0,10,0.5,0.5,0.03205822448730469,-0.001,-0.001,-0.5,0.1552256324196333,10,1,100,-0.24068078810868074,-10,-1,-100,15024.62484320614,0.009547498491217866,0.01514240430785645,0.9998397635943159,24.827404796394156,0.03380892142750269,-35.19773604813729,12.514522362120472,-39.3302001953125,5356.25390625,True
1599558490.7914276,0.0,10,0.5,0.5,0.10118145141601562,-0.001,-0.001,-0.5,0.12732913851400376,10,1,100,-0.33248203208102967,-10,-1,-100,15025.343637562124,0.011658462288331882,0.014786946394609925,0.9998226975186124,24.696282925925026,0.033794745796116854,-33.45541084417633,11.95742555317113,-39.736328125,5356.25390625,True
1599558490.8255386,0.0,10,0.5,0.5,-0.10165032043457031,-0.001,-0.001,-0.5,0.16291344285174794,10,1,100,-0.12254629570149292,-10,-1,-100,15025.343637562124,0.011658462288331882,0.014786946394609925,0.9998226975186124,24.696282925925026,0.033794745796116854,-33.45541084417633,11.95742555317113,-39.736328125,5356.25390625,True
1599558490.858454,0.0,10,0.5,0.5,0.10324453125,-0.001,-0.001,-0.5,0.09802284178944706,10,1,100,-0.3509205800356764,-10,-1,-100,15026.060482692323,0.013724040842898416,0.014196681721197266,0.9998050334595489,24.560719039742583,0.03376406574010702,-31.72370507325002,11.400352847205875,-40.14483642578125,5356.25390625,True
1599558490.8953552,0.0,10,0.5,0.5,0.02771586303710938,-0.001,-0.001,-0.5,0.10302014398291837,10,1,100,-0.2977282540971574,-10,-1,-100,15026.504851759179,0.015107598023979422,0.01370608492622363,0.9997919302124524,24.46660715913978,0.03373339212860217,-30.57396278578269,11.02898373479166,-40.40130615234375,5356.25390625,True
1599558490.9243102,0.0,10,0.5,0.5,-0.03688285522460938,-0.001,-0.001,-0.5,0.11882405116381778,10,1,100,-0.23252263870096662,-10,-1,-100,15026.691392244771,0.015761266968687213,0.013404891378652254,0.999785922760802,24.418688154200073,0.03371550119326516,-30.000967878900333,10.843302845238656,-40.52783203125,5356.25390625,True
1599558490.9582188,0.0,10,0.5,0.5,-0.039184255981445315,-0.001,-0.001,-0.5,0.11279420813274396,10,1,100,-0.23946846533259025,-10,-1,-100,15026.948244914529,0.01640857045681965,0.013077899490505309,0.999779839444905,24.369983504829772,0.03369568922907629,-29.429018184189264,10.657624328461376,-40.649078369140625,5356.25390625,True
1599558490.992125,0.0,10,0.5,0.5,0.017707696533203116,-0.001,-0.001,-0.5,0.06705037160460514,10,1,100,-0.3178923905342875,-10,-1,-100,15027.323278531083,0.017700562883806246,0.012366808888368672,0.9997668488760342,24.26979529012763,0.033650054443562755,-28.287960042545073,10.286273836462499,-40.88323974609375,5356.25390625,True
1599558491.027259,0.0,10,0.5,0.5,0.019114450073242195,-0.001,-0.001,-0.5,0.049400305073805675,10,1,100,-0.32911858410339867,-10,-1,-100,15027.767648817622,0.018967195993432762,0.011562578340134853,0.9997532456852917,24.172219399199502,0.03360534242878952,-27.15817796713581,9.914931869115591,-41.11932373046875,5356.25390625,True
1599558491.0581806,0.0,10,0.5,0.5,-0.037595071411132816,-0.001,-0.001,-0.5,0.08098416999103168,10,1,100,-0.27131262047833093,-10,-1,-100,15027.955166651634,0.01958332291369864,0.011121941134068026,0.9997463657793751,24.12921960044986,0.03359001922956936,-26.602713779764574,9.729263781514378,-41.2413330078125,5356.25390625,True
1599558491.0920901,0.0,10,0.5,0.5,0.0854569366455078,-0.001,-0.001,-0.5,-0.03793897014436032,10,1,100,-0.40244599327496255,-10,-1,-100,15028.517721387208,0.021325150786633693,0.009643998408771087,0.9997260781027067,23.995583996257093,0.033533184286729995,-24.942224384837566,9.172270286825148,-41.6082763671875,5356.25390625,True
1599558491.1250036,0.0,10,0.5,0.5,0.02419115295410157,-0.001,-0.001,-0.5,-0.011539213916639507,10,1,100,-0.35173146308689185,-10,-1,-100,15028.837094485178,0.022436882530959993,0.00854541044775232,0.9997117395842519,23.901822591119558,0.03348492504442186,-23.839832585331823,8.800949148363625,-41.85174560546875,5356.25390625,True
1599558491.1618996,0.0,10,0.5,0.5,-0.09733192443847656,-0.001,-0.001,-0.5,0.09769542859055153,10,1,100,-0.2416361306785247,-10,-1,-100,15028.837094485178,0.022436882530959993,0.00854541044775232,0.9997117395842519,23.901822591119558,0.03348492504442186,-23.839832585331823,8.800949148363625,-41.85174560546875,5356.25390625,True
1599558491.193329,0.0,10,0.5,0.5,0.07736118469238282,-0.001,-0.001,-0.5,-0.10424042208719378,10,1,100,-0.4041075064776461,-10,-1,-100,15029.330312786042,0.023904096474367798,0.006715304110633596,0.999691701907366,23.75371737608458,0.03339615521563473,-22.193900180741736,8.243977627844687,-42.20001220703125,5356.25390625,True
1599558491.2252433,0.0,10,0.5,0.5,-0.03834491882324219,-0.001,-0.001,-0.5,0.006164484897234854,10,1,100,-0.3125363872849716,-10,-1,-100,15029.515877652448,0.024396208016049244,0.006062053301848257,0.999683988340417,23.701999856013337,0.033361732693563406,-21.64722081328404,8.058322579892103,-42.31622314453125,5356.25390625,True
1599558491.2581923,0.0,10,0.5,0.5,-0.03525456237792968,-0.001,-0.001,-0.5,-0.003673877140971643,10,1,100,-0.31556196462610747,-10,-1,-100,15029.704373309156,0.024862643202504458,0.005385698394990958,0.9996763692444588,23.64962872345463,0.03332551875541606,-21.10211241493529,7.8726684698955305,-42.43798828125,5356.25390625,True
1599558491.2944102,0.0,10,0.5,0.5,0.08290819396972657,-0.001,-0.001,-0.5,-0.1735767420209035,10,1,100,-0.39773645429000304,-10,-1,-100,15030.126303999336,0.02602544202692296,0.0032335489743791795,0.9996560511137486,23.486378906758148,0.033203023731228805,-19.474790601570476,7.315710438949147,-42.79498291015625,5356.25390625,True
1599558491.3253257,0.0,10,0.5,0.5,0.02622132568359374,-0.001,-0.001,-0.5,-0.12860935994442535,10,1,100,-0.36003160472522777,-10,-1,-100,15030.430052570882,0.026731017897105365,0.0016947932931692972,0.9996412258194827,23.371749392356,0.03310863976927376,-18.396688221869987,6.944407265116782,-43.037689208984375,5356.25390625,True
1599558491.358283,0.0,10,0.5,0.5,-0.09491637878417969,-0.001,-0.001,-0.5,0.02419900661704296,10,1,100,-0.29037706320831713,-10,-1,-100,15030.430052570882,0.026731017897105365,0.0016947932931692972,0.9996412258194827,23.371749392356,0.03310863976927376,-18.396688221869987,6.944407265116782,-43.037689208984375,5356.25390625,True
1599558491.3931973,0.0,10,0.5,0.5,0.023568823242187495,-0.001,-0.001,-0.5,-0.15222311974143787,10,1,100,-0.35006871307295484,-10,-1,-100,15030.665441158111,0.027266611239598733,9.992649449853078e-05,0.9996281918424491,23.25232769450241,0.033003713917435784,-17.32457779763068,6.573104538704154,-43.2738037109375,5356.25390625,True
1599558491.4281013,0.0,10,0.5,0.5,-0.03743953857421875,-0.001,-0.001,-0.5,-0.08479973757461595,10,1,100,-0.3245265314548756,-10,-1,-100,15030.783623169176,0.02751432781958662,-0.0007269925621950852,0.9996211448576159,23.190292171984815,0.032946602902851604,-16.790577240346927,6.3874530586525395,-43.38726806640625,5356.25390625,True
1599558491.4580872,0.0,10,0.5,0.5,0.14893797607421874,-0.001,-0.001,-0.5,-0.3864075663284513,10,1,100,-0.3827876909412142,-10,-1,-100,15031.307137108524,0.028263545090330546,-0.004211198337886906,0.9995916355329739,22.93039635772757,0.03269242680650863,-14.672956560216186,5.6448427186943935,-43.872161865234375,5356.25390625,True
1599558491.492006,0.0,10,0.5,0.5,-0.0933068817138672,-0.001,-0.001,-0.5,-0.039262649637833116,10,1,100,-0.3084486301227585,-10,-1,-100,15031.307137108524,0.028263545090330546,-0.004211198337886906,0.9995916355329739,22.93039635772757,0.03269242680650863,-14.672956560216186,5.6448427186943935,-43.872161865234375,5356.25390625,True
1599558491.524786,0.0,10,0.5,0.5,0.09371519775390624,-0.001,-0.001,-0.5,-0.3423525570757583,10,1,100,-0.334502001208306,-10,-1,-100,15031.590399779612,0.028495096952417913,-0.0069549642156992815,0.9995697363978316,22.721389340273944,0.03247211262081777,-13.105120864755731,5.08787620149986,-44.24505615234375,5356.25390625,True
1599558491.560545,0.0,10,0.5,0.5,-0.030422277832031247,-0.001,-0.001,-0.5,-0.1750372312511727,10,1,100,-0.3174076864346617,-10,-1,-100,15031.70858414506,0.0285460221468478,-0.007915820898644906,0.9995611358986966,22.64809414873519,0.03239175408392214,-12.58631977695861,4.902218184682835,-44.3690185546875,5356.25390625,True
1599558491.5924263,0.0,10,0.5,0.5,0.03545222167968751,-0.001,-0.001,-0.5,-0.29034162596585256,10,1,100,-0.30700525483343444,-10,-1,-100,15031.873664704734,0.02849397765983581,-0.009824841585819387,0.999545679658981,22.498641741531696,0.032224165369891526,-11.556446510460205,4.530897644264955,-44.623809814453125,5356.25390625,True
1599558491.626338,0.0,10,0.5,0.5,0.03650658874511718,-0.001,-0.001,-0.5,-0.31664417269194767,10,1,100,-0.2946202007518334,-10,-1,-100,15032.039722794783,0.028330771875940058,-0.011785601235323588,0.9995291226214648,22.342105183405625,0.032042625066389205,-10.53574030726849,4.15956978879829,-44.8797607421875,5356.25390625,True
1599558491.6591897,0.0,10,0.5,0.5,-0.027320516967773434,-0.001,-0.001,-0.5,-0.22907865384606543,10,1,100,-0.2949282098965333,-10,-1,-100,15032.14228308259,0.02818310731021481,-0.012758406063356022,0.9995213532171604,22.261756459536223,0.03194746907388191,-10.029364624046098,3.9739027268136833,-45.00738525390625,5356.25390625,True
1599558491.6954956,0.0,10,0.5,0.5,0.034130725097656245,-0.001,-0.001,-0.5,-0.3490239901369263,10,1,100,-0.26632981273033496,-10,-1,-100,15032.289786593756,0.027787561285850866,-0.014720046964796491,0.9995054635444167,22.095765245424566,0.031747154813675536,-9.024545090609902,3.6025616889994416,-45.25701904296875,5356.25390625,True
1599558491.7252834,0.0,10,0.5,0.5,-0.09046423645019532,-0.001,-0.001,-0.5,-0.1545013840186759,10,1,100,-0.30599006950560403,-10,-1,-100,15032.289786593756,0.027787561285850866,-0.014720046964796491,0.9995054635444167,22.095765245424566,0.031747154813675536,-9.024545090609902,3.6025616889994416,-45.25701904296875,5356.25390625,True
1599558491.7587419,0.0,10,0.5,0.5,0.0348006134033203,-0.001,-0.001,-0.5,-0.3755476542824394,10,1,100,-0.24960733147302086,-10,-1,-100,15032.400181932142,0.027274517349148972,-0.016716085809504073,0.9994882056225477,21.92379182800452,0.03153535503621037,-8.031440170034388,3.2312104127122363,-45.50665283203125,5356.25390625,True
1599558491.792754,0.0,10,0.5,0.5,0.09675577697753907,-0.001,-0.001,-0.5,-0.5043072724720901,10,1,100,-0.18441822418495057,-10,-1,-100,15032.5994674213,0.02621570353177428,-0.0196866730216466,0.9994624414122187,21.67123603027456,0.03122000326436991,-6.570444555817644,2.6741618355653847,-45.8790283203125,5356.25390625,True
1599558491.8274667,0.0,10,0.5,0.5,-0.08923128051757813,-0.001,-0.001,-0.5,-0.20879609872621338,10,1,100,-0.290094821766564,-10,-1,-100,15032.5994674213,0.02621570353177428,-0.0196866730216466,0.9994624414122187,21.67123603027456,0.03122000326436991,-6.570444555817644,2.6741618355653847,-45.8790283203125,5356.25390625,True
1599558491.8594153,0.0,10,0.5,0.5,0.03533262634277343,-0.001,-0.001,-0.5,-0.4234012158768112,10,1,100,-0.1903294438403264,-10,-1,-100,15032.678615098237,0.02531060722477081,-0.021623560018757707,0.9994457438070505,21.497503631020063,0.030998950420862356,-5.612686924850742,2.3027801810594433,-46.12725830078125,5356.25390625,True
1599558491.8923538,0.0,10,0.5,0.5,0.08414444274902344,-0.001,-0.001,-0.5,-0.5456896592706646,10,1,100,-0.1016514360928264,-10,-1,-100,15032.805635671015,0.02368452368408824,-0.02448274441443642,0.9994196508793467,21.23169742402663,0.030655842721221294,-4.202329931658894,1.7456816960993229,-46.4720458984375,5356.25390625,True
1599558491.9254363,0.0,10,0.5,0.5,-0.08803905334472656,-0.001,-0.001,-0.5,-0.26142791205437255,10,1,100,-0.2637736403148073,-10,-1,-100,15032.805635671015,0.02368452368408824,-0.02448274441443642,0.9994196508793467,21.23169742402663,0.030655842721221294,-4.202329931658894,1.7456816960993229,-46.4720458984375,5356.25390625,True
1599558491.9603863,0.0,10,0.5,0.5,0.030225085449218758,-0.001,-0.001,-0.5,-0.46883993041687033,10,1,100,-0.12406155626137727,-10,-1,-100,15032.833027655375,0.0224187860599441,-0.02635498285152402,0.9994012271908087,21.060528342298383,0.03043339421690334,-3.2816067739907444,1.3742643398441237,-46.707733154296875,5356.25390625,True
1599558491.992453,0.0,10,0.5,0.5,0.0793400115966797,-0.001,-0.001,-0.5,-0.5759865383973691,10,1,100,-0.00958672072289668,-10,-1,-100,15032.890716327354,0.02023280970202324,-0.029017832974502555,0.9993741035173093,20.801650372383563,0.030093180462762756,-1.9272367705169011,0.8171094772360243,-47.040618896484375,5356.25390625,True
1599558492.0256882,0.0,10,0.5,0.5,0.021455780029296878,-0.001,-0.001,-0.5,-0.4948058480576326,10,1,100,-0.046791023752037225,-10,-1,-100,15032.915179031086,0.018591006947458452,-0.030685818240566213,0.9993561702514207,20.630086729210074,0.02986540891108433,-1.042466030859543,0.4456531042513423,-47.25689697265625,5356.25390625,True
1599558492.0576825,0.0,10,0.5,0.5,-0.08648327026367188,-0.001,-0.001,-0.5,-0.32960389857884387,10,1,100,-0.21005164377467667,-10,-1,-100,15032.915179031086,0.018591006947458452,-0.030685818240566213,0.9993561702514207,20.630086729210074,0.02986540891108433,-1.042466030859543,0.4456531042513423,-47.25689697265625,5356.25390625,True
1599558492.0944407,0.0,10,0.5,0.5,-0.03494179077148438,-0.001,-0.001,-0.5,-0.41658393693877027,10,1,100,-0.11311553429299948,-10,-1,-100,15032.94840602437,0.017718130092478107,-0.03146203152449666,0.999347891596504,20.545175201701348,0.02975195751088167,-0.6055012634328881,0.2599188314470573,-47.359375,5356.25390625,True
1599558492.1246092,0.0,10,0.5,0.5,0.109157177734375,-0.001,-0.001,-0.5,-0.6717536445074143,10,1,100,0.22251973904881053,-10,-1,-100,15032.900649959687,0.013882063545985585,-0.03447399917349839,0.9993091772282945,20.379938583691867,0.029546069078523925,1.1163001385464073,-0.4830538486690601,-47.7489013671875,5356.25390625,True
1599558492.1578088,0.0,10,0.5,0.5,-0.03371058349609375,-0.001,-0.001,-0.5,-0.4467752860414987,10,1,100,-0.04516562998796367,-10,-1,-100,15032.931926241261,0.01283944607676832,-0.03515345075367177,0.9992994463745843,20.368790872666985,0.029537158093815272,1.5447234767383486,-0.6688039931610723,-47.85211181640625,5356.25390625,True
1599558492.1907,0.0,10,0.5,0.5,-0.08511849975585938,-0.001,-0.001,-0.5,-0.3803768057973633,10,1,100,-0.14808975116418957,-10,-1,-100,15032.931926241261,0.01283944607676832,-0.03515345075367177,0.9992994463745843,20.368790872666985,0.029537158093815272,1.5447234767383486,-0.6688039931610723,-47.85211181640625,5356.25390625,True
1599558492.2086818,0.0,10,0.5,0.5,0.01833325195312499,-0.001,-0.001,-0.5,-0.5164447928448523,10,1,100,0.09183124086603922,-10,-1,-100,15032.88705895259,0.010669683568446242,-0.03637813255343538,0.9992811362797128,20.353188488355627,0.029527313938857713,2.4009943929664495,-1.0403116709666058,-48.058258056640625,5356.25390625,True
1599558492.2576418,0.0,10,0.5,0.5,0.017490164184570306,-0.001,-0.001,-0.5,-0.5282158308076156,10,1,100,0.1294544073850663,-10,-1,-100,15032.829497579136,0.008366975083540146,-0.037587675090937425,0.9992583051489788,20.348232091968665,0.029530564223882113,3.257715382705565,-1.411828753278575,-48.261993408203125,5356.25390625,True
1599558492.357375,0.0,10,0.5,0.5,-0.03103759765625,-0.001,-0.001,-0.5,-0.4718809550617914,10,1,100,0.03298443562010231,-10,-1,-100,15032.791441676323,0.007164528521125683,-0.03816321040854406,0.9992458350688199,20.349052016489605,0.029535833649513742,3.686540035755217,-1.5975905474516732,-48.36810302734375,5356.25390625,True
1599558492.3943746,0.0,10,0.5,0.5,0.19010387268066406,-0.001,-0.001,-0.5,-0.6596828968578361,10,1,100,0.6150249524639311,-10,-1,-100,15032.57969476399,0.0007939853635675635,-0.040382979961280485,0.9991839592971302,20.40489881648819,0.02962442031065432,5.846254276423013,-2.526427580439026,-48.915069580078125,5356.25390625,True
1599558492.425296,0.0,10,0.5,0.5,-0.02926657409667968,-0.001,-0.001,-0.5,-0.4782494946030185,10,1,100,0.1292794103067167,-10,-1,-100,15032.5426214576,-0.0005638772833847276,-0.04074122576419091,0.9991695724778854,20.427454499511686,0.029655515275637884,6.2831638926528095,-2.7121999430523873,-49.022705078125,5356.25390625,True
1599558492.4583247,0.0,10,0.5,0.5,-0.028523678588867188,-0.001,-0.001,-0.5,-0.4781589153634085,10,1,100,0.14726788146794945,-10,-1,-100,15032.45086186775,-0.0019444158964154325,-0.041056939039637,0.999154916418629,20.45250563042832,0.029689025803787347,6.721862764599067,-2.897973712538781,-49.131256103515625,5356.25390625,True
1599558492.4923472,0.0,10,0.5,0.5,0.07268173217773438,-0.001,-0.001,-0.5,-0.5125595469950808,10,1,100,0.47371805226350044,-10,-1,-100,15032.283983371453,-0.006148511258363016,-0.041647255831422224,0.999113457967121,20.554946794901998,0.029821086743729238,8.055104593181577,-3.4553023105818754,-49.44122314453125,5356.25390625,True
1599558492.5599942,0.0,10,0.5,0.5,-0.082093603515625,-0.001,-0.001,-0.5,-0.4545463902472512,10,1,100,0.055695180203826286,-10,-1,-100,15032.283983371453,-0.006148511258363016,-0.041647255831422224,0.999113457967121,20.554946794901998,0.029821086743729238,8.055104593181577,-3.4553023105818754,-49.44122314453125,5356.25390625,True
1599558492.5919435,0.0,10,0.5,0.5,0.06616785278320311,-0.001,-0.001,-0.5,-0.4784045627540775,10,1,100,0.5363582916175884,-10,-1,-100,15032.049726995174,-0.010499966294120536,-0.04185762716634071,0.9990684109488327,20.689467711552762,0.029985972231453637,9.416086252785872,-4.012639306764498,-49.73681640625,5356.25390625,True
1599558492.6258197,0.0,10,0.5,0.5,0.05157666015625001,-0.001,-0.001,-0.5,-0.4303809904142468,10,1,100,0.591769778661607,-10,-1,-100,15031.758828387712,-0.014938357652144916,-0.041606201198256636,0.9990224069021209,20.849742386968998,0.030172514415543732,10.80763205315157,-4.569981645097474,-50.0023193359375,5356.25390625,True
1599558492.6589265,0.0,10,0.5,0.5,-0.03536707153320312,-0.001,-0.001,-0.5,-0.43935951363734105,10,1,100,0.3184872395234968,-10,-1,-100,15031.648519440205,-0.0164636196184307,-0.04145338893798598,0.9990047876635105,20.907039054667283,0.030236559634027747,11.2781220504651,-4.755763128691564,-50.09332275390625,5356.25390625,True
1599558492.6949916,0.0,10,0.5,0.5,-0.036570913696289065,-0.001,-0.001,-0.5,-0.424299746958232,10,1,100,0.3283662025061804,-10,-1,-100,15031.56067019829,-0.01791536352109047,-0.04117294786212571,0.9989914054256173,20.966357204716214,0.03030153957554908,11.752185797044005,-4.941544721606833,-50.18133544921875,5356.25390625,True
1599558492.7260134,0.0,10,0.5,0.5,0.0020546142578125037,-0.001,-0.001,-0.5,-0.3775880474866439,10,1,100,0.5087292633891118,-10,-1,-100,15031.358603123808,-0.020850901860076335,-0.040490090277264495,0.998962357889906,21.094947264622753,0.03043963701615422,12.713893992995176,-5.313108025322728,-50.34588623046875,5356.25390625,True
1599558492.7590034,0.0,10,0.5,0.5,0.041771618652343745,-0.001,-0.001,-0.5,-0.3000502401210773,10,1,100,0.7138317151676232,-10,-1,-100,15031.03744130442,-0.025358672247703405,-0.0391623061514594,0.9989110328346229,21.30434325408702,0.030654511325889807,14.18799322117436,-5.870451851513778,-50.5889892578125,5356.25390625,True
1599558492.7930102,0.0,10,0.5,0.5,0.004341079711914053,-0.001,-0.001,-0.5,-0.303542873494112,10,1,100,0.5896853355419385,-10,-1,-100,15030.768000526004,-0.028304266732938815,-0.03798809058940038,0.9988772564525044,21.45303517464643,0.030799663687088984,15.192031913130092,-6.2420127286381595,-50.756561279296875,5356.25390625,True
1599558492.8297043,0.0,10,0.5,0.5,-0.03840322875976562,-0.001,-0.001,-0.5,-0.34546387241601606,10,1,100,0.4532199290672291,-10,-1,-100,15030.660623649252,-0.029716266761155873,-0.037304224736977476,0.9988620216559208,21.530709515473234,0.03087349961667671,15.70122874701239,-6.427792412142134,-50.838134765625,5356.25390625,True
1599558492.859471,0.0,10,0.5,0.5,-0.03960345153808595,-0.001,-0.001,-0.5,-0.33285447033298476,10,1,100,0.46995568877085975,-10,-1,-100,15030.501487762667,-0.031126799283327348,-0.03657130913793152,0.998846165189772,21.611011823464004,0.030948732581768754,16.215706206695177,-6.613571528549507,-50.91680908203125,5356.25390625,True
1599558492.8933816,0.0,10,0.5,0.5,-0.004150656127929697,-0.001,-0.001,-0.5,-0.22775031242316177,10,1,100,0.6381573478303268,-10,-1,-100,15030.23106464243,-0.03391550003309206,-0.034954144382067245,0.9988132691589668,21.777318042104202,0.03110055095609944,17.259442801968014,-6.985127777705254,-51.0657958984375,5356.25390625,True
1599558492.9265199,0.0,10,0.5,0.5,0.03511794128417969,-0.001,-0.001,-0.5,-0.07984839222552631,10,1,100,0.811506308230469,-10,-1,-100,15029.784907331574,-0.038001339455811516,-0.03214551633989336,0.9987605138264156,22.035513744331624,0.03132339730051861,18.859101476129723,-7.542456181775432,-51.29254150390625,5356.25390625,True
1599558492.9624226,0.0,10,0.5,0.5,-0.03917271423339844,-0.001,-0.001,-0.5,-0.24437985986407323,10,1,100,0.5459311362038777,-10,-1,-100,15029.661905522691,-0.03927641793698593,-0.031096787926291575,0.9987443881067399,22.123824453645444,0.031396238893268515,19.401627576206515,-7.728230453250996,-51.3702392578125,5356.25390625,True
1599558492.99334,0.0,10,0.5,0.5,-0.07788479919433594,-0.001,-0.001,-0.5,-0.3482017598970555,10,1,100,0.42085709411492056,-10,-1,-100,15029.661905522691,-0.03927641793698593,-0.031096787926291575,0.9987443881067399,22.123824453645444,0.031396238893268515,19.401627576206515,-7.728230453250996,-51.3702392578125,5356.25390625,True
1599558493.0255291,0.0,10,0.5,0.5,0.07687893981933594,-0.001,-0.001,-0.5,0.16708449177687718,10,1,100,0.9615121477828237,-10,-1,-100,15028.98533023696,-0.04417072497185909,-0.026421782548357364,0.9986745398088547,22.49226939151463,0.03168715462628954,21.624013762514597,-8.471316664050608,-51.67889404296875,5356.25390625,True
1599558493.0594382,0.0,10,0.5,0.5,-0.03638451232910156,-0.001,-0.001,-0.5,-0.15690760970595527,10,1,100,0.6063586476698485,-10,-1,-100,15028.809598217369,-0.04536755831030694,-0.02513057055036453,0.9986542139683656,22.58625154320823,0.03175720971545659,22.191272117655604,-8.657085161594475,-51.76055908203125,5356.25390625,True
1599558493.0946536,0.0,10,0.5,0.5,-0.07707556457519532,-0.001,-0.001,-0.5,-0.2844928575325487,10,1,100,0.4891269794700861,-10,-1,-100,15028.809598217369,-0.04536755831030694,-0.02513057055036453,0.9986542139683656,22.58625154320823,0.03175720971545659,22.191272117655604,-8.657085161594475,-51.76055908203125,5356.25390625,True
1599558493.1256683,0.0,10,0.5,0.5,0.09412893371582032,-0.001,-0.001,-0.5,0.33421740909747655,10,1,100,0.9603121088855817,-10,-1,-100,15028.114494083798,-0.0496328695903909,-0.019518687886092567,0.9985767867717679,22.970326264262624,0.03202856993719346,24.50912267937574,-9.400146063713034,-52.10205078125,5356.25390625,True
1599558493.159777,0.0,10,0.5,0.5,-0.07648236694335937,-0.001,-0.001,-0.5,-0.22512391705938886,10,1,100,0.5359138411629313,-10,-1,-100,15028.114494083798,-0.0496328695903909,-0.019518687886092567,0.9985767867717679,22.970326264262624,0.03202856993719346,24.50912267937574,-9.400146063713034,-52.10205078125,5356.25390625,True
1599558493.192736,0.0,10,0.5,0.5,-0.031435992431640636,-0.001,-0.001,-0.5,-0.05583898848839711,10,1,100,0.6515627079851952,-10,-1,-100,15027.884081541211,-0.05066611692256672,-0.017995902659857083,0.998553499860396,23.068142453721972,0.03209406518154618,25.10079410292887,-9.58590767984462,-52.19171142578125,5356.25390625,True
1599558493.2595494,0.0,10,0.5,0.5,0.11253121948242187,-0.001,-0.001,-0.5,0.5069826532393613,10,1,100,0.9456366593982787,-10,-1,-100,15027.107958351495,-0.05426106922135528,-0.011511878808007088,0.9984604213554311,23.462849014944418,0.03234479707064647,27.513324950293832,-10.3289379296147,-52.56829833984375,5356.25390625,True
1599558493.2949207,0.0,10,0.5,0.5,0.07749512939453124,-0.001,-0.001,-0.5,0.4420423223054483,10,1,100,0.8364167880470619,-10,-1,-100,15026.450939942035,-0.0565178037814354,-0.006228989465337266,0.9983821600699624,23.760460757580613,0.03252114613545923,29.369000016323053,-10.886192519494001,-52.8739013671875,5356.25390625,True
1599558493.3269331,0.0,10,0.5,0.5,0.022122320556640623,-0.001,-0.001,-0.5,0.3130850109567559,10,1,100,0.7296235337451902,-10,-1,-100,15025.973537648795,-0.057581699738467926,-0.0026222624632387735,0.998337353600877,23.96063815862197,0.032636556513111516,30.62961691966888,-11.257686405658088,-53.06805419921875,5356.25390625,True
1599558493.3629959,0.0,10,0.5,0.5,-0.030781689453124997,-0.001,-0.001,-0.5,0.15912836474930542,10,1,100,0.6783713087470393,-10,-1,-100,15025.795868150424,-0.058066307397785684,-0.0007689115409106512,0.9983124324179422,24.06176863958957,0.032694853772682574,31.267710297377644,-11.443430353630617,-53.1558837890625,5356.25390625,True
1599558493.3939195,0.0,10,0.5,0.5,-0.03335910644531251,-0.001,-0.001,-0.5,0.18296735094239497,10,1,100,0.6761865951600254,-10,-1,-100,15025.549835991696,-0.05846991706504643,0.0011051001935199283,0.9982885592612833,24.162135450183186,0.03275164946457533,31.909128725446422,-11.629172264839,-53.238037109375,5356.25390625,True
1599558493.4267948,0.0,10,0.5,0.5,-0.03478757324218751,-0.001,-0.001,-0.5,0.20714912572840868,10,1,100,0.6758719230775541,-10,-1,-100,15025.31845083111,-0.058820975023539925,0.003003557102200691,0.9982640289733042,24.261238660061785,0.03280686885976479,32.553154789486136,-11.81491216695258,-53.316864013671875,5356.25390625,True
1599558493.4598575,0.0,10,0.5,0.5,0.005137924194335938,-0.001,-0.001,-0.5,0.44687041057524857,10,1,100,0.698280102949852,-10,-1,-100,15024.824431696557,-0.05933159896945196,0.006883134947197597,0.9982145980785027,24.455134608822092,0.032912443019428764,33.847993865259276,-12.186385675759206,-53.47491455078125,5356.25390625,True
1599558493.4927683,0.0,10,0.5,0.5,-0.03293932800292969,-0.001,-0.001,-0.5,0.2775960880827175,10,1,100,0.6643276482584278,-10,-1,-100,15024.577423182083,-0.05947444929521437,0.00884206305135581,0.9981906670581662,24.550014527789127,0.03296336802809184,34.49874974023802,-12.372119117722473,-53.556304931640625,5356.25390625,True
1599558493.526678,0.0,10,0.5,0.5,0.09729246215820311,-0.001,-0.001,-0.5,0.9609892303982941,10,1,100,0.6398626719793641,-10,-1,-100,15023.551314878976,-0.05937295746182069,0.01680978921169811,0.9980943256570971,24.91921248812642,0.03316181383475444,37.12716916475848,-13.115030678424247,-53.897186279296875,5356.25390625,True
1599558493.559854,0.0,10,0.5,0.5,-0.07296869812011719,-0.001,-0.001,-0.5,0.16784946207384321,10,1,100,0.6509858641058753,-10,-1,-100,15023.551314878976,-0.05937295746182069,0.01680978921169811,0.9980943256570971,24.91921248812642,0.03316181383475444,37.12716916475848,-13.115030678424247,-53.897186279296875,5356.25390625,True
1599558493.593854,0.0,10,0.5,0.5,0.013418249511718744,-0.001,-0.001,-0.5,0.6198177172521361,10,1,100,0.6046902752345082,-10,-1,-100,15022.98894657183,-0.05894417316249985,0.02088694999343572,0.9980427444604569,25.09684740011946,0.033260295864214244,38.45453561699441,-13.486472575568754,-54.06927490234375,5356.25390625,True
1599558493.629834,0.0,10,0.5,0.5,0.05595421142578125,-0.001,-0.001,-0.5,0.8867556267134887,10,1,100,0.5172271756690185,-10,-1,-100,15022.196173428674,-0.05775499279984814,0.026990714582117263,0.99796586220824,25.350390526531328,0.0334067022767487,40.45369152097237,-14.043617141157135,-54.32562255859375,5356.25390625,True
1599558493.6603718,0.0,10,0.5,0.5,0.017734942626953132,-0.001,-0.001,-0.5,0.7177248876633622,10,1,100,0.5052941147731453,-10,-1,-100,15021.629902764573,-0.056564312653821905,0.030972748667692555,0.9979184171934942,25.508963446619497,0.033503117196160205,41.78757432676374,-14.41503440651066,-54.5048828125,5356.25390625,True
1599558493.6962729,0.0,10,0.5,0.5,-0.027871191406249995,-0.001,-0.001,-0.5,0.5369391531763165,10,1,100,0.5464381596836769,-10,-1,-100,15021.313561664778,-0.05585683782669802,0.03291873205821429,0.9978959719067322,25.585618318655033,0.03355243130581501,42.45529184476554,-14.600739095697175,-54.59246826171875,5356.25390625,True
1599558493.7291849,0.0,10,0.5,0.5,-0.029291192626953122,-0.001,-0.001,-0.5,0.5592519359985629,10,1,100,0.5314056084480245,-10,-1,-100,15021.014796472155,-0.05507902794496228,0.03486002621743708,0.9978732781534726,25.660215355433426,0.03360215706974896,43.122870137707935,-14.786441285635885,-54.6767578125,5356.25390625,True
1599558493.7640936,0.0,10,0.5,0.5,0.010964373779296877,-0.001,-0.001,-0.5,0.798493039646963,10,1,100,0.4188913168849524,-10,-1,-100,15020.394801704446,-0.05335215348292011,0.03876907191714878,0.9978228834725218,25.80170342722397,0.033702503676060994,44.454448439816325,-15.157837748019931,-54.8409423828125,5356.25390625,True
1599558493.793272,0.0,10,0.5,0.5,0.013971884155273437,-0.001,-0.001,-0.5,0.830655151506836,10,1,100,0.3681379286155838,-10,-1,-100,15019.81680166698,-0.0513258448254699,0.042582618556690134,0.9977737109434219,25.931791515462567,0.03380322811152323,45.77818634107378,-15.529223640351528,-55.010498046875,5356.25390625,True
1599558493.8272717,0.0,10,0.5,0.5,-0.07065238952636718,-0.001,-0.001,-0.5,0.4528704359136501,10,1,100,0.5699682189462066,-10,-1,-100,15019.81680166698,-0.0513258448254699,0.042582618556690134,0.9977737109434219,25.931791515462567,0.03380322811152323,45.77818634107378,-15.529223640351528,-55.010498046875,5356.25390625,True
1599558493.8602412,0.0,10,0.5,0.5,0.016336291503906253,-0.001,-0.001,-0.5,0.8545113488034618,10,1,100,0.313563383603781,-10,-1,-100,15019.145050358144,-0.04900229959914762,0.04620322635068357,0.9977294405342476,26.069518096327467,0.03393072797218433,47.127056932396364,-15.90059852227887,-55.183837890625,5356.25390625,True
1599558493.896277,0.0,10,0.5,0.5,0.05938719787597656,-0.001,-0.001,-0.5,1.079082746454924,10,1,100,0.10779554077919618,-10,-1,-100,15018.195037382655,-0.04502879687486993,0.05150952483556455,0.997656842959149,26.258597502322576,0.03413319531619188,49.14005594208313,-16.45763964683717,-55.4425048828125,5356.25390625,True
1599558493.927195,0.0,10,0.5,0.5,-0.06979176635742187,-0.001,-0.001,-0.5,0.5519228715292128,10,1,100,0.5037113971482701,-10,-1,-100,15018.195037382655,-0.04502879687486993,0.05150952483556455,0.997656842959149,26.258597502322576,0.03413319531619188,49.14005594208313,-16.45763964683717,-55.4425048828125,5356.25390625,True
1599558493.960307,0.0,10,0.5,0.5,0.019665686035156255,-0.001,-0.001,-0.5,0.9138479686428618,10,1,100,0.1739419992133433,-10,-1,-100,15017.507659550174,-0.04204354359935935,0.05477191428674124,0.9976133408525442,26.369475357336583,0.03427253564446684,50.466757556037734,-16.828985937165655,-55.62078857421875,5356.25390625,True
1599558493.9932387,0.0,10,0.5,0.5,0.058655432128906254,-0.001,-0.001,-0.5,1.0981621797140333,10,1,100,-0.07091154273135247,-10,-1,-100,15016.489280070877,-0.037118018830489305,0.059388050979635586,0.9975446416471494,26.51309618705461,0.034491428305734886,52.430142179753084,-17.385983816702854,-55.87628173828125,5356.25390625,True
1599558494.0292575,0.0,10,0.5,0.5,0.01726239013671875,-0.001,-0.001,-0.5,0.9429010243166287,10,1,100,0.026127904879326314,-10,-1,-100,15015.800918770721,-0.033540124285998466,0.06214724174018864,0.9975032733815796,26.5923341661173,0.03464241156467825,53.71625895741437,-17.757301084808375,-56.048370361328125,5356.25390625,True
1599558494.0611722,0.0,10,0.5,0.5,0.015760641479492188,-0.001,-0.001,-0.5,0.9480782930459908,10,1,100,-0.03421262813446441,-10,-1,-100,15015.042240785202,-0.02975923050319115,0.06467609168397473,0.9974624761685745,26.658119956219085,0.034798038697295496,54.98166443236698,-18.128606431862465,-56.216827392578125,5356.25390625,True
1599558494.0952551,0.0,10,0.5,0.5,-0.027323236083984376,-0.001,-0.001,-0.5,0.827973638295153,10,1,100,0.12454538196991333,-10,-1,-100,15014.711239165626,-0.027788326971989543,0.06585608016653034,0.9974421214231919,26.685914814478796,0.03487750043349013,55.605953596432215,-18.314254622782432,-56.29864501953125,5356.25390625,True
1599558494.1291625,0.0,10,0.5,0.5,-0.068086279296875,-0.001,-0.001,-0.5,0.7126834908645298,10,1,100,0.3190793524389809,-10,-1,-100,15014.711239165626,-0.027788326971989543,0.06585608016653034,0.9974421214231919,26.685914814478796,0.03487750043349013,55.605953596432215,-18.314254622782432,-56.29864501953125,5356.25390625,True
1599558494.1660633,0.0,10,0.5,0.5,0.013198175048828115,-0.001,-0.001,-0.5,0.9518332450919401,10,1,100,-0.13253287395804791,-10,-1,-100,15013.954505171161,-0.023704159020974263,0.0680090111489524,0.9974030716052815,26.7307617795326,0.03503857152696882,56.83546038504765,-18.6855421461488,-56.46063232421875,5356.25390625,True
1599558494.1960335,0.0,10,0.5,0.5,0.05928135986328126,-0.001,-0.001,-0.5,1.0532322258037263,10,1,100,-0.4447141270193927,-10,-1,-100,15012.811107229674,-0.017178378297497687,0.07086491514617754,0.9973379904126752,26.771216597314233,0.03528403185044515,58.62870900553635,-19.24245117205355,-56.7139892578125,5356.25390625,True
1599558494.2298932,0.0,10,0.5,0.5,0.027075640869140633,-0.001,-0.001,-0.5,0.9406945197886979,10,1,100,-0.29664537183675266,-10,-1,-100,15012.03778882185,-0.012620860797180847,0.07241570173552242,0.9972946806310008,26.785493182156973,0.035455820385676344,59.799115690129085,-19.613709264327788,-56.902252197265625,5356.25390625,True
1599558494.2628057,0.0,10,0.5,0.5,-0.06690985412597657,-0.001,-0.001,-0.5,0.787706478544206,10,1,100,0.1558655845871625,-10,-1,-100,15012.03778882185,-0.012620860797180847,0.07241570173552242,0.9972946806310008,26.785493182156973,0.035455820385676344,59.799115690129085,-19.613709264327788,-56.902252197265625,5356.25390625,True
1599558494.298711,0.0,10,0.5,0.5,0.072460546875,-0.001,-0.001,-0.5,0.9761150467028723,10,1,100,-0.6165672985462732,-10,-1,-100,15010.825069998973,-0.005628205437856603,0.0741095012852376,0.9972342278135076,26.798908583544783,0.035738077611143206,61.539200651882,-20.170574611426787,-57.180145263671875,5356.25390625,True
1599558494.3276713,0.0,10,0.5,0.5,-0.06633005065917968,-0.001,-0.001,-0.5,0.8086688504312033,10,1,100,0.07905670357000086,-10,-1,-100,15010.825069998973,-0.005628205437856603,0.0741095012852376,0.9972342278135076,26.798908583544783,0.035738077611143206,61.539200651882,-20.170574611426787,-57.180145263671875,5356.25390625,True
1599558494.3625681,0.0,10,0.5,0.5,0.07123591308593749,-0.001,-0.001,-0.5,0.9257345544082962,10,1,100,-0.7243979175426051,-10,-1,-100,15009.610391638125,0.0016473003782646934,0.07516035182111518,0.9971700997901963,26.782362867897803,0.036017866937384665,63.210972573285254,-20.727414669422107,-57.4544677734375,5356.25390625,True
1599558494.3964489,0.0,10,0.5,0.5,-0.020620120239257828,-0.001,-0.001,-0.5,0.8361674386750676,10,1,100,-0.2656221541236992,-10,-1,-100,15009.168059839634,0.004058719248508307,0.0752895938833555,0.9971534505034525,26.770373487487582,0.03610982181097942,63.75249517584369,-20.913022444768217,-57.54461669921875,5356.25390625,True
1599558494.43335,0.0,10,0.5,0.5,0.025700067138671873,-0.001,-0.001,-0.5,0.8382368747141264,10,1,100,-0.5748763295085396,-10,-1,-100,15008.326368524577,0.009031576225181324,0.0754162510837478,0.9971112373769346,26.735970630637286,0.03628905316805516,64.808967344973,-21.284229847662175,-57.726776123046875,5356.25390625,True
1599558494.4632983,0.0,10,0.5,0.5,-0.020622634887695307,-0.001,-0.001,-0.5,0.8124428860364247,10,1,100,-0.34896059498256293,-10,-1,-100,15007.871337205986,0.011465103250832305,0.07528821212256423,0.9970959013669826,26.714409216134285,0.0363770252701306,65.32555627227597,-21.469829526611097,-57.815826416015625,5356.25390625,True
1599558494.4961817,0.0,10,0.5,0.5,0.07086471557617188,-0.001,-0.001,-0.5,0.7451231957348832,10,1,100,-0.9365290578762897,-10,-1,-100,15006.586326318095,0.01898324709116451,0.07455124121696875,0.9970364831654284,26.63117637710844,0.03662868081346718,66.82372068642675,-22.026612753865166,-58.087005615234375,5356.25390625,True
1599558494.5300956,0.0,10,0.5,0.5,-0.01840382995605469,-0.001,-0.001,-0.5,0.7704112415311972,10,1,100,-0.4611885530450992,-10,-1,-100,15006.131295344909,0.021457839260171932,0.07410521150996843,0.9970195478331142,26.597405838500375,0.036707575283107086,67.30564326825134,-22.21220181068426,-58.17913818359375,5356.25390625,True
1599558494.5689883,0.0,10,0.5,0.5,0.07448801574707031,-0.001,-0.001,-0.5,0.6110765216076133,10,1,100,-1.0239181065134715,-10,-1,-100,15004.777916361112,0.028788067883929635,0.07224828678033211,0.9969711290728619,26.478656528273692,0.03692503980434591,68.69797824073655,-22.768954161149225,-58.456207275390625,5356.25390625,True
1599558494.598909,0.0,10,0.5,0.5,-0.06389113464355468,-0.001,-0.001,-0.5,0.7967522530757262,10,1,100,-0.2950361370058122,-10,-1,-100,15004.777916361112,0.028788067883929635,0.07224828678033211,0.9969711290728619,26.478656528273692,0.03692503980434591,68.69797824073655,-22.768954161149225,-58.456207275390625,5356.25390625,True
1599558494.6316388,0.0,10,0.5,0.5,0.07429612121582031,-0.001,-0.001,-0.5,0.5113569875537614,10,1,100,-1.0983331156856024,-10,-1,-100,15003.409881451982,0.036053123209490355,0.06965393656190988,0.9969195059924701,26.33908091481324,0.037112597908923406,70.02041824254619,-23.325684167583216,-58.731719970703125,5356.25390625,True
1599558494.6655176,0.0,10,0.5,0.5,-0.06330506896972657,-0.001,-0.001,-0.5,0.7703464529236519,10,1,100,-0.3759957159942652,-10,-1,-100,15003.409881451982,0.036053123209490355,0.06965393656190988,0.9969195059924701,26.33908091481324,0.037112597908923406,70.02041824254619,-23.325684167583216,-58.731719970703125,5356.25390625,True
1599558494.7000563,0.0,10,0.5,0.5,0.027607412719726554,-0.001,-0.001,-0.5,0.5317362543520433,10,1,100,-0.9026570881389406,-10,-1,-100,15002.427539790282,0.04080306174839891,0.06748880345191646,0.9968853352119215,26.236144296340967,0.03721775934854532,70.86578003010027,-23.69682544914659,-58.912872314453125,5356.25390625,True
1599558494.730409,0.0,10,0.5,0.5,-0.017184338378906247,-0.001,-0.001,-0.5,0.6137951306889107,10,1,100,-0.6776268176238301,-10,-1,-100,15001.971524375025,0.043039861814205556,0.06627346454441142,0.9968728094357348,26.181586293927783,0.037263120022719996,71.27686429337585,-23.882392595676773,-59.00396728515625,5356.25390625,True
1599558494.7653134,0.0,10,0.5,0.5,0.07371828002929687,-0.001,-0.001,-0.5,0.2808307056700625,10,1,100,-1.1956262463132425,-10,-1,-100,15000.533167257207,0.04974696473251017,0.06214985815499817,0.9968262810696837,26.009593628076747,0.037370718603948534,72.47339389259191,-24.43908041465354,-59.276031494140625,5356.25390625,True
1599558494.7992253,0.0,10,0.5,0.5,-0.015740563964843746,-0.001,-0.001,-0.5,0.522610376118941,10,1,100,-0.7631086450080395,-10,-1,-100,15000.022464762325,0.05187533883864222,0.06061118243500206,0.9968125369316976,25.949048615796627,0.03739508234361218,72.8584594520885,-24.624638461583437,-59.368682861328125,5356.25390625,True
1599558494.8342018,0.0,10,0.5,0.5,0.033891833496093746,-0.001,-0.001,-0.5,0.3121931839976266,10,1,100,-1.0248008221025178,-10,-1,-100,14999.040130433277,0.05615250760363224,0.05731284551543689,0.9967758693050046,25.82402094000439,0.03742535129258655,73.60982296158902,-24.995748201103073,-59.559906005859375,5356.25390625,True
1599558494.8650875,0.0,10,0.5,0.5,0.08466976928710937,-0.001,-0.001,-0.5,0.03640150683552623,10,1,100,-1.2595898619871118,-10,-1,-100,14997.53343942773,0.06214149842483541,0.05182283161045085,0.9967210383539574,25.627103786318223,0.03741986180172875,74.69004175238089,-25.5523969927766,-59.851806640625,5356.25390625,True
1599558494.897034,0.0,10,0.5,0.5,-0.06111328125,-0.001,-0.001,-0.5,0.5831746593441784,10,1,100,-0.6647591457832606,-10,-1,-100,14997.53343942773,0.06214149842483541,0.05182283161045085,0.9967210383539574,25.627103786318223,0.03741986180172875,74.69004175238089,-25.5523969927766,-59.851806640625,5356.25390625,True
1599558494.9310062,0.0,10,0.5,0.5,-0.011115292358398435,-0.001,-0.001,-0.5,0.36469813479621016,10,1,100,-0.873464129257947,-10,-1,-100,14997.006147342036,0.06400849515593174,0.049855249982896484,0.9967032490149792,25.55954669041452,0.03740388960975635,75.0390161866638,-25.737942561578585,-59.951324462890625,5356.25390625,True
1599558494.9650838,0.0,10,0.5,0.5,0.037019845581054686,-0.001,-0.001,-0.5,0.10847253277423113,10,1,100,-1.0836924184023202,-10,-1,-100,14995.957426212728,0.06758491260617543,0.04575757306382674,0.9966636965874317,25.423720168632943,0.037351647037279,75.72638901464762,-26.109027634527976,-60.14642333984375,5356.25390625,True
1599558494.9966314,0.0,10,0.5,0.5,0.0951041259765625,-0.001,-0.001,-0.5,-0.22711977155549812,10,1,100,-1.2998702871350696,-10,-1,-100,14994.376563459868,0.07277278928633406,0.03900329706485496,0.9965856029250861,25.220290024578897,0.03722209941544461,76.73714718941348,-26.665640880046418,-60.456787109375,5356.25390625,True
1599558495.029268,0.0,10,0.5,0.5,-0.005047219848632815,-0.001,-0.001,-0.5,0.18505659741660005,10,1,100,-0.9590555137930602,-10,-1,-100,14993.853199552977,0.07435734317784469,0.03663796827416974,0.9965584000931772,25.150567005730753,0.03716121292830306,77.0625463199945,-26.85117493855857,-60.5662841796875,5356.25390625,True
1599558495.062217,0.0,10,0.5,0.5,0.09872093505859375,-0.001,-0.001,-0.5,-0.3808036860148924,10,1,100,-1.2732418542041553,-10,-1,-100,14992.205976905185,0.07862358228165572,0.02937153119251302,0.9964715979216905,24.943564681001636,0.03693317579364447,78.0280537170315,-27.407766657920728,-60.882354736328125,5356.25390625,True
1599558495.1012278,0.0,10,0.5,0.5,-0.059126504516601563,-0.001,-0.001,-0.5,0.34214982881559014,10,1,100,-0.8501763158697969,-10,-1,-100,14992.205976905185,0.07862358228165572,0.02937153119251302,0.9964715979216905,24.943564681001636,0.03693317579364447,78.0280537170315,-27.407766657920728,-60.882354736328125,5356.25390625,True
1599558495.131146,0.0,10,0.5,0.5,-0.007838430786132812,-0.001,-0.001,-0.5,0.05405498859523972,10,1,100,-1.0000933091381783,-10,-1,-100,14991.663093192386,0.07996021256814179,0.026782285669566638,0.9964381935576191,24.87837163855249,0.0368456017285102,78.35612205433239,-27.593293764615403,-60.984405517578125,5356.25390625,True
1599558495.1631866,0.0,10,0.5,0.5,0.04107576599121093,-0.001,-0.001,-0.5,-0.2590728938396365,10,1,100,-1.128244180125744,-10,-1,-100,14990.545105120982,0.08231480722508017,0.02161256253272145,0.9963720036473662,24.752150634661554,0.036651845262142026,79.01740490954718,-27.96434315721565,-61.183563232421875,5356.25390625,True
1599558495.1962898,0.0,10,0.5,0.5,0.045167880249023434,-0.001,-0.001,-0.5,-0.3493208468263853,10,1,100,-1.136897045048887,-10,-1,-100,14989.421276230249,0.08451022632194231,0.016124833092966938,0.9962921315581781,24.633504776891208,0.0364342214762823,79.69268536708466,-28.335385954799413,-61.390167236328125,5356.25390625,True
1599558495.232374,0.0,10,0.5,0.5,0.10402520751953125,-0.001,-0.001,-0.5,-0.725411400749215,10,1,100,-1.199722545887779,-10,-1,-100,14987.68820264854,0.08705686757408228,0.007749435837998463,0.9961732018340893,24.462649927925757,0.03605057886414772,80.71060179537959,-28.891938583210397,-61.713531494140625,5356.25390625,True
1599558495.2623582,0.0,10,0.5,0.5,-0.05747074890136719,-0.001,-0.001,-0.5,0.10772098517038736,10,1,100,-0.9475499575887071,-10,-1,-100,14987.68820264854,0.08705686757408228,0.007749435837998463,0.9961732018340893,24.462649927925757,0.03605057886414772,80.71060179537959,-28.891938583210397,-61.713531494140625,5356.25390625,True
1599558495.297265,0.0,10,0.5,0.5,0.048171109008789056,-0.001,-0.001,-0.5,-0.5255010096672964,10,1,100,-1.0920374936289319,-10,-1,-100,14986.498979568598,0.08834943756315873,0.0020311502614239717,0.9960874717166606,24.36055317426059,0.035765604067071695,81.41686939284068,-29.262966254278957,-61.924041748046875,5356.25390625,True
1599558495.3303082,0.0,10,0.5,0.5,-0.007797003173828129,-0.001,-0.001,-0.5,-0.2696016248216747,10,1,100,-1.017739095341963,-10,-1,-100,14985.900461482,0.08883018436429489,-0.0008011818343177294,0.996046462999329,24.314844959641345,0.03561668001604497,81.78480708668549,-29.44847790866075,-62.022064208984375,5356.25390625,True
1599558495.3651905,0.0,10,0.5,0.5,0.08280205993652344,-0.001,-0.001,-0.5,-0.9535964256473534,10,1,100,-1.079762885594357,-10,-1,-100,14984.167407564935,0.08981648191755139,-0.009557977857135289,0.9959124683601649,24.206418268448356,0.03515518618171872,82.97574660329013,-30.00500416823602,-62.3004150390625,5356.25390625,True
