Timestamp,Input Throttle,horizon,dT,dt,Input Roll,Roll P,Roll I,Roll D,Input Pitch,Pitch P,Pitch I,Pitch D,Input Yaw,Yaw P,Yaw I,Yaw D,Altitude,Direction X,Direction Y,Direction Z,Drag X,Drag Y,Drag Z,Vertical Velocity,Roll,Mass,Has Fuel
1599561393.422326,0.0,10,0.5,0.5,-5.850040832519531,-0.1005,-0.02275,-0.2505,-0.0005196951323632978,10,1,100,0.17116642186896727,-10,-1,-100,14993.418734936975,-0.016777058040270833,-7.669980990792956e-05,0.999859252315371,28.71715778491062,0.02710922804527763,-88.32801249169927,27.19494994087961,-31.792083740234375,5356.25390625,True
1599561393.4476347,0.0,10,0.5,0.5,-5.982522115325927,-0.1005,-0.02275,-0.2505,-0.0005370785289813323,10,1,100,0.1732618244766409,-10,-1,-100,14993.951939492952,-0.016811726569997246,-7.453990489803178e-05,0.9998586701597072,28.644453020638053,0.027275115548057238,-87.5034850161027,27.008978529644722,-31.79150390625,5356.25390625,True
1599561393.4745634,0.0,10,0.5,0.5,-6.115015428924561,-0.1005,-0.02275,-0.2505,-0.00047703886702647204,10,1,100,0.1754009768628319,-10,-1,-100,14994.49002722546,-0.016847406867286634,-7.196277623044594e-05,0.9998580697795098,28.571804406294554,0.027439530057019684,-86.68217892687322,26.8230109704842,-31.7908935546875,5356.25390625,True
1599561393.500494,0.0,10,0.5,0.5,-6.2475131980896,-0.1005,-0.02275,-0.2505,-0.0004879661736370812,10,1,100,0.177574451260882,-10,-1,-100,14995.026161696995,-0.016884286534925363,-6.965385043252759e-05,0.9998574478477157,28.499200162894304,0.027602454162807436,-85.86405447881457,26.637047320991147,-31.790252685546875,5356.25390625,True
1599561393.531411,0.0,10,0.5,0.5,-6.274130635070802,-0.1005,-0.02275,-0.2505,0.011174200094761461,10,1,100,0.18153375282863832,-10,-1,-100,14996.566203899565,-0.016938457804726605,3.8528188051414516e-05,0.9998565332900395,28.292835894342208,0.028090690524238186,-83.46172639760356,26.079179772729933,-32.09124755859375,5356.25390625,True
1599561393.5612235,0.0,10,0.5,0.5,-6.481272262573243,-0.1005,-0.02275,-0.2505,0.0003598490651723931,10,1,100,0.17781047162898672,-10,-1,-100,14996.566203899565,-0.016938457804726605,3.8528188051414516e-05,0.9998565332900395,28.292835894342208,0.028090690524238186,-83.46172639760356,26.079179772729933,-32.09124755859375,5356.25390625,True
1599561393.5951371,0.0,10,0.5,0.5,-6.2995269424438485,-0.1005,-0.02275,-0.2505,0.0202922771908633,10,1,100,0.18091873758439375,-10,-1,-100,14998.111126740696,-0.01695131616995328,0.00021969705447764875,0.9998562919806581,28.12934596425864,0.028588920079923766,-81.20910024436397,25.52134463811508,-32.984375,5356.25390625,True
1599561393.6310947,0.0,10,0.5,0.5,-6.652965913391114,-0.1005,-0.02275,-0.2505,0.0021973602536876414,10,1,100,0.18132803267872147,-10,-1,-100,14998.111126740696,-0.01695131616995328,0.00021969705447764875,0.9998562919806581,28.12934596425864,0.028588920079923766,-81.20910024436397,25.52134463811508,-32.984375,5356.25390625,True
1599561393.6620378,0.0,10,0.5,0.5,-6.630131568908692,-0.1005,-0.02275,-0.2505,0.011734537303514578,10,1,100,0.18194838580167105,-10,-1,-100,14998.644329650444,-0.016941545456371047,0.0003061989394265503,0.9998564348344011,28.08451883229726,0.028753683365246037,-80.49048976012722,25.335406115486208,-33.418975830078125,5356.25390625,True
1599561393.6959445,0.0,10,0.5,0.5,-6.490316640472412,-0.1005,-0.02275,-0.2505,0.026117072696948677,10,1,100,0.17934380684729873,-10,-1,-100,14999.652140004793,-0.016893583594023476,0.0005153089757391103,0.9998571604434363,28.00696268598305,0.029073339701603723,-79.09303542853957,24.96353839498908,-34.49420166015625,5356.25390625,True
1599561393.7278728,0.0,10,0.5,0.5,-6.139011658477784,-0.1005,-0.02275,-0.2505,0.05061689694984475,10,1,100,0.17097896568481835,-10,-1,-100,15001.131627299008,-0.016758580087144932,0.000927666221071639,0.9998591347929192,27.912346372825763,0.02950293141965357,-77.0689018182761,24.405758713567288,-36.6221923828125,5356.25390625,True
1599561393.7647378,0.0,10,0.5,0.5,-6.661084837341309,-0.1005,-0.02275,-0.2505,0.009481609019689832,10,1,100,0.18447746857736017,-10,-1,-100,15001.131627299008,-0.016758580087144932,0.000927666221071639,0.9998591347929192,27.912346372825763,0.02950293141965357,-77.0689018182761,24.405758713567288,-36.6221923828125,5356.25390625,True
1599561393.79568,0.0,10,0.5,0.5,-6.03156035308838,-0.1005,-0.02275,-0.2505,0.04621928251982227,10,1,100,0.1689299109790799,-10,-1,-100,15002.074981618789,-0.016617286969417704,0.0012607339745946888,0.9998611285191665,27.854971211472538,0.029732236513521536,-75.74151487545953,24.033919741608024,-38.3843994140625,5356.25390625,True
1599561393.8286955,0.0,10,0.5,0.5,-5.349292304992676,-0.1005,-0.02275,-0.2505,0.07651946920415251,10,1,100,0.15048541267490606,-10,-1,-100,15003.490010081558,-0.016321370623171252,0.0018377675415178951,0.9998651086378822,27.75866192992234,0.029942064052973106,-73.73212331455446,23.47618256141556,-41.5430908203125,5356.25390625,True
1599561393.862638,0.0,10,0.5,0.5,-5.258606032562256,-0.1005,-0.02275,-0.2505,0.06682013279369564,10,1,100,0.15191611011321993,-10,-1,-100,15004.429454666795,-0.01606587384503347,0.0022724337064512472,0.9998683532058834,27.674243669092597,0.0299606568435878,-72.34636082867647,23.104372751570207,-43.992523193359375,5356.25390625,True
1599561393.8985093,0.0,10,0.5,0.5,-5.845113439941406,-0.1005,-0.02275,-0.2505,0.02357690685220042,10,1,100,0.1773785295310287,-10,-1,-100,15004.429454666795,-0.01606587384503347,0.0022724337064512472,0.9998683532058834,27.674243669092597,0.0299606568435878,-72.34636082867647,23.104372751570207,-43.992523193359375,5356.25390625,True
1599561393.9344385,0.0,10,0.5,0.5,-4.861689435577393,-0.1005,-0.02275,-0.2505,0.0732478893553137,10,1,100,0.14310073909226956,-10,-1,-100,15005.312257501879,-0.015755050826462655,0.002721957269644641,0.9998721764916143,27.56123033534735,0.029855771704314776,-70.89410087090917,22.732576468053715,-46.7171630859375,5356.25390625,True
1599561393.9623382,0.0,10,0.5,0.5,-3.8975105598449704,-0.1005,-0.02275,-0.2505,0.10969503515806911,10,1,100,0.11240399396149786,-10,-1,-100,15006.66184985661,-0.015194510640521706,0.003459677961468078,0.9998785713649424,27.311759386800748,0.02942142668521535,-68.53288210414443,22.174911745733457,-51.319610595703125,5356.25390625,True
1599561393.995283,0.0,10,0.5,0.5,-4.42196856842041,-0.1005,-0.02275,-0.2505,0.06483879787737815,10,1,100,0.14464765944841879,-10,-1,-100,15007.127664318308,-0.01497964998093779,0.003719603723385839,0.9998808802225341,27.200637732652915,0.029194157839654854,-67.68322238616898,21.989032570894214,-52.991241455078125,5356.25390625,True
1599561394.031275,0.0,10,0.5,0.5,-4.185212965393067,-0.1005,-0.02275,-0.2505,0.06672665253252888,10,1,100,0.14073781419551845,-10,-1,-100,15007.536837657564,-0.01475056160217644,0.003969959090372483,0.9998833233719027,27.07259434659843,0.028923089735436055,-66.79649160022885,21.803158617798857,-54.731903076171875,5356.25390625,True
1599561394.0631895,0.0,10,0.5,0.5,-3.940059462738038,-0.1005,-0.02275,-0.2505,0.0690224721464974,10,1,100,0.13683163268725204,-10,-1,-100,15008.00655784877,-0.01450873690049265,0.004215285374928571,0.9998858574471189,26.925741404833467,0.028607399649537256,-65.8691412969296,21.61729032343581,-56.54144287109375,5356.25390625,True
1599561394.0981312,0.0,10,0.5,0.5,-1.5660086860656743,-0.1005,-0.02275,-0.2505,0.15775164724972432,10,1,100,0.038993759452426696,-10,-1,-100,15009.697936041746,-0.013401506363360478,0.005241949389869025,0.999896455436155,26.111539991487632,0.026902894809713234,-61.68589952112344,20.873882874863696,-64.46743774414062,5356.25390625,True
1599561394.1300101,0.0,10,0.5,0.5,-2.732189210510254,-0.1005,-0.02275,-0.2505,0.08323907929999697,10,1,100,0.11514449953238215,-10,-1,-100,15010.10515535064,-0.013090264488261538,0.00549397125557301,0.9998992255499902,25.841300940890484,0.026372973293331922,-60.505393123681685,20.688049969247395,-66.62109375,5356.25390625,True
1599561394.164893,0.0,10,0.5,0.5,-1.6229177871704101,-0.1005,-0.02275,-0.2505,0.11040727704910333,10,1,100,0.0743703124902898,-10,-1,-100,15010.921547022066,-0.012439849285499077,0.005966217260949438,0.9999048226713126,25.206147085567554,0.025208308266151603,-57.96082946307184,20.31641103478243,-71.13540649414062,5356.25390625,True
1599561394.1968088,0.0,10,0.5,0.5,-2.686430611419678,-0.1005,-0.02275,-0.2505,0.06359552148340374,10,1,100,0.1390236806327687,-10,-1,-100,15010.921547022066,-0.012439849285499077,0.005966217260949438,0.9999048226713126,25.206147085567554,0.025208308266151603,-57.96082946307184,20.31641103478243,-71.13540649414062,5356.25390625,True
1599561394.229764,0.0,10,0.5,0.5,-0.9434303993225097,-0.1005,-0.02275,-0.2505,0.114011766674019,10,1,100,0.06188056950142837,-10,-1,-100,15011.7330556612,-0.011741844661177378,0.00642118877763276,0.9999104446992414,24.430861864421914,0.023934633249026907,-55.153391948470365,19.944810469689628,-75.92529296875,5356.25390625,True
1599561394.2626743,0.0,10,0.5,0.5,-1.193706916809082,-0.1005,-0.02275,-0.2505,0.09246941835372284,10,1,100,0.09133335665278247,-10,-1,-100,15012.08168109227,-0.011378978548791649,0.0066351881216411045,0.9999132427994822,23.985460977366518,0.023270404279312366,-53.64494705702141,19.75902545855052,-78.4237060546875,5356.25390625,True
1599561394.2985775,0.0,10,0.5,0.5,1.999643669128418,-0.1005,-0.02275,-0.2505,0.15483672789211456,10,1,100,-0.04268108650815498,-10,-1,-100,15013.642198769492,-0.009834765392684892,0.007393151038495891,0.9999243064889426,21.813837131008647,0.0206047628251321,-46.95863703481255,19.015987473074855,-89.09912109375,5356.25390625,True
1599561394.331001,0.0,10,0.5,0.5,1.426546881866455,-0.1005,-0.02275,-0.2505,0.11479582507183722,10,1,100,0.020282292994518086,-10,-1,-100,15014.394138006726,-0.00900820210556472,0.00771462414356406,0.999929665961136,21.730438523217533,0.020513475142683733,-45.86794845043557,18.6445135181239,-94.84027862548828,5356.25390625,True
1599561394.363029,0.0,10,0.5,0.5,1.0983367506027222,-0.1005,-0.02275,-0.2505,0.09752639531669488,10,1,100,0.059302945723490194,-10,-1,-100,15014.734951649327,-0.008616942731060104,0.007846245768197303,0.9999320900567772,22.221489109905576,0.021044732146679627,-46.43852302557412,18.458773722241794,-97.73128509521484,5356.25390625,True
1599561394.3969367,0.0,10,0.5,0.5,2.44747366104126,-0.1005,-0.02275,-0.2505,0.1112948450127606,10,1,100,0.008431299120632382,-10,-1,-100,15015.485915459925,-0.007804358893185487,0.008087545618121007,0.9999368397994651,23.1465854005125,0.022175043517147237,-47.400994200657465,18.08728417368796,-103.3595199584961,5356.25390625,True
1599561394.432224,0.0,10,0.5,0.5,2.0984199823379517,-0.1005,-0.02275,-0.2505,0.09903028053106452,10,1,100,0.042621007229950957,-10,-1,-100,15015.829659572453,-0.007382556730663557,0.008191892840724236,0.9999391935251887,23.532669020226862,0.02271282310258625,-47.69804627425292,17.901534220759014,-106.0783462524414,5356.25390625,True
1599561394.4671662,0.0,10,0.5,0.5,1.5120188125610352,-0.1005,-0.02275,-0.2505,0.08889055261582718,10,1,100,0.08419932851887432,-10,-1,-100,15015.829659572453,-0.007382556730663557,0.008191892840724236,0.9999391935251887,23.532669020226862,0.02271282310258625,-47.69804627425292,17.901534220759014,-106.0783462524414,5356.25390625,True
1599561394.4990788,0.0,10,0.5,0.5,5.180330715751648,-0.1005,-0.02275,-0.2505,0.12090784249087068,10,1,100,-0.09684301784085947,-10,-1,-100,15017.263231263263,-0.0057419060435365205,0.00848050645632904,0.9999475543873446,24.630341054800148,0.024540878608504006,-47.85571404483723,17.158503577568638,-116.27363586425781,5356.25390625,True
1599561394.532387,0.0,10,0.5,0.5,2.7291001398086547,-0.1005,-0.02275,-0.2505,0.0922979098499283,10,1,100,0.0665522565476479,-10,-1,-100,15017.263231263263,-0.0057419060435365205,0.00848050645632904,0.9999475543873446,24.630341054800148,0.024540878608504006,-47.85571404483723,17.158503577568638,-116.27363586425781,5356.25390625,True
1599561394.565407,0.0,10,0.5,0.5,4.476454055595398,-0.1005,-0.02275,-0.2505,0.10023184269163846,10,1,100,-0.02570100733340462,-10,-1,-100,15017.945838529151,-0.0049093290475651,0.00855034740107606,0.9999513938425326,25.034812990115288,0.025278686511949176,-47.590624830208135,16.786974610838108,-120.95928955078125,5356.25390625,True
1599561394.5993114,0.0,10,0.5,0.5,4.1911831998825075,-0.1005,-0.02275,-0.2505,0.09706381267174041,10,1,100,0.015474667916227446,-10,-1,-100,15018.22708419268,-0.00453297656769102,0.008583103297371147,0.9999528901209415,25.18221742134684,0.025564339964636428,-47.342183600562,16.60120857887812,-123.19869995117188,5356.25390625,True
1599561394.860657,0.0,10,0.5,0.5,5.94531924495697,-0.1005,-0.02275,-0.2505,0.09617053385064078,10,1,100,-0.07597074807254249,-10,-1,-100,15019.253439730615,-0.00336573962425404,0.008602989836378748,0.999957329270933,25.431203199873327,0.02607554304291659,-46.20838625398903,16.043912183536996,-129.50424194335938,5356.25390625,True
1599561394.891544,0.0,10,0.5,0.5,6.453468830680848,-0.1005,-0.02275,-0.2505,0.08839131926559851,10,1,100,-0.08160321237355576,-10,-1,-100,15020.156750831171,-0.0022592918418188742,0.008549248522159925,0.9999609022107213,25.438924078150727,0.02609505673292123,-44.61979100088851,15.486630519047866,-135.190185546875,5356.25390625,True
1599561394.928715,0.0,10,0.5,0.5,5.737783576202392,-0.1005,-0.02275,-0.2505,0.09170015562962121,10,1,100,-0.009306294417961936,-10,-1,-100,15020.496591698611,-0.0019168103030775274,0.008529714363107933,0.9999617841753481,25.398341505146828,0.0260037710564968,-44.015220799093846,15.300875767229996,-136.9475860595703,5356.25390625,True
1599561394.9635863,0.0,10,0.5,0.5,6.547927563667298,-0.1005,-0.02275,-0.2505,0.08752310661549972,10,1,100,-0.04903858816674957,-10,-1,-100,15021.055181667209,-0.0012503518087127632,0.0084733615287551,0.9999633187096201,25.264309678455813,0.025694716282953195,-42.72177049736346,14.929377898019572,-140.25572204589844,5356.25390625,True
1599561395.0294392,0.0,10,0.5,0.5,6.867720183181763,-0.1005,-0.02275,-0.2505,0.08292326828024582,10,1,100,-0.05414502307404261,-10,-1,-100,15021.67041221133,-0.000604016502937107,0.00837996422546782,0.9999647050589556,25.07283763870536,0.0252441728557902,-41.34484060426627,14.557897371478814,-143.28860473632812,5356.25390625,True
1599561395.0623226,0.0,10,0.5,0.5,7.160307244682312,-0.1005,-0.02275,-0.2505,0.08285702698178793,10,1,100,-0.05577303520097919,-10,-1,-100,15022.229003641289,-7.801151285020046e-06,0.008294284418507273,0.9999656018009455,24.838859661306834,0.024685898195207303,-39.91567688642039,14.186435948846341,-146.04550170898438,5356.25390625,True
1599561395.095235,0.0,10,0.5,0.5,7.008179468536377,-0.1005,-0.02275,-0.2505,0.08632447340148537,10,1,100,-0.02835380272759433,-10,-1,-100,15022.510252858396,0.00027824273175030705,0.008247822841833313,0.9999659474198868,24.722552441243735,0.024388488950443203,-39.209542522419795,14.000712532152919,-147.32057189941406,5356.25390625,True
1599561395.1271496,0.0,10,0.5,0.5,7.581923163604737,-0.1005,-0.02275,-0.2505,0.08013908036813738,10,1,100,-0.060151573867097734,-10,-1,-100,15023.062985873665,0.0008218804096185565,0.00814956572965791,0.9999664539828376,24.49779915611804,0.023772853254953246,-37.824056353220676,13.629280323644673,-149.66392517089844,5356.25390625,True
1599561395.1590922,0.0,10,0.5,0.5,7.796650628662109,-0.1005,-0.02275,-0.2505,0.07777931664828552,10,1,100,-0.06263141180200185,-10,-1,-100,15023.620602441253,0.001332673383040498,0.00803908953997859,0.9999667979593234,24.258007643528657,0.023116130074435175,-36.434843119353125,13.257867199636095,-151.73165893554688,5356.25390625,True
1599561395.1860304,0.0,10,0.5,0.5,7.348690460968018,-0.1005,-0.02275,-0.2505,0.08877580983010767,10,1,100,-0.01217631470286828,-10,-1,-100,15023.620602441253,0.001332673383040498,0.00803908953997859,0.9999667979593234,24.258007643528657,0.023116130074435175,-36.434843119353125,13.257867199636095,-151.73165893554688,5356.25390625,True
1599561395.2179334,0.0,10,0.5,0.5,7.740153556060791,-0.1005,-0.02275,-0.2505,0.08339757595848393,10,1,100,-0.039083431541329844,-10,-1,-100,15023.835445899516,0.0015719511270713016,0.007990691062743277,0.9999668383631498,24.13579367266834,0.02277955325043322,-35.74434687169566,13.07216771106522,-152.66200256347656,5356.25390625,True
1599561395.2468626,0.0,10,0.5,0.5,8.394316518783569,-0.1005,-0.02275,-0.2505,0.07055561980144992,10,1,100,-0.08918215549752287,-10,-1,-100,15024.60497682204,0.002240430484199855,0.007830504026350533,0.9999668312888876,23.773985220040892,0.021765572626854145,-33.710454298546416,12.515095414902243,-155.03958129882812,5356.25390625,True
1599561395.2787707,0.0,10,0.5,0.5,7.843890420913697,-0.1005,-0.02275,-0.2505,0.08650244899114337,10,1,100,-0.02278419201726941,-10,-1,-100,15024.60497682204,0.002240430484199855,0.007830504026350533,0.9999668312888876,23.773985220040892,0.021765572626854145,-33.710454298546416,12.515095414902243,-155.03958129882812,5356.25390625,True
1599561395.306706,0.0,10,0.5,0.5,8.501752682495118,-0.1005,-0.02275,-0.2505,0.06960524529098283,10,1,100,-0.08782757607997824,-10,-1,-100,15025.314939045813,0.0028279546658724103,0.00767752872938249,0.9999665285523397,23.440351256512837,0.02078320375487412,-31.760213918630516,11.958059016751514,-156.79656982421875,5356.25390625,True
1599561395.3406055,0.0,10,0.5,0.5,8.389404488754273,-0.1005,-0.02275,-0.2505,0.0736017145451246,10,1,100,-0.06786007444722769,-10,-1,-100,15025.805173875764,0.00317683726484556,0.007575515300630441,0.9999662590672359,23.243962690293912,0.020162451621780195,-30.517510518027642,11.586718464908692,-157.62319946289062,5356.25390625,True
1599561395.3685057,0.0,10,0.5,0.5,8.323668416976929,-0.1005,-0.02275,-0.2505,0.07935269724035521,10,1,100,-0.05092599754790572,-10,-1,-100,15026.019041628693,0.0033366199704929667,0.007535788798016891,0.9999660388505022,23.15547027252205,0.019864780355517284,-29.914851756794864,11.401052525244076,-157.93295288085938,5356.25390625,True
1599561395.402437,0.0,10,0.5,0.5,8.273119137191774,-0.1005,-0.02275,-0.2505,0.08324949793966117,10,1,100,-0.03528216909534285,-10,-1,-100,15026.019041628693,0.0033366199704929667,0.007535788798016891,0.9999660388505022,23.15547027252205,0.019864780355517284,-29.914851756794864,11.401052525244076,-157.93295288085938,5356.25390625,True
1599561395.4303405,0.0,10,0.5,0.5,8.442084081268312,-0.1005,-0.02275,-0.2505,0.07479249949954118,10,1,100,-0.06798281042104537,-10,-1,-100,15026.509277136764,0.0036311181850550416,0.007459554297691997,0.9999655844229871,22.99965066044119,0.019296737430830886,-28.747079800667496,11.029728479478456,-158.34555053710938,5356.25390625,True
1599561395.4642775,0.0,10,0.5,0.5,8.394609528732301,-0.1005,-0.02275,-0.2505,0.0779868376391531,10,1,100,-0.05360398441109873,-10,-1,-100,15026.720215161447,0.00376557338204338,0.007419916927240353,0.9999653820457474,22.933080563965277,0.019026989763673743,-28.182006069716692,10.844069914658345,-158.448486328125,5356.25390625,True
1599561395.4972148,0.0,10,0.5,0.5,8.383735342788697,-0.1005,-0.02275,-0.2505,0.07402408624987769,10,1,100,-0.0670670973346513,-10,-1,-100,15027.149904234568,0.004007985587702345,0.007348420825666116,0.9999649677678203,22.823599116704827,0.0185165326021673,-27.088259422101014,10.472758406177594,-158.4474334716797,5356.25390625,True
1599561395.5331185,0.0,10,0.5,0.5,8.302020863342285,-0.1005,-0.02275,-0.2505,0.07542336596842766,10,1,100,-0.06582303124979169,-10,-1,-100,15027.513186385273,0.004214618526434805,0.007296772975053003,0.9999644964171616,22.746035835286193,0.018044455433592316,-26.040157053120456,10.101452820102946,-158.17034912109375,5356.25390625,True
1599561395.5660295,0.0,10,0.5,0.5,8.299050574111938,-0.1005,-0.02275,-0.2505,0.07753548352292508,10,1,100,-0.05543394399211685,-10,-1,-100,15027.727054250543,0.004305617979849668,0.0072696522868889585,0.9999643062676985,22.719039008683307,0.017822490433164376,-25.531756890637666,9.915801843494329,-157.92843627929688,5356.25390625,True
1599561395.5989418,0.0,10,0.5,0.5,8.123747169876099,-0.1005,-0.02275,-0.2505,0.0756937262032673,10,1,100,-0.06359003072168276,-10,-1,-100,15028.089359939448,0.004460613555499551,0.007228763732687903,0.9999639233000386,22.687523193696297,0.017405821026442735,-24.542599313076344,9.54450249319426,-157.2376251220703,5356.25390625,True
1599561395.6311529,0.0,10,0.5,0.5,7.962498413848877,-0.1005,-0.02275,-0.2505,0.07621792882549436,10,1,100,-0.06149144591880194,-10,-1,-100,15028.514165207278,0.004580422232362984,0.007196904834792338,0.9999636114844241,22.683478237538324,0.017024083492248987,-23.584549266171077,9.17320533955441,-156.27096557617188,5356.25390625,True
1599561395.66713,0.0,10,0.5,0.5,7.99750831451416,-0.1005,-0.02275,-0.2505,0.07776581479927487,10,1,100,-0.05490139401730908,-10,-1,-100,15028.664556146949,0.004627836496255723,0.00718245082182582,0.9999634970985471,22.690568772240052,0.01684584813239854,-23.114896106884743,8.987557236657059,-155.68423461914062,5356.25390625,True
1599561395.6990464,0.0,10,0.5,0.5,7.655563020324707,-0.1005,-0.02275,-0.2505,0.0770508238335988,10,1,100,-0.05779747150661666,-10,-1,-100,15029.027837938978,0.004695949259487,0.007163168223512662,0.9999633178679876,22.719837432909795,0.016513704800637408,-22.189352973510875,8.616261362937648,-154.30386352539062,5356.25390625,True
1599561395.7319229,0.0,10,0.5,0.5,7.411762118530274,-0.1005,-0.02275,-0.2505,0.0776863387633498,10,1,100,-0.05473139344336858,-10,-1,-100,15029.33057266823,0.004728760762495911,0.0071517547431116215,0.9999632449374054,22.76402815970542,0.01621279213597641,-21.275192533774682,8.244965190840118,-152.6476593017578,5356.25390625,True
1599561395.7648668,0.0,10,0.5,0.5,6.761167343521119,-0.1005,-0.02275,-0.2505,0.07776328817191924,10,1,100,-0.049866539431390196,-10,-1,-100,15029.838384715957,0.004713097873493297,0.007142427513783948,0.9999633855485136,22.842231104791082,0.01581970609985,-19.907184294275595,7.6880191378608576,-149.64637756347656,5356.25390625,True
1599561395.8007724,0.0,10,0.5,0.5,6.669925629425049,-0.1005,-0.02275,-0.2505,0.0784479244878949,10,1,100,-0.04559474208893229,-10,-1,-100,15030.137212242116,0.0046590407442972685,0.007140460477980304,0.9999636529211975,22.88913810777309,0.015597217210786985,-18.985244983666885,7.316720485761994,-147.30087280273438,5356.25390625,True
1599561395.8312137,0.0,10,0.5,0.5,7.232113751220703,-0.1005,-0.02275,-0.2505,0.0786166824233333,10,1,100,-0.05108980174476054,-10,-1,-100,15030.137212242116,0.0046590407442972685,0.007140460477980304,0.9999636529211975,22.88913810777309,0.015597217210786985,-18.985244983666885,7.316720485761994,-147.30087280273438,5356.25390625,True
1599561395.8641574,0.0,10,0.5,0.5,6.28673535194397,-0.1005,-0.02275,-0.2505,0.07832068037188357,10,1,100,-0.041511558109682496,-10,-1,-100,15030.371586204856,0.004571373933836018,0.007137958605101385,0.999964075398366,22.919214465448327,0.015406017130198872,-18.046022182564034,6.9454211214018144,-144.6797332763672,5356.25390625,True
1599561395.898033,0.0,10,0.5,0.5,5.351215595245362,-0.1005,-0.02275,-0.2505,0.07779472799353183,10,1,100,-0.028802772519034493,-10,-1,-100,15030.819826128776,0.004375818095858626,0.007131047166653671,0.9999649995786348,22.903934482064358,0.015171439259460533,-16.588553112609087,6.388471064156635,-140.23123168945312,5356.25390625,True
1599561395.9339855,0.0,10,0.5,0.5,6.42530410232544,-0.1005,-0.02275,-0.2505,0.07847201132627969,10,1,100,-0.04836537632837462,-10,-1,-100,15030.819826128776,0.004375818095858626,0.007131047166653671,0.9999649995786348,22.903934482064358,0.015171439259460533,-16.588553112609087,6.388471064156635,-140.23123168945312,5356.25390625,True
1599561395.9668813,0.0,10,0.5,0.5,5.817787393569946,-0.1005,-0.02275,-0.2505,0.07777713579610919,10,1,100,-0.03946271023827451,-10,-1,-100,15030.90380934719,0.004294961854548298,0.0071248189496212425,0.9999653945300323,22.87537391282944,0.015104014941995444,-16.086618614302914,6.20282086265878,-138.6106414794922,5356.25390625,True
1599561395.9997947,0.0,10,0.5,0.5,3.666502314758301,-0.1005,-0.02275,-0.2505,0.07359386120851827,10,1,100,-0.003144692487656406,-10,-1,-100,15031.372554204776,0.003891551892331304,0.007081192697782001,0.999967355734099,22.58779981060763,0.014847544125523672,-13.98341394294605,5.460217518945198,-131.43951416015625,5356.25390625,True
1599561396.0313325,0.0,10,0.5,0.5,5.407712969207764,-0.1005,-0.02275,-0.2505,0.07794636058003808,10,1,100,-0.0434120602489634,-10,-1,-100,15031.372554204776,0.003891551892331304,0.007081192697782001,0.999967355734099,22.58779981060763,0.014847544125523672,-13.98341394294605,5.460217518945198,-131.43951416015625,5356.25390625,True
1599561396.0672798,0.0,10,0.5,0.5,4.666014994812012,-0.1005,-0.02275,-0.2505,0.07588122258171676,10,1,100,-0.030229857066388973,-10,-1,-100,15031.45849029359,0.003772444951914405,0.007062493239184289,0.9999679444103852,22.461614185883864,0.014776308485323917,-13.432662692260205,5.27456519828448,-129.474609375,5356.25390625,True
1599561396.1001916,0.0,10,0.5,0.5,3.6536559253692626,-0.1005,-0.02275,-0.2505,0.07210549376256188,10,1,100,-0.014165254972953872,-10,-1,-100,15031.69286192907,0.003518993455968343,0.007011250070743077,0.9999692290553257,22.127985322225914,0.014608564743431066,-12.301860435011585,4.9032568975807385,-125.33828735351562,5356.25390625,True
1599561396.1311095,0.0,10,0.5,0.5,3.0859764801025396,-0.1005,-0.02275,-0.2505,0.07033593424688094,10,1,100,-0.0075565774380867284,-10,-1,-100,15031.858873962425,0.0032295896678981536,0.006948697719693095,0.9999706422443497,21.66722226506583,0.014385348871610394,-11.133734261726673,4.531941181772147,-120.92652893066406,5356.25390625,True
1599561396.166016,0.0,10,0.5,0.5,3.3206378955841065,-0.1005,-0.02275,-0.2505,0.07212516946970399,10,1,100,-0.019861937227854745,-10,-1,-100,15031.945785853663,0.003079661723265326,0.006908272050544491,0.9999713953213591,21.38349780579882,0.014245310366012013,-10.537898037857719,4.346279482215737,-118.61746215820312,5356.25390625,True
1599561396.200923,0.0,10,0.5,0.5,2.140361651992798,-0.1005,-0.02275,-0.2505,0.06548885042534272,10,1,100,-8.749358872585378e-05,-10,-1,-100,15032.113750623073,0.0027650317214443403,0.0068114023494856,0.9999729793337482,20.702449073990913,0.013892889443410177,-9.330790301379444,3.9749460187245624,-113.79283905029297,5356.25390625,True
1599561396.2343462,0.0,10,0.5,0.5,0.5573730241775512,-0.1005,-0.02275,-0.2505,0.05439969998764922,10,1,100,0.023764199036350346,-10,-1,-100,15032.306126601878,0.0022638130070267437,0.006622825395685408,0.9999755063672546,19.578132247464417,0.013271923547473256,-7.5876559245077635,3.4179106845691587,-106.03987884521484,5356.25390625,True
1599561396.2672925,0.0,10,0.5,0.5,0.4867722743988039,-0.1005,-0.02275,-0.2505,0.055884219441636164,10,1,100,0.01203278437432631,-10,-1,-100,15032.474090778618,0.0019167288591099034,0.006465349452513268,0.9999772624449706,18.657649683942704,0.012711906723533726,-6.445296269737279,3.046523738041549,-100.52725219726562,5356.25390625,True
1599561396.304159,0.0,10,0.5,0.5,1.7773586963653565,-0.1005,-0.02275,-0.2505,0.07156524398743613,10,1,100,-0.022429721493682848,-10,-1,-100,15032.474090778618,0.0019167288591099034,0.006465349452513268,0.9999772624449706,18.657649683942704,0.012711906723533726,-6.445296269737279,3.046523738041549,-100.52725219726562,5356.25390625,True
1599561396.3350756,0.0,10,0.5,0.5,-1.3444969566345215,-0.1005,-0.02275,-0.2505,0.040794089928846144,10,1,100,0.034371736712597495,-10,-1,-100,15032.599084109534,0.0014025139963213897,0.0061862112060689116,0.9999798816703285,16.927281834603633,0.01157133918804909,-4.778236408076144,2.4893850580269454,-91.87991333007812,5356.25390625,True
1599561396.3679872,0.0,10,0.5,0.5,0.7316633377075195,-0.1005,-0.02275,-0.2505,0.06861841642411046,10,1,100,-0.01680084577665288,-10,-1,-100,15032.599084109534,0.0014025139963213897,0.0061862112060689116,0.9999798816703285,16.927281834603633,0.01157133918804909,-4.778236408076144,2.4893850580269454,-91.87991333007812,5356.25390625,True
1599561396.399903,0.0,10,0.5,0.5,-1.4533445808410645,-0.1005,-0.02275,-0.2505,0.04418489893029358,10,1,100,0.02192628873436875,-10,-1,-100,15032.704547935165,0.0010527118988539294,0.005964901939299406,0.9999816557029997,16.112248212233713,0.011006790592358175,-3.8695487284306314,2.1179313858030406,-85.91122436523438,5356.25390625,True
1599561396.431506,0.0,10,0.5,0.5,-2.1409394409179687,-0.1005,-0.02275,-0.2505,0.04064379835016175,10,1,100,0.023000917476194704,-10,-1,-100,15032.808058953146,0.0007274131244606027,0.005732517683598553,0.9999833044162056,17.294363328231114,0.011795211900873043,-3.425012807729396,1.746469117993266,-79.97491455078125,5356.25390625,True
1599561396.4674456,0.0,10,0.5,0.5,-1.7939851539611817,-0.1005,-0.02275,-0.2505,0.04909159452076325,10,1,100,0.009584609483033262,-10,-1,-100,15032.82758802874,0.0005561912025240531,0.0055992199003188315,0.9999841695686258,17.808149260636288,0.0121418395242549,-3.1517236412782363,1.5607385521807555,-77.02081298828125,5356.25390625,True
1599561396.5003636,0.0,10,0.5,0.5,-3.2420975559234617,-0.1005,-0.02275,-0.2505,0.03224634411764693,10,1,100,0.0282995430104086,-10,-1,-100,15032.868599578738,0.00023282951275593595,0.005326128255326549,0.9999857889731363,18.73003037238425,0.012776144303999848,-2.525970248724851,1.18928269544767,-71.07144165039062,5356.25390625,True
1599561396.532312,0.0,10,0.5,0.5,-3.8797932712554934,-0.1005,-0.02275,-0.2505,0.027934851484597536,10,1,100,0.03017835730831024,-10,-1,-100,15032.910587563412,-7.562776045917697e-05,0.0050401060484833145,0.9999872957250316,19.461261867634878,0.013281485091911063,-1.804871096478357,0.8178326767682758,-65.31689453125,5356.25390625,True
1599561396.5662177,0.0,10,0.5,0.5,-5.4038647260665895,-0.1005,-0.02275,-0.2505,0.005408263960073427,10,1,100,0.04819924300947507,-10,-1,-100,15032.90765251522,-0.0005172872793181385,0.004576908970494702,0.9999893921028093,20.118113074852182,0.013731571655488295,-0.5946555712638779,0.2606498368564516,-57.18212890625,5356.25390625,True
1599561396.601129,0.0,10,0.5,0.5,-3.4772573181152344,-0.1005,-0.02275,-0.2505,0.05152338011641559,10,1,100,0.004311401152213405,-10,-1,-100,15032.90765251522,-0.0005172872793181385,0.004576908970494702,0.9999893921028093,20.118113074852182,0.013731571655488295,-0.5946555712638779,0.2606498368564516,-57.18212890625,5356.25390625,True
1599561396.6320121,0.0,10,0.5,0.5,-6.214291027069091,-0.1005,-0.02275,-0.2505,-0.0005419043034985693,10,1,100,0.04909033537361429,-10,-1,-100,15032.903741290094,-0.0009221557575686665,0.004105304967115499,0.9999911480107639,20.364710825753555,0.013913113940110423,0.6848985195951014,-0.29656241897316904,-49.665252685546875,5356.25390625,True
1599561396.6649566,0.0,10,0.5,0.5,-6.084978165435792,-0.1005,-0.02275,-0.2505,0.010513238103718701,10,1,100,0.036407668869503744,-10,-1,-100,15032.880301001249,-0.0011723402381075246,0.003779220844550379,0.9999921715234447,20.446442812478264,0.01398300929278712,1.5490636864272274,-0.6680540761026865,-44.99871826171875,5356.25390625,True
1599561396.6988304,0.0,10,0.5,0.5,-5.805410578918458,-0.1005,-0.02275,-0.2505,0.026022626187846995,10,1,100,0.02481533023312419,-10,-1,-100,15032.8998310467,-0.0012920550016899189,0.0036259633433119074,0.9999925914644097,20.439418695378922,0.013986525754982175,1.979115306857005,-0.853804503286868,-42.7686767578125,5356.25390625,True
1599561396.7357695,0.0,10,0.5,0.5,-6.117060150909424,-0.1005,-0.02275,-0.2505,0.024354455661723097,10,1,100,0.025946372992586914,-10,-1,-100,15032.857838139404,-0.0014087192036708373,0.0034738006536419496,0.9999929740849304,20.405725210339735,0.013972450519012617,2.405742082443284,-1.0395575827928836,-40.607574462890625,5356.25390625,True
1599561396.7696707,0.0,10,0.5,0.5,-6.413097649383546,-0.1005,-0.02275,-0.2505,0.022069864718869115,10,1,100,0.026944136499423836,-10,-1,-100,15032.812915134593,-0.001521610481804258,0.003316966564721186,0.9999933411950053,20.349624089363967,0.01394400820523878,2.8278510141204105,-1.2253132853053648,-38.515472412109375,5356.25390625,True
1599561396.805578,0.0,10,0.5,0.5,-8.678788088989258,-0.1005,-0.02275,-0.2505,-0.030351243703071948,10,1,100,0.061487559146490414,-10,-1,-100,15032.698654458392,-0.0019362254645295504,0.002700030544701825,0.9999944804177712,19.949986882725373,0.013722992717581815,4.453675518658081,-1.9683549995465133,-30.836151123046875,5356.25390625,True
1599561396.839948,0.0,10,0.5,0.5,-7.47358127822876,-0.1005,-0.02275,-0.2505,0.014472694184147246,10,1,100,0.030778748818530884,-10,-1,-100,15032.657638266333,-0.0020317113397828627,0.0025493055885276866,0.999994686580908,19.81634112134603,0.013649622644411665,4.841398291611193,-2.1541183270785838,-29.088592529296875,5356.25390625,True
1599561396.8708918,0.0,10,0.5,0.5,-7.720545659637451,-0.1005,-0.02275,-0.2505,0.01280250158130223,10,1,100,0.03164044808437763,-10,-1,-100,15032.611739466432,-0.0021242916371094454,0.0023996237162224234,0.9999948645823443,19.67192185173335,0.013571756317459384,5.220642489389811,-2.339882093433131,-27.409912109375,5356.25390625,True
1599561396.905798,0.0,10,0.5,0.5,-9.008899782562256,-0.1005,-0.02275,-0.2505,-0.01850689258916343,10,1,100,0.05277626216134335,-10,-1,-100,15032.41642587597,-0.0023987368863999815,0.0019813188692427335,0.9999951602067324,19.195210991377802,0.01332730218499267,6.307657060717298,-2.8971760972366796,-22.78704833984375,5356.25390625,True
1599561396.9407043,0.0,10,0.5,0.5,-7.929121216583253,-0.1005,-0.02275,-0.2505,0.023064033098680364,10,1,100,0.025519882192997934,-10,-1,-100,15032.41642587597,-0.0023987368863999815,0.0019813188692427335,0.9999951602067324,19.195210991377802,0.01332730218499267,6.307657060717298,-2.8971760972366796,-22.78704833984375,5356.25390625,True
1599561396.9706252,0.0,10,0.5,0.5,-8.968174681854249,-0.1005,-0.02275,-0.2505,-0.007275142282988815,10,1,100,0.04411655751430905,-10,-1,-100,15032.329511653283,-0.0025660871624054627,0.0017078678113196064,0.9999952491808218,18.89194766868176,0.013189690016037418,7.004309225593115,-3.2687078718063316,-20.049713134765625,5356.25390625,True
1599561397.0075257,0.0,10,0.5,0.5,-8.794028382110595,-0.1005,-0.02275,-0.2505,0.0061123584323869735,10,1,100,0.03713824937111398,-10,-1,-100,15032.22404298617,-0.002653290128922457,0.0015831599807618125,0.9999952268165918,18.751506873694552,0.013132606040400665,7.347456485037664,-3.454474870240769,-18.78424072265625,5356.25390625,True
1599561397.04343,0.0,10,0.5,0.5,-9.3524341255188,-0.1005,-0.02275,-0.2505,-0.00928363820777657,10,1,100,0.04630036699592202,-10,-1,-100,15032.128339902614,-0.002814511213353602,0.0013318220388566844,0.9999951523765935,18.510321248198657,0.013052745439372921,8.033269175139804,-3.826011807223611,-16.460113525390625,5356.25390625,True
1599561397.0743475,0.0,10,0.5,0.5,-9.549177357482911,-0.1005,-0.02275,-0.2505,-0.009921810868220984,10,1,100,0.04818570821701258,-10,-1,-100,15031.91544975515,-0.0029768312501084995,0.00109961701412476,0.9999949646463879,18.29489128921011,0.01299824890582461,8.711085474119226,-4.19755430786003,-14.41143798828125,5356.25390625,True
1599561397.1092534,0.0,10,0.5,0.5,-9.992875511932374,-0.1005,-0.02275,-0.2505,-0.022973370049583254,10,1,100,0.057583019205303294,-10,-1,-100,15031.654708423419,-0.0032083994633733785,0.0007720293478465509,0.9999945550569611,18.010131586998565,0.012950811257561028,9.714611241472685,-4.7548807420443975,-11.85504150390625,5356.25390625,True
1599561397.1461556,0.0,10,0.5,0.5,-9.413150672912598,-0.1005,-0.02275,-0.2505,0.00953090285655019,10,1,100,0.03459487677697231,-10,-1,-100,15031.654708423419,-0.0032083994633733785,0.0007720293478465509,0.9999945550569611,18.010131586998565,0.012950811257561028,9.714611241472685,-4.7548807420443975,-11.85504150390625,5356.25390625,True
1599561397.1810625,0.0,10,0.5,0.5,-9.933666132354737,-0.1005,-0.02275,-0.2505,-0.012321393833826319,10,1,100,0.051740899081382845,-10,-1,-100,15031.438889224082,-0.0033631158715963436,0.0005751248335675419,0.9999941793245899,17.893564340517525,0.012972529763951914,10.4063455729774,-5.126441549002795,-10.4951171875,5356.25390625,True
1599561397.2119796,0.0,10,0.5,0.5,-10.170021098327636,-0.1005,-0.02275,-0.2505,-0.02190985203763185,10,1,100,0.061957563777252575,-10,-1,-100,15031.114672468975,-0.003595435554005297,0.00031074763760199274,0.999993488118339,17.801449264077206,0.013062764592501752,11.479056063689516,-5.683798044677698,-8.971710205078125,5356.25390625,True
1599561397.2468853,0.0,10,0.5,0.5,-9.830354558563233,-0.1005,-0.02275,-0.2505,0.004318979951061024,10,1,100,0.038872709928046804,-10,-1,-100,15031.114672468975,-0.003595435554005297,0.00031074763760199274,0.999993488118339,17.801449264077206,0.013062764592501752,11.479056063689516,-5.683798044677698,-8.971710205078125,5356.25390625,True
1599561397.2827907,0.0,10,0.5,0.5,-10.097387632751465,-0.1005,-0.02275,-0.2505,-0.013072102771624947,10,1,100,0.05595390840117839,-10,-1,-100,15030.893970765173,-0.0037496312686086703,0.0001541655866972482,0.9999929582243674,17.791028118782144,0.013158409539970425,12.222891091191995,-6.0553791441271905,-8.30047607421875,5356.25390625,True
1599561397.31271,0.0,10,0.5,0.5,-10.134358393859864,-0.1005,-0.02275,-0.2505,-0.019325015236058576,10,1,100,0.0667398623494968,-10,-1,-100,15030.502371208742,-0.00398663523197626,-4.336534263596572e-05,0.9999920523979048,17.858691185436495,0.013363749736052428,13.399717012404336,-6.612763554227571,-7.80999755859375,5356.25390625,True
1599561397.3486145,0.0,10,0.5,0.5,-10.039338878631593,-0.1005,-0.02275,-0.2505,0.0002529543818672597,10,1,100,0.04318152081969492,-10,-1,-100,15030.502371208742,-0.00398663523197626,-4.336534263596572e-05,0.9999920523979048,17.858691185436495,0.013363749736052428,13.399717012404336,-6.612763554227571,-7.80999755859375,5356.25390625,True
1599561397.383521,0.0,10,0.5,0.5,-9.955485427093507,-0.1005,-0.02275,-0.2505,-0.02143490588730504,10,1,100,0.07862300217302032,-10,-1,-100,15029.943781044101,-0.004307618385094624,-0.00023904904933444318,0.9999906935963956,18.111120637394016,0.01377375328243944,15.117997928356,-7.355960740696853,-8.120025634765625,5356.25390625,True
1599561397.4154358,0.0,10,0.5,0.5,-9.96447827682495,-0.1005,-0.02275,-0.2505,-0.0065509362437488,10,1,100,0.05535194748356426,-10,-1,-100,15029.768977153464,-0.004386508838778317,-0.0002802064485841922,0.9999903399656186,18.202876783223683,0.013903651838358419,15.578831469858331,-7.541761972329516,-8.369720458984375,5356.25390625,True
1599561397.4493444,0.0,10,0.5,0.5,-10.040771737670898,-0.1005,-0.02275,-0.2505,-0.002573178665044791,10,1,100,0.04760386987406195,-10,-1,-100,15029.768977153464,-0.004386508838778317,-0.0002802064485841922,0.9999903399656186,18.202876783223683,0.013903651838358419,15.578831469858331,-7.541761972329516,-8.369720458984375,5356.25390625,True
1599561397.4842508,0.0,10,0.5,0.5,-9.456559729766846,-0.1005,-0.02275,-0.2505,-0.01333949335151687,10,1,100,0.08355940167387299,-10,-1,-100,15029.144957739045,-0.004712306301162594,-0.0003771254586462741,0.9999888259104261,18.678653349133675,0.014546049323634723,17.563526200278396,-8.284968721638817,-10.056732177734375,5356.25390625,True
1599561397.5141718,0.0,10,0.5,0.5,-9.674787510681153,-0.1005,-0.02275,-0.2505,-0.005280388835186339,10,1,100,0.060054487405685045,-10,-1,-100,15028.970154117094,-0.004793437585584966,-0.00039092437691198655,0.9999884350002477,18.822782746528894,0.014738914817064436,18.096564429793297,-8.470769837874323,-10.650634765625,5356.25390625,True
1599561397.5500748,0.0,10,0.5,0.5,-9.82320630645752,-0.1005,-0.02275,-0.2505,-0.003997101929663044,10,1,100,0.052084391134846725,-10,-1,-100,15028.970154117094,-0.004793437585584966,-0.00039092437691198655,0.9999884350002477,18.822782746528894,0.014738914817064436,18.096564429793297,-8.470769837874323,-10.650634765625,5356.25390625,True
1599561397.5860145,0.0,10,0.5,0.5,-9.330024112701416,-0.1005,-0.02275,-0.2505,-0.004411596563441408,10,1,100,0.07012308156746822,-10,-1,-100,15028.626406346215,-0.004956336587670998,-0.00039405462629677715,0.9999876396479015,19.13763357828275,0.015164820101408282,19.20771162998803,-8.84237018045082,-12.044830322265625,5356.25390625,True
1599561397.6208866,0.0,10,0.5,0.5,-8.403556430816652,-0.1005,-0.02275,-0.2505,0.0009939962065687248,10,1,100,0.08921548343478954,-10,-1,-100,15027.868598294095,-0.005276756696512434,-0.00034711782577022307,0.9999860175762363,19.919282499774695,0.016228003871705705,21.675644257438837,-9.585555188769494,-15.659423828125,5356.25390625,True
1599561397.6498091,0.0,10,0.5,0.5,-8.914705556488038,-0.1005,-0.02275,-0.2505,-0.0006076628219263635,10,1,100,0.06587539074245694,-10,-1,-100,15027.692818137119,-0.005354476747867167,-0.0003185528315392497,0.9999856139479457,20.138950115609653,0.01653389216589488,22.34028096739617,-9.771346575541319,-16.735107421875,5356.25390625,True
1599561397.6857126,0.0,10,0.5,0.5,-9.163859671783449,-0.1005,-0.02275,-0.2505,-0.003491680993914026,10,1,100,0.058240169758572734,-10,-1,-100,15027.692818137119,-0.005354476747867167,-0.0003185528315392497,0.9999856139479457,20.138950115609653,0.01653389216589488,22.34028096739617,-9.771346575541319,-16.735107421875,5356.25390625,True
1599561397.7216175,0.0,10,0.5,0.5,-8.315950005340577,-0.1005,-0.02275,-0.2505,0.004866490365275531,10,1,100,0.07486785052215983,-10,-1,-100,15027.284617064171,-0.0055043939897944216,-0.00024231928510215985,0.9999848213488889,20.59004739892523,0.01717962141437836,23.711076867311508,-10.142921328286622,-19.09295654296875,5356.25390625,True
1599561397.75054,0.0,10,0.5,0.5,-7.957360641479492,-0.1005,-0.02275,-0.2505,0.007541386529965751,10,1,100,0.07604773945195906,-10,-1,-100,15026.875439514057,-0.005650320676722192,-0.0001486958502660146,0.999984025755309,21.07096879487712,0.017879898726520183,25.155782009116727,-10.514483666542969,-21.7261962890625,5356.25390625,True
1599561397.786444,0.0,10,0.5,0.5,-8.088230060577393,-0.1005,-0.02275,-0.2505,0.004307748100696109,10,1,100,0.06938798035774982,-10,-1,-100,15026.640088961809,-0.005721289116856495,-9.309990486135036e-05,0.999983628957619,21.323472978842094,0.018249606098668745,25.90807858257492,-10.700259395056994,-23.14605712890625,5356.25390625,True
1599561397.82239,0.0,10,0.5,0.5,-6.175299105834961,-0.1005,-0.02275,-0.2505,0.030259287575537374,10,1,100,0.09000140820963597,-10,-1,-100,15025.753374059335,-0.0059719872426520285,0.00019319485296533516,0.9999821488627297,22.30183571415148,0.019732683388581997,28.983309683645043,-11.443320899537113,-29.5135498046875,5356.25390625,True
1599561397.8523006,0.0,10,0.5,0.5,-7.726091761016846,-0.1005,-0.02275,-0.2505,0.0016868438240299852,10,1,100,0.06505756372423156,-10,-1,-100,15025.753374059335,-0.0059719872426520285,0.00019319485296533516,0.9999821488627297,22.30183571415148,0.019732683388581997,28.983309683645043,-11.443320899537113,-29.5135498046875,5356.25390625,True
1599561397.8872073,0.0,10,0.5,0.5,-5.753299906158448,-0.1005,-0.02275,-0.2505,0.03160192605440405,10,1,100,0.08152025809144829,-10,-1,-100,15025.042439160869,-0.006120576691756665,0.00046461912848702906,0.9999811611575619,22.94726397104632,0.02074205010019387,31.278354899277932,-12.000568733266714,-35.01177978515625,5356.25390625,True
1599561397.9221158,0.0,10,0.5,0.5,-7.075184911346437,-0.1005,-0.02275,-0.2505,0.004545052852774558,10,1,100,0.06679402709160182,-10,-1,-100,15025.042439160869,-0.006120576691756665,0.00046461912848702906,0.9999811611575619,22.94726397104632,0.02074205010019387,31.278354899277932,-12.000568733266714,-35.01177978515625,5356.25390625,True
1599561397.9610093,0.0,10,0.5,0.5,-4.87563090209961,-0.1005,-0.02275,-0.2505,0.03927303596988255,10,1,100,0.07925761358855939,-10,-1,-100,15024.328574620304,-0.006232823623452565,0.0007795474534109346,0.9999802719131248,23.447916183767866,0.021515303672700024,33.44914906532615,-12.557774820624283,-41.12945556640625,5356.25390625,True
1599561397.9949527,0.0,10,0.5,0.5,-4.797850581359864,-0.1005,-0.02275,-0.2505,0.033423098617992045,10,1,100,0.07323053763488649,-10,-1,-100,15023.791466405964,-0.006279205537300048,0.001011640440798043,0.9999797738761714,23.6670540111456,0.021826011118831343,34.76349496111866,-12.929225046579884,-45.552001953125,5356.25390625,True
1599561398.0308626,0.0,10,0.5,0.5,-5.840140016174317,-0.1005,-0.02275,-0.2505,0.010346819206514925,10,1,100,0.0686848191290815,-10,-1,-100,15023.791466405964,-0.006279205537300048,0.001011640440798043,0.9999797738761714,23.6670540111456,0.021826011118831343,34.76349496111866,-12.929225046579884,-45.552001953125,5356.25390625,True
1599561398.0687222,0.0,10,0.5,0.5,-4.125605690002442,-0.1005,-0.02275,-0.2505,0.03696529874215861,10,1,100,0.07024255386938029,-10,-1,-100,15023.254358296399,-0.006292526099676007,0.0012524173517835882,0.9999794175712127,23.768892913554627,0.02192587241082791,35.91933005659328,-13.300663127439742,-50.24993896484375,5356.25390625,True
1599561398.1145995,0.0,10,0.5,0.5,-2.5768836196899416,-0.1005,-0.02275,-0.2505,0.05508426143926386,10,1,100,0.06656204454321357,-10,-1,-100,15022.475062183687,-0.006270460042407289,0.001634664443892417,0.9999790043810982,23.693627100458475,0.02165932247756585,37.31063747824237,-13.857808823075134,-57.8131103515625,5356.25390625,True
1599561398.1524982,0.0,10,0.5,0.5,-2.4987505813598636,-0.1005,-0.02275,-0.2505,0.04577873189728492,10,1,100,0.06316861297493684,-10,-1,-100,15021.87447703979,-0.0062189868493916795,0.0018959448406150362,0.9999788645745111,23.458846021704897,0.021190075518803454,37.93472222257861,-14.22924072623629,-63.199462890625,5356.25390625,True
1599561398.1893995,0.0,10,0.5,0.5,-2.7753465209960937,-0.1005,-0.02275,-0.2505,0.03409734947590587,10,1,100,0.06428563385680214,-10,-1,-100,15021.572719133343,-0.006181895320364869,0.0020254698658544474,0.999978840597175,23.269991287639588,0.020863097429017444,38.12235908472935,-14.414959554165325,-65.99594116210938,5356.25390625,True
1599561398.2213142,0.0,10,0.5,0.5,-0.3031178337097167,-0.1005,-0.02275,-0.2505,0.0628447249018704,10,1,100,0.05128636873060682,-10,-1,-100,15020.729945368832,-0.006029809785486254,0.0024028939608418723,0.9999789335253836,22.48802881381548,0.01964818400446923,38.27126103359596,-14.972135728714019,-74.79864501953125,5356.25390625,True
1599561398.2617168,0.0,10,0.5,0.5,-0.22446837234497075,-0.1005,-0.02275,-0.2505,0.05219617148524372,10,1,100,0.051583820086055165,-10,-1,-100,15020.128382393974,-0.005894201745607194,0.0026471929260357646,0.9999791251598177,21.722162185043285,0.018666978862599326,37.889215024897794,-15.343607723369384,-81.011474609375,5356.25390625,True
1599561398.2996137,0.0,10,0.5,0.5,-1.6761328788757326,-0.1005,-0.02275,-0.2505,0.027984532345609364,10,1,100,0.0651219865793462,-10,-1,-100,15020.128382393974,-0.005894201745607194,0.0026471929260357646,0.9999791251598177,21.722162185043285,0.018666978862599326,37.889215024897794,-15.343607723369384,-81.011474609375,5356.25390625,True
1599561398.3345208,0.0,10,0.5,0.5,0.6715936668395996,-0.1005,-0.02275,-0.2505,0.05222063585292494,10,1,100,0.047770119324057635,-10,-1,-100,15019.462365648244,-0.005736663293237434,0.002865536981740862,0.9999794394846658,20.737561423728366,0.017615738203471117,37.0517782037492,-15.715098673046938,-87.40200805664062,5356.25390625,True
1599561398.3699372,0.0,10,0.5,0.5,3.785025650024414,-0.1005,-0.02275,-0.2505,0.0746028873003223,10,1,100,0.02107175405888348,-10,-1,-100,15018.188926149509,-0.0053511851616999005,0.003265610236877899,0.9999803501105139,21.13871234985066,0.01807373465655249,39.56341951099004,-16.45808828193396,-100.53303527832031,5356.25390625,True
1599561398.4028482,0.0,10,0.5,0.5,1.7978289974212647,-0.1005,-0.02275,-0.2505,0.04395015754708822,10,1,100,0.04803316705661648,-10,-1,-100,15017.82369106717,-0.005246697906077534,0.0033486029530675507,0.9999806293220611,21.82683970960007,0.01880140197343192,41.314782641384646,-16.643816322264158,-103.88643646240234,5356.25390625,True
1599561398.4367573,0.0,10,0.5,0.5,1.0905128393173218,-0.1005,-0.02275,-0.2505,0.035884582179350026,10,1,100,0.05837864185573088,-10,-1,-100,15017.82369106717,-0.005246697906077534,0.0033486029530675507,0.9999806293220611,21.82683970960007,0.01880140197343192,41.314782641384646,-16.643816322264158,-103.88643646240234,5356.25390625,True
1599561398.4701784,0.0,10,0.5,0.5,3.527579465484619,-0.1005,-0.02275,-0.2505,0.05265082420414761,10,1,100,0.034666855827614584,-10,-1,-100,15017.157673783018,-0.005032086967816112,0.0034991177118372705,0.9999812169615923,23.017691411565124,0.020191005410671693,44.546439067079724,-17.015241518444245,-110.48200225830078,5356.25390625,True
1599561398.5000982,0.0,10,0.5,0.5,5.303639758110046,-0.1005,-0.02275,-0.2505,0.05868333990798249,10,1,100,0.016786316871446168,-10,-1,-100,15016.123491553473,-0.004675561554408371,0.003689095405055565,0.9999822646923511,24.326306878825534,0.02193775204798363,48.628862567757714,-17.572305213045077,-119.90772247314453,5356.25390625,True
1599561398.5350058,0.0,10,0.5,0.5,3.071508134841919,-0.1005,-0.02275,-0.2505,0.0398648856425971,10,1,100,0.05228451568272195,-10,-1,-100,15016.123491553473,-0.004675561554408371,0.003689095405055565,0.9999822646923511,24.326306878825534,0.02193775204798363,48.628862567757714,-17.572305213045077,-119.90772247314453,5356.25390625,True
1599561398.568426,0.0,10,0.5,0.5,5.280332814216614,-0.1005,-0.02275,-0.2505,0.050353028054605564,10,1,100,0.02566266791996134,-10,-1,-100,15015.392044105101,-0.00443491415089778,0.0037829297674018226,0.9999830103451004,25.025841684208086,0.022891706911695592,51.09030433989389,-17.94363755758145,-125.85124206542969,5356.25390625,True
1599561398.5983462,0.0,10,0.5,0.5,6.8557291013717645,-0.1005,-0.02275,-0.2505,0.05199991995127319,10,1,100,0.010090974044840058,-10,-1,-100,15014.298291276209,-0.00407603283578213,0.0038819508996803444,0.9999841580812839,25.66752743536183,0.023730592826291294,54.03610808268837,-18.500589082698117,-134.25039672851562,5356.25390625,True
1599561398.6332529,0.0,10,0.5,0.5,4.872859406089782,-0.1005,-0.02275,-0.2505,0.04222128252078547,10,1,100,0.04579728866542254,-10,-1,-100,15014.298291276209,-0.00407603283578213,0.0038819508996803444,0.9999841580812839,25.66752743536183,0.023730592826291294,54.03610808268837,-18.500589082698117,-134.25039672851562,5356.25390625,True
1599561398.6711514,0.0,10,0.5,0.5,7.724479022026062,-0.1005,-0.02275,-0.2505,0.04776566451800294,10,1,100,0.007126036870841929,-10,-1,-100,15013.194772208575,-0.0037261288821130566,0.003931231865133554,0.9999853305821923,25.90746597405638,0.023877115094872767,56.192985185010954,-19.0575091907228,-142.02960205078125,5356.25390625,True
1599561398.7020683,0.0,10,0.5,0.5,6.761851845359803,-0.1005,-0.02275,-0.2505,0.0437900058694457,10,1,100,0.029645809346747924,-10,-1,-100,15012.76898996369,-0.003614587341659521,0.003938921577937412,0.9999857097254703,25.935948754532543,0.02380891593187895,56.80614736039277,-19.24314610769799,-144.48483276367188,5356.25390625,True
1599561398.736976,0.0,10,0.5,0.5,8.687139532661439,-0.1005,-0.02275,-0.2505,0.0414692209535972,10,1,100,0.004302750416154931,-10,-1,-100,15011.608830822632,-0.0032843732217145887,0.003924202080032243,0.9999869066795702,25.83516158355345,0.0232618382261572,58.233822866016276,-19.80005673984949,-151.43734741210938,5356.25390625,True
1599561398.7728798,0.0,10,0.5,0.5,7.053712935638428,-0.1005,-0.02275,-0.2505,0.0429987306568106,10,1,100,0.03712792994221185,-10,-1,-100,15011.608830822632,-0.0032843732217145887,0.003924202080032243,0.9999869066795702,25.83516158355345,0.0232618382261572,58.233822866016276,-19.80005673984949,-151.43734741210938,5356.25390625,True
1599561399.0373468,0.0,10,0.5,0.5,8.667850288200379,-0.1005,-0.02275,-0.2505,0.0394504381386271,10,1,100,0.014315249414134597,-10,-1,-100,15010.809023928363,-0.0030787691484451254,0.0038914216033878795,0.9999876889334365,25.642793220740995,0.022682022470840366,58.89162916949454,-20.171335297977333,-155.7278289794922,5356.25390625,True
1599561399.0712233,0.0,10,0.5,0.5,9.105165868759155,-0.1005,-0.02275,-0.2505,0.038489782452995946,10,1,100,0.013841676505946053,-10,-1,-100,15010.013123326818,-0.002889326889779691,0.0038525312966676746,0.9999884048291421,25.376838399399702,0.021999250739440104,59.361482711039805,-20.542620561272475,-159.74249267578125,5356.25390625,True
1599561399.1051328,0.0,10,0.5,0.5,9.502553360557556,-0.1005,-0.02275,-0.2505,0.035579807124233656,10,1,100,0.012908734287243574,-10,-1,-100,15009.151793704717,-0.002710249211427118,0.003790573573122729,0.9999891429916622,25.05830171301146,0.02126924992483643,59.68401045381842,-20.91391346430801,-163.48162841796875,5356.25390625,True
1599561399.1399388,0.0,10,0.5,0.5,8.665030493164062,-0.1005,-0.02275,-0.2505,0.04178572729553492,10,1,100,0.030619970888202754,-10,-1,-100,15009.151793704717,-0.002710249211427118,0.003790573573122729,0.9999891429916622,25.05830171301146,0.02126924992483643,59.68401045381842,-20.91391346430801,-163.48162841796875,5356.25390625,True
1599561399.1768458,0.0,10,0.5,0.5,9.37054538383484,-0.1005,-0.02275,-0.2505,0.03824937197058234,10,1,100,0.021277325613622194,-10,-1,-100,15008.724058262655,-0.0026268839497849954,0.0037584179394361413,0.9999894868323901,24.88518177496502,0.020901916914400957,59.802019237496076,-21.099562812449236,-165.24774169921875,5356.25390625,True
1599561399.2586257,0.0,10,0.5,0.5,11.236401150894165,-0.1005,-0.02275,-0.2505,0.02339626741141218,10,1,100,-0.003187199538016862,-10,-1,-100,15007.00335158559,-0.0023300099822645263,0.0035942696246015547,0.9999908260975939,24.14921401971705,0.019531022692682507,60.09338198472048,-21.8421768903471,-171.6230926513672,5356.25390625,True
1599561399.293534,0.0,10,0.5,0.5,9.72439862060547,-0.1005,-0.02275,-0.2505,0.03978233076736296,10,1,100,0.026325594928678295,-10,-1,-100,15007.00335158559,-0.0023300099822645263,0.0035942696246015547,0.9999908260975939,24.14921401971705,0.019531022692682507,60.09338198472048,-21.8421768903471,-171.6230926513672,5356.25390625,True
1599561399.3294377,0.0,10,0.5,0.5,10.765430675125122,-0.1005,-0.02275,-0.2505,0.029160019299937695,10,1,100,0.012344195286747803,-10,-1,-100,15006.142021639738,-0.0022041755481559296,0.003498009486025445,0.9999914527333665,23.780527283280072,0.01895390518677882,60.19095312703279,-22.213491391103275,-174.39718627929688,5356.25390625,True
1599561399.3653412,0.0,10,0.5,0.5,11.417640619277954,-0.1005,-0.02275,-0.2505,0.021747667703700662,10,1,100,0.006732809411225227,-10,-1,-100,15004.781667576754,-0.002040050201728367,0.0033435160838012922,0.9999923295182678,23.26152093780242,0.018272249708930946,60.36744920517157,-22.77046738990823,-178.041259765625,5356.25390625,True
1599561399.4022472,0.0,10,0.5,0.5,-115.06294029273987,-0.1005,-0.02275,-0.2505,0.024898089546341408,10,1,100,0.012885917782460373,-10,-1,-100,15003.859791489202,-0.001947913892914526,0.003232235631254461,0.9999928791167915,22.953003805477646,0.017951383213226597,60.54758788243442,-23.141785085733712,179.8740234375,5356.25390625,True
1599561399.4411426,0.0,10,0.5,0.5,-26.15889521903992,-0.1005,-0.02275,-0.2505,0.035956938156146756,10,1,100,0.021965902730964455,-10,-1,-100,15003.859791489202,-0.001947913892914526,0.003232235631254461,0.9999928791167915,22.953003805477646,0.017951383213226597,60.54758788243442,-23.141785085733712,179.8740234375,5356.25390625,True
1599561399.48602,0.0,10,0.5,0.5,-25.65053394927979,-0.1005,-0.02275,-0.2505,0.010019265688578853,10,1,100,0.00566319949728121,-10,-1,-100,15001.950608963962,-0.0018007355501133426,0.0029970378687966923,0.9999938875390646,23.410889045324435,0.018374027807537694,63.75737334160853,-23.88439542433812,176.25050354003906,5356.25390625,True
1599561399.5388782,0.0,10,0.5,0.5,-27.322609749984743,-0.1005,-0.02275,-0.2505,0.03345349259156863,10,1,100,0.020272174643432922,-10,-1,-100,15001.950608963962,-0.0018007355501133426,0.0029970378687966923,0.9999938875390646,23.410889045324435,0.018374027807537694,63.75737334160853,-23.88439542433812,176.25050354003906,5356.25390625,True
1599561399.5747812,0.0,10,0.5,0.5,-26.564245711517337,-0.1005,-0.02275,-0.2505,0.0055845882033986535,10,1,100,0.009585937935922157,-10,-1,-100,15000.032637973549,-0.0017044147742826209,0.0027444055886354434,0.9999947815905051,24.39449941972458,0.01950376586366173,68.5237864427704,-24.626930950446983,171.88795471191406,5356.25390625,True
1599561399.614675,0.0,10,0.5,0.5,-28.420029994583132,-0.1005,-0.02275,-0.2505,0.03074319942107481,10,1,100,0.01911743207527988,-10,-1,-100,15000.032637973549,-0.0017044147742826209,0.0027444055886354434,0.9999947815905051,24.39449941972458,0.01950376586366173,68.5237864427704,-24.626930950446983,171.88795471191406,5356.25390625,True
1599561399.6525733,0.0,10,0.5,0.5,-28.2778767868042,-0.1005,-0.02275,-0.2505,0.016191356268032465,10,1,100,0.01657719429150118,-10,-1,-100,14999.04435598827,-0.0016821603118623621,0.0026130379348357864,0.9999951711730595,24.918909866442668,0.02022098221648811,71.06366636003658,-24.998166373014925,169.29782104492188,5356.25390625,True
1599561399.6894748,0.0,10,0.5,0.5,-28.157329417037968,-0.1005,-0.02275,-0.2505,0.007006860712723547,10,1,100,0.016015237329565318,-10,-1,-100,14997.493573167128,-0.0016574092369812574,0.0024110094096876224,0.9999957200049646,25.793110413462994,0.021532007196932375,75.21369950278614,-25.554972418888603,164.8961944580078,5356.25390625,True
1599561399.7293687,0.0,10,0.5,0.5,-28.874645727157592,-0.1005,-0.02275,-0.2505,0.011922983015786374,10,1,100,0.018737245010222805,-10,-1,-100,14996.442791109439,-0.001660265239409215,0.0022731148261397843,0.9999960382263133,26.402106472386365,0.022527878280776934,78.12066165158204,-25.926141396573655,161.6173553466797,5356.25390625,True
1599561399.7632768,0.0,10,0.5,0.5,-29.212845166778568,-0.1005,-0.02275,-0.2505,0.01004619664242636,10,1,100,0.01948907472046538,-10,-1,-100,14995.451579473447,-0.0016701908847175152,0.002131807960120191,0.9999963329218913,26.99548159756691,0.023572305453633015,81.03316168418384,-26.297280813098055,158.06298828125,5356.25390625,True
1599561399.7999046,0.0,10,0.5,0.5,-30.86785128097534,-0.1005,-0.02275,-0.2505,0.024055712432017567,10,1,100,0.018459524257934283,-10,-1,-100,14995.451579473447,-0.0016701908847175152,0.002131807960120191,0.9999963329218913,26.99548159756691,0.023572305453633015,81.03316168418384,-26.297280813098055,158.06298828125,5356.25390625,True
1599561399.8358436,0.0,10,0.5,0.5,-29.47394873580933,-0.1005,-0.02275,-0.2505,0.008015065024096909,10,1,100,0.02097060830594431,-10,-1,-100,14994.334391173092,-0.0016932713969796036,0.001986984281567398,0.9999965923569144,27.60132859992444,0.02466410727150491,84.0346967849425,-26.66838920052306,154.23312377929688,5356.25390625,True
1599561399.872711,0.0,10,0.5,0.5,-28.93402006225586,-0.1005,-0.02275,-0.2505,0.006155456887111964,10,1,100,0.022311404020684097,-10,-1,-100,14993.281656538718,-0.001726674225984532,0.0018395529101374387,0.9999968173155392,28.191590771540668,0.025743412082996357,87.04023357653509,-27.03946583921469,150.12777709960938,5356.25390625,True
1599561399.9126372,0.0,10,0.5,0.5,-27.56027372093201,-0.1005,-0.02275,-0.2505,-0.0037629924422011157,10,1,100,0.027215064958924465,-10,-1,-100,14991.603921427159,-0.0018016864984494963,0.0016164089285334105,0.9999970705696778,28.95274889970164,0.027153732061797355,91.25222470721322,-27.596024430029967,143.45339965820312,5356.25390625,True
1599561399.9481733,0.0,10,0.5,0.5,-28.328369355010988,-0.1005,-0.02275,-0.2505,0.010016942457090151,10,1,100,0.022953616516311986,-10,-1,-100,14991.105874561355,-0.0018311381685317723,0.001540078016105363,0.999997137542259,29.162662103071472,0.02753343751913352,92.53908514670864,-27.781530309022106,141.0909423828125,5356.25390625,True
