Timestamp,Input Throttle,horizon,dT,dt,Input Roll,Roll P,Roll I,Roll D,Input Pitch,Pitch P,Pitch I,Pitch D,Input Yaw,Yaw P,Yaw I,Yaw D,Altitude,Direction X,Direction Y,Direction Z,Drag X,Drag Y,Drag Z,Vertical Velocity,Roll,Mass,Has Fuel
1599563195.3352177,0.0,10,0.5,0.5,-11.641957656860352,-0.2,-0.001,-0.2505,-0.0002737846854397105,10,1,100,0.17493740369123684,-10,-1,-100,14994.000766863464,-0.016809824126291416,-7.4301476227254e-05,0.9998587021635278,28.6445876107069,0.027275219366148122,-87.50389533684144,27.008978317007475,-31.7916259765625,5356.25390625,True
1599563195.3880715,0.0,10,0.5,0.5,-11.64777060546875,-0.2,-0.001,-0.2505,-0.00047351252754980776,10,1,100,0.1737110199081366,-10,-1,-100,14994.547644251725,-0.0168455677284059,-7.178390911502256e-05,0.9998581007797946,28.571895715098616,0.027439591879874048,-86.68245542375628,26.823010853400532,-31.791015625,5356.25390625,True
1599563195.4544842,0.0,10,0.5,0.5,-11.591668087768555,-0.2,-0.001,-0.2505,0.007630165353797782,10,1,100,0.18413640385167585,-10,-1,-100,14996.664837501827,-0.01695752397733451,4.239845280270488e-06,0.9998562108436303,28.285094000109137,0.028084975812543156,-83.43889386065781,26.079180275609723,-31.928131103515625,5356.25390625,True
1599563195.502357,0.0,10,0.5,0.5,-11.63182270202637,-0.2,-0.001,-0.2505,2.8213898796504266e-05,10,1,100,0.17463653135654827,-10,-1,-100,14996.664837501827,-0.01695752397733451,4.239845280270488e-06,0.9998562108436303,28.285094000109137,0.028084975812543156,-83.43889386065781,26.079180275609723,-31.928131103515625,5356.25390625,True
1599563195.5542262,0.0,10,0.5,0.5,-11.162066976928712,-0.2,-0.001,-0.2505,0.02430090892873477,10,1,100,0.17985485049949648,-10,-1,-100,14998.658980015316,-0.016989547311381917,0.00022489685478399994,0.9998556419321537,28.057188542275135,0.02874197321691166,-80.41219623189878,25.33540857801935,-32.9837646484375,5356.25390625,True
1599563195.603096,0.0,10,0.5,0.5,-11.009709823608398,-0.2,-0.001,-0.2505,0.022565003787111522,10,1,100,0.1754838328429919,-10,-1,-100,14999.686322586145,-0.016963477866082807,0.0004095087286319208,0.999856025996387,27.971852166207647,0.02906631805928739,-78.99394117709326,24.963542586199537,-33.921600341796875,5356.25390625,True
1599563195.650976,0.0,10,0.5,0.5,-10.703962011718751,-0.2,-0.001,-0.2505,0.029694151960472478,10,1,100,0.17215705980405321,-10,-1,-100,15000.653116689064,-0.016894113635578644,0.0006417758621345558,0.9998570783108008,27.901297755310395,0.029373531281019043,-77.62391183526942,24.591688379259093,-35.13421630859375,5356.25390625,True
1599563195.7018402,0.0,10,0.5,0.5,-11.013208889770508,-0.2,-0.001,-0.2505,0.006531616196422433,10,1,100,0.18078289421802743,-10,-1,-100,15000.653116689064,-0.016894113635578644,0.0006417758621345558,0.9998570783108008,27.901297755310395,0.029373531281019043,-77.62391183526942,24.591688379259093,-35.13421630859375,5356.25390625,True
1599563195.7467203,0.0,10,0.5,0.5,-10.348609713745118,-0.2,-0.001,-0.2505,0.03746751588747015,10,1,100,0.17107904626338097,-10,-1,-100,15001.617956606671,-0.016790538550867696,0.0009224278812694128,0.9998586034744992,27.840628580190845,0.029649563363195578,-76.28682313039283,24.21984584909864,-36.62164306640625,5356.25390625,True
1599563195.7945914,0.0,10,0.5,0.5,-9.932632440185547,-0.2,-0.001,-0.2505,0.04504446431229859,10,1,100,0.16703669339014854,-10,-1,-100,15002.581818789244,-0.016644366594509387,0.0012456088589983872,0.9998606970569639,27.783560293420248,0.029877475938263367,-74.96447133064764,23.84801441350432,-38.383941650390625,5356.25390625,True
1599563195.8479273,0.0,10,0.5,0.5,-9.46154581604004,-0.2,-0.001,-0.2505,0.05411655916127503,10,1,100,0.16311006224830926,-10,-1,-100,15003.546655548736,-0.016460655108717376,0.0016207509656890604,0.9998632006428175,27.72243950065035,0.030037776987348955,-73.63607766129054,23.47619427821781,-40.4210205078125,5356.25390625,True
1599563195.893806,0.0,10,0.5,0.5,-8.92938235473633,-0.2,-0.001,-0.2505,0.06125521120275429,10,1,100,0.15555145468681747,-10,-1,-100,15004.449968067463,-0.01622524747927251,0.0020251451244741054,0.9998663111293735,27.64833820059408,0.030108670157603254,-72.2788217095853,23.10438589657095,-42.73309326171875,5356.25390625,True
1599563196.299719,0.0,10,0.5,0.5,-8.34200259399414,-0.2,-0.001,-0.2505,0.06952971003091446,10,1,100,0.14801941996297613,-10,-1,-100,15005.415778867668,-0.01594333142796874,0.0024660925954132487,0.9998698558163901,27.551178854042032,0.0300677381374064,-70.86843241439055,22.732590156032394,-45.32012939453125,5356.25390625,True
1599563196.3445961,0.0,10,0.5,0.5,-7.008195971679688,-0.2,-0.001,-0.2505,0.10377463969444992,10,1,100,0.11876835061596358,-10,-1,-100,15006.738027940271,-0.015422047289582802,0.003176033427071762,0.9998760289501234,27.33716951543174,0.029748763069354065,-68.59680392898628,22.174924024638592,-49.716400146484375,5356.25390625,True
1599563196.3984554,0.0,10,0.5,0.5,-6.632408203125001,-0.2,-0.001,-0.2505,0.08769727762414309,10,1,100,0.1250632201826055,-10,-1,-100,15007.575905991369,-0.015006774593190287,0.0036723928974114473,0.9998806480009083,27.130233427154998,0.029336865520959064,-66.93882435219973,21.80316815989195,-52.99114990234375,5356.25390625,True
1599563196.4493208,0.0,10,0.5,0.5,-5.851394036865234,-0.2,-0.001,-0.2505,0.0931880104950927,10,1,100,0.11461702698000156,-10,-1,-100,15008.478237073403,-0.01453609108800814,0.004170410445599224,0.9998856483281457,26.855562997256904,0.028750417426600103,-65.13399795145747,21.431433179867327,-56.541290283203125,5356.25390625,True
1599563196.5011787,0.0,10,0.5,0.5,-5.015040515136719,-0.2,-0.001,-0.2505,0.09853947380388384,10,1,100,0.10373506226039661,-10,-1,-100,15009.32099645061,-0.014011476755644393,0.004668384336107151,0.9998909364059745,26.49814853357014,0.027985322581055686,-63.15511361098189,21.05972243941472,-60.3668212890625,5356.25390625,True
1599563196.5530431,0.0,10,0.5,0.5,-3.1529880645751946,-0.2,-0.001,-0.2505,0.1292981552306074,10,1,100,0.058273261311927865,-10,-1,-100,15010.576834921842,-0.013123886114763937,0.005397051696380961,0.9998993126541458,25.77233402100402,0.026516213934667906,-59.80312574252055,20.502210769411327,-66.6217041015625,5356.25390625,True
1599563196.600914,0.0,10,0.5,0.5,-2.6829208282470702,-0.2,-0.001,-0.2505,0.10748009153815125,10,1,100,0.07481537576457384,-10,-1,-100,15011.354163353913,-0.012470795870370137,0.005856807557758235,0.9999050840232742,25.137946130697006,0.025350573799197407,-57.27650223768957,20.130578672138913,-71.13616943359375,5356.25390625,True
1599563196.6467917,0.0,10,0.5,0.5,-2.7468258361816407,-0.2,-0.001,-0.2505,0.08527239676044487,10,1,100,0.10257642137240887,-10,-1,-100,15011.773100206861,-0.012133377647065634,0.006068393497688891,0.9999079736391899,24.769427878135126,0.024723912085869493,-55.91735497058042,19.94477689305659,-73.49691772460938,5356.25390625,True
1599563196.692671,0.0,10,0.5,0.5,-2.240094018554688,-0.2,-0.001,-0.2505,0.08725748964025516,10,1,100,0.09752757396055695,-10,-1,-100,15012.130515235942,-0.011784836093906018,0.006274406301407135,0.9999108707598916,24.36369422916605,0.02407467799502058,-54.490476677059235,19.75898503398354,-75.9266357421875,5356.25390625,True
1599563196.7355525,0.0,10,0.5,0.5,0.6248500213623045,-0.2,-0.001,-0.2505,0.13087578647829878,10,1,100,0.009396280967330736,-10,-1,-100,15013.327757409075,-0.010671037308381412,0.006853990043918919,0.9999195726573418,22.904571848330267,0.022051009776932466,-49.786317794706896,19.20167113866729,-83.6292724609375,5356.25390625,True
1599563196.7814314,0.0,10,0.5,0.5,-0.08174068908691412,-0.2,-0.001,-0.2505,0.09254991587016165,10,1,100,0.07725682261767988,-10,-1,-100,15013.685172263882,-0.010280456254881208,0.007028077490747071,0.9999224561664648,22.351942007037692,0.02139001198169632,-48.11648070711214,19.01592004568695,-86.33477783203125,5356.25390625,True
1599563196.824317,0.0,10,0.5,0.5,3.0573529441833496,-0.2,-0.001,-0.2505,0.12510316041973205,10,1,100,-0.01600489702911885,-10,-1,-100,15014.816008986905,-0.009082696823249296,0.00747813013386391,0.9999307886989568,21.663910489694786,0.02063743668256271,-45.27278651586566,18.45871101885405,-94.79808807373047,5356.25390625,True
1599563196.8711913,0.0,10,0.5,0.5,2.2123354934692383,-0.2,-0.001,-0.2505,0.09437625212262088,10,1,100,0.058942817261682136,-10,-1,-100,15015.175377662526,-0.008680930515742416,0.007604022373353851,0.9999334079273112,22.14100954242224,0.021158848589435272,-45.8055687919204,18.27297468798578,-97.61836242675781,5356.25390625,True
1599563196.9130769,0.0,10,0.5,0.5,4.045798050689697,-0.2,-0.001,-0.2505,0.10735115378962586,10,1,100,0.005224894272244415,-10,-1,-100,15015.889231502195,-0.007833094430902588,0.007832849306702985,0.9999386426693265,23.05160237158108,0.022279761840045847,-46.72256892365734,17.901492474466096,-103.24650573730469,5356.25390625,True
1599563196.9579592,0.0,10,0.5,0.5,6.308114591217041,-0.2,-0.001,-0.2505,0.11159057398822957,10,1,100,-0.04625659321189879,-10,-1,-100,15016.95952455257,-0.006600414464516994,0.008076084485315774,0.9999456042146906,24.092795065301857,0.023835388057368425,-47.31664268249748,17.34424316111231,-111.387451171875,5356.25390625,True
1599563197.005831,0.0,10,0.5,0.5,5.438245687866211,-0.2,-0.001,-0.2505,0.09393853660523191,10,1,100,0.02997902273455616,-10,-1,-100,15017.316941457102,-0.006179584696671615,0.00813363639861905,0.9999478269849441,24.34389009759794,0.024276439146420047,-47.298936507779715,17.15848713904281,-113.97199249267578,5356.25390625,True
1599563197.048717,0.0,10,0.5,0.5,8.103764698028565,-0.2,-0.001,-0.2505,0.10131060382231855,10,1,100,-0.06084946194273585,-10,-1,-100,15018.322784586111,-0.004977611684671426,0.008250487308411691,0.9999535753429207,24.989504537198588,0.025440775921181047,-46.97977901284808,16.601205401723732,-121.31541442871094,5356.25390625,True
1599563197.090602,0.0,10,0.5,0.5,9.298740069580079,-0.2,-0.001,-0.2505,0.09260240773738967,10,1,100,-0.07100896196666555,-10,-1,-100,15019.271014420781,-0.0037993618409861655,0.00827537391676869,0.999958540658631,25.333268362208155,0.02611425214147246,-46.03038787808663,16.043915901744825,-128.04013061523438,5356.25390625,True
1599563197.1354928,0.0,10,0.5,0.5,7.61965298614502,-0.2,-0.001,-0.2505,0.09033444494359781,10,1,100,0.04598262082125257,-10,-1,-100,15019.271014420781,-0.0037993618409861655,0.00827537391676869,0.999958540658631,25.333268362208155,0.02611425214147246,-46.03038787808663,16.043915901744825,-128.04013061523438,5356.25390625,True
1599563197.1763852,0.0,10,0.5,0.5,9.489322267150879,-0.2,-0.001,-0.2505,0.08984017379269368,10,1,100,-0.034687031157150945,-10,-1,-100,15019.919445074163,-0.0030732608905033334,0.00826906148120105,0.9999610880877909,25.405938503181748,0.026264959094797424,-45.09543134643487,15.672394083783875,-132.17877197265625,5356.25390625,True
1599563197.2182696,0.0,10,0.5,0.5,10.197787019348144,-0.2,-0.001,-0.2505,0.08743345780505826,10,1,100,-0.03980352084769709,-10,-1,-100,15020.508306682808,-0.002373562644166592,0.00824015723858171,0.9999632323285981,25.37478579621567,0.026194122370783512,-43.97436024296599,15.300881588901134,-136.04190063476562,5356.25390625,True
1599563197.2616715,0.0,10,0.5,0.5,12.343525622558593,-0.2,-0.001,-0.2505,0.07359230937667142,10,1,100,-0.11675981163031174,-10,-1,-100,15021.6831021799,-0.0010450587709373437,0.008086950141626215,0.9999667539921375,25.071728855601638,0.02549660168306056,-41.3429549990881,14.557901218871107,-142.9419708251953,5356.25390625,True
1599563197.304556,0.0,10,0.5,0.5,11.987835860443116,-0.2,-0.001,-0.2505,0.07862806048596813,10,1,100,-0.051775312181141675,-10,-1,-100,15022.271965872962,-0.0004354030975871294,0.007992897045380497,0.9999679614972495,24.832578084884265,0.0249389281450053,-39.90551913059868,14.186439035065955,-145.978515625,5356.25390625,True
1599563197.346958,0.0,10,0.5,0.5,11.869313774871827,-0.2,-0.001,-0.2505,0.0840498354959752,10,1,100,-0.022990300173203693,-10,-1,-100,15022.563956275582,-0.00015034852863014827,0.007956329571909884,0.9999683366062462,24.70750515632817,0.024633140524884287,-39.18561363769517,14.000715473417994,-147.39315795898438,5356.25390625,True
1599563197.392833,0.0,10,0.5,0.5,12.125613541412353,-0.2,-0.001,-0.2505,0.0835130283884952,10,1,100,-0.025717611293905936,-10,-1,-100,15022.856925066793,0.00012660141160778906,0.00791809409480932,0.9999686433873757,24.590857189989727,0.024324310535663182,-38.48414478019045,13.814997026045075,-148.7388916015625,5356.25390625,True
1599563197.4342308,0.0,10,0.5,0.5,13.90693763656616,-0.2,-0.001,-0.2505,0.06531409120908506,10,1,100,-0.11240996529674194,-10,-1,-100,15023.909657804412,0.0011603709246897642,0.007718033314350995,0.9999695422867018,24.067109342122116,0.022958105983284856,-35.64258547840966,13.072173582540884,-153.43299865722656,5356.25390625,True
1599563197.4771187,0.0,10,0.5,0.5,13.605977044677736,-0.2,-0.001,-0.2505,0.0744276649660711,10,1,100,-0.060499041378045126,-10,-1,-100,15024.43211830547,0.001621571214029442,0.007619388369074452,0.9999696572534983,23.79149307437777,0.022241643439340146,-34.234994285878656,12.70079137946496,-155.3663330078125,5356.25390625,True
1599563197.5229971,0.0,10,0.5,0.5,13.871573085021973,-0.2,-0.001,-0.2505,0.07705634445990914,10,1,100,-0.06128472307332433,-10,-1,-100,15024.895985660143,0.0020419875080237774,0.007554181958711883,0.9999693818422402,23.520459026131817,0.021530683460801343,-32.85691865902894,12.329427084235226,-157.0233612060547,5356.25390625,True
1599563197.5631084,0.0,10,0.5,0.5,14.081772326660158,-0.2,-0.001,-0.2505,0.07429618685129305,10,1,100,-0.06286406544186243,-10,-1,-100,15025.419424083084,0.0024332314792335106,0.00747046669099309,0.9999691352796781,23.26241394608207,0.02083996037282419,-31.51916069553136,11.958079186413167,-158.4049072265625,5356.25390625,True
1599563197.6039653,0.0,10,0.5,0.5,14.00328754119873,-0.2,-0.001,-0.2505,0.07883036089883999,10,1,100,-0.04422139908962994,-10,-1,-100,15025.649892581161,0.0026137630377491366,0.007436313400068046,0.9999689342603592,23.140553772847557,0.020505676408339404,-30.867942631236282,11.772410816870007,-158.99215698242188,5356.25390625,True
1599563197.649352,0.0,10,0.5,0.5,14.092334220886231,-0.2,-0.001,-0.2505,0.07879556392196904,10,1,100,-0.045646395038796514,-10,-1,-100,15025.883292545099,0.002785667123275536,0.007405705661329301,0.9999686973012385,23.02432260720834,0.02017996487570357,-30.22921709456143,11.586745858023551,-159.51040649414062,5356.25390625,True
1599563197.6902428,0.0,10,0.5,0.5,14.338562297058107,-0.2,-0.001,-0.2505,0.0760326016123037,10,1,100,-0.06404757069774909,-10,-1,-100,15026.343255030806,0.003104536770865066,0.007353521197458258,0.9999681432812931,22.812082478778127,0.0195577219700014,-28.992058809755598,11.215425056942516,-160.33993530273438,5356.25390625,True
1599563197.7301364,0.0,10,0.5,0.5,14.507149604797364,-0.2,-0.001,-0.2505,0.07141170809662024,10,1,100,-0.09153807896700061,-10,-1,-100,15027.204586432781,0.003640559620628923,0.007264739406473068,0.9999669843984874,22.482029891731152,0.018439634416272846,-26.683063206296477,10.472813232217668,-161.1715545654297,5356.25390625,True
1599563197.7720246,0.0,10,0.5,0.5,14.316316781616212,-0.2,-0.001,-0.2505,0.07875823756415504,10,1,100,-0.05064993409003348,-10,-1,-100,15027.372555207228,0.0037524372917888955,0.007251477280408582,0.99996666709027,22.421272544681848,0.01818698407708253,-26.139787946134984,10.287164983230246,-161.20700073242188,5356.25390625,True
1599563197.813911,0.0,10,0.5,0.5,14.293716537475586,-0.2,-0.001,-0.2505,0.0787156771105626,10,1,100,-0.05129862112865644,-10,-1,-100,15027.603025278426,0.0038564934333577892,0.007239674663764119,0.9999663567186455,22.369341274377486,0.017944650085479946,-25.609145933604086,10.10151824259006,-161.17347717285156,5356.25390625,True
1599563197.8548026,0.0,10,0.5,0.5,13.932191456604004,-0.2,-0.001,-0.2505,0.07837240377583732,10,1,100,-0.07741925289265449,-10,-1,-100,15028.338380369125,0.004185159403527902,0.007226441090527146,0.9999651308870386,22.251159611726415,0.017074758974047824,-23.60313478564286,9.358941398209666,-160.34957885742188,5356.25390625,True
1599563198.1859534,0.0,10,0.5,0.5,14.13926964263916,-0.2,-0.001,-0.2505,0.07964660187715225,10,1,100,-0.04485513472352702,-10,-1,-100,15028.338380369125,0.004185159403527902,0.007226441090527146,0.9999651308870386,22.251159611726415,0.017074758974047824,-23.60313478564286,9.358941398209666,-160.34957885742188,5356.25390625,True
1599563198.2208238,0.0,10,0.5,0.5,13.7677837600708,-0.2,-0.001,-0.2505,0.08055473274725818,10,1,100,-0.057502297957689255,-10,-1,-100,15028.736819077167,0.004297803080029833,0.007235054050508606,0.9999645908138804,22.24283997984497,0.016694982070774602,-22.65914641993165,8.98765629799807,-159.52386474609375,5356.25390625,True
1599563198.258722,0.0,10,0.5,0.5,13.974875195312501,-0.2,-0.001,-0.2505,0.07966152395829179,10,1,100,-0.04646351186469678,-10,-1,-100,15028.736819077167,0.004297803080029833,0.007235054050508606,0.9999645908138804,22.24283997984497,0.016694982070774602,-22.65914641993165,8.98765629799807,-159.52386474609375,5356.25390625,True
1599563198.299614,0.0,10,0.5,0.5,13.478705688476563,-0.2,-0.001,-0.2505,0.08190980069770681,10,1,100,-0.05514048002822099,-10,-1,-100,15029.071781034581,0.004374989543697511,0.007255706941449183,0.9999641064474626,22.26442391345549,0.016348770165953527,-21.744957897975876,8.616371243285991,-158.4222412109375,5356.25390625,True
1599563198.3464856,0.0,10,0.5,0.5,13.134081787109375,-0.2,-0.001,-0.2505,0.08286864277652572,10,1,100,-0.05222072785585606,-10,-1,-100,15029.408696520259,0.004417014739550311,0.007283363230710442,0.9999637206423241,22.311360021795643,0.016034057628597716,-20.85254414344487,8.245085117583516,-157.04483032226562,5356.25390625,True
1599563198.4093194,0.0,10,0.5,0.5,12.734138345336913,-0.2,-0.001,-0.2505,0.08345423382547877,10,1,100,-0.049220208799138826,-10,-1,-100,15029.744634566712,0.004426458973795178,0.007313940087238995,0.999963455702934,22.37771503099168,0.015749045874348902,-19.97341286763447,7.873797006530486,-155.39169311523438,5356.25390625,True
1599563198.4502108,0.0,10,0.5,0.5,11.285585530090334,-0.2,-0.001,-0.2505,0.08904395109730837,10,1,100,-0.038357100793616566,-10,-1,-100,15030.2905332261,0.004335087366510372,0.007392588823927239,0.9999632776497369,22.538278106866805,0.015263034014876586,-18.220630702866668,7.131212984584265,-151.2581329345703,5356.25390625,True
1599563198.4901044,0.0,10,0.5,0.5,12.320051013183596,-0.2,-0.001,-0.2505,0.08119186237022939,10,1,100,-0.047563714296685274,-10,-1,-100,15030.2905332261,0.004335087366510372,0.007392588823927239,0.9999632776497369,22.538278106866805,0.015263034014876586,-18.220630702866668,7.131212984584265,-151.2581329345703,5356.25390625,True
1599563198.5299969,0.0,10,0.5,0.5,11.20168056945801,-0.2,-0.001,-0.2505,0.08574647869420554,10,1,100,-0.036829883584824155,-10,-1,-100,15030.566900670878,0.004236977405425524,0.007433866143651096,0.9999633921582451,22.614032853621524,0.015062241129389545,-17.330503835063265,6.759916902441416,-148.77783203125,5356.25390625,True
1599563198.568894,0.0,10,0.5,0.5,9.912905612182618,-0.2,-0.001,-0.2505,0.08760804075570469,10,1,100,-0.02325631875850304,-10,-1,-100,15030.9428749996,0.004024044593316318,0.007488137733522879,0.9999638667763924,22.689408740885476,0.014812459489941874,-15.956306072520526,6.202968512246542,-144.5406494140625,5356.25390625,True
1599563198.6077898,0.0,10,0.5,0.5,10.274386975097658,-0.2,-0.001,-0.2505,0.0840903998344459,10,1,100,-0.034848503477369154,-10,-1,-100,15031.109867333551,0.003935999275034197,0.007505259082628515,0.9999640888530996,22.6972377688366,0.01474131135235572,-15.484288679131224,6.017318192111035,-142.990478515625,5356.25390625,True
1599563198.6476831,0.0,10,0.5,0.5,7.55733348388672,-0.2,-0.001,-0.2505,0.08618469529689424,10,1,100,0.003808613010870425,-10,-1,-100,15031.529785984312,0.0035047562540923573,0.007539609524208532,0.9999654348885375,22.588383187811207,0.014491158794323031,-13.508919947886612,5.27471214058397,-136.10116577148438,5356.25390625,True
1599563198.6865792,0.0,10,0.5,0.5,9.280764056396485,-0.2,-0.001,-0.2505,0.0827801066862626,10,1,100,-0.03923638440071977,-10,-1,-100,15031.529785984312,0.0035047562540923573,0.007539609524208532,0.9999654348885375,22.588383187811207,0.014491158794323031,-13.508919947886612,5.27471214058397,-136.10116577148438,5356.25390625,True
1599563198.7244778,0.0,10,0.5,0.5,5.678573733520508,-0.2,-0.001,-0.2505,0.07976394915919238,10,1,100,0.020631015536844897,-10,-1,-100,15031.94872626639,0.0029612281154108035,0.007511913041713621,0.9999674006138911,22.1468423513811,0.014207536067047164,-11.380636056850992,4.532091940578697,-128.11038208007812,5356.25390625,True
1599563198.7643712,0.0,10,0.5,0.5,7.677233862304688,-0.2,-0.001,-0.2505,0.08255921801870991,10,1,100,-0.03358042218848181,-10,-1,-100,15031.94872626639,0.0029612281154108035,0.007511913041713621,0.9999674006138911,22.1468423513811,0.014207536067047164,-11.380636056850992,4.532091940578697,-128.11038208007812,5356.25390625,True
1599563198.8042629,0.0,10,0.5,0.5,5.688341798400879,-0.2,-0.001,-0.2505,0.07851966261349584,10,1,100,0.001615041830066763,-10,-1,-100,15032.095207493287,0.002642592793991398,0.007474982038201672,0.9999685701795101,21.753854092501278,0.014005042042387528,-10.263009473232476,4.160770836729357,-123.70195007324219,5356.25390625,True
1599563198.844157,0.0,10,0.5,0.5,4.679601672363282,-0.2,-0.001,-0.2505,0.073990050286673,10,1,100,0.004747150186590644,-10,-1,-100,15032.245594770764,0.0023260723041688153,0.007400083702991544,0.9999699136218171,21.21728291318504,0.013730350297246641,-9.11669229382131,3.789437959442897,-119.01852416992188,5356.25390625,True
1599563198.8820567,0.0,10,0.5,0.5,3.6156428024292,-0.2,-0.001,-0.2505,0.07158549404637399,10,1,100,0.012532433287497487,-10,-1,-100,15032.390121784876,0.0019693774807421705,0.007310127891635015,0.9999713413806149,20.525070229008787,0.013360406168292335,-7.95514290395196,3.418088986376452,-114.05973815917969,5356.25390625,True
1599563198.915974,0.0,10,0.5,0.5,2.4962569511413575,-0.2,-0.001,-0.2505,0.06692945609378102,10,1,100,0.01599681352097787,-10,-1,-100,15032.537578456686,0.0016157657390370064,0.007186097228043955,0.9999728742859507,19.750108515524584,0.012925737755406707,-6.823203481114999,3.046719109014282,-108.8259048461914,5356.25390625,True
1599563198.957862,0.0,10,0.5,0.5,2.57792833480835,-0.2,-0.001,-0.2505,0.07145814135034981,10,1,100,0.0009002462772529501,-10,-1,-100,15032.579567770474,0.0014339249593992552,0.00711473718976235,0.9999736618401164,19.35868016284875,0.012698755274321469,-6.28039245772185,2.861025088490021,-106.10579681396484,5356.25390625,True
1599563198.9977553,0.0,10,0.5,0.5,0.7116894561767579,-0.2,-0.001,-0.2505,0.06047736517205088,10,1,100,0.02339896284100505,-10,-1,-100,15032.665501494543,0.0010664360269980232,0.006950378644743411,0.9999752771698383,18.406299215173153,0.012110293698717464,-5.196287012148269,2.489613674596702,-100.45922088623047,5356.25390625,True
1599563199.0376492,0.0,10,0.5,0.5,-0.5458323463439942,-0.2,-0.001,-0.2505,0.05566842798701579,10,1,100,0.027220914405187563,-10,-1,-100,15032.748504733783,0.0007002188590025496,0.006757748611623951,0.9999769209973057,17.266365204242494,0.011372009310591772,-4.147257785982087,2.1181699933946323,-94.5374984741211,5356.25390625,True
1599563199.0785377,0.0,10,0.5,0.5,-1.8582695014953614,-0.2,-0.001,-0.2505,0.05030893823164437,10,1,100,0.031489648421444624,-10,-1,-100,15032.832484729937,0.0003310370673998638,0.006534618548205234,0.9999785943583441,16.06431712814402,0.010579084857074922,-3.1818902537239815,1.7467047076386324,-88.34066772460938,5356.25390625,True
1599563199.121189,0.0,10,0.5,0.5,-6.116811164855957,-0.2,-0.001,-0.2505,0.015894677092086584,10,1,100,0.07150764897325966,-10,-1,-100,15032.936968218652,-0.0003654975489039032,0.0060198297447158775,0.9999818138653256,17.864526726485792,0.011758444701512105,-2.0334578681453808,1.0037618570008693,-75.45260620117188,5356.25390625,True
1599563199.1636615,0.0,10,0.5,0.5,-5.718316322326661,-0.2,-0.001,-0.2505,0.03546041060018926,10,1,100,0.0382095592292844,-10,-1,-100,15032.95942543482,-0.0006929766336309028,0.0057310666673419395,0.9999833371902952,18.812574750670162,0.01240543290312266,-1.3489307726204964,0.6322990500241477,-69.18246459960938,5356.25390625,True
1599563199.20506,0.0,10,0.5,0.5,-6.860525611877442,-0.2,-0.001,-0.2505,0.03277132570179626,10,1,100,0.03877168942253902,-10,-1,-100,15032.97895278188,-0.0009924731626404521,0.005445727503720579,0.9999846794071281,19.506439927808305,0.01287463850342718,-0.5769961582173475,0.26083715861827583,-63.173614501953125,5356.25390625,True
1599563199.245519,0.0,10,0.5,0.5,-5.36136149597168,-0.2,-0.001,-0.2505,0.06110231661048418,10,1,100,0.009185543117247279,-10,-1,-100,15032.97895278188,-0.0009924731626404521,0.005445727503720579,0.9999846794071281,19.506439927808305,0.01287463850342718,-0.5769961582173475,0.26083715861827583,-63.173614501953125,5356.25390625,True
1599563199.2894363,0.0,10,0.5,0.5,-9.19592102355957,-0.2,-0.001,-0.2505,0.010091197568341731,10,1,100,0.055835154677064056,-10,-1,-100,15032.980901660514,-0.0014135436809416871,0.004983766745336803,0.9999865818916222,20.11251440425202,0.01328091054128937,0.67599504248743,-0.29637449380676073,-54.674224853515625,5356.25390625,True
1599563199.3312905,0.0,10,0.5,0.5,-10.622333467102052,-0.2,-0.001,-0.2505,0.0030123656561979115,10,1,100,0.054868050288647274,-10,-1,-100,15032.9193729572,-0.0017844678202647629,0.004501564275919607,0.9999882757281048,20.429907825394764,0.013504737429922559,1.9777750298919714,-0.8536148604536795,-46.7950439453125,5356.25390625,True
1599563199.3711834,0.0,10,0.5,0.5,-8.654801735687256,-0.2,-0.001,-0.2505,0.0509641593027051,10,1,100,0.018115659712269878,-10,-1,-100,15032.9193729572,-0.0017844678202647629,0.004501564275919607,0.9999882757281048,20.429907825394764,0.013504737429922559,1.9777750298919714,-0.8536148604536795,-46.7950439453125,5356.25390625,True
1599563199.4120753,0.0,10,0.5,0.5,-10.87200205230713,-0.2,-0.001,-0.2505,0.01738770861317918,10,1,100,0.042976608250005086,-10,-1,-100,15032.875425296952,-0.0020075506317172066,0.004198699426845592,0.9999891702731506,20.44072804434216,0.013527281304812178,2.84010011154832,-1.2251235101386537,-41.886566162109375,5356.25390625,True
1599563199.452964,0.0,10,0.5,0.5,-13.698042514801028,-0.2,-0.001,-0.2505,-0.021749730475086305,10,1,100,0.06410869502945947,-10,-1,-100,15032.7279601529,-0.0023996685340701815,0.0035700743716285265,0.9999907480371544,20.127906263169407,0.013367813172772306,4.49301485031429,-1.9681679460425774,-32.8970947265625,5356.25390625,True
1599563199.4938557,0.0,10,0.5,0.5,-13.291024075317385,-0.2,-0.001,-0.2505,0.008209886799428853,10,1,100,0.04432432324633481,-10,-1,-100,15032.686943082488,-0.0025734633496416865,0.0032738550914176916,0.9999913295420259,19.84249221238501,0.013216456399855315,5.265550742673784,-2.3396975729158385,-28.815673828125,5356.25390625,True
1599563199.53375,0.0,10,0.5,0.5,-13.989197277832034,-0.2,-0.001,-0.2505,0.006806592053454588,10,1,100,0.045694088218455636,-10,-1,-100,15032.583426191006,-0.0027412705904377517,0.002994771942132428,0.99999175835432,19.491128106373623,0.013034590977579,5.9938006454821116,-2.711228496919334,-25.0096435546875,5356.25390625,True
1599563199.5726442,0.0,10,0.5,0.5,-13.040830990600588,-0.2,-0.001,-0.2505,0.03441240120172261,10,1,100,0.029150941443002502,-10,-1,-100,15032.583426191006,-0.0027412705904377517,0.002994771942132428,0.99999175835432,19.491128106373623,0.013034590977579,5.9938006454821116,-2.711228496919334,-25.0096435546875,5356.25390625,True
1599563199.6125386,0.0,10,0.5,0.5,-14.63563645629883,-0.2,-0.001,-0.2505,0.0033462023943398797,10,1,100,0.04575233859300943,-10,-1,-100,15032.415456368471,-0.002890330297295263,0.0027148394936336844,0.999992137787741,19.09441639632221,0.01283583683208326,6.676628798794465,-3.0827601632341226,-21.4793701171875,5356.25390625,True
1599563199.9562635,0.0,10,0.5,0.5,-15.221797091674803,-0.2,-0.001,-0.2505,0.002466903146412021,10,1,100,0.04678612063490134,-10,-1,-100,15032.310963544063,-0.003033511815605968,0.002454844445481016,0.9999923857434181,18.754691904266792,0.012686360162999706,7.3483988687455,-3.4542929652046395,-18.2244873046875,5356.25390625,True
1599563199.992167,0.0,10,0.5,0.5,-16.971182873535156,-0.2,-0.001,-0.2505,-0.02563207062953523,10,1,100,0.06047916149866073,-10,-1,-100,15031.976001779549,-0.0032863035322380895,0.0019657590792501968,0.9999926679732888,18.109409355391957,0.01243077703248509,8.622480142995016,-4.197369046967746,-12.5413818359375,5356.25390625,True
1599563200.029069,0.0,10,0.5,0.5,-15.551778237915041,-0.2,-0.001,-0.2505,0.022974665226938046,10,1,100,0.03538726582057824,-10,-1,-100,15031.976001779549,-0.0032863035322380895,0.0019657590792501968,0.9999926679732888,18.109409355391957,0.01243077703248509,8.622480142995016,-4.197369046967746,-12.5413818359375,5356.25390625,True
1599563200.0849636,0.0,10,0.5,0.5,-17.619037481689457,-0.2,-0.001,-0.2505,-0.02382357997616755,10,1,100,0.06195087731711917,-10,-1,-100,15031.639087864198,-0.0035264256042866677,0.001542625763946209,0.9999925922866678,17.54004180821702,0.012221523218936747,9.830609289981657,-4.940472926221814,-7.960174560546875,5356.25390625,True
1599563200.124855,0.0,10,0.5,0.5,-16.47532854614258,-0.2,-0.001,-0.2505,0.01819385770303389,10,1,100,0.03811286589066354,-10,-1,-100,15031.639087864198,-0.0035264256042866677,0.001542625763946209,0.9999925922866678,17.54004180821702,0.012221523218936747,9.830609289981657,-4.940472926221814,-7.960174560546875,5356.25390625,True
1599563200.163709,0.0,10,0.5,0.5,-17.324412301635743,-0.2,-0.001,-0.2505,-0.0036984027665581017,10,1,100,0.04957207584432093,-10,-1,-100,15031.409595820005,-0.003629219444799399,0.001346019826643463,0.9999925084703625,17.32728346771206,0.012151085130503407,10.44214616837193,-5.312038524293609,-6.08294677734375,5356.25390625,True
1599563200.2016075,0.0,10,0.5,0.5,-18.176081204223635,-0.2,-0.001,-0.2505,-0.02004897203825689,10,1,100,0.0643124098764478,-10,-1,-100,15030.948659567744,-0.0038555536538205544,0.0010206674853027824,0.9999920464403238,17.008514684057396,0.012037532668149383,11.685031936748683,-6.055199036499108,-3.154571533203125,5356.25390625,True
1599563200.2405035,0.0,10,0.5,0.5,-17.697326971435547,-0.2,-0.001,-0.2505,0.004570146472398158,10,1,100,0.04815086866827438,-10,-1,-100,15030.803152757348,-0.00391322338712532,0.0009507511501864049,0.9999918913446114,16.955618285212285,0.012017441604292807,12.006393228214282,-6.240994831492701,-2.59466552734375,5356.25390625,True
1599563200.2744248,0.0,10,0.5,0.5,-17.970753466796875,-0.2,-0.001,-0.2505,-0.0024998598929354566,10,1,100,0.05528642435264193,-10,-1,-100,15030.573661538889,-0.004029453693808732,0.000824776261115707,0.9999915415877519,16.885537901582442,0.011990637654862578,12.669304331634509,-6.612592620754388,-1.681365966796875,5356.25390625,True
1599563200.3153174,0.0,10,0.5,0.5,-18.03162773742676,-0.2,-0.001,-0.2505,-0.0022194631133337257,10,1,100,0.056294462244468366,-10,-1,-100,15030.27971748123,-0.0041431105142617376,0.0007147754196669217,0.9999911618266264,16.865756890638192,0.011985787968036628,13.366285702776095,-6.9841975272540955,-1.0435791015625,5356.25390625,True
1599563200.3542106,0.0,10,0.5,0.5,-17.87390570678711,-0.2,-0.001,-0.2505,0.008580614624148128,10,1,100,0.045054058220864494,-10,-1,-100,15030.27971748123,-0.0041431105142617376,0.0007147754196669217,0.9999911618266264,16.865756890638192,0.011985787968036628,13.366285702776095,-6.9841975272540955,-1.0435791015625,5356.25390625,True
1599563200.395102,0.0,10,0.5,0.5,-18.073982379150394,-0.2,-0.001,-0.2505,-0.005660441994807839,10,1,100,0.06450767284915528,-10,-1,-100,15029.83928869164,-0.004318952830247421,0.0005868931495180621,0.9999905010563256,16.93545721645068,0.012031417815249919,14.493910701821767,-7.541614834088351,-0.603271484375,5356.25390625,True
1599563200.433998,0.0,10,0.5,0.5,-17.968962338256837,-0.2,-0.001,-0.2505,0.003432936633099698,10,1,100,0.05362369643415099,-10,-1,-100,15029.69182914903,-0.004378925468917995,0.0005545571332089238,0.9999902586916153,16.985622544029653,0.01206333979383705,14.895431239278675,-7.727422577729448,-0.594207763671875,5356.25390625,True
1599563200.4768834,0.0,10,0.5,0.5,-17.674019482421876,-0.2,-0.001,-0.2505,-0.002758692806010701,10,1,100,0.0739092894253128,-10,-1,-100,15029.043394512497,-0.004616867238595734,0.0004701561252505593,0.9999892316870813,17.320538401362935,0.012292466816628551,16.652118625375056,-8.470658709441322,-1.24652099609375,5356.25390625,True
1599563200.5157804,0.0,10,0.5,0.5,-17.838095312500002,-0.2,-0.001,-0.2505,0.005574161025956188,10,1,100,0.050224156620969865,-10,-1,-100,15029.043394512497,-0.004616867238595734,0.0004701561252505593,0.9999892316870813,17.320538401362935,0.012292466816628551,16.652118625375056,-8.470658709441322,-1.24652099609375,5356.25390625,True
1599563200.5566702,0.0,10,0.5,0.5,-17.50571728515625,-0.2,-0.001,-0.2505,0.0037883930341611333,10,1,100,0.06329238221332759,-10,-1,-100,15028.685973608634,-0.004734677978858705,0.00045489684317850937,0.9999886878826671,17.56619309483801,0.012477014142040522,17.630384222828972,-8.842277619045703,-1.985809326171875,5356.25390625,True
1599563200.5981429,0.0,10,0.5,0.5,-16.959201232910157,-0.2,-0.001,-0.2505,0.007991960598031221,10,1,100,0.07144782149130571,-10,-1,-100,15028.120545752929,-0.00491491404659388,0.000480049130951342,0.9999878065120327,18.026386783991693,0.01285603228882633,19.234858970654308,-9.39970347920408,-3.610931396484375,5356.25390625,True
1599563200.6390338,0.0,10,0.5,0.5,-17.06017319030762,-0.2,-0.001,-0.2505,0.007199458895988818,10,1,100,0.060031663225835995,-10,-1,-100,15027.911562751164,-0.004974018705400885,0.000496201757412033,0.999987506382822,18.202721786682883,0.013012093100219734,19.807690240234226,-9.585510606755488,-4.29034423828125,5356.25390625,True
1599563200.681855,0.0,10,0.5,0.5,-15.695873388671878,-0.2,-0.001,-0.2505,0.020205530389608987,10,1,100,0.07945932883095473,-10,-1,-100,15027.135198957985,-0.005203400995891718,0.0006295362035844575,0.999986264056784,19.00748388671579,0.013797271494773547,22.290576012548954,-10.328725831955673,-7.6961669921875,5356.25390625,True
1599563200.7247412,0.0,10,0.5,0.5,-16.548430508422854,-0.2,-0.001,-0.2505,0.006852561766613404,10,1,100,0.05663849451207973,-10,-1,-100,15027.135198957985,-0.005203400995891718,0.0006295362035844575,0.999986264056784,19.00748388671579,0.013797271494773547,22.290576012548954,-10.328725831955673,-7.6961669921875,5356.25390625,True
1599563200.767626,0.0,10,0.5,0.5,-15.071431875610353,-0.2,-0.001,-0.2505,0.02410069726147175,10,1,100,0.07416387093774723,-10,-1,-100,15026.506294498686,-0.005361758699323577,0.0007864149255523357,0.9999853164398043,19.693471476981582,0.014560361635490217,24.344403674242233,-10.886115866334519,-10.9732666015625,5356.25390625,True
1599563200.810522,0.0,10,0.5,0.5,-15.337246157836915,-0.2,-0.001,-0.2505,0.01573045953956935,10,1,100,0.06366593723674518,-10,-1,-100,15026.295358716161,-0.005409176624993374,0.000852873748500489,0.9999850065949033,19.932775196066093,0.01484716783479515,25.061823554726406,-11.071907002360982,-12.2032470703125,5356.25390625,True
1599563200.8573856,0.0,10,0.5,0.5,-14.44290876159668,-0.2,-0.001,-0.2505,0.02466972139209437,10,1,100,0.06956072437773422,-10,-1,-100,15025.813914868515,-0.005504881691616048,0.0009943150765681446,0.9999843536851413,20.48476644120869,0.015513886880804868,26.622537384373775,-11.443478730926419,-14.86981201171875,5356.25390625,True
1599563200.902267,0.0,10,0.5,0.5,-13.075042922973635,-0.2,-0.001,-0.2505,0.039290308312080954,10,1,100,0.07245137046377054,-10,-1,-100,15025.123487028293,-0.00561714130185272,0.0012554127486810193,0.9999834356940246,21.32037355216349,0.01661038876592241,29.061906552609962,-12.000806061611069,-19.385711669921875,5356.25390625,True
1599563200.9441547,0.0,10,0.5,0.5,-12.693139404296875,-0.2,-0.001,-0.2505,0.035206954671426136,10,1,100,0.0678678842333024,-10,-1,-100,15024.640090052155,-0.005676618096278841,0.001454939002392743,0.9999828294323299,21.870484251757762,0.017384458107082494,30.737518752870123,-12.372333995095666,-22.740478515625,5356.25390625,True
1599563200.98704,0.0,10,0.5,0.5,-11.896014407348634,-0.2,-0.001,-0.2505,0.039439768195171684,10,1,100,0.06625421042605914,-10,-1,-100,15024.095169725479,-0.0057150547376388465,0.0016739113715491403,0.9999822679278199,22.44763729976635,0.018202680403953203,32.49901241551939,-12.743840335091093,-26.37054443359375,5356.25390625,True
1599563201.0279303,0.0,10,0.5,0.5,-11.043526770019533,-0.2,-0.001,-0.2505,0.043588867171370074,10,1,100,0.0645699224493624,-10,-1,-100,15023.613726099255,-0.005733794178397263,0.0019095880482673318,0.9999817383721593,22.982641462052808,0.018988452144967628,34.24672071420591,-13.115323772241599,-30.27593994140625,5356.25390625,True
1599563201.0728111,0.0,10,0.5,0.5,-11.092975198364257,-0.2,-0.001,-0.2505,0.03382628080539189,10,1,100,0.06293425117526202,-10,-1,-100,15023.339313211152,-0.005735215858293271,0.002033789206577417,0.9999814853288645,23.228300265367373,0.01935585768903528,35.10460859535905,-13.301056711168442,-32.33184814453125,5356.25390625,True
1599563201.1137013,0.0,10,0.5,0.5,-7.590229534912108,-0.2,-0.001,-0.2505,0.07911135797342864,10,1,100,0.05615155377930561,-10,-1,-100,15022.250448423787,-0.005674155411732863,0.0025569840634331324,0.9999806327088854,24.002629200172418,0.020514581483486092,38.30812102202388,-14.043933497395468,-41.244049072265625,5356.25390625,True
1599563201.1536334,0.0,10,0.5,0.5,-7.625833227539063,-0.2,-0.001,-0.2505,0.05746586303147935,10,1,100,0.05488822664622834,-10,-1,-100,15021.643027708866,-0.005606733164181026,0.0028340862994116543,0.9999802660543222,24.225132021597968,0.020819611496533635,39.68955807613775,-14.415343570341348,-46.113189697265625,5356.25390625,True
1599563201.195483,0.0,10,0.5,0.5,-6.523976190185547,-0.2,-0.001,-0.2505,0.05915753861026039,10,1,100,0.05001471028585841,-10,-1,-100,15021.037559502875,-0.005500768852068456,0.00309937215547575,0.9999800675184872,24.306175094175625,0.020883397661935463,40.85231426247572,-14.786741690940104,-51.25799560546875,5356.25390625,True
1599563201.2374036,0.0,10,0.5,0.5,-5.366936807250976,-0.2,-0.001,-0.2505,0.06271254633244305,10,1,100,0.046626252280471334,-10,-1,-100,15020.491661914857,-0.005373507122687379,0.0033707566791630213,0.9999798815079293,24.2222071815717,0.02068113536882316,41.737882075047864,-15.158134478551649,-56.67816162109375,5356.25390625,True
1599563201.2841196,0.0,10,0.5,0.5,-4.154296398925782,-0.2,-0.001,-0.2505,0.06432095827682491,10,1,100,0.042010446088502226,-10,-1,-100,15019.822716642171,-0.005215885193779686,0.0036298028247997737,0.9999798093327177,23.968241273977167,0.02022197161494284,42.31653524046423,-15.529529547185167,-62.373931884765625,5356.25390625,True
1599563201.3260074,0.0,10,0.5,0.5,-2.886232220458985,-0.2,-0.001,-0.2505,0.06562619947170409,10,1,100,0.037384795192971734,-10,-1,-100,15019.215294551337,-0.005030803883447721,0.0038747692519246033,0.99997983838452,23.591532219397738,0.01957816962106719,42.652136122086446,-15.900933016129,-68.34530639648438,5356.25390625,True
1599563201.3688931,0.0,10,0.5,0.5,-1.5628878967285156,-0.2,-0.001,-0.2505,0.06655642555746084,10,1,100,0.032890191394646925,-10,-1,-100,15018.542442510137,-0.004822221146268804,0.0041035413714511065,0.9999799533647808,23.02591710171127,0.01874946127181392,42.60667707556247,-16.27235099129127,-74.59231567382812,5356.25390625,True
1599563201.4127758,0.0,10,0.5,0.5,-0.18412739562988278,-0.2,-0.001,-0.2505,0.06685991976675329,10,1,100,0.028474137063764348,-10,-1,-100,15017.931114226812,-0.004593231252143593,0.004311867243496897,0.9999801548168538,22.22547244996885,0.017775209210368435,42.06918323503043,-16.643788145765754,-81.11495971679688,5356.25390625,True
1599563201.7681339,0.0,10,0.5,0.5,-0.29678466796875,-0.2,-0.001,-0.2505,0.056764943358536706,10,1,100,0.03797988427245799,-10,-1,-100,15017.59712870547,-0.004472494344368339,0.004407083745398421,0.9999802870092993,21.73443923023628,0.01725837125817489,41.60129858760407,-16.829514693370804,-84.47964477539062,5356.25390625,True
1599563201.8040764,0.0,10,0.5,0.5,3.547779459381103,-0.2,-0.001,-0.2505,0.07482370778059354,10,1,100,0.0078033586716287975,-10,-1,-100,15016.529745232547,-0.004089548104414233,0.0046555443366938405,0.9999808005673063,20.297488211193603,0.016019357308094784,40.14454689473757,-17.386718676855015,-94.8725357055664,5356.25390625,True
1599563201.8409407,0.0,10,0.5,0.5,0.9506143501281739,-0.2,-0.001,-0.2505,0.050239824164063224,10,1,100,0.045933415891651536,-10,-1,-100,15016.529745232547,-0.004089548104414233,0.0046555443366938405,0.9999808005673063,20.297488211193603,0.016019357308094784,40.14454689473757,-17.386718676855015,-94.8725357055664,5356.25390625,True
1599563201.8958354,0.0,10,0.5,0.5,4.129099272918701,-0.2,-0.001,-0.2505,0.06542265819242844,10,1,100,0.01583185849503413,-10,-1,-100,15015.858845885494,-0.003817338134724364,0.004791662318521469,0.9999812337748096,21.80345284989449,0.01740383202497546,44.049826030092795,-17.75816458763909,-101.91609191894531,5356.25390625,True
1599563201.95169,0.0,10,0.5,0.5,5.498355241394043,-0.2,-0.001,-0.2505,0.06346079114784653,10,1,100,0.013813998226912913,-10,-1,-100,15015.124469494913,-0.0035531570644137967,0.004895791168851196,0.9999817029844631,23.120593497837216,0.018807876851880113,47.693745198006376,-18.129568012326143,-108.85968017578125,5356.25390625,True
1599563201.9945707,0.0,10,0.5,0.5,6.7844974899292,-0.2,-0.001,-0.2505,0.06224043078736647,10,1,100,0.008659519093521282,-10,-1,-100,15014.391069577425,-0.0032679041099984976,0.004977726466770788,0.9999822713638227,24.149474256558328,0.020063925230297153,50.842826411859136,-18.500928238881077,-115.56278991699219,5356.25390625,True
1599563202.0354614,0.0,10,0.5,0.5,9.415354969787598,-0.2,-0.001,-0.2505,0.06225024001806584,10,1,100,-0.00722429942983082,-10,-1,-100,15013.258254224318,-0.0028660990766929237,0.005050841394442586,0.9999831370964666,25.301063650806263,0.021587488220957886,54.88089260305393,-19.057897403847413,-125.11683654785156,5356.25390625,True
1599563202.0750387,0.0,10,0.5,0.5,9.743143382263183,-0.2,-0.001,-0.2505,0.05725121696903816,10,1,100,0.003966273070680971,-10,-1,-100,15012.462354014744,-0.002604690420162588,0.005070571993180657,0.9999837523117447,25.827234809352895,0.02227022011686886,57.12048371771492,-19.429172761441514,-131.14303588867188,5356.25390625,True
1599563202.114932,0.0,10,0.5,0.5,12.079338858032227,-0.2,-0.001,-0.2505,0.0547423819882136,10,1,100,-0.010082962985511805,-10,-1,-100,15011.266063322313,-0.002241531416863517,0.0050646142169884474,0.9999846624922505,26.241733088404807,0.0226863622644502,59.71155618522108,-19.98605279572491,-139.66574096679688,5356.25390625,True
1599563202.1538646,0.0,10,0.5,0.5,9.950908578491212,-0.2,-0.001,-0.2505,0.055434266891988285,10,1,100,0.02597486837145478,-10,-1,-100,15011.266063322313,-0.002241531416863517,0.0050646142169884474,0.9999846624922505,26.241733088404807,0.0226863622644502,59.71155618522108,-19.98605279572491,-139.66574096679688,5356.25390625,True
1599563202.1942177,0.0,10,0.5,0.5,12.361201545715332,-0.2,-0.001,-0.2505,0.05247075995984343,10,1,100,0.000986048078488521,-10,-1,-100,15010.468209918123,-0.00201649823223226,0.005036988929447593,0.9999852811303795,26.329086050220152,0.022605023452618046,61.03076092804328,-20.357295262732148,-145.0030059814453,5356.25390625,True
1599563202.2361083,0.0,10,0.5,0.5,15.466535025024415,-0.2,-0.001,-0.2505,0.044435705792842,10,1,100,-0.019962396140957933,-10,-1,-100,15008.81390982971,-0.0016237149315835463,0.004938256443634031,0.9999864884952786,26.075880399039534,0.02171035007680229,62.66469141232459,-21.099782629399463,-154.85043334960938,5356.25390625,True
1599563202.2770326,0.0,10,0.5,0.5,15.037525406646731,-0.2,-0.001,-0.2505,0.04741696030661169,10,1,100,0.0007616302196259694,-10,-1,-100,15007.955510178115,-0.001457281109883506,0.004875344941104208,0.9999870535879313,25.786892040323675,0.021025066756399997,63.06920929358245,-21.471036367102386,-159.3604736328125,5356.25390625,True
1599563202.3148959,0.0,10,0.5,0.5,15.821698809814455,-0.2,-0.001,-0.2505,0.04640006787074637,10,1,100,0.0007502171416099573,-10,-1,-100,15007.094180287211,-0.0013082668503510793,0.004808708370656129,0.9999875823037275,25.422230328061683,0.020270746555509995,63.26140811509334,-21.842299589628375,-163.59463500976562,5356.25390625,True
1599563202.3537927,0.0,10,0.5,0.5,14.767209239196779,-0.2,-0.001,-0.2505,0.0530654295207677,10,1,100,0.015400735966415315,-10,-1,-100,15007.094180287211,-0.0013082668503510793,0.004808708370656129,0.9999875823037275,25.422230328061683,0.020270746555509995,63.26140811509334,-21.842299589628375,-163.59463500976562,5356.25390625,True
1599563202.3946826,0.0,10,0.5,0.5,16.555971476745604,-0.2,-0.001,-0.2505,0.04409083091256284,10,1,100,0.0008616910485087607,-10,-1,-100,15006.171327052987,-0.0011781345240192585,0.004727200276761717,0.999988132717877,25.0037648031979,0.019507503135052954,63.2869373537385,-22.213572792257892,-167.5531005859375,5356.25390625,True
1599563202.4336233,0.0,10,0.5,0.5,18.763336393737795,-0.2,-0.001,-0.2505,0.03304238682278126,10,1,100,-0.008219408656408321,-10,-1,-100,15004.390074825962,-0.0009791767478419745,0.004552889359850609,0.9999891561468921,24.081590386492024,0.018139944064715925,63.009528603540254,-22.956145946379742,-174.64247131347656,5356.25390625,True
1599563202.467532,0.0,10,0.5,0.5,16.99240158996582,-0.2,-0.001,-0.2505,0.050423683310432885,10,1,100,0.011487676728434978,-10,-1,-100,15004.390074825962,-0.0009791767478419745,0.004552889359850609,0.9999891561468921,24.081590386492024,0.018139944064715925,63.009528603540254,-22.956145946379742,-174.64247131347656,5356.25390625,True
1599563202.5114155,0.0,10,0.5,0.5,19.06583721160889,-0.2,-0.001,-0.2505,0.03551829441709696,10,1,100,9.7129815254152e-05,-10,-1,-100,15003.006282846909,-0.0008771040610606221,0.0044178564450324,0.9999898565650038,23.379619931681876,0.017372968741176196,62.67169732448089,-23.513092171344447,-179.23533630371094,5356.25390625,True
1599563202.5513103,0.0,10,0.5,0.5,17.91928149108887,-0.2,-0.001,-0.2505,0.048956910121722194,10,1,100,0.010167955757809103,-10,-1,-100,15003.006282846909,-0.0008771040610606221,0.0044178564450324,0.9999898565650038,23.379619931681876,0.017372968741176196,62.67169732448089,-23.513092171344447,-179.23533630371094,5356.25390625,True
1599563202.5902064,0.0,10,0.5,0.5,-143.0326589569092,-0.2,-0.001,-0.2505,0.03796260543628422,10,1,100,0.005749261154205944,-10,-1,-100,15002.021906867856,-0.0008381744986240506,0.004318496182230197,0.9999903239803043,22.94917738583353,0.01702713276869553,62.4992450398885,-23.88439351746613,178.04745483398438,5356.25390625,True
1599563202.6310956,0.0,10,0.5,0.5,-51.962492086792,-0.2,-0.001,-0.2505,0.03186842368364628,10,1,100,0.006222584229916773,-10,-1,-100,15000.57464002457,-0.0008081581277641824,0.004173420193519865,0.9999909646813459,23.840854926838585,0.017839352456310482,66.45767173578898,-24.44131414595118,174.4888916015625,5356.25390625,True
1599563202.6709883,0.0,10,0.5,0.5,-51.436544892883305,-0.2,-0.001,-0.2505,0.029937959374106933,10,1,100,0.010520431657995682,-10,-1,-100,14999.063895681873,-0.0008206832734230371,0.004024678561196582,0.9999915641851405,24.590655254674115,0.018738521080297107,70.12683008429147,-24.9981875897335,171.2695770263672,5356.25390625,True
1599563202.7118785,0.0,10,0.5,0.5,-51.74942258758545,-0.2,-0.001,-0.2505,0.039275348639157825,10,1,100,0.010512191108141153,-10,-1,-100,14998.60100538528,-0.000832573580692828,0.003975117585475794,0.9999917525966974,24.835638130443453,0.019074148799409826,71.35724441253964,-25.18380138228087,170.10060119628906,5356.25390625,True
1599563202.7527692,0.0,10,0.5,0.5,-50.93309959869385,-0.2,-0.001,-0.2505,0.03318897511625039,10,1,100,0.013322108651112387,-10,-1,-100,14997.554129528697,-0.0008693601043011566,0.0038754892944169923,0.9999921123667616,25.33545101844628,0.01981394785883752,73.87852724204545,-25.555012098585372,167.56448364257812,5356.25390625,True
1599563202.79366,0.0,10,0.5,0.5,-50.98427516479492,-0.2,-0.001,-0.2505,0.03754451382847458,10,1,100,0.01231535809875127,-10,-1,-100,14997.030690717977,-0.0008940491268745814,0.0038253623081803373,0.9999922836099137,25.618366742737322,0.02024024576014572,75.2523133352523,-25.740608071042413,166.19436645507812,5356.25390625,True
1599563202.8365457,0.0,10,0.5,0.5,-48.58218747100831,-0.2,-0.001,-0.2505,0.020765173279378338,10,1,100,0.02549407737621813,-10,-1,-100,14994.934009404038,-0.0010365584911884343,0.003628072713853941,0.9999928812921007,26.780218207624298,0.02215667221875741,80.96069261812033,-26.482923336463422,160.02638244628906,5356.25390625,True
1599563202.878434,0.0,10,0.5,0.5,-50.16073435058594,-0.2,-0.001,-0.2505,0.040401651047418316,10,1,100,0.011248879119167492,-10,-1,-100,14994.934009404038,-0.0010365584911884343,0.003628072713853941,0.9999928812921007,26.780218207624298,0.02215667221875741,80.96069261812033,-26.482923336463422,160.02638244628906,5356.25390625,True
1599563202.916883,0.0,10,0.5,0.5,-46.91920866699219,-0.2,-0.001,-0.2505,0.018536767303965907,10,1,100,0.03401241698720436,-10,-1,-100,14992.774828770082,-0.0012434475793129999,0.0034301417858643704,0.9999933439605718,27.9521415878171,0.02427928064323496,86.90057786664708,-27.225120978652356,152.75669860839844,5356.25390625,True
1599563202.9557786,0.0,10,0.5,0.5,-46.949913417053224,-0.2,-0.001,-0.2505,0.028266925202153827,10,1,100,0.027763809097688642,-10,-1,-100,14991.661547131836,-0.0013743900026867782,0.0033395584819111675,0.9999934791793726,28.513103363171265,0.025321222391913194,89.86740736987653,-27.596173398627382,148.7088623046875,5356.25390625,True
1599563202.994676,0.0,10,0.5,0.5,-47.99669083099366,-0.2,-0.001,-0.2505,0.03721742580116199,10,1,100,0.01471929535447343,-10,-1,-100,14991.661547131836,-0.0013743900026867782,0.0033395584819111675,0.9999934791793726,28.513103363171265,0.025321222391913194,89.86740736987653,-27.596173398627382,148.7088623046875,5356.25390625,True
1599563203.0395544,0.0,10,0.5,0.5,-43.974383543396,-0.2,-0.001,-0.2505,0.015315960242398983,10,1,100,0.0486303721360578,-10,-1,-100,14989.43986706878,-0.0016821850502429427,0.003141344192922703,0.999993651084905,29.429729653623138,0.02701457729754222,95.28141688268197,-28.33819245756162,139.78683471679688,5356.25390625,True
1599563203.0784173,0.0,10,0.5,0.5,-46.20588124847412,-0.2,-0.001,-0.2505,0.035034181541185726,10,1,100,0.017938270072689225,-10,-1,-100,14989.43986706878,-0.0016821850502429427,0.003141344192922703,0.999993651084905,29.429729653623138,0.02701457729754222,95.28141688268197,-28.33819245756162,139.78683471679688,5356.25390625,True
1599563203.1173134,0.0,10,0.5,0.5,-41.68735998077393,-0.2,-0.001,-0.2505,0.013985574358091134,10,1,100,0.059759427639874706,-10,-1,-100,14987.155687769759,-0.002061594208329338,0.002950796249774819,0.9999935212944194,29.929085943212577,0.027759778356941277,99.46732054246661,-29.080124009854046,129.76380920410156,5356.25390625,True
1599563203.161197,0.0,10,0.5,0.5,-41.75052901458741,-0.2,-0.001,-0.2505,0.02391412903503564,10,1,100,0.04546019385908441,-10,-1,-100,14985.979907391826,-0.0022754012989210253,0.002868761636099603,0.9999932963553326,29.9652187209877,0.027652762486481155,100.87438160214936,-29.451072350991772,124.33969116210938,5356.25390625,True
1599563203.204497,0.0,10,0.5,0.5,-41.836617652893075,-0.2,-0.001,-0.2505,0.026498380658999517,10,1,100,0.03725633237304805,-10,-1,-100,14985.39299436973,-0.0023939126030453014,0.002818593118120276,0.9999931623342649,29.919828175338008,0.02747061249964629,101.36437667804176,-29.636545699838774,121.52430725097656,5356.25390625,True
1599563203.5540652,0.0,10,0.5,0.5,-41.238106114196775,-0.2,-0.001,-0.2505,0.026151296592323174,10,1,100,0.03916146712167473,-10,-1,-100,14984.806079760543,-0.0025176060468038216,0.0027707453095238846,0.9999929922905575,29.8282525134225,0.02720465731288485,101.69518041157,-29.82201996435522,118.64018249511719,5356.25390625,True
1599563203.590238,0.0,10,0.5,0.5,-39.26497545928955,-0.2,-0.001,-0.2505,0.021527963943023174,10,1,100,0.05539642834540064,-10,-1,-100,14983.569752936717,-0.002776298781749425,0.002685996393446556,0.9999925387663895,29.496177616923614,0.02644144129562723,101.83158800355295,-30.192975317209847,112.66578674316406,5356.25390625,True
1599563203.6281397,0.0,10,0.5,0.5,-37.94148924713135,-0.2,-0.001,-0.2505,0.020987680914059517,10,1,100,0.06031101719903167,-10,-1,-100,14982.331473095692,-0.003054570493741564,0.002604896693404231,0.9999919420236922,28.948793692754148,0.02542627650207525,101.18794377779302,-30.563946991014426,106.41642761230469,5356.25390625,True
1599563203.6849828,0.0,10,0.5,0.5,-36.56313988800049,-0.2,-0.001,-0.2505,0.020796375483036922,10,1,100,0.0656894298660732,-10,-1,-100,14981.094170410652,-0.0033547929626034966,0.0025301807758950573,0.9999911717357404,28.16861667126601,0.02425356358540196,99.6745950755673,-30.934942476735387,99.89216613769531,5356.25390625,True
1599563203.73983,0.0,10,0.5,0.5,-33.551691941833504,-0.2,-0.001,-0.2505,0.01766341809196694,10,1,100,0.09060976439973953,-10,-1,-100,14979.27093300689,-0.003852470609184114,0.0024345115816097325,0.999989615757866,26.53366276216625,0.022441697590275235,95.60609724020078,-31.49149122797165,89.59051513671875,5356.25390625,True
1599563203.7786982,0.0,10,0.5,0.5,-32.87771322784424,-0.2,-0.001,-0.2505,0.021855480118724426,10,1,100,0.08092807369422902,-10,-1,-100,14977.970155303366,-0.004214636662746855,0.002386472011502961,0.9999882707257817,26.621120960053254,0.022599826885457346,97.0704592923246,-31.862542265411356,82.37934875488281,5356.25390625,True
1599563203.817216,0.0,10,0.5,0.5,-31.306033178710944,-0.2,-0.001,-0.2505,0.023200530338960114,10,1,100,0.08859969235194297,-10,-1,-100,14976.670355158742,-0.004611318288680833,0.002355713651754784,0.999986593088543,28.168827824885067,0.024295510761517602,103.93035060490853,-32.23353663727611,74.89358520507812,5356.25390625,True
1599563203.8571105,0.0,10,0.5,0.5,-33.17472762298584,-0.2,-0.001,-0.2505,0.02619780325966103,10,1,100,0.04922444308238891,-10,-1,-100,14976.670355158742,-0.004611318288680833,0.002355713651754784,0.999986593088543,28.168827824885067,0.024295510761517602,103.93035060490853,-32.23353663727611,74.89358520507812,5356.25390625,True
1599563203.8989627,0.0,10,0.5,0.5,-26.053621421813965,-0.2,-0.001,-0.2505,0.02670923690538285,10,1,100,0.14487036355160438,-10,-1,-100,14974.070757359383,-0.005478508725600654,0.0023609040327140915,0.9999822058788306,30.593120505360503,0.027582891187049995,115.51684722960746,-32.97534857549016,59.09864807128906,5356.25390625,True
1599563203.9388938,0.0,10,0.5,0.5,-26.260494488525392,-0.2,-0.001,-0.2505,0.030062233622862443,10,1,100,0.10889730067968022,-10,-1,-100,14972.769983247854,-0.005936923908122381,0.0023965660379299905,0.9999795044928346,31.48264274981407,0.02885168397667381,120.23476973687083,-33.34617679371151,50.789581298828125,5356.25390625,True
1599563203.97679,0.0,10,0.5,0.5,-28.334842242431645,-0.2,-0.001,-0.2505,0.02645383039325351,10,1,100,0.06341008355801521,-10,-1,-100,14972.769983247854,-0.005936923908122381,0.0023965660379299905,0.9999795044928346,31.48264274981407,0.02885168397667381,120.23476973687083,-33.34617679371151,50.789581298828125,5356.25390625,True
1599563204.0182805,0.0,10,0.5,0.5,-24.46151527404785,-0.2,-0.001,-0.2505,0.03670793262548943,10,1,100,0.11954530790939155,-10,-1,-100,14971.407687339,-0.006444135658715513,0.0024901253121063114,0.9999761359110235,32.06514680695783,0.029565589478579454,123.84392470460818,-33.71696872302923,42.20680236816406,5356.25390625,True
1599563204.0571477,0.0,10,0.5,0.5,-22.614400039672855,-0.2,-0.001,-0.2505,0.04052841466600929,10,1,100,0.1249372912184169,-10,-1,-100,14970.046368655981,-0.006950920883084985,0.0026100889172543658,0.999972435687465,32.24409751598579,0.029551338602126567,125.9280854172224,-34.08774476958118,33.349853515625,5356.25390625,True
1599563204.0970762,0.0,10,0.5,0.5,-18.609366377258304,-0.2,-0.001,-0.2505,0.05636717815372268,10,1,100,0.1608693294469389,-10,-1,-100,14967.969236533856,-0.007734747479689847,0.002863130778891946,0.9999659875033592,31.67056965911259,0.028222277647093178,125.743240972306,-34.643928114458745,19.550979614257812,5356.25390625,True
1599563204.1359692,0.0,10,0.5,0.5,-15.564270658874515,-0.2,-0.001,-0.2505,0.07201093046036575,10,1,100,0.16956490394352763,-10,-1,-100,14965.892108827713,-0.008522386013374995,0.003235082083165595,0.9999584507271061,30.014447661516105,0.025917877167266387,121.11957546905093,-35.20019360315583,5.1365966796875,5356.25390625,True
1599563204.1758738,0.0,10,0.5,0.5,-14.683556521606448,-0.2,-0.001,-0.2505,0.07045414342411549,10,1,100,0.14697566125405745,-10,-1,-100,14964.467318604584,-0.009028818914635228,0.003558339231719768,0.9999529082166414,28.32392803204693,0.024321788946110232,115.52745166440506,-35.571101606332256,-4.814727783203125,5356.25390625,True
1599563204.217945,0.0,10,0.5,0.5,-17.16764389190674,-0.2,-0.001,-0.2505,0.03824561529071985,10,1,100,0.09681378935322305,-10,-1,-100,14964.467318604584,-0.009028818914635228,0.003558339231719768,0.9999529082166414,28.32392803204693,0.024321788946110232,115.52745166440506,-35.571101606332256,-4.814727783203125,5356.25390625,True
1599563204.2588017,0.0,10,0.5,0.5,-12.55343154449463,-0.2,-0.001,-0.2505,0.07998564630986055,10,1,100,0.14967400566183775,-10,-1,-100,14963.040576457977,-0.009505350425962676,0.0039367007631847155,0.999947073949607,30.111054162451065,0.02623351129735264,124.12473350668407,-35.94197347762651,-15.039459228515625,5356.25390625,True
1599563204.3810017,0.0,10,0.5,0.5,-7.965305717468263,-0.2,-0.001,-0.2505,0.11375068509301335,10,1,100,0.17515526567057382,-10,-1,-100,14960.837475354783,-0.010165759588942246,0.004586183428807484,0.9999378101929826,32.496007019301956,0.029434182981985857,136.07261388246002,-36.498129153808065,-30.88946533203125,5356.25390625,True
1599563204.4268792,0.0,10,0.5,0.5,0.5900670104980472,-0.2,-0.001,-0.2505,0.18753235640090288,10,1,100,0.2023311670511277,-10,-1,-100,14957.150018326472,-0.011008924067052943,0.005845341700903457,0.9999223147681452,33.88729256106693,0.03144903858613095,145.57514475270892,-37.42478508417786,-58.6737060546875,5356.25390625,True
1599563204.4827294,0.0,10,0.5,0.5,-1.1364082763671877,-0.2,-0.001,-0.2505,0.11896544242000233,10,1,100,0.1425130005466726,-10,-1,-100,14955.597299197805,-0.011227024806059503,0.00636356020692527,0.9999167260404723,33.290247006601376,0.030429314309745454,144.4570219083449,-37.79544220866781,-70.26644897460938,5356.25390625,True
1599563204.5575314,0.0,10,0.5,0.5,1.217150360107422,-0.2,-0.001,-0.2505,0.1202216802268915,10,1,100,0.13621253766992847,-10,-1,-100,14954.107077636989,-0.011363212087278758,0.006842481925035915,0.9999120250562873,31.956221987753004,0.02864753350787795,140.0593685524299,-38.16614937294688,-81.9100341796875,5356.25390625,True
1599563204.6193645,0.0,10,0.5,0.5,3.600575326538086,-0.2,-0.001,-0.2505,0.12482921119017637,10,1,100,0.13363856772315028,-10,-1,-100,14952.556307246676,-0.011459147092117768,0.007315795262427337,0.9999075792730044,29.984129535830625,0.02664371815310474,132.72329820979445,-38.536925697839436,-93.64750671386719,5356.25390625,True
1599563204.729073,0.0,10,0.5,0.5,3.3200144042968747,-0.2,-0.001,-0.2505,0.10181870524181146,10,1,100,0.12693331098948107,-10,-1,-100,14951.780920543824,-0.011481305466020754,0.0075326157820297,0.999905715217328,29.73862103719805,0.026533817838653533,132.28529523070594,-38.72232512345968,-99.52314758300781,5356.25390625,True
