Timestamp,Input Throttle,horizon,dT,dt,Input Roll,Roll P,Roll I,Roll D,Input Pitch,Pitch P,Pitch I,Pitch D,Input Yaw,Yaw P,Yaw I,Yaw D,Altitude,Direction X,Direction Y,Direction Z,Drag X,Drag Y,Drag Z,Vertical Velocity,Roll,Mass,Has Fuel
1599560869.0544467,0.0,10,0.5,0.5,-5.8499746322631845,-0.1005,-0.00825,-0.12575,-0.0005136118787259275,10,1,100,0.1711649736963039,-10,-1,-100,14993.513461275958,-0.016777432197820047,-7.608894311247402e-05,0.9998592460838278,28.717129372096814,0.027109102092693457,-88.32792423339835,27.194949646214596,-31.792022705078125,5356.25390625,True
1599560869.079382,0.0,10,0.5,0.5,-5.898054486846924,-0.1005,-0.00825,-0.12575,-0.0005259990195562254,10,1,100,0.1732740831559868,-10,-1,-100,14994.046665787813,-0.016812177815620086,-7.388440396811254e-05,0.999858662620968,28.644437151121082,0.02727499970721172,-87.50343510980134,27.008978062205333,-31.79144287109375,5356.25390625,True
1599560869.1132934,0.0,10,0.5,0.5,-5.946141724395753,-0.1005,-0.00825,-0.12575,-0.00048674170431593333,10,1,100,0.1754113241133688,-10,-1,-100,14994.584753207746,-0.016847910406127577,-7.145622514926481e-05,0.9998580613311845,28.57176872279785,0.027439390988974854,-86.68206887195679,26.823010394593062,-31.79083251953125,5356.25390625,True
1599560869.170141,0.0,10,0.5,0.5,-5.98511845779419,-0.1005,-0.00825,-0.12575,0.003388892091180578,10,1,100,0.17954359154883975,-10,-1,-100,14995.648232689477,-0.016902644364724006,-3.3950795150208344e-05,0.999857139525854,28.42659320113875,0.027763723561211647,-85.04896753272817,26.451087268796844,-31.830474853515625,5356.25390625,True
1599560869.2140248,0.0,10,0.5,0.5,-5.9271709075927745,-0.1005,-0.00825,-0.12575,0.012902008813726062,10,1,100,0.18115327301379247,-10,-1,-100,14997.24784494657,-0.016951669936434217,8.665879395857484e-05,0.9998563063643792,28.233237390647083,0.028256194790362416,-82.69362886937175,25.893230855723548,-32.32073974609375,5356.25390625,True
1599560869.2439432,0.0,10,0.5,0.5,-5.969080332946778,-0.1005,-0.00825,-0.12575,0.007467723498446835,10,1,100,0.17843050645209146,-10,-1,-100,14997.718548257137,-0.016956075605667642,0.00014682250046951334,0.9998562246359265,28.17877585807415,0.02842256678030514,-81.94296339511915,25.707285797921358,-32.618316650390625,5356.25390625,True
1599560869.2738698,0.0,10,0.5,0.5,-5.872705187225343,-0.1005,-0.00825,-0.12575,0.018863844631462786,10,1,100,0.1780208372669221,-10,-1,-100,14998.72636041278,-0.016940941880009518,0.00030498440532463015,0.9998564454324084,28.084441983100113,0.028753478157483876,-80.49026862537562,25.335405637203728,-33.418914794921875,5356.25390625,True
1599560869.3048515,0.0,10,0.5,0.5,-5.77678995513916,-0.1005,-0.00825,-0.12575,0.026064688495110115,10,1,100,0.17598564006036072,-10,-1,-100,14999.732217910816,-0.016893281298551565,0.0005139529135848715,0.9998571662489452,28.006955134752825,0.029073224256856666,-79.09301346370212,24.9635380686139,-34.494140625,5356.25390625,True
1599560869.3373508,0.0,10,0.5,0.5,-5.652359960937501,-0.1005,-0.00825,-0.12575,0.03362485930842949,10,1,100,0.17316250580677903,-10,-1,-100,15000.731238291482,-0.016808931111922183,0.0007721858803847354,0.9998584217597214,27.94199132955658,0.029368952812081343,-77.73703699393016,24.591682179613322,-35.8441162109375,5356.25390625,True
1599560869.37027,0.0,10,0.5,0.5,-5.8667979949951174,-0.1005,-0.00825,-0.12575,0.00787878121648158,10,1,100,0.18327841758090951,-10,-1,-100,15000.731238291482,-0.016808931111922183,0.0007721858803847354,0.9998584217597214,27.94199132955658,0.029368952812081343,-77.73703699393016,24.591682179613322,-35.8441162109375,5356.25390625,True
1599560869.4071965,0.0,10,0.5,0.5,-5.3367099060058605,-0.1005,-0.00825,-0.12575,0.05972937712165842,10,1,100,0.1624918846431772,-10,-1,-100,15002.19998075522,-0.016604681784204687,0.001242852946904175,0.9998613603192182,27.85526975652653,0.029732697671899455,-75.74232592032678,24.033919437706395,-38.384521484375,5356.25390625,True
1599560869.438144,0.0,10,0.5,0.5,-5.189831061553955,-0.1005,-0.00825,-0.12575,0.053725823361702035,10,1,100,0.16232266330144543,-10,-1,-100,15003.137474094867,-0.016417619247185416,0.0016149552987495016,0.9998639175896075,27.79407627633025,0.02989450101168163,-74.40945274259347,23.66209171409992,-40.421630859375,5356.25390625,True
1599560869.4710262,0.0,10,0.5,0.5,-5.438877660369873,-0.1005,-0.00825,-0.12575,0.016684472147441145,10,1,100,0.18098946114652906,-10,-1,-100,15003.137474094867,-0.016417619247185416,0.0016149552987495016,0.9998639175896075,27.79407627633025,0.02989450101168163,-74.40945274259347,23.66209171409992,-40.421630859375,5356.25390625,True
1599560869.5045714,0.0,10,0.5,0.5,-4.908616268157959,-0.1005,-0.00825,-0.12575,0.060353833445287525,10,1,100,0.1544216436438977,-10,-1,-100,15004.077895313385,-0.016176484807305987,0.0020104163909809244,0.9998671309555154,27.72002958966714,0.02996686173442789,-73.0477877084474,23.2902757649486,-42.733856201171875,5356.25390625,True
1599560869.5396142,0.0,10,0.5,0.5,-4.9054856254577635,-0.1005,-0.00825,-0.12575,0.04441356774515009,10,1,100,0.16334477691058236,-10,-1,-100,15004.544687708607,-0.016039051218528565,0.002223156452839031,0.9998688946113864,27.675070801919084,0.029962472438572033,-72.34852414390713,23.104372434439714,-43.993072509765625,5356.25390625,True
1599560869.5734859,0.0,10,0.5,0.5,-4.437780244445801,-0.1005,-0.00825,-0.12575,0.07345316927994776,10,1,100,0.14283712000685292,-10,-1,-100,15005.476318010245,-0.01572850800116783,0.002678610616063761,0.9998727114394235,27.562440980132088,0.029858533307016193,-70.89721660122692,22.732576202345626,-46.71759033203125,5356.25390625,True
1599560869.6056924,0.0,10,0.5,0.5,-3.727376760101319,-0.1005,-0.00825,-0.12575,0.1066958531956145,10,1,100,0.11109035958026617,-10,-1,-100,15006.822980684577,-0.015158705042965915,0.003392564447214491,0.9998793448051078,27.313486594317286,0.02942573670188382,-68.53721949691229,22.174911425662444,-51.32037353515625,5356.25390625,True
1599560869.6386085,0.0,10,0.5,0.5,-4.291408044433594,-0.1005,-0.00825,-0.12575,0.035609228084730486,10,1,100,0.1678924317167531,-10,-1,-100,15006.822980684577,-0.015158705042965915,0.003392564447214491,0.9998793448051078,27.313486594317286,0.02942573670188382,-68.53721949691229,22.174911425662444,-51.32037353515625,5356.25390625,True
1599560869.6745641,0.0,10,0.5,0.5,-3.505474514770508,-0.1005,-0.00825,-0.12575,0.09087797351739393,10,1,100,0.11854435052665574,-10,-1,-100,15007.693085234612,-0.014711663010561017,0.0038923906679354044,0.9998842014285213,27.074626138098566,0.02892834843536479,-66.8015086886338,21.803158365348825,-54.732757568359375,5356.25390625,True
1599560869.7044814,0.0,10,0.5,0.5,-3.0845913291931155,-0.1005,-0.00825,-0.12575,0.09476305597974075,10,1,100,0.10812679697257668,-10,-1,-100,15008.563188322005,-0.014212462737975265,0.004379260522987069,0.9998894078747875,26.76054781117199,0.028253155173955387,-64.90350137785171,21.43142781903442,-58.420745849609375,5356.25390625,True
1599560869.7383568,0.0,10,0.5,0.5,-3.0892303344726564,-0.1005,-0.00825,-0.12575,0.07562431083841716,10,1,100,0.12775610299838955,-10,-1,-100,15008.971384502016,-0.01393945297074465,0.004644601731165093,0.9998920538366306,26.57049067346488,0.027848696404734797,-63.885038410396035,21.24557210416902,-60.367706298828125,5356.25390625,True
1599560869.7713518,0.0,10,0.5,0.5,-1.900833197784424,-0.1005,-0.00825,-0.12575,0.13151632463650212,10,1,100,0.056474656393515926,-10,-1,-100,15010.241870947066,-0.013045672057593839,0.005390837728778377,0.9999003696914746,25.844535324991504,0.02638130378362811,-60.51297170466565,20.688049739388493,-66.62225341796875,5356.25390625,True
1599560869.8072891,0.0,10,0.5,0.5,-2.162851007843018,-0.1005,-0.00825,-0.12575,0.08392417664430472,10,1,100,0.10994846170293067,-10,-1,-100,15010.64420715347,-0.01272233486407832,0.0056331455790159055,0.9999032002481499,25.54359398161278,0.02581545260296955,-59.27253894583502,20.502225573828934,-68.84490966796875,5356.25390625,True
1599560869.8382058,0.0,10,0.5,0.5,-1.3664392402648926,-0.1005,-0.00825,-0.12575,0.1130855367696321,10,1,100,0.06596532642809658,-10,-1,-100,15011.453762615565,-0.012031904626004907,0.006114875816480029,0.9999089166343201,24.84076643100896,0.02459182818571318,-56.59968791350699,20.130605323667336,-73.49667358398438,5356.25390625,True
1599560869.87171,0.0,10,0.5,0.5,-1.3763369544982909,-0.1005,-0.00825,-0.12575,0.08902080150294354,10,1,100,0.09592493991575893,-10,-1,-100,15011.856098845717,-0.011680368695990827,0.006330310748636155,0.999911744181931,24.434782216319846,0.023944227757074336,-55.16224877926491,19.944809982365587,-75.92620849609375,5356.25390625,True
1599560869.9047637,0.0,10,0.5,0.5,0.08700138244628908,-0.1005,-0.00825,-0.12575,0.13797856563460761,10,1,100,0.005095930759187503,-10,-1,-100,15013.004513813066,-0.010539034751393322,0.0069674974933424914,0.9999201881776311,22.974262315380155,0.021927399617596884,-50.41997846238431,19.387485887954647,-83.62789916992188,5356.25390625,True
1599560869.9418263,0.0,10,0.5,0.5,-0.8510352149963379,-0.1005,-0.00825,-0.12575,0.07468877985170187,10,1,100,0.11871037789396062,-10,-1,-100,15013.004513813066,-0.010539034751393322,0.0069674974933424914,0.9999201881776311,22.974262315380155,0.021927399617596884,-50.41997846238431,19.387485887954647,-83.62789916992188,5356.25390625,True
1599560869.9717133,0.0,10,0.5,0.5,1.6829401470184329,-0.1005,-0.00825,-0.12575,0.1511553395382118,10,1,100,-0.05816093767426678,-10,-1,-100,15014.492767395452,-0.008935313401038139,0.007659398096814284,0.9999307444994479,21.728974829214096,0.020517015444680684,-45.86486888307137,18.64451336007944,-94.7099838256836,5356.25390625,True
1599560870.0056982,0.0,10,0.5,0.5,0.32516443004608153,-0.1005,-0.00825,-0.12575,0.08239196255599257,10,1,100,0.10158885819705875,-10,-1,-100,15014.492767395452,-0.008935313401038139,0.007659398096814284,0.9999307444994479,21.728974829214096,0.020517015444680684,-45.86486888307137,18.64451336007944,-94.7099838256836,5356.25390625,True
1599560870.0415998,0.0,10,0.5,0.5,1.0011367076873778,-0.1005,-0.00825,-0.12575,0.09961042013999062,10,1,100,0.053207827949809126,-10,-1,-100,15014.890221502981,-0.008500737080253618,0.007812504977188012,0.9999333488963522,22.194661127773426,0.021022402124549356,-46.38246958300496,18.458773825905105,-97.55193328857422,5356.25390625,True
1599560870.0745142,0.0,10,0.5,0.5,3.264367784690857,-0.1005,-0.00825,-0.12575,0.13567923172596486,10,1,100,-0.09234167111424944,-10,-1,-100,15016.312072137254,-0.006787682911374176,0.008276470206078258,0.9999427120598573,23.88880453294918,0.02324058403709318,-47.918778378402564,17.715781703727814,-108.99203491210938,5356.25390625,True
1599560870.105212,0.0,10,0.5,0.5,1.8658900766372681,-0.1005,-0.00825,-0.12575,0.08964589568443161,10,1,100,0.07824856876775763,-10,-1,-100,15016.312072137254,-0.006787682911374176,0.008276470206078258,0.9999427120598573,23.88880453294918,0.02324058403709318,-47.918778378402564,17.715781703727814,-108.99203491210938,5356.25390625,True
1599560870.1390884,0.0,10,0.5,0.5,2.529163932991028,-0.1005,-0.00825,-0.12575,0.09931069739055255,10,1,100,0.030358832195135743,-10,-1,-100,15016.653863352258,-0.0063580107508469045,0.008361708737518176,0.9999448272411239,24.19976032550489,0.02373560775904098,-48.03479391426382,17.530024549157886,-111.76913452148438,5356.25390625,True
1599560870.1720004,0.0,10,0.5,0.5,3.4293405366897582,-0.1005,-0.00825,-0.12575,0.10672147712243185,10,1,100,-0.019152709905776666,-10,-1,-100,15017.388227638206,-0.005523080516825846,0.008504088524427456,0.9999485867083233,24.702416153989546,0.02460632287663336,-47.995750355347646,17.15850133265575,-117.13481140136719,5356.25390625,True
1599560870.209105,0.0,10,0.5,0.5,4.496949342155457,-0.1005,-0.00825,-0.12575,0.10562844214450097,10,1,100,-0.0795871869188512,-10,-1,-100,15018.400909572025,-0.004220565807696187,0.008621416001174751,0.9999539279438816,25.273098886730264,0.02561752917587409,-47.51299034060974,16.601200877441638,-124.67665100097656,5356.25390625,True
1599560870.2400267,0.0,10,0.5,0.5,3.588782127571106,-0.1005,-0.00825,-0.12575,0.09412480499502535,10,1,100,0.04991830370528525,-10,-1,-100,15018.400909572025,-0.004220565807696187,0.008621416001174751,0.9999539279438816,25.273098886730264,0.02561752917587409,-47.51299034060974,16.601200877441638,-124.67665100097656,5356.25390625,True
1599560870.2719045,0.0,10,0.5,0.5,5.68000816860199,-0.1005,-0.00825,-0.12575,0.09971839673102395,10,1,100,-0.12830500546382864,-10,-1,-100,15019.691910784575,-0.002606097968834876,0.008670763272858527,0.9999590122188223,25.50766934726089,0.02604582017068663,-45.811599524758115,15.8581358549873,-133.76995849609375,5356.25390625,True
1599560870.305845,0.0,10,0.5,0.5,4.577891950035095,-0.1005,-0.00825,-0.12575,0.09495399614059795,10,1,100,0.032348484744046585,-10,-1,-100,15019.691910784575,-0.002606097968834876,0.008670763272858527,0.9999590122188223,25.50766934726089,0.02604582017068663,-45.811599524758115,15.8581358549873,-133.76995849609375,5356.25390625,True
1599560870.3418114,0.0,10,0.5,0.5,5.989597229766846,-0.1005,-0.00825,-0.12575,0.08948922115835584,10,1,100,-0.09523022450335841,-10,-1,-100,15020.57666959532,-0.001452045353342288,0.008620164077405377,0.9999617914378381,25.37402455643301,0.025728022764240972,-43.97300229635311,15.300863666231805,-139.8671112060547,5356.25390625,True
1599560870.3727276,0.0,10,0.5,0.5,6.101930179405213,-0.1005,-0.00825,-0.12575,0.08579427740404139,10,1,100,-0.062103758063607975,-10,-1,-100,15021.18506441312,-0.0007108592778446629,0.00853970098742639,0.9999632834190125,25.172899526736458,0.025268641001081792,-42.56716481416394,14.929370636627347,-143.58775329589844,5356.25390625,True
1599560870.405754,0.0,10,0.5,0.5,6.069471334457397,-0.1005,-0.00825,-0.12575,0.09137278988734901,10,1,100,-0.026163841010918273,-10,-1,-100,15021.521000579116,-0.0003708619804189181,0.008516605386375345,0.9999636642869001,25.045585407773363,0.02497984497022802,-41.82590825136409,14.743631841734322,-145.3443603515625,5356.25390625,True
1599560870.439665,0.0,10,0.5,0.5,5.878568665695191,-0.1005,-0.00825,-0.12575,0.0937063635104832,10,1,100,0.007194206638560673,-10,-1,-100,15021.521000579116,-0.0003708619804189181,0.008516605386375345,0.9999636642869001,25.045585407773363,0.02497984497022802,-41.82590825136409,14.743631841734322,-145.3443603515625,5356.25390625,True
1599560870.4745665,0.0,10,0.5,0.5,7.342503635787964,-0.1005,-0.00825,-0.12575,0.07588385094183854,10,1,100,-0.13649519477691427,-10,-1,-100,15022.615724637988,0.000929571831602713,0.00835436424013285,0.9999646696230587,24.46813389745657,0.02360845854807036,-38.80622371788784,14.000732737909216,-151.68223571777344,5356.25390625,True
1599560870.506923,0.0,10,0.5,0.5,6.897971838378907,-0.1005,-0.00825,-0.12575,0.08623585917998855,10,1,100,-0.040669723615467154,-10,-1,-100,15022.887208963628,0.0012340186659888133,0.008300988131620479,0.9999647847769293,24.311304851231284,0.02322979849891744,-38.046955799912645,13.815022241278237,-153.09451293945312,5356.25390625,True
1599560870.538838,0.0,10,0.5,0.5,7.342204117202759,-0.1005,-0.00825,-0.12575,0.08261667918158531,10,1,100,-0.0737592162095993,-10,-1,-100,15023.433107407298,0.0018054592670293651,0.008219747396980845,0.9999645874077566,23.979641143416185,0.022444078308405502,-36.520756107240054,13.443618311533442,-155.7117919921875,5356.25390625,True
1599560870.5727413,0.0,10,0.5,0.5,7.311406691741944,-0.1005,-0.00825,-0.12575,0.08509479584382335,10,1,100,-0.047557106279582026,-10,-1,-100,15023.707521996694,0.0020812715185435956,0.0081687856702417,0.9999644689935435,23.807961609191427,0.022044296694259703,-35.75931632421526,13.257924757374862,-156.9171905517578,5356.25390625,True
1599560870.6088154,0.0,10,0.5,0.5,7.685031748199463,-0.1005,-0.00825,-0.12575,0.07976674341711304,10,1,100,-0.07786469513529984,-10,-1,-100,15024.249515096657,0.0026018045210392036,0.008074431469627778,0.9999640164374298,23.471767010742564,0.021257085768631064,-34.26851167956192,12.886553512490458,-159.1209716796875,5356.25390625,True
1599560870.6397407,0.0,10,0.5,0.5,7.42882085723877,-0.1005,-0.00825,-0.12575,0.08914253029818223,10,1,100,-0.02633218513472644,-10,-1,-100,15024.249515096657,0.0026018045210392036,0.008074431469627778,0.9999640164374298,23.471767010742564,0.021257085768631064,-34.26851167956192,12.886553512490458,-159.1209716796875,5356.25390625,True
1599560870.6746125,0.0,10,0.5,0.5,7.885919868469238,-0.1005,-0.00825,-0.12575,0.0796447148648767,10,1,100,-0.07990144983779823,-10,-1,-100,15024.730962523143,0.003084063379712698,0.007988629812782483,0.9999633345012128,23.13990660233457,0.020489781104416065,-32.812057421261365,12.515202019200261,-161.04885864257812,5356.25390625,True
1599560870.7067153,0.0,10,0.5,0.5,8.03468841972351,-0.1005,-0.00825,-0.12575,0.08064125295399927,10,1,100,-0.08096435905053445,-10,-1,-100,15025.212410269072,0.003528019599774336,0.007920261865792077,0.9999624105583573,22.818598089072665,0.019754821225262974,-31.39795000282189,12.143868624247672,-162.70068359375,5356.25390625,True
1599560870.7437787,0.0,10,0.5,0.5,8.006233671569825,-0.1005,-0.00825,-0.12575,0.08281665981992042,10,1,100,-0.0600357977728819,-10,-1,-100,15025.484872463741,0.0037375029892356935,0.007878448739237931,0.9999619798356679,22.664468577349094,0.019402882069343253,-30.7098360273076,11.95820796632563,-163.42330932617188,5356.25390625,True
1599560870.7766893,0.0,10,0.5,0.5,8.327023957061767,-0.1005,-0.00825,-0.12575,0.0778497948226826,10,1,100,-0.10221946054122077,-10,-1,-100,15026.169446662883,0.004307695400303959,0.007795863630256671,0.9999603333485767,22.23858932343648,0.018419247106064254,-28.731398920100236,11.4012471208123,-165.1768798828125,5356.25390625,True
1599560870.8095953,0.0,10,0.5,0.5,8.223902425384521,-0.1005,-0.00825,-0.12575,0.08380698140824445,10,1,100,-0.06457779148754875,-10,-1,-100,15026.377456024173,0.004479601912259251,0.007775597719920741,0.9999597358128005,22.11128827199687,0.01811686267858019,-28.102436646164204,11.215599628685212,-165.6234130859375,5356.25390625,True
1599560870.8405197,0.0,10,0.5,0.5,8.334509228134156,-0.1005,-0.00825,-0.12575,0.08169414276654474,10,1,100,-0.08272274102386275,-10,-1,-100,15026.853045477998,0.004797607346111775,0.007738492692436454,0.999958548488187,21.88227315537047,0.01755081873736506,-26.89193437755974,10.844312312030697,-166.30963134765625,5356.25390625,True
1599560870.876422,0.0,10,0.5,0.5,8.351862369155885,-0.1005,-0.00825,-0.12575,0.08522689531439434,10,1,100,-0.0820450810790492,-10,-1,-100,15027.26711141935,0.005077303024042926,0.0077373881410122665,0.9999571759924308,21.69008635164229,0.017034833913124554,-25.74429400793388,10.473033436223151,-166.71954345703125,5356.25390625,True
1599560870.9063413,0.0,10,0.5,0.5,8.332382736587524,-0.1005,-0.00825,-0.12575,0.0849841548660234,10,1,100,-0.0683841674845076,-10,-1,-100,15027.473167822813,0.0052044072951599445,0.007734615780419604,0.9999565439875052,21.60861261165679,0.016794692514535844,-25.19353839134042,10.287396503571657,-166.82113647460938,5356.25390625,True
1599560870.9412131,0.0,10,0.5,0.5,8.335131571197511,-0.1005,-0.00825,-0.12575,0.08605706147197986,10,1,100,-0.06888405551249618,-10,-1,-100,15027.683130539604,0.005321661854814752,0.007742243848925717,0.9999558678138184,21.53716045056117,0.016565803121862382,-24.65765464722123,10.101760997772706,-166.8536376953125,5356.25390625,True
1599560870.9741623,0.0,10,0.5,0.5,8.305286521911622,-0.1005,-0.00825,-0.12575,0.08877515807545994,10,1,100,-0.08016021442606693,-10,-1,-100,15028.032743604737,0.005528294847048152,0.007774190414527186,0.9999544989245674,21.43689037746792,0.016148703863537447,-23.641836768573686,9.730492939474534,-166.7115936279297,5356.25390625,True
1599560871.0090663,0.0,10,0.5,0.5,8.164138819503785,-0.1005,-0.00825,-0.12575,0.09405396427233767,10,1,100,-0.08645878164302413,-10,-1,-100,15028.591342678643,0.005770742278027209,0.007851494840550229,0.9999525251542344,21.376583645892005,0.01560282657383193,-22.22739774519733,9.173594560260524,-165.98110961914062,5356.25390625,True
1599560871.0409508,0.0,10,0.5,0.5,8.071819220352175,-0.1005,-0.00825,-0.12575,0.09473793066228656,10,1,100,-0.07500380135798652,-10,-1,-100,15028.939001972903,0.005884570413691178,0.007928114135909105,0.9999512572307183,21.388923262304626,0.015281011591922486,-21.34095356232784,8.80232893948582,-165.14907836914062,5356.25390625,True
1599560871.0738928,0.0,10,0.5,0.5,8.17846707572937,-0.1005,-0.00825,-0.12575,0.08707678635341064,10,1,100,-0.06385664287298126,-10,-1,-100,15028.939001972903,0.005884570413691178,0.007928114135909105,0.9999512572307183,21.388923262304626,0.015281011591922486,-21.34095356232784,8.80232893948582,-165.14907836914062,5356.25390625,True
1599560871.106961,0.0,10,0.5,0.5,7.92920199623108,-0.1005,-0.00825,-0.12575,0.09773923076063071,10,1,100,-0.07201242624837731,-10,-1,-100,15029.288614614983,0.0059567620194452735,0.008025000298341405,0.9999500569310726,21.43955932457163,0.014987619037353133,-20.489962456556004,8.431061367747182,-164.0410614013672,5356.25390625,True
1599560871.142931,0.0,10,0.5,0.5,7.918848785400391,-0.1005,-0.00825,-0.12575,0.09383992486675237,10,1,100,-0.0673786754138832,-10,-1,-100,15029.490764646325,0.00597876659289074,0.008077422086364524,0.9999495035262862,21.47786844893216,0.014850434594732464,-20.07497173002848,8.245426464924872,-163.38360595703125,5356.25390625,True
1599560871.1748457,0.0,10,0.5,0.5,7.655346914672852,-0.1005,-0.00825,-0.12575,0.10151785344294686,10,1,100,-0.06696966243110493,-10,-1,-100,15029.776900316356,0.0059936895737426055,0.008194603222199634,0.9999484607535152,21.577239944845484,0.014593450711339934,-19.260386972596383,7.87415363184096,-161.86170959472656,5356.25390625,True
1599560871.2068224,0.0,10,0.5,0.5,7.209527537918091,-0.1005,-0.00825,-0.12575,0.11213402703040923,10,1,100,-0.05908448557918391,-10,-1,-100,15030.263231828227,0.005934485146565355,0.008397227550545061,0.9999471328302858,21.770629432879165,0.014248092677270228,-18.059416564027007,7.317235018227055,-159.06158447265625,5356.25390625,True
1599560871.2407663,0.0,10,0.5,0.5,7.555325455856323,-0.1005,-0.00825,-0.12575,0.09193757813681977,10,1,100,-0.06509064650916119,-10,-1,-100,15030.263231828227,0.005934485146565355,0.008397227550545061,0.9999471328302858,21.770629432879165,0.014248092677270228,-18.059416564027007,7.317235018227055,-159.06158447265625,5356.25390625,True
1599560871.2768025,0.0,10,0.5,0.5,6.485829152297974,-0.1005,-0.00825,-0.12575,0.12474057645219822,10,1,100,-0.03991103610287064,-10,-1,-100,15030.767141346936,0.005704915890279618,0.008694834251802933,0.9999459254339799,22.066687014518195,0.013857123463370154,-16.448296831876696,6.574657783900155,-154.36282348632812,5356.25390625,True
1599560871.307722,0.0,10,0.5,0.5,6.761617385482789,-0.1005,-0.00825,-0.12575,0.10388706922920071,10,1,100,-0.053928136498971296,-10,-1,-100,15030.908743689884,0.0056232963390430764,0.008774942468734769,0.9999456879865795,22.138973695793744,0.013771541880962057,-16.036424625479004,6.389010087004532,-153.0157470703125,5356.25390625,True
1599560871.3405995,0.0,10,0.5,0.5,6.919713171386719,-0.1005,-0.00825,-0.12575,0.09597632274143787,10,1,100,-0.062099591771824926,-10,-1,-100,15030.908743689884,0.0056232963390430764,0.008774942468734769,0.9999456879865795,22.138973695793744,0.013771541880962057,-16.036424625479004,6.389010087004532,-153.0157470703125,5356.25390625,True
1599560871.3745415,0.0,10,0.5,0.5,5.901200318145753,-0.1005,-0.00825,-0.12575,0.1212653681829221,10,1,100,-0.027073700587311803,-10,-1,-100,15031.26518980763,0.005305013188219306,0.009004003383995367,0.9999453908879894,22.327083517362027,0.013546215712773604,-14.763427597309548,5.832060171334408,-148.56130981445312,5356.25390625,True
1599560871.4104412,0.0,10,0.5,0.5,6.080536298370362,-0.1005,-0.00825,-0.12575,0.10687891482656778,10,1,100,-0.044856000081859755,-10,-1,-100,15031.408744193264,0.005177849007625835,0.009080476558948974,0.999945365920117,22.3740535827,0.013481425216264373,-14.323708797019764,5.646408316872904,-146.93865966796875,5356.25390625,True
1599560871.4433525,0.0,10,0.5,0.5,5.488546897888185,-0.1005,-0.00825,-0.12575,0.11602989574865821,10,1,100,-0.025999570173262963,-10,-1,-100,15031.622611649218,0.004891465591013677,0.009232140760541222,0.9999454190811365,22.43209387319315,0.013364867635437002,-13.416818032132692,5.275102224521686,-143.48666381835938,5356.25390625,True
1599560871.4772618,0.0,10,0.5,0.5,5.491836864852906,-0.1005,-0.00825,-0.12575,0.10793410030482288,10,1,100,-0.036994606409956776,-10,-1,-100,15031.70171281381,0.004732040356634778,0.00929532176662458,0.9999456009140287,22.438523815274973,0.013311113077477729,-12.948479938588802,5.089448000621651,-141.65753173828125,5356.25390625,True
1599560871.5083032,0.0,10,0.5,0.5,4.829458362960816,-0.1005,-0.00825,-0.12575,0.11607048735849732,10,1,100,-0.014435101360530854,-10,-1,-100,15031.915579030523,0.0043831553033285035,0.009425619018388074,0.9999459713683069,22.393139141429312,0.013204798713741018,-11.979784203098367,4.718137019645736,-137.79248046875,5356.25390625,True
1599560871.5432181,0.0,10,0.5,0.5,3.8671693984985356,-0.1005,-0.00825,-0.12575,0.1198702046353948,10,1,100,0.016186695695232782,-10,-1,-100,15032.147021781653,0.00378907122187987,0.009577494844511964,0.999946955859049,22.142577067430743,0.013017879588188203,-10.44767588768073,4.161160825240046,-131.4788360595703,5356.25390625,True
1599560871.7938657,0.0,10,0.5,0.5,4.131073302841187,-0.1005,-0.00825,-0.12575,0.10881990216556651,10,1,100,-0.0194235950828041,-10,-1,-100,15032.22612224042,0.0035746750766584346,0.009614033511904365,0.9999473946452025,22.000994933537317,0.012939478762534285,-9.917796033586098,3.9754982904911493,-129.23670959472656,5356.25390625,True
1599560871.823783,0.0,10,0.5,0.5,2.77323543548584,-0.1005,-0.00825,-0.12575,0.1115117135517244,10,1,100,0.0343645015484067,-10,-1,-100,15032.449750733445,0.002892932075327856,0.00967061530762493,0.9999490537740309,21.36485898985449,0.012616934659549259,-8.281860359807247,3.4184932665391137,-122.09779357910156,5356.25390625,True
1599560871.8487186,0.0,10,0.5,0.5,3.074812826919556,-0.1005,-0.00825,-0.12575,0.10670365905831455,10,1,100,-0.00663336363640769,-10,-1,-100,15032.527874078369,0.002648429924721053,0.009677456643743696,0.9999496650591181,21.073661083118132,0.012470994029098252,-7.7253462334437675,3.2328174656173805,-119.58056640625,5356.25390625,True
1599560871.8806236,0.0,10,0.5,0.5,2.178096320343018,-0.1005,-0.00825,-0.12575,0.10337427080483834,10,1,100,0.023446361060825344,-10,-1,-100,15032.613807943533,0.002155407623662134,0.009652588406842784,0.9999510896814023,20.3759438166025,0.012111960083714561,-6.611615190635845,2.86145092229873,-114.34001922607422,5356.25390625,True
1599560871.9075584,0.0,10,0.5,0.5,2.805187652778626,-0.1005,-0.00825,-0.12575,0.10594885908874044,10,1,100,-0.025509080173528483,-10,-1,-100,15032.613807943533,0.002155407623662134,0.009652588406842784,0.9999510896814023,20.3759438166025,0.012111960083714561,-6.611615190635845,2.86145092229873,-114.34001922607422,5356.25390625,True
1599560871.9404666,0.0,10,0.5,0.5,1.5290587409973146,-0.1005,-0.00825,-0.12575,0.09934696691433748,10,1,100,0.03158103589950319,-10,-1,-100,15032.765170987579,0.001639269846238716,0.009591981582509259,0.9999526522209398,19.54929858696015,0.011666009215434724,-5.520149397902306,2.4900613506146336,-108.82445526123047,5356.25390625,True
1599560871.9742758,0.0,10,0.5,0.5,0.8811036886215211,-0.1005,-0.00825,-0.12575,0.09409178839901461,10,1,100,0.03794306098466734,-10,-1,-100,15032.851103996392,0.001115433983408105,0.00948864511477261,0.9999543596689375,18.658056436112535,0.01115627572678072,-4.482695977209511,2.1186432439213303,-103.03398895263672,5356.25390625,True
1599560872.008193,0.0,10,0.5,0.5,0.20358998641967774,-0.1005,-0.00825,-0.12575,0.08846823127772188,10,1,100,0.044088596335122195,-10,-1,-100,15032.931177066523,0.0005867838154739651,0.009343346439041876,0.9999561778208452,17.550297137170816,0.010491160045446042,-3.477324695792269,1.7471928893357425,-96.96861267089844,5356.25390625,True
1599560872.044097,0.0,10,0.5,0.5,-0.501282335281372,-0.1005,-0.00825,-0.12575,0.08284940931815613,10,1,100,0.048675313087567985,-10,-1,-100,15032.957539677853,6.826374373084039e-05,0.009160132875406596,0.9999580427726786,16.33752942281276,0.009759845303054899,-2.548831355049912,1.375720832535364,-90.64496612548828,5356.25390625,True
1599560872.0748994,0.0,10,0.5,0.5,0.2550195184707642,-0.1005,-0.00825,-0.12575,0.10114421706738605,10,1,100,-0.0027452049307847143,-10,-1,-100,15032.957539677853,6.826374373084039e-05,0.009160132875406596,0.9999580427726786,16.33752942281276,0.009759845303054899,-2.548831355049912,1.375720832535364,-90.64496612548828,5356.25390625,True
1599560872.1078117,0.0,10,0.5,0.5,-1.243212195968628,-0.1005,-0.00825,-0.12575,0.07694029705537297,10,1,100,0.05374963693349117,-10,-1,-100,15032.980972046964,-0.00044194317550971395,0.008940476658905664,0.9999599354790878,16.037084669801878,0.009572822639271372,-1.8263865570061928,1.0042420330375053,-84.17184448242188,5356.25390625,True
1599560872.1417198,0.0,10,0.5,0.5,-1.1983456218719484,-0.1005,-0.00825,-0.12575,0.08535296876087028,10,1,100,0.03038215320664726,-10,-1,-100,15033.054211771814,-0.0006896845061642113,0.008817880347457518,0.9999608838956952,16.692177233568017,0.009963624495843792,-1.549404273260211,0.8185031330496932,-80.93670654296875,5356.25390625,True
1599560872.1777508,0.0,10,0.5,0.5,-2.294763525390625,-0.1005,-0.00825,-0.12575,0.0663147414750655,10,1,100,0.06087261891971818,-10,-1,-100,15033.07178454427,-0.0011888330254403155,0.008534129575324767,0.9999628769651546,17.84272420395002,0.010670580189466261,-0.9045543360485409,0.4470297260869347,-74.44265747070312,5356.25390625,True
1599560872.2081678,0.0,10,0.5,0.5,-2.243231159210205,-0.1005,-0.00825,-0.12575,0.07857335197609117,10,1,100,0.036597112092276715,-10,-1,-100,15033.084477386088,-0.0014184295600326137,0.008388655629821062,0.999963808602245,18.3368405479758,0.010982377296311815,-0.5433693256647303,0.26129457095342223,-71.22561645507812,5356.25390625,True
1599560872.241044,0.0,10,0.5,0.5,-3.2902119947433475,-0.1005,-0.00825,-0.12575,0.05778016867202141,10,1,100,0.0637473214634762,-10,-1,-100,15033.043456646614,-0.0018707248246877032,0.008068526679123443,0.9999656990446516,19.13156038727885,0.011480830615986351,0.23905144147735602,-0.11017777016395769,-64.96725463867188,5356.25390625,True
1599560872.2741458,0.0,10,0.5,0.5,-3.899805327224732,-0.1005,-0.00825,-0.12575,0.052572679466812586,10,1,100,0.06527442076325987,-10,-1,-100,15033.058100291295,-0.0022921249385100453,0.00773159960546709,0.9999674837367498,19.76181806927626,0.01186126118666352,1.079496692915654,-0.4816593197040391,-58.97454833984375,5356.25390625,True
1599560872.309544,0.0,10,0.5,0.5,-3.842001622200012,-0.1005,-0.00825,-0.12575,0.0661175385153214,10,1,100,0.04585398971664588,-10,-1,-100,15033.008293164428,-0.002495092582665912,0.0075501286043814335,0.999968384535762,20.003019502928556,0.012007364304242393,1.514059959925456,-0.6674044153590784,-56.0810546875,5356.25390625,True
1599560872.3414261,0.0,10,0.5,0.5,-5.979690376281739,-0.1005,-0.00825,-0.12575,0.0031906474457672612,10,1,100,0.10568853864910562,-10,-1,-100,15032.917464253842,-0.003220276770769903,0.0068148546086807,0.9999715933836232,20.456806510310507,0.012293957856489608,3.272363003629491,-1.4104168472969372,-45.195709228515625,5356.25390625,True
1599560872.374528,0.0,10,0.5,0.5,-4.653570830154419,-0.1005,-0.00825,-0.12575,0.07646519783280448,10,1,100,0.0335508258973309,-10,-1,-100,15032.917464253842,-0.003220276770769903,0.0068148546086807,0.9999715933836232,20.456806510310507,0.012293957856489608,3.272363003629491,-1.4104168472969372,-45.195709228515625,5356.25390625,True
1599560872.4084363,0.0,10,0.5,0.5,-6.374436065483094,-0.1005,-0.00825,-0.12575,0.014806297540752203,10,1,100,0.08496329616127382,-10,-1,-100,15032.819802322192,-0.0036846732817925653,0.006256451222631794,0.9999736396530187,20.382786372169203,0.012277741251306666,4.548987724921011,-1.967704750393741,-37.755401611328125,5356.25390625,True
1599560872.4453354,0.0,10,0.5,0.5,-6.5266549552917485,-0.1005,-0.00825,-0.12575,0.02727037618235917,10,1,100,0.0684281749620389,-10,-1,-100,15032.710423720418,-0.003953120883615101,0.005864761297195374,0.9999749883923129,20.193214620502925,0.012195618883742926,5.357746677217211,-2.3392384450306634,-33.14013671875,5356.25390625,True
1599560872.4752517,0.0,10,0.5,0.5,-6.4871750061035165,-0.1005,-0.00825,-0.12575,0.04690411072886358,10,1,100,0.05600436325960573,-10,-1,-100,15032.717258357676,-0.004081028435515191,0.005689964147550223,0.9999754844569482,20.058243123700553,0.012135649329096932,5.744646726672935,-2.5250064961327143,-30.935546875,5356.25390625,True
1599560872.508166,0.0,10,0.5,0.5,-6.251198789978028,-0.1005,-0.00825,-0.12575,0.06407103407338789,10,1,100,0.04355274246253184,-10,-1,-100,15032.717258357676,-0.004081028435515191,0.005689964147550223,0.9999754844569482,20.058243123700553,0.012135649329096932,5.744646726672935,-2.5250064961327143,-30.935546875,5356.25390625,True
1599560872.5410442,0.0,10,0.5,0.5,-8.126257195281983,-0.1005,-0.00825,-0.12575,-0.013838856172159852,10,1,100,0.09235812842210495,-10,-1,-100,15032.436980010825,-0.004522084493865788,0.004984278022979584,0.9999773536057806,19.319326225142795,0.01181597634517571,7.161714565072029,-3.2680805240108315,-22.806640625,5356.25390625,True
1599560872.5770977,0.0,10,0.5,0.5,-7.143992889404298,-0.1005,-0.00825,-0.12575,0.0563893185242199,10,1,100,0.04856288808042861,-10,-1,-100,15032.436980010825,-0.004522084493865788,0.004984278022979584,0.9999773536057806,19.319326225142795,0.01181597634517571,7.161714565072029,-3.2680805240108315,-22.806640625,5356.25390625,True
1599560872.608458,0.0,10,0.5,0.5,-7.599597081756593,-0.1005,-0.00825,-0.12575,0.03704412537293149,10,1,100,0.058943119248156164,-10,-1,-100,15032.380338574178,-0.00461403990478224,0.0048112164931098204,0.9999777811689685,19.118075403003402,0.011735020274365904,7.490077244180578,-3.4538493112965094,-20.9466552734375,5356.25390625,True
1599560872.6413352,0.0,10,0.5,0.5,-8.566081299591065,-0.1005,-0.00825,-0.12575,0.0008359420966684156,10,1,100,0.07794828392161945,-10,-1,-100,15032.148890320328,-0.004868299125404797,0.0043273774208188774,0.9999787865091357,18.59214724684053,0.01155360839387697,8.45976850359456,-4.011158427837115,-15.77978515625,5356.25390625,True
1599560872.6752436,0.0,10,0.5,0.5,-8.30808286819458,-0.1005,-0.00825,-0.12575,0.03140652296074142,10,1,100,0.06040019940593601,-10,-1,-100,15032.093225706602,-0.004937758369880237,0.0041683678640310135,0.9999791214078576,18.410784519650026,0.0114920633098503,8.76537062865548,-4.196929973750073,-14.1953125,5356.25390625,True
1599560872.7121453,0.0,10,0.5,0.5,-8.47732781982422,-0.1005,-0.00825,-0.12575,0.030461443784650752,10,1,100,0.06120816420149327,-10,-1,-100,15031.97603717621,-0.005006686925181966,0.004017627989663631,0.9999793956634155,18.224587749747673,0.011427584107606789,9.060942066009046,-4.382702829602573,-12.679656982421875,5356.25390625,True
1599560872.7460816,0.0,10,0.5,0.5,-8.952670561218262,-0.1005,-0.00825,-0.12575,0.013941897169982793,10,1,100,0.06876814807744902,-10,-1,-100,15031.797324999003,-0.005136452365097307,0.0037329569770317714,0.9999798407414565,17.84744191533807,0.011291693733505867,9.626032291075374,-4.754254026543958,-9.8548583984375,5356.25390625,True
1599560872.7750103,0.0,10,0.5,0.5,-9.462258455657958,-0.1005,-0.00825,-0.12575,-0.0018702351621719196,10,1,100,0.07314567505097355,-10,-1,-100,15031.503378173686,-0.005292896847431199,0.00333271257547922,0.9999804389436083,17.382714064555884,0.011127064830263425,10.475059748876124,-5.311597503387768,-6.134246826171875,5356.25390625,True
1599560872.8079245,0.0,10,0.5,0.5,-9.016671409606934,-0.1005,-0.00825,-0.12575,0.0379010001209116,10,1,100,0.05763520441396596,-10,-1,-100,15031.503378173686,-0.005292896847431199,0.00333271257547922,0.9999804389436083,17.382714064555884,0.011127064830263425,10.475059748876124,-5.311597503387768,-6.134246826171875,5356.25390625,True
1599560872.8437936,0.0,10,0.5,0.5,-9.520447721099853,-0.1005,-0.00825,-0.12575,0.011540932179551475,10,1,100,0.06799032054998723,-10,-1,-100,15031.26314267912,-0.005385932568293287,0.003095218550168738,0.9999807054901091,17.11545986161282,0.011018952674107118,11.035983650184184,-5.683172304301723,-3.998046875,5356.25390625,True
1599560872.8757074,0.0,10,0.5,0.5,-9.69505902938843,-0.1005,-0.00825,-0.12575,0.011565139381749127,10,1,100,0.06890167324238942,-10,-1,-100,15031.023884636816,-0.00547760924434177,0.00288189381590408,0.9999808450590442,16.87995621727638,0.010905941782719286,11.596282131408019,-6.054757447391243,-2.13720703125,5356.25390625,True
1599560872.9086535,0.0,10,0.5,0.5,-9.836790969085694,-0.1005,-0.00825,-0.12575,0.010962412520481066,10,1,100,0.06731529133176971,-10,-1,-100,15030.781696818303,-0.005545661364516143,0.002684394162567477,0.9999810196538783,16.683647757689567,0.010791181980806846,12.165403204276414,-6.426352167392206,-0.5518798828125,5356.25390625,True
1599560872.9415329,0.0,10,0.5,0.5,-9.952197014617921,-0.1005,-0.00825,-0.12575,0.011947157369796964,10,1,100,0.06892825634479978,-10,-1,-100,15030.477985542268,-0.005621259722183437,0.0025158920525829025,0.9999810356833352,16.60914425194969,0.010728490260963702,12.8120326376036,-6.79795492453828,0.7581787109375,5356.25390625,True
1599560872.978526,0.0,10,0.5,0.5,-9.930198839569092,-0.1005,-0.00825,-0.12575,0.020175506928326932,10,1,100,0.06522765880610984,-10,-1,-100,15030.357868670486,-0.005655428051695249,0.0024395981526204044,0.9999810320673117,16.801039090540247,0.010835754406594234,13.31463065299208,-6.983758179397931,1.3099365234375,5356.25390625,True
1599560873.0104406,0.0,10,0.5,0.5,-10.155952332305908,-0.1005,-0.00825,-0.12575,0.006215682202850167,10,1,100,0.07255895100528958,-10,-1,-100,15029.929157682811,-0.005752422708583721,0.0022450487272121615,0.9999809345128506,17.289864037393055,0.011069001325056125,14.796883341009726,-7.541172450296548,2.552093505859375,5356.25390625,True
1599560873.0423539,0.0,10,0.5,0.5,-10.076102682495119,-0.1005,-0.00825,-0.12575,0.019636445881857627,10,1,100,0.06615116230972462,-10,-1,-100,15029.746541001252,-0.005781606440942011,0.002191941027683662,0.9999808840280364,17.424912023150767,0.011119823965258624,15.280332043326233,-7.7269782938430325,2.8284912109375,5356.25390625,True
1599560873.0762613,0.0,10,0.5,0.5,-10.132479508209228,-0.1005,-0.00825,-0.12575,0.015129849394499188,10,1,100,0.06983309693247192,-10,-1,-100,15029.435017683078,-0.005840904767369286,0.0021043519572835675,0.9999807275814562,17.65466574988905,0.01118581923355578,16.227361967164004,-8.098591141866375,3.17474365234375,5356.25390625,True
1599560873.1121693,0.0,10,0.5,0.5,-10.099687685394288,-0.1005,-0.00825,-0.12575,0.023725895932533818,10,1,100,0.0639737095299716,-10,-1,-100,15029.435017683078,-0.005840904767369286,0.0021043519572835675,0.9999807275814562,17.65466574988905,0.01118581923355578,16.227361967164004,-8.098591141866375,3.17474365234375,5356.25390625,True
1599560873.1441143,0.0,10,0.5,0.5,-10.077159968566894,-0.1005,-0.00825,-0.12575,0.012342232980967519,10,1,100,0.07612140537388043,-10,-1,-100,15028.758261140087,-0.00595084017693215,0.0020019808037404154,0.999980289592775,17.95519688141582,0.011196380576924615,18.02053631100343,-8.841819409489538,3.041229248046875,5356.25390625,True
1599560873.1769955,0.0,10,0.5,0.5,-10.101519172668457,-0.1005,-0.00825,-0.12575,0.02244627515810885,10,1,100,0.06519365875054413,-10,-1,-100,15028.758261140087,-0.00595084017693215,0.0020019808037404154,0.999980289592775,17.95519688141582,0.011196380576924615,18.02053631100343,-8.841819409489538,3.041229248046875,5356.25390625,True
1599560873.211902,0.0,10,0.5,0.5,-9.921143981170655,-0.1005,-0.00825,-0.12575,0.020904339745783804,10,1,100,0.07313171837185889,-10,-1,-100,15028.206504530972,-0.006022490802936249,0.001988957061579668,0.9999798866248939,18.040526405326506,0.011122278588617493,19.249707889845556,-9.399242140218854,2.21832275390625,5356.25390625,True
1599560873.246809,0.0,10,0.5,0.5,-10.028217784881592,-0.1005,-0.00825,-0.12575,0.022117420286426104,10,1,100,0.06602114392730846,-10,-1,-100,15028.206504530972,-0.006022490802936249,0.001988957061579668,0.9999798866248939,18.040526405326506,0.011122278588617493,19.249707889845556,-9.399242140218854,2.21832275390625,5356.25390625,True
1599560873.2797182,0.0,10,0.5,0.5,-9.828522878265382,-0.1005,-0.00825,-0.12575,0.02419184346934563,10,1,100,0.07054997998736905,-10,-1,-100,15027.832482048543,-0.006063228558538236,0.0020084476696980162,0.9999796014906529,18.02812037312874,0.011045727215715005,19.99851089539248,-9.770857752758651,1.325592041015625,5356.25390625,True
1599560873.3146276,0.0,10,0.5,0.5,-9.521493504333497,-0.1005,-0.00825,-0.12575,0.03080071795664223,10,1,100,0.07219901099147676,-10,-1,-100,15027.210412623943,-0.006114852282907972,0.002086708394583652,0.9999791268969739,17.89888071445623,0.010906971264482326,20.990336842640485,-10.328281185430324,-0.529693603515625,5356.25390625,True
1599560873.3485374,0.0,10,0.5,0.5,-9.753277979278565,-0.1005,-0.00825,-0.12575,0.022939356492274996,10,1,100,0.06708258097762446,-10,-1,-100,15027.210412623943,-0.006114852282907972,0.002086708394583652,0.9999791268969739,17.89888071445623,0.010906971264482326,20.990336842640485,-10.328281185430324,-0.529693603515625,5356.25390625,True
1599560873.4033976,0.0,10,0.5,0.5,-9.393042595672608,-0.1005,-0.00825,-0.12575,0.03204361746275157,10,1,100,0.06985162460965591,-10,-1,-100,15026.772913299268,-0.006139695925404327,0.002169618349163101,0.9999787982203235,18.207789616824044,0.011096876008241562,22.122680279963014,-10.699893618455244,-2.11065673828125,5356.25390625,True
1599560873.4482675,0.0,10,0.5,0.5,-8.685528849029541,-0.1005,-0.00825,-0.12575,0.04983873633984677,10,1,100,0.06979643209496426,-10,-1,-100,15025.899868512992,-0.006161453768917941,0.002406785136462121,0.9999781216970501,19.14557063260423,0.011806472864978542,24.882157619971785,-11.443096317713415,-6.098480224609375,5356.25390625,True
1599560873.4861672,0.0,10,0.5,0.5,-9.179347242736817,-0.1005,-0.00825,-0.12575,0.026152300927862637,10,1,100,0.06765270264375767,-10,-1,-100,15025.899868512992,-0.006161453768917941,0.002406785136462121,0.9999781216970501,19.14557063260423,0.011806472864978542,24.882157619971785,-11.443096317713415,-6.098480224609375,5356.25390625,True
1599560873.5200765,0.0,10,0.5,0.5,-8.627151583099366,-0.1005,-0.00825,-0.12575,0.043163906383782855,10,1,100,0.06675502668612383,-10,-1,-100,15025.401822644868,-0.006153001670210771,0.002561161155898506,0.9999777902653537,19.659351241271292,0.012270422551045441,26.38194316650761,-11.814682328935934,-8.50531005859375,5356.25390625,True
1599560873.5579755,0.0,10,0.5,0.5,-7.986685678100587,-0.1005,-0.00825,-0.12575,0.05767992758755107,10,1,100,0.0628735254944934,-10,-1,-100,15024.710417525494,-0.006109847786468269,0.0028329584751002417,0.9999773217960019,20.479136247222073,0.013112350364818105,28.782557803028194,-12.37203552325684,-12.6317138671875,5356.25390625,True
1599560873.5958767,0.0,10,0.5,0.5,-7.792386038970948,-0.1005,-0.00825,-0.12575,0.05327703548410194,10,1,100,0.06146577357057618,-10,-1,-100,15024.204559036298,-0.006057674685930804,0.003039265221005591,0.9999770334584268,21.092982598157764,0.013794571545936803,30.53851639573184,-12.743582826062736,-15.726806640625,5356.25390625,True
1599560873.6327853,0.0,10,0.5,0.5,-8.166789223480226,-0.1005,-0.00825,-0.12575,0.03275139170950958,10,1,100,0.0666866020126221,-10,-1,-100,15024.204559036298,-0.006057674685930804,0.003039265221005591,0.9999770334584268,21.092982598157764,0.013794571545936803,30.53851639573184,-12.743582826062736,-15.726806640625,5356.25390625,True
1599560873.6716816,0.0,10,0.5,0.5,-7.389412622833252,-0.1005,-0.00825,-0.12575,0.057256497084344334,10,1,100,0.0581552168352745,-10,-1,-100,15023.642059759586,-0.005980084653515831,0.0032610840806318836,0.9999768016899971,21.698297287047627,0.014527369228545214,32.333927902275974,-13.11510986272657,-19.0972900390625,5356.25390625,True
1599560873.7202668,0.0,10,0.5,0.5,-6.9715437484741205,-0.1005,-0.00825,-0.12575,0.061381700976032905,10,1,100,0.05509314366280681,-10,-1,-100,15023.136200822191,-0.005881786816938897,0.0034991006825702874,0.9999765801648824,22.278690238949128,0.015286662744818148,34.14258808641818,-13.486614335070046,-22.743072509765625,5356.25390625,True
1599560873.760158,0.0,10,0.5,0.5,-6.5245232528686525,-0.1005,-0.00825,-0.12575,0.0660044893839133,10,1,100,0.05190756672641583,-10,-1,-100,15022.57077187614,-0.0057636772346890104,0.0037562207677786703,0.9999763351351262,22.881829319733274,0.016085965259979507,36.03639862269114,-13.858094144430765,-26.6641845703125,5356.25390625,True
1599560873.8060343,0.0,10,0.5,0.5,-5.548450891876222,-0.1005,-0.00825,-0.12575,0.08381195857090455,10,1,100,0.03765501604565509,-10,-1,-100,15021.750460428884,-0.005527055494680579,0.004150334644783307,0.9999761129046508,23.689018769213725,0.017203346610903586,38.81343780961396,-14.415265812229462,-33.0623779296875,5356.25390625,True
1599560873.850914,0.0,10,0.5,0.5,-5.813806858062745,-0.1005,-0.00825,-0.12575,0.059514759399793504,10,1,100,0.0511924306704407,-10,-1,-100,15021.438937169267,-0.005435569173471623,0.004285935707508676,0.9999760423844521,23.918160735446985,0.017527406293477894,39.695738437290174,-14.600977221662546,-35.332794189453125,5356.25390625,True
1599560873.8938022,0.0,10,0.5,0.5,-4.440618618011475,-0.1005,-0.00825,-0.12575,0.09025322933004046,10,1,100,0.02487063307841323,-10,-1,-100,15020.54928896029,-0.005113770616622728,0.004686941717923942,0.9999759406742811,24.445174211962783,0.01826349729892492,42.12472039109971,-15.15807794534356,-42.55743408203125,5356.25390625,True
1599560873.9386787,0.0,10,0.5,0.5,-3.544196681213379,-0.1005,-0.00825,-0.12575,0.09361395533538175,10,1,100,0.01430179356254184,-10,-1,-100,15019.602023171727,-0.004726098554026988,0.005079971821457775,0.9999759286496606,24.66767520669887,0.018519427879805258,44.077061066654935,-15.71514092905983,-50.40203857421875,5356.25390625,True
1599560873.9850726,0.0,10,0.5,0.5,-4.496090895080567,-0.1005,-0.00825,-0.12575,0.05456282604855435,10,1,100,0.052926309510497434,-10,-1,-100,15019.602023171727,-0.004726098554026988,0.005079971821457775,0.9999759286496606,24.66767520669887,0.018519427879805258,44.077061066654935,-15.71514092905983,-50.40203857421875,5356.25390625,True
1599560874.028956,0.0,10,0.5,0.5,-1.880109744262695,-0.1005,-0.00825,-0.12575,0.10394656418145624,10,1,100,-0.014531616088504375,-10,-1,-100,15018.33639762085,-0.004114102638792827,0.005526872155987467,0.9999762636401169,24.346865124255086,0.01794604926069496,45.56954810683439,-16.457874065418352,-61.82666015625,5356.25390625,True
1599560874.17884,0.0,10,0.5,0.5,-1.89281109161377,-0.1005,-0.00825,-0.12575,0.08261491452478842,10,1,100,0.008164870260504671,-10,-1,-100,15017.640108072548,-0.003765841293613798,0.005736959638740224,0.9999764525894871,23.97369555719882,0.0173491972531039,45.88871987677266,-16.829249696287082,-67.95223999023438,5356.25390625,True
1599560874.3090076,0.0,10,0.5,0.5,0.33915066909790026,-0.1005,-0.00825,-0.12575,0.09338898449633018,10,1,100,-0.03610942034817363,-10,-1,-100,15016.245574834524,-0.003048830004637893,0.00602344190060426,0.9999772111319702,22.595895863516976,0.01567387186561619,45.171129821603266,-17.57205000866027,-81.03143310546875,5356.25390625,True
1599560874.3608675,0.0,10,0.5,0.5,1.954263455581665,-0.1005,-0.00825,-0.12575,0.08266569099101224,10,1,100,-0.047506584500588415,-10,-1,-100,15014.7826815343,-0.002296055753864098,0.0061838845996868815,0.9999782436129463,20.60352830621156,0.014079328155906798,42.94034982277373,-18.31492929049416,-95.2136459350586,5356.25390625,True
1599560874.4220507,0.0,10,0.5,0.5,1.0592821474075318,-0.1005,-0.00825,-0.12575,0.06883686512613639,10,1,100,0.007795397524791629,-10,-1,-100,15014.46432114439,-0.002117720572539625,0.0062015842874293785,0.9999785275754187,21.396957549506073,0.014701635256618505,45.049051765106064,-18.50064418453951,-98.87615966796875,5356.25390625,True
1599560874.4818907,0.0,10,0.5,0.5,3.104770772743225,-0.1005,-0.00825,-0.12575,0.06867416197583766,10,1,100,-0.03199287058339043,-10,-1,-100,15013.319787931046,-0.001597200658226767,0.006213972735356523,0.9999794175346318,23.495112019868536,0.01665471604721806,50.96585846160017,-19.05772292569082,-109.6893081665039,5356.25390625,True
1599560874.547713,0.0,10,0.5,0.5,1.8082345664978028,-0.1005,-0.00825,-0.12575,0.06764168099218053,10,1,100,0.019666135364250003,-10,-1,-100,15013.319787931046,-0.001597200658226767,0.006213972735356523,0.9999794175346318,23.495112019868536,0.01665471604721806,50.96585846160017,-19.05772292569082,-109.6893081665039,5356.25390625,True
1599560874.595587,0.0,10,0.5,0.5,4.931389946937561,-0.1005,-0.00825,-0.12575,0.05904575742526927,10,1,100,-0.052368993477021564,-10,-1,-100,15011.733846564894,-0.0009458252765017934,0.006134075214722923,0.9999807390824118,25.307238021539167,0.018784576648229412,57.05027113031842,-19.80034392574349,-123.22217559814453,5356.25390625,True
1599560874.6554267,0.0,10,0.5,0.5,4.022881014251709,-0.1005,-0.00825,-0.12575,0.06362671044721434,10,1,100,-0.003831755801993259,-10,-1,-100,15011.346150573809,-0.0007987024950158212,0.00610177055662206,0.9999810650559334,25.64800385769157,0.01919792080673706,58.36414472253077,-19.985976753478084,-126.43411254882812,5356.25390625,True
1599560874.7142699,0.0,10,0.5,0.5,5.768280595779419,-0.1005,-0.00825,-0.12575,0.05378594576373827,10,1,100,-0.03474912097905643,-10,-1,-100,15010.136186960735,-0.0003874579157452823,0.005982012280557708,0.9999820325413045,26.32032606538964,0.019960619201618953,61.57434982261502,-20.542839146338235,-135.6565399169922,5356.25390625,True
1599560875.0773284,0.0,10,0.5,0.5,5.343218151855469,-0.1005,-0.00825,-0.12575,0.06101659560869581,10,1,100,-0.00755773292545528,-10,-1,-100,15009.691850115196,-0.0002647378629305135,0.005938054264126911,0.9999823345566763,26.453952323643023,0.020063353631922003,62.45005038593986,-20.728451727411002,-138.5927734375,5356.25390625,True
1599560875.1137493,0.0,10,0.5,0.5,6.3192272468566895,-0.1005,-0.00825,-0.12575,0.05340937153004856,10,1,100,-0.02159461545808128,-10,-1,-100,15008.862747042673,-2.906557805308938e-05,0.005828562046558358,0.9999830133655581,26.574531507811738,0.020031308665429425,63.86633790110123,-21.09967107520758,-144.2586669921875,5356.25390625,True
1599560875.1566308,0.0,10,0.5,0.5,7.475471770477296,-0.1005,-0.00825,-0.12575,0.046616241451677885,10,1,100,-0.03118866278413819,-10,-1,-100,15007.581494829152,0.0002690034968763947,0.005667184664049195,0.9999839051980297,26.440916755001833,0.019479816221042365,65.23511138545936,-21.656498913997492,-152.24000549316406,5356.25390625,True
1599560875.2045069,0.0,10,0.5,0.5,6.530565526199341,-0.1005,-0.00825,-0.12575,0.0627183539789386,10,1,100,-0.001713538641341211,-10,-1,-100,15007.581494829152,0.0002690034968763947,0.005667184664049195,0.9999839051980297,26.440916755001833,0.019479816221042365,65.23511138545936,-21.656498913997492,-152.24000549316406,5356.25390625,True
1599560875.2543721,0.0,10,0.5,0.5,8.766837183570862,-0.1005,-0.00825,-0.12575,0.037562068982891154,10,1,100,-0.036890190319619,-10,-1,-100,15005.796335263178,0.0005864593673600651,0.005438960891299344,0.9999850367729676,25.820186337754713,0.018153916126047234,65.90608436920378,-22.398961367644365,-161.9161376953125,5356.25390625,True
1599560875.2962618,0.0,10,0.5,0.5,7.602071541023255,-0.1005,-0.00825,-0.12575,0.060308183918263314,10,1,100,-0.005415021265241933,-10,-1,-100,15005.796335263178,0.0005864593673600651,0.005438960891299344,0.9999850367729676,25.820186337754713,0.018153916126047234,65.90608436920378,-22.398961367644365,-161.9161376953125,5356.25390625,True
1599560875.3371594,0.0,10,0.5,0.5,9.584675200653077,-0.1005,-0.00825,-0.12575,0.034336011697067376,10,1,100,-0.030425979129716785,-10,-1,-100,15004.005316954805,0.0008118465661047575,0.005203554790964887,0.9999861318651826,24.881455079130692,0.016669570752407374,65.63489894628138,-23.141468807620512,-170.48858642578125,5356.25390625,True
1599560875.377057,0.0,10,0.5,0.5,9.43298103618622,-0.1005,-0.00825,-0.12575,0.044282364585947226,10,1,100,-0.01626936500403415,-10,-1,-100,15003.048284113873,0.0008858574845261526,0.005080889196872827,0.9999866998222957,24.348552979653803,0.016011182574415007,65.26976401099333,-23.512738773630588,-174.36099243164062,5356.25390625,True
1599560875.4159484,0.0,10,0.5,0.5,9.8018538105011,-0.1005,-0.00825,-0.12575,0.04497972142211036,10,1,100,-0.016048155125595397,-10,-1,-100,15002.089298301842,0.000949463972595225,0.0049766720698613915,0.9999871655442754,23.798424003404048,0.015458662198259136,64.81269565793485,-23.884017297528988,-177.95718383789062,5356.25390625,True
1599560875.4578364,0.0,10,0.5,0.5,9.775555279159548,-0.1005,-0.00825,-0.12575,0.04931269309549961,10,1,100,-0.012209596969690746,-10,-1,-100,15001.640078656259,0.0009708028271792384,0.004922342695506135,0.9999874139629251,23.522186335747133,0.015229198132737848,64.56347947528444,-24.06965897691788,-179.65184020996094,5356.25390625,True
1599560875.496736,0.0,10,0.5,0.5,-71.4834469379425,-0.1005,-0.00825,-0.12575,0.048873289042245194,10,1,100,-0.012065976330327889,-10,-1,-100,15001.128359601018,0.0009876613612223842,0.004869921108867272,0.9999876541205042,23.24767270830653,0.015033212028256356,64.30732606888908,-24.25530187682236,178.72250366210938,5356.25390625,True
1599560875.5386302,0.0,10,0.5,0.5,-25.990882817459106,-0.1005,-0.00825,-0.12575,0.043167525960330626,10,1,100,-0.012687274634479256,-10,-1,-100,15000.167420741986,0.0010074969229137538,0.004771365577682955,0.9999881094395446,23.565155704120972,0.015296166201827988,66.19409264532526,-24.626578655719932,175.67819213867188,5356.25390625,True
1599560875.579523,0.0,10,0.5,0.5,-26.011315734481812,-0.1005,-0.00825,-0.12575,0.042758184705070125,10,1,100,-0.01071602175820385,-10,-1,-100,14999.142028976115,0.0010066664414843435,0.004679009443802912,0.999988546681061,24.205851597865657,0.015882813536728258,69.03015591550233,-24.99783191776979,172.90985107421875,5356.25390625,True
1599560875.6264327,0.0,10,0.5,0.5,-25.667501675415043,-0.1005,-0.00825,-0.12575,0.03813628386308556,10,1,100,-0.006972742346672764,-10,-1,-100,14997.604918064782,0.0009712110428576807,0.00455393038282142,0.9999891591748274,25.065516648777212,0.016884711658691272,73.0921789010015,-25.554667068260436,168.66595458984375,5356.25390625,True
1599560875.6662915,0.0,10,0.5,0.5,-25.37771581687927,-0.1005,-0.00825,-0.12575,0.038754219207874877,10,1,100,-0.002094963734663474,-10,-1,-100,14996.067807629006,0.0008939970498642834,0.004446851788955627,0.9999897130863108,26.005961160629745,0.0181555675922985,77.50615176599443,-26.111442751935765,163.85621643066406,5356.25390625,True
1599560875.7091775,0.0,10,0.5,0.5,-25.448466526794437,-0.1005,-0.00825,-0.12575,0.042499972104460076,10,1,100,-0.0019757616355174585,-10,-1,-100,14995.039486065973,0.0008224392756212273,0.00438446182913963,0.999990049994552,26.637036730602112,0.019109177686765854,80.52874085980453,-26.482589704515593,160.30776977539062,5356.25390625,True
1599560875.749588,0.0,10,0.5,0.5,-26.1605184173584,-0.1005,-0.00825,-0.12575,0.04863351817984381,10,1,100,-0.009155137050649178,-10,-1,-100,14995.039486065973,0.0008224392756212273,0.00438446182913963,0.999990049994552,26.637036730602112,0.019109177686765854,80.52874085980453,-26.482589704515593,160.30776977539062,5356.25390625,True
1599560875.78948,0.0,10,0.5,0.5,-25.1124369468689,-0.1005,-0.00825,-0.12575,0.03993321960858544,10,1,100,0.00630771191577844,-10,-1,-100,14993.434016416431,0.0006818582916450522,0.00430611283572985,0.9999904961855968,27.553889841530427,0.020618968799969804,85.0725885290065,-27.03925168900547,154.46914672851562,5356.25390625,True
1599560875.8213935,0.0,10,0.5,0.5,-25.15943525543213,-0.1005,-0.00825,-0.12575,0.04341749475644578,10,1,100,0.004794649058649174,-10,-1,-100,14992.343195441528,0.0005679979678159601,0.004267266048848001,0.9999907338664579,28.168245654597886,0.021646256823466156,88.17733144542447,-27.41031916654677,150.2327117919922,5356.25390625,True
1599560875.8622868,0.0,10,0.5,0.5,-25.962923612594604,-0.1005,-0.00825,-0.12575,0.04723123284252935,10,1,100,-0.0065532367237821154,-10,-1,-100,14992.343195441528,0.0005679979678159601,0.004267266048848001,0.9999907338664579,28.168245654597886,0.021646256823466156,88.17733144542447,-27.41031916654677,150.2327117919922,5356.25390625,True
1599560875.900185,0.0,10,0.5,0.5,-25.214319262313843,-0.1005,-0.00825,-0.12575,0.04382692008572821,10,1,100,0.007756147241439469,-10,-1,-100,14991.192804635153,0.0004382788452770032,0.004236913275283134,0.999990928197627,28.716829990413117,0.022586367259248997,91.12623052105691,-27.781355277410807,145.7210693359375,5356.25390625,True
1599560875.9400785,0.0,10,0.5,0.5,-24.106572887802123,-0.1005,-0.00825,-0.12575,0.04425425186459375,10,1,100,0.01959404427813073,-10,-1,-100,14989.524835016811,0.0002132345631043449,0.004213780140789837,0.9999910992543615,29.369028249123186,0.02368247874620247,95.08563638075388,-28.337857234672402,138.43771362304688,5356.25390625,True
1599560875.976979,0.0,10,0.5,0.5,-24.41133753013611,-0.1005,-0.00825,-0.12575,0.04646225035938262,10,1,100,0.006166950078054336,-10,-1,-100,14988.945733469096,0.00013143540145699496,0.0042133296279639135,0.9999911152496213,29.529429520791037,0.023930207911168077,96.23848128625454,-28.52334633931454,135.8724365234375,5356.25390625,True
1599560876.0148797,0.0,10,0.5,0.5,-22.22619082374573,-0.1005,-0.00825,-0.12575,0.048603162409612655,10,1,100,0.03904883445465579,-10,-1,-100,14986.632257425925,-0.00024105802979149332,0.004232806252956837,0.9999910125807387,29.80713364929474,0.024158764293854735,99.70268784298017,-29.265266725530303,124.92359924316406,5356.25390625,True
1599560876.0527756,0.0,10,0.5,0.5,-23.566919668579104,-0.1005,-0.00825,-0.12575,0.04662338749733382,10,1,100,0.001920718237071877,-10,-1,-100,14986.632257425925,-0.00024105802979149332,0.004232806252956837,0.9999910125807387,29.80713364929474,0.024158764293854735,99.70268784298017,-29.265266725530303,124.92359924316406,5356.25390625,True
1599560876.0916743,0.0,10,0.5,0.5,-22.20291978530884,-0.1005,-0.00825,-0.12575,0.05022016676239284,10,1,100,0.02455859213105107,-10,-1,-100,14985.472101631225,-0.0004458250151188898,0.004265698833126464,0.9999908024844633,29.68624973146803,0.02377720454129428,100.57376214991098,-29.63621993434283,119.03683471679688,5356.25390625,True
1599560876.1305695,0.0,10,0.5,0.5,-20.058812059783936,-0.1005,-0.00825,-0.12575,0.05834080392136154,10,1,100,0.0553478112064359,-10,-1,-100,14983.034603442647,-0.0009107258440193486,0.00436953311926767,0.9999900388297659,28.81425779361796,0.022157679870520617,100.09839325010621,-30.378157763877997,106.43873596191406,5356.25390625,True
1599560876.166473,0.0,10,0.5,0.5,-21.59858102531433,-0.1005,-0.00825,-0.12575,0.047955882436253754,10,1,100,0.009031044828354077,-10,-1,-100,14983.034603442647,-0.0009107258440193486,0.00436953311926767,0.9999900388297659,28.81425779361796,0.022157679870520617,100.09839325010621,-30.378157763877997,106.43873596191406,5356.25390625,True
1599560876.1973906,0.0,10,0.5,0.5,-19.258059444427488,-0.1005,-0.00825,-0.12575,0.06153200499478883,10,1,100,0.05269225933612713,-10,-1,-100,14981.17327811115,-0.0013061981721484996,0.004492894760451136,0.9999890538115939,27.536999145971475,0.020531114170016292,97.44089143326813,-30.934670289331365,96.26902770996094,5356.25390625,True
