Timestamp,Input Throttle,horizon,dT,dt,Input Roll,Roll P,Roll I,Roll D,Input Pitch,Pitch P,Pitch I,Pitch D,Input Yaw,Yaw P,Yaw I,Yaw D,Altitude,Direction X,Direction Y,Direction Z,Drag X,Drag Y,Drag Z,Vertical Velocity,Roll,Mass,Has Fuel
1599561986.5223465,0.0,10,0.5,0.5,-8.746345260620117,-0.15025,-0.001,-0.5,-0.00030565205911549506,10,1,100,0.17497723036158586,-10,-1,-100,14993.974400522071,-0.016810773530814668,-7.495705998873442e-05,0.9998586861525658,28.644533531508923,0.027275177640591425,-87.50372924530778,27.008977448771937,-31.79180908203125,5356.25390625,True
1599561986.549865,0.0,10,0.5,0.5,-8.751978541564942,-0.15025,-0.001,-0.5,-0.0004473548266888428,10,1,100,0.1737276338736768,-10,-1,-100,14994.5134654477,-0.016846580996382383,-7.21415010869401e-05,0.9998580836820474,28.571860303976788,0.0274395678536833,-86.68234665156747,26.82300984576357,-31.791229248046875,5356.25390625,True
1599561986.5797768,0.0,10,0.5,0.5,-8.757906382751464,-0.15025,-0.001,-0.5,-0.00048215720420511076,10,1,100,0.17585231026198883,-10,-1,-100,14994.99295848643,-0.01688313340406825,-6.983270415265049e-05,0.9998574673071425,28.499303133739687,0.027602535083217312,-85.86436376088017,26.637046303093616,-31.790618896484375,5356.25390625,True
1599561986.6126895,0.0,10,0.5,0.5,-8.67384608001709,-0.15025,-0.001,-0.5,0.007368936626163548,10,1,100,0.18219821551027543,-10,-1,-100,14996.610150985769,-0.016958704610217944,3.703266703830281e-06,0.9998561908215747,28.28508968602523,0.028084984033080275,-83.43887928407871,26.07917894590299,-31.928375244140625,5356.25390625,True
1599561986.644611,0.0,10,0.5,0.5,-8.493555151367186,-0.15025,-0.001,-0.5,0.009563608009622733,10,1,100,0.1798056758495797,-10,-1,-100,14997.626754058641,-0.01699023834197478,9.050234072598373e-05,0.9998556513869434,28.160964475329,0.028412006217152664,-81.891184594901,25.707286158471117,-32.32049560546875,5356.25390625,True
1599561986.6735272,0.0,10,0.5,0.5,-8.695383282470702,-0.15025,-0.001,-0.5,0.0008927508414799863,10,1,100,0.17835132650809357,-10,-1,-100,14997.626754058641,-0.01699023834197478,9.050234072598373e-05,0.9998556513869434,28.160964475329,0.028412006217152664,-81.891184594901,25.707286158471117,-32.32049560546875,5356.25390625,True
1599561986.707446,0.0,10,0.5,0.5,-8.269662097167968,-0.15025,-0.001,-0.5,0.015655678788420318,10,1,100,0.18013498130560385,-10,-1,-100,14998.642379171331,-0.016991007714368532,0.00022462850175205404,0.9998556171762433,28.05715611251951,0.028741937347292305,-80.41210161422254,25.335407192310125,-32.98406982421875,5356.25390625,True
1599561986.7383225,0.0,10,0.5,0.5,-7.997323139953613,-0.15025,-0.001,-0.5,0.022617108551609394,10,1,100,0.1785849259001775,-10,-1,-100,14999.660932590254,-0.01696216936039137,0.0004096428928031531,0.999856048140576,27.971872835602248,0.02906631970610725,-78.99399752245378,24.96354103644413,-33.921905517578125,5356.25390625,True
1599561986.7732675,0.0,10,0.5,0.5,-7.683384951782227,-0.15025,-0.001,-0.5,0.030151835685899346,10,1,100,0.17605149931959752,-10,-1,-100,15000.61405534565,-0.016897501370261046,0.0006459629105315126,0.9998570183678066,27.901344392595234,0.029373523936146978,-77.62403951256334,24.59168691004505,-35.13446044921875,5356.25390625,True
1599561986.806182,0.0,10,0.5,0.5,-8.295148971557616,-0.15025,-0.001,-0.5,0.006584430204116545,10,1,100,0.18420804846965586,-10,-1,-100,15000.61405534565,-0.016897501370261046,0.0006459629105315126,0.9998570183678066,27.901344392595234,0.029373523936146978,-77.62403951256334,24.59168691004505,-35.13446044921875,5356.25390625,True
1599561986.8400884,0.0,10,0.5,0.5,-7.333436276245116,-0.15025,-0.001,-0.5,0.03777645739870701,10,1,100,0.17443231255902486,-10,-1,-100,15001.627723173588,-0.01679326967891871,0.0009289395551091246,0.9998585515785692,27.84062809711808,0.029649467278121323,-76.28681922462246,24.21984405260806,-36.62188720703125,5356.25390625,True
1599561986.878988,0.0,10,0.5,0.5,-6.290820745849609,-0.15025,-0.001,-0.5,0.06596760501803367,10,1,100,0.15943094128464144,-10,-1,-100,15003.056425222429,-0.01656215340597846,0.0014415615770689253,0.9998617989376215,27.753989497123573,0.029967111321079282,-74.30228769465002,23.66210116860967,-39.3682861328125,5356.25390625,True
1599561986.9138935,0.0,10,0.5,0.5,-6.249214819335938,-0.15025,-0.001,-0.5,0.057668173939720554,10,1,100,0.15903678517096037,-10,-1,-100,15003.948019494535,-0.016348723036445134,0.0018307561298857558,0.9998646746370583,27.687560137396964,0.030085312912439703,-72.96239692863963,23.290286712069108,-41.54290771484375,5356.25390625,True
1599561986.9483685,0.0,10,0.5,0.5,-5.7426283843994135,-0.15025,-0.001,-0.5,0.0647605405626898,10,1,100,0.15127343814845973,-10,-1,-100,15004.90113532159,-0.016084605373362672,0.0022473176118971054,0.9998681088191255,27.603392415001498,0.030103117422808835,-71.58203177135339,22.918484404537942,-43.99261474609375,5356.25390625,True
1599561986.9783256,0.0,10,0.5,0.5,-6.102801103210449,-0.15025,-0.001,-0.5,0.04775463555408185,10,1,100,0.16113991641981046,-10,-1,-100,15005.3747638372,-0.01593498829960622,0.002469371082424448,0.9998699807246684,27.551337059925984,0.030067303779214658,-70.86883615556285,22.732588168584346,-45.320526123046875,5356.25390625,True
1599561987.0142329,0.0,10,0.5,0.5,-4.904302697753906,-0.15025,-0.001,-0.5,0.07633059304275089,10,1,100,0.1386170137251284,-10,-1,-100,15006.265378078679,-0.015595178435369032,0.0029288566975811158,0.9998740981783727,27.420083601568148,0.029892638578563755,-69.380309811272,22.36080673841046,-48.1827392578125,5356.25390625,True
1599561987.0490317,0.0,10,0.5,0.5,-5.336183010864257,-0.15025,-0.001,-0.5,0.05707432091075044,10,1,100,0.15160025348312142,-10,-1,-100,15006.67943428806,-0.015405558065595713,0.0031689335516536686,0.9998763056702727,27.337742625277183,0.02974875650829075,-68.5982394782344,22.174922073151905,-49.71697998046875,5356.25390625,True
1599561987.079989,0.0,10,0.5,0.5,-3.9720851440429685,-0.15025,-0.001,-0.5,0.08678701137126368,10,1,100,0.12403106580092657,-10,-1,-100,15007.568093754468,-0.014983988250189808,0.003654623964042563,0.9998810548359238,27.13113967153742,0.029337298886475228,-66.94105833095445,21.803166301738916,-52.991943359375,5356.25390625,True
1599561987.113895,0.0,10,0.5,0.5,-3.299161203002929,-0.15025,-0.001,-0.5,0.09334819184847278,10,1,100,0.11362076212743745,-10,-1,-100,15008.457728737732,-0.01450790218561654,0.004152857815033241,0.9998861307899718,26.856772981496384,0.028751401562588364,-65.13693118835928,21.43143128234229,-56.5421142578125,5356.25390625,True
1599561987.1487675,0.0,10,0.5,0.5,-5.07210588684082,-0.15025,-0.001,-0.5,0.043875496239855157,10,1,100,0.16099040866629977,-10,-1,-100,15008.457728737732,-0.01450790218561654,0.004152857815033241,0.9998861307899718,26.856772981496384,0.028751401562588364,-65.13693118835928,21.43143128234229,-56.5421142578125,5356.25390625,True
1599561987.1797152,0.0,10,0.5,0.5,-1.271376391601562,-0.15025,-0.001,-0.5,0.1251108703994358,10,1,100,0.07133027575666684,-10,-1,-100,15009.696965833311,-0.013694982431151373,0.004888173130207154,0.9998942710205213,26.285117840578778,0.02753851749139431,-62.09588312697863,20.8738754926414,-62.38385009765625,5356.25390625,True
1599561987.215587,0.0,10,0.5,0.5,-2.833902421569824,-0.15025,-0.001,-0.5,0.07857929162515984,10,1,100,0.1196293231226065,-10,-1,-100,15010.11102072394,-0.013397863346098642,0.005130027942803568,0.9998970847397574,26.04400735166912,0.02704821306874357,-60.979884558272275,20.688038078232125,-64.46884155273438,5356.25390625,True
1599561987.249496,0.0,10,0.5,0.5,-1.0280124526977534,-0.15025,-0.001,-0.5,0.10711319698370689,10,1,100,0.07940299302159107,-10,-1,-100,15010.936200860073,-0.012764937804277728,0.005605941942636432,0.9999028101659626,25.473401988437423,0.025951627327436118,-58.57513029191507,20.316388318275553,-68.84542846679688,5356.25390625,True
1599561987.2814124,0.0,10,0.5,0.5,-1.7233268020629882,-0.15025,-0.001,-0.5,0.08418470965424583,10,1,100,0.10607805120135566,-10,-1,-100,15011.350255844649,-0.012435309463558546,0.005826718252386889,0.9999057017703983,25.139820414583664,0.0253526120458064,-57.2807737218866,20.13057693010089,-71.13723754882812,5356.25390625,True
1599561987.316317,0.0,10,0.5,0.5,-1.33157921295166,-0.15025,-0.001,-0.5,0.08771202109579046,10,1,100,0.10030031058833547,-10,-1,-100,15011.700833841343,-0.012086439962704382,0.00605623645559181,0.9999086158089758,24.771211034965592,0.02472589737292031,-55.92138185606385,19.944775184077795,-73.49777221679688,5356.25390625,True
1599561987.3512595,0.0,10,0.5,0.5,4.079197496032715,-0.15025,-0.001,-0.5,0.1554412217210957,10,1,100,-0.02936993870385496,-10,-1,-100,15013.28674090933,-0.010593964103214231,0.006877348586577998,0.9999202318190179,22.906246759509763,0.02205270391323111,-49.78996138168335,19.20166944696019,-83.62960815429688,5356.25390625,True
1599561987.387161,0.0,10,0.5,0.5,-0.9831757858276367,-0.15025,-0.001,-0.5,0.07372485781137664,10,1,100,0.11937752581194466,-10,-1,-100,15013.28674090933,-0.010593964103214231,0.006877348586577998,0.9999202318190179,22.906246759509763,0.02205270391323111,-49.78996138168335,19.20166944696019,-83.62960815429688,5356.25390625,True
1599561987.4230692,0.0,10,0.5,0.5,4.378576709747314,-0.15025,-0.001,-0.5,0.1301283283351915,10,1,100,-0.012414685448605592,-10,-1,-100,15014.400000516442,-0.009400227268084121,0.007386736123126384,0.9999285333746385,21.178607741550408,0.020155429535356005,-44.70265137675945,18.64444383466395,-91.87007141113281,5356.25390625,True
1599561987.4619315,0.0,10,0.5,0.5,0.2622328941345215,-0.15025,-0.001,-0.5,0.07956278589626131,10,1,100,0.10640062196619485,-10,-1,-100,15014.400000516442,-0.009400227268084121,0.007386736123126384,0.9999285333746385,21.178607741550408,0.020155429535356005,-44.70265137675945,18.64444383466395,-91.87007141113281,5356.25390625,True
1599561987.4988625,0.0,10,0.5,0.5,3.8095021800994875,-0.15025,-0.001,-0.5,0.11187632291374225,10,1,100,0.01436050014262319,-10,-1,-100,15015.1636585847,-0.008568142228703954,0.007677555661187035,0.9999338188489366,22.099801639674737,0.021114609846890873,-45.72032503216285,18.27297370112737,-97.31987762451172,5356.25390625,True
1599561987.5347686,0.0,10,0.5,0.5,7.9568085273742675,-0.15025,-0.001,-0.5,0.12993046558399216,10,1,100,-0.08723688935007798,-10,-1,-100,15016.562071425957,-0.0068934884338400755,0.008102861358384304,0.9999434101263026,23.69338090658534,0.023231424813814877,-47.02938595964899,17.530000399881235,-107.88217163085938,5356.25390625,True
1599561987.5716379,0.0,10,0.5,0.5,2.6802113563537597,-0.15025,-0.001,-0.5,0.08772136468708293,10,1,100,0.07954834073657877,-10,-1,-100,15016.562071425957,-0.0068934884338400755,0.008102861358384304,0.9999434101263026,23.69338090658534,0.023231424813814877,-47.02938595964899,17.530000399881235,-107.88217163085938,5356.25390625,True
1599561987.607541,0.0,10,0.5,0.5,7.52063327293396,-0.15025,-0.001,-0.5,0.11010343173288381,10,1,100,-0.05473575687626271,-10,-1,-100,15017.611859015306,-0.0056786369781890245,0.008303632119331966,0.9999494001076736,24.46103987625101,0.024563481617896153,-47.0132921643512,16.972739561769778,-115.3194351196289,5356.25390625,True
1599561987.6384568,0.0,10,0.5,0.5,5.332716304397583,-0.15025,-0.001,-0.5,0.09578675934717294,10,1,100,0.022810404035728177,-10,-1,-100,15017.961464067106,-0.005285633754820794,0.008353546980162746,0.99995113897063,24.691445427493324,0.024975538898096995,-46.93788149795816,16.78698128964076,-117.66632843017578,5356.25390625,True
1599561987.6733935,0.0,10,0.5,0.5,8.47495920791626,-0.15025,-0.001,-0.5,0.09894305363903083,10,1,100,-0.07196926074411619,-10,-1,-100,15018.944849016843,-0.00407322448622267,0.00842532059381873,0.9999562104488258,25.165442924737373,0.02589521561664962,-46.2540423262792,16.22969931321004,-124.296142578125,5356.25390625,True
1599561987.7103047,0.0,10,0.5,0.5,5.165131970977783,-0.15025,-0.001,-0.5,0.09200260068725509,10,1,100,0.04847034456804803,-10,-1,-100,15018.944849016843,-0.00407322448622267,0.00842532059381873,0.9999562104488258,25.165442924737373,0.02589521561664962,-46.2540423262792,16.22969931321004,-124.296142578125,5356.25390625,True
1599561987.7471964,0.0,10,0.5,0.5,9.077584511566162,-0.15025,-0.001,-0.5,0.09226154148756016,10,1,100,-0.07763286056128955,-10,-1,-100,15019.86769021675,-0.002932759657425957,0.008426267353814921,0.9999601976775245,25.36139724464641,0.0263198386504868,-45.016599024969956,15.672419238644189,-130.30673217773438,5356.25390625,True
1599561987.785095,0.0,10,0.5,0.5,6.076957424163818,-0.15025,-0.001,-0.5,0.09232175736466476,10,1,100,0.03564750187380292,-10,-1,-100,15019.86769021675,-0.002932759657425957,0.008426267353814921,0.9999601976775245,25.36139724464641,0.0263198386504868,-45.016599024969956,15.672419238644189,-130.30673217773438,5356.25390625,True
1599561987.8229938,0.0,10,0.5,0.5,10.664946510314941,-0.15025,-0.001,-0.5,0.08345561106362592,10,1,100,-0.11994103410464962,-10,-1,-100,15021.07568808226,-0.001524197937267896,0.008344720995413942,0.999964020578819,25.29202468592001,0.02617903398130876,-42.76881100662642,14.929408045341134,-137.35655212402344,5356.25390625,True
1599561987.8638842,0.0,10,0.5,0.5,9.168162867736816,-0.15025,-0.001,-0.5,0.0809913758684441,10,1,100,-0.054260557491596306,-10,-1,-100,15021.649903045967,-0.0008479425511799763,0.008247314908845683,0.9999656308044913,25.15258703679024,0.025857149546170317,-41.47647944709446,14.557923021262999,-140.4685516357422,5356.25390625,True
1599561988.152986,0.0,10,0.5,0.5,7.616477979278565,-0.15025,-0.001,-0.5,0.09078896045003586,10,1,100,0.01259296114944327,-10,-1,-100,15021.649903045967,-0.0008479425511799763,0.008247314908845683,0.9999656308044913,25.15258703679024,0.025857149546170317,-41.47647944709446,14.557923021262999,-140.4685516357422,5356.25390625,True
1599561988.1855674,0.0,10,0.5,0.5,9.463537081909179,-0.15025,-0.001,-0.5,0.0845453699807703,10,1,100,-0.05412945806512003,-10,-1,-100,15022.221189191332,-0.0002468710545772736,0.008190423674079213,0.9999664274438025,24.9636589859975,0.025407985966685694,-40.11630593564822,14.186455033662074,-143.3040771484375,5356.25390625,True
1599561988.2204738,0.0,10,0.5,0.5,11.19981824798584,-0.15025,-0.001,-0.5,0.06695489295019022,10,1,100,-0.1203845595605443,-10,-1,-100,15023.364741133759,0.0008958343037660742,0.007978711340090153,0.9999677683036848,24.540474741083877,0.024300540046854228,-37.37448221278444,13.443574201259532,-148.14913940429688,5356.25390625,True
1599561988.256483,0.0,10,0.5,0.5,9.456041884613036,-0.15025,-0.001,-0.5,0.08301246672361226,10,1,100,-0.03502496066937155,-10,-1,-100,15023.58739632892,0.0011526842111748608,0.00793251890783961,0.9999678727153618,24.433672308506747,0.023999412365316188,-36.69861076049021,13.257865524161158,-149.18792724609375,5356.25390625,True
1599561988.3362706,0.0,10,0.5,0.5,8.939800123596191,-0.15025,-0.001,-0.5,0.08758960714143425,10,1,100,-0.009983801725092462,-10,-1,-100,15023.58739632892,0.0011526842111748608,0.00793251890783961,0.9999678727153618,24.433672308506747,0.023999412365316188,-36.69861076049021,13.257865524161158,-149.18792724609375,5356.25390625,True
1599561988.3691819,0.0,10,0.5,0.5,11.196028258514405,-0.15025,-0.001,-0.5,0.06489746611960953,10,1,100,-0.11495574642980926,-10,-1,-100,15024.60692749999,0.002102223791492834,0.007726674718264821,0.9999679390625125,23.991789256598054,0.02273333058750091,-34.019098384174555,12.515074839903338,-152.6538848876953,5356.25390625,True
1599561988.403093,0.0,10,0.5,0.5,10.323932235717772,-0.15025,-0.001,-0.5,0.07228590227284323,10,1,100,-0.06736443272776704,-10,-1,-100,15025.114740181947,0.002527179241510866,0.007607346370840368,0.999967870306979,23.777463720897945,0.02209494609855877,-32.716221458097394,12.143703986794897,-153.97344970703125,5356.25390625,True
1599561988.4360042,0.0,10,0.5,0.5,10.344806147766114,-0.15025,-0.001,-0.5,0.07577395464030544,10,1,100,-0.06733435984882231,-10,-1,-100,15025.622553441557,0.0029082654072650916,0.007531320095597771,0.9999674100739178,23.577264721811574,0.02147138116170128,-31.45013757383656,11.77234778794575,-155.01657104492188,5356.25390625,True
1599561988.4649267,0.0,10,0.5,0.5,10.097738771057129,-0.15025,-0.001,-0.5,0.07781574853588799,10,1,100,-0.049697731835013054,-10,-1,-100,15025.846187260933,0.003089064371402766,0.0074815806510263585,0.9999672412795689,23.484171830086755,0.021168108991602347,-30.832577427494908,11.5866745570257,-155.43490600585938,5356.25390625,True
1599561988.4995568,0.0,10,0.5,0.5,10.29980167236328,-0.15025,-0.001,-0.5,0.07327834776231543,10,1,100,-0.06863479861707075,-10,-1,-100,15026.288571761572,0.003421388343811476,0.00739589854924204,0.9999667968420003,23.31507266922051,0.02058320857319608,-29.63084972930607,11.215336768777068,-156.06454467773438,5356.25390625,True
1599561988.5294762,0.0,10,0.5,0.5,10.124001705932617,-0.15025,-0.001,-0.5,0.07728004417132053,10,1,100,-0.05270644412791072,-10,-1,-100,15026.513181258808,0.0035748166134679468,0.007355158802574163,0.9999665606034879,23.239846591174484,0.0203027384986663,-29.046937806425547,11.029671882547426,-156.27593994140625,5356.25390625,True
1599561988.5643833,0.0,10,0.5,0.5,10.019884812927247,-0.15025,-0.001,-0.5,0.08126480322748104,10,1,100,-0.03780589307872842,-10,-1,-100,15026.513181258808,0.0035748166134679468,0.007355158802574163,0.9999665606034879,23.239846591174484,0.0203027384986663,-29.046937806425547,11.029671882547426,-156.27593994140625,5356.25390625,True
1599561988.5990536,0.0,10,0.5,0.5,10.12246605682373,-0.15025,-0.001,-0.5,0.06653065194492887,10,1,100,-0.09581473869957807,-10,-1,-100,15027.339355880162,0.004098695493959266,0.007221971304434148,0.9999655213184732,23.00797661519634,0.0192698151026921,-26.823161113116914,10.287033103574421,-156.43170166015625,5356.25390625,True
1599561988.6279767,0.0,10,0.5,0.5,10.045413453674316,-0.15025,-0.001,-0.5,0.07977372775536479,10,1,100,-0.04374713676946545,-10,-1,-100,15027.339355880162,0.004098695493959266,0.007221971304434148,0.9999655213184732,23.00797661519634,0.0192698151026921,-26.823161113116914,10.287033103574421,-156.43170166015625,5356.25390625,True
1599561988.6618872,0.0,10,0.5,0.5,9.959399465942383,-0.15025,-0.001,-0.5,0.07613259007418341,10,1,100,-0.05614115718051953,-10,-1,-100,15027.56298954098,0.004208690214711772,0.007189516005153777,0.9999652982910398,22.967876981172093,0.0190346521657073,-26.29370368745467,10.10137760666911,-156.29830932617188,5356.25390625,True
1599561988.6977901,0.0,10,0.5,0.5,9.497446655273437,-0.15025,-0.001,-0.5,0.07105240692203424,10,1,100,-0.07586566634372673,-10,-1,-100,15028.104983220343,0.0044852209477854454,0.00711450316160907,0.9999646326934835,22.88955137469739,0.01838470994216368,-24.760700828142102,9.544418021625841,-155.48422241210938,5356.25390625,True
1599561988.7267122,0.0,10,0.5,0.5,9.638684210205076,-0.15025,-0.001,-0.5,0.07559117832251,10,1,100,-0.05677310443164195,-10,-1,-100,15028.326663676533,0.0045608774176004755,0.007088127745260622,0.9999644777902106,22.87654686868409,0.01818621045627301,-24.265744482267664,9.358766579289723,-155.07501220703125,5356.25390625,True
1599561988.7616196,0.0,10,0.5,0.5,9.176659059143066,-0.15025,-0.001,-0.5,0.07377735418843386,10,1,100,-0.06310930941291747,-10,-1,-100,15028.70752414118,0.0046854090734656535,0.007048132800657322,0.999964184741553,22.867719881294974,0.01781559085072714,-23.294899282673967,8.987465360682384,-154.04965209960938,5356.25390625,True
1599561988.7945313,0.0,10,0.5,0.5,9.288571102905273,-0.15025,-0.001,-0.5,0.07616481598677069,10,1,100,-0.056179931413256196,-10,-1,-100,15028.865726980614,0.004734009739104167,0.007033917219452785,0.999964055934182,22.870942478897927,0.01764324183970954,-22.81733531483325,8.80181531208217,-153.4334716796875,5356.25390625,True
1599561988.826446,0.0,10,0.5,0.5,8.660744513702392,-0.15025,-0.001,-0.5,0.0739158285023806,10,1,100,-0.05957393727827197,-10,-1,-100,15029.185063095298,0.004807551356305048,0.00700095558980109,0.999963936385101,22.88891705513613,0.017323392433019093,-21.872743243820118,8.430515654030527,-151.9944610595703,5356.25390625,True
1599561988.8613527,0.0,10,0.5,0.5,8.264765666961669,-0.15025,-0.001,-0.5,0.07468761440600274,10,1,100,-0.056504826055429155,-10,-1,-100,15029.504399095662,0.004845246212632284,0.0069783657464774235,0.9999639123491644,22.917287814597522,0.017036867540246067,-20.936039109978648,8.059216057738208,-150.2796173095703,5356.25390625,True
1599561988.8962593,0.0,10,0.5,0.5,8.496817676544188,-0.15025,-0.001,-0.5,0.07570257237930031,10,1,100,-0.053526716290516606,-10,-1,-100,15029.663579321117,0.004851285602704054,0.006967398955082338,0.9999639595404435,22.932980930377436,0.01690608085143319,-20.46810235371997,7.873566163439921,-149.3188018798828,5356.25390625,True
1599561988.9281743,0.0,10,0.5,0.5,6.833262576293945,-0.15025,-0.001,-0.5,0.07410199566565898,10,1,100,-0.04940872970157628,-10,-1,-100,15030.13916405954,0.004818179289243263,0.006943230956278696,0.9999642877084285,22.973171484904586,0.01656367485890399,-19.054483750580207,7.316616132208352,-146.02273559570312,5356.25390625,True
1599561988.9640794,0.0,10,0.5,0.5,6.827334323883056,-0.15025,-0.001,-0.5,0.07487485464923242,10,1,100,-0.04565752786677052,-10,-1,-100,15030.394045649562,0.004753326729603142,0.006928539439351648,0.9999646999900741,22.980756163672634,0.016375138837751477,-18.09402374172252,6.945315818658744,-143.4807586669922,5356.25390625,True
1599561988.998986,0.0,10,0.5,0.5,8.097027693939209,-0.15025,-0.001,-0.5,0.07631466315542897,10,1,100,-0.052208246954346955,-10,-1,-100,15030.394045649562,0.004753326729603142,0.006928539439351648,0.9999646999900741,22.980756163672634,0.016375138837751477,-18.09402374172252,6.945315818658744,-143.4807586669922,5356.25390625,True
1599561989.0299017,0.0,10,0.5,0.5,5.280330922698974,-0.15025,-0.001,-0.5,0.07345801171132925,10,1,100,-0.03488161915375326,-10,-1,-100,15030.808106301236,0.00459531680731148,0.00690280713219238,0.9999656165674577,22.931954345960495,0.01614205872949842,-16.608407378605413,6.388365485770567,-139.15101623535156,5356.25390625,True
1599561989.0658062,0.0,10,0.5,0.5,7.443568817901611,-0.15025,-0.001,-0.5,0.0760100728243144,10,1,100,-0.050693620968872075,-10,-1,-100,15030.808106301236,0.00459531680731148,0.00690280713219238,0.9999656165674577,22.931954345960495,0.01614205872949842,-16.608407378605413,6.388365485770567,-139.15101623535156,5356.25390625,True
1599561989.1037047,0.0,10,0.5,0.5,4.2234393432617185,-0.15025,-0.001,-0.5,0.07182843226496816,10,1,100,-0.02546373211373044,-10,-1,-100,15031.159664846142,0.004365922872819546,0.0068649606913011125,0.9999669049684471,22.76684580281915,0.01594211828774848,-15.05189156411415,5.831414557519464,-134.20132446289062,5356.25390625,True
1599561989.1416042,0.0,10,0.5,0.5,3.0746809509277346,-0.15025,-0.001,-0.5,0.06928935160940398,10,1,100,-0.01547530860219739,-10,-1,-100,15031.508293783292,0.004066869524268075,0.00680763880463061,0.9999685578187838,22.42918422745263,0.015725005636586464,-13.412866222380698,5.274459593153272,-128.63174438476562,5356.25390625,True
1599561989.1775086,0.0,10,0.5,0.5,3.21876833076477,-0.15025,-0.001,-0.5,0.06861971419418778,10,1,100,-0.02032730280096439,-10,-1,-100,15031.698720165878,0.003839718373041743,0.006749646093350753,0.9999698489656728,22.07891141104098,0.015539632847797313,-12.27418942541805,4.903150887276249,-124.57450103759766,5356.25390625,True
1599561989.2084248,0.0,10,0.5,0.5,3.8583869628906244,-0.15025,-0.001,-0.5,0.07054211469257901,10,1,100,-0.02953295214707887,-10,-1,-100,15031.79442071647,0.003717784895967267,0.006714630278078486,0.9999705454740636,21.857915354350226,0.015424964534525864,-11.691348590492561,4.717493955345544,-122.44261169433594,5356.25390625,True
1599561989.2443283,0.0,10,0.5,0.5,3.490538544082641,-0.15025,-0.001,-0.5,0.06971560218392003,10,1,100,-0.027556092472495727,-10,-1,-100,15031.890122772544,0.0035899897936912282,0.006675523728178069,0.9999712742655339,21.603527562231733,0.015291846708856197,-11.100631082126178,4.531834692018191,-120.24190521240234,5356.25390625,True
1599561989.2802331,0.0,10,0.5,0.5,0.026406327056884837,-0.15025,-0.001,-0.5,0.0576332683391341,10,1,100,0.005668694089898875,-10,-1,-100,15032.112772524473,0.003172915546335799,0.006530398261704095,0.9999736429053915,20.62509166269502,0.014751388917669113,-9.295576364677448,3.9748382013667474,-113.22679138183594,5356.25390625,True
1599561989.3171344,0.0,10,0.5,0.5,3.530683647918701,-0.15025,-0.001,-0.5,0.07210453171707407,10,1,100,-0.03587420427135328,-10,-1,-100,15032.112772524473,0.003172915546335799,0.006530398261704095,0.9999736429053915,20.62509166269502,0.014751388917669113,-9.295576364677448,3.9748382013667474,-113.22679138183594,5356.25390625,True
1599561989.3470538,0.0,10,0.5,0.5,-1.4104207759857181,-0.15025,-0.001,-0.5,0.050659816829555934,10,1,100,0.013402595182015725,-10,-1,-100,15032.336398903863,0.0027263813796535967,0.006335808254706337,0.9999762119062295,19.511387789944244,0.014088537273307555,-7.561467169665923,3.417801327860328,-105.6326675415039,5356.25390625,True
1599561989.383956,0.0,10,0.5,0.5,-1.0100802188873292,-0.15025,-0.001,-0.5,0.05264498490254392,10,1,100,0.0037369808165642025,-10,-1,-100,15032.463347138488,0.0024101531272192897,0.006177494077357943,0.9999780146227353,18.597580193415016,0.013492028459435697,-6.42424442394676,3.046413443332431,-100.4147720336914,5356.25390625,True
1599561989.4208567,0.0,10,0.5,0.5,-0.10159839172363294,-0.15025,-0.001,-0.5,0.05889014459958207,10,1,100,-0.010792511368209664,-10,-1,-100,15032.559047543094,0.002256745702758857,0.006091005652518691,0.9999789031519484,18.072734281325566,0.013131754072269474,-5.862415852503023,2.8607076804059717,-97.80563354492188,5356.25390625,True
1599561989.4567611,0.0,10,0.5,0.5,-0.46488927154541015,-0.15025,-0.001,-0.5,0.05736377947740377,10,1,100,-0.008861126634864956,-10,-1,-100,15032.591272072634,0.002101852338495832,0.005999241766535635,0.9999797954533751,17.50793466344172,0.012734464277040395,-5.3105481608797644,2.6749942786055474,-95.24703979492188,5356.25390625,True
1599561989.4876778,0.0,10,0.5,0.5,-2.393836400604248,-0.15025,-0.001,-0.5,0.04425678267857033,10,1,100,0.010750951728836458,-10,-1,-100,15032.65572015813,0.001784806813617909,0.005797452552856885,0.9999816018350215,16.479460262899597,0.0119942659800388,-4.304534461223053,2.3035490595980224,-90.31916809082031,5356.25390625,True
1599561989.5235827,0.0,10,0.5,0.5,-4.577627676391602,-0.15025,-0.001,-0.5,0.026041895260785125,10,1,100,0.03181209362968621,-10,-1,-100,15032.813915776904,0.0013071932852762997,0.005449336278670678,0.99998429786664,16.706544414338737,0.012136962987713298,-3.308346309578746,1.7463547726775257,-83.17745971679688,5356.25390625,True
1599561989.5594864,0.0,10,0.5,0.5,-1.0109131935119628,-0.15025,-0.001,-0.5,0.060723491697937865,10,1,100,-0.015696006695698185,-10,-1,-100,15032.813915776904,0.0013071932852762997,0.005449336278670678,0.99998429786664,16.706544414338737,0.012136962987713298,-3.308346309578746,1.7463547726775257,-83.17745971679688,5356.25390625,True
1599561989.590404,0.0,10,0.5,0.5,-5.389580736541748,-0.15025,-0.001,-0.5,0.01865475220013333,10,1,100,0.034796103005032074,-10,-1,-100,15032.907659910386,0.0008503655530975618,0.005068043459599189,0.9999867958197837,17.894606280585283,0.012993590670612034,-2.4130114139729257,1.1891536403466954,-76.44967651367188,5356.25390625,True
1599561989.6253102,0.0,10,0.5,0.5,-4.729296430969239,-0.15025,-0.001,-0.5,0.025616477126209212,10,1,100,0.022459704854717787,-10,-1,-100,15032.912538558594,0.0005497072563384697,0.0047861633781972335,0.9999883951636886,18.52447130572109,0.013468200631955982,-1.717668826424782,0.8176899869451586,-72.29861450195312,5356.25390625,True
1599561989.6612148,0.0,10,0.5,0.5,-2.6578582427978517,-0.15025,-0.001,-0.5,0.05363006177805407,10,1,100,-0.007343803992191689,-10,-1,-100,15032.912538558594,0.0005497072563384697,0.0047861633781972335,0.9999883951636886,18.52447130572109,0.013468200631955982,-1.717668826424782,0.8176899869451586,-72.29861450195312,5356.25390625,True
1599561989.6971178,0.0,10,0.5,0.5,-5.182483416748047,-0.15025,-0.001,-0.5,0.022763491925611105,10,1,100,0.02376785413430901,-10,-1,-100,15032.912534336676,0.0002692587354520973,0.0045071438657963946,0.9999898065249997,19.01464286437025,0.013845621477786955,-0.9621775594384285,0.4462270656441607,-68.42236328125,5356.25390625,True
1599561989.7270386,0.0,10,0.5,0.5,-5.58924077835083,-0.15025,-0.001,-0.5,0.017980696010301542,10,1,100,0.026104162242678215,-10,-1,-100,15032.973077859264,-4.699882116869008e-06,0.0042116722229190995,0.9999911308581679,19.36852929101297,0.01411524585713054,-0.16420262073053102,0.07475936247286574,-64.82196044921875,5356.25390625,True
1599561989.7629428,0.0,10,0.5,0.5,-4.895848735046386,-0.15025,-0.001,-0.5,0.029875687781953455,10,1,100,0.013781571813859656,-10,-1,-100,15032.944755531149,-0.000139534300545455,0.004052985038095157,0.9999917768874202,19.499623637239658,0.01421252749219471,0.24540608985755344,-0.11097821002163233,-63.12530517578125,5356.25390625,True
1599561989.799844,0.0,10,0.5,0.5,-8.015791667175293,-0.15025,-0.001,-0.5,-0.023380200775623923,10,1,100,0.05568734681420633,-10,-1,-100,15032.88224959583,-0.0006408941991170445,0.003426432265563072,0.9999939243898212,20.034940075021904,0.014606735806638255,1.940259680087028,-0.8539546479897915,-57.0279541015625,5356.25390625,True
1599561989.829764,0.0,10,0.5,0.5,-5.850029682922362,-0.15025,-0.001,-0.5,0.020948940674238414,10,1,100,0.018905513162363746,-10,-1,-100,15032.850998735288,-0.0007598022132220907,0.003262169948715355,0.9999943904581777,20.128078300798744,0.014675667440017567,2.3733072067725103,-1.039705503240034,-55.676025390625,5356.25390625,True
1599561989.865668,0.0,10,0.5,0.5,-5.177529641723632,-0.15025,-0.001,-0.5,0.03712164409859596,10,1,100,0.007269172654543132,-10,-1,-100,15032.850998735288,-0.0007598022132220907,0.003262169948715355,0.9999943904581777,20.128078300798744,0.014675667440017567,2.3733072067725103,-1.039705503240034,-55.676025390625,5356.25390625,True
1599561989.9005742,0.0,10,0.5,0.5,-7.548667770385743,-0.15025,-0.001,-0.5,-0.01580832776018031,10,1,100,0.04477073466687458,-10,-1,-100,15032.819745478919,-0.001098846417426469,0.0027829767193900757,0.9999955237785467,20.326683337844955,0.014823551355057004,3.681457170747176,-1.5969745169140364,-52.03375244140625,5356.25390625,True
1599561989.9374764,0.0,10,0.5,0.5,-7.695465101623535,-0.15025,-0.001,-0.5,-0.02293390578284775,10,1,100,0.04556438134280721,-10,-1,-100,15032.662516995915,-0.0014120960822091978,0.002284992492124009,0.9999963923904754,20.440097875429686,0.01491282279682756,4.994055123558893,-2.1542666904061303,-49.012115478515625,5356.25390625,True
1599561989.9743774,0.0,10,0.5,0.5,-6.187390376281738,-0.15025,-0.001,-0.5,0.02658621184701139,10,1,100,0.014465661028064996,-10,-1,-100,15032.662516995915,-0.0014120960822091978,0.002284992492124009,0.9999963923904754,20.440097875429686,0.01491282279682756,4.994055123558893,-2.1542666904061303,-49.012115478515625,5356.25390625,True
1599561990.011279,0.0,10,0.5,0.5,-6.7551555343627925,-0.15025,-0.001,-0.5,0.009537533466063777,10,1,100,0.025723847547184396,-10,-1,-100,15032.631265823497,-0.0015126597748025127,0.002132278298557279,0.9999965826189924,20.46985846318511,0.014938369185492609,5.432675095632758,-2.3400351329032523,-48.142547607421875,5356.25390625,True
1599561990.0466704,0.0,10,0.5,0.5,-7.749991497802734,-0.15025,-0.001,-0.5,-0.027475721237186772,10,1,100,0.047390729282926716,-10,-1,-100,15032.473062152858,-0.001799178086547601,0.0016593757026303743,0.9999970047107594,20.54900197565594,0.015014158748765803,6.752844548909546,-2.897352531698279,-45.94769287109375,5356.25390625,True
1599561990.0845335,0.0,10,0.5,0.5,-7.040857846069335,-0.15025,-0.001,-0.5,0.0018083490974900931,10,1,100,0.028774014603509722,-10,-1,-100,15032.378334704437,-0.0018885260212102542,0.0014982719531604013,0.9999970943210893,20.571686776488598,0.015039208619112258,7.193872061452952,-3.0831285065040372,-45.35400390625,5356.25390625,True
1599561990.381367,0.0,10,0.5,0.5,-7.635549308776856,-0.15025,-0.001,-0.5,-0.03186819134143226,10,1,100,0.04880500639944374,-10,-1,-100,15032.220132151037,-0.002150138772558345,0.001048130358988185,0.9999971391589125,20.650766911941083,0.015131378802265383,8.527369578794538,-3.6404645708638075,-43.985931396484375,5356.25390625,True
1599561990.4142776,0.0,10,0.5,0.5,-7.439745251464843,-0.15025,-0.001,-0.5,-0.03526459342691045,10,1,100,0.04972142029004402,-10,-1,-100,15031.937905765371,-0.002394471759632964,0.0006107660313991931,0.9999969467302625,20.750181011420167,0.015252389804435327,9.88074940934891,-4.197810305272183,-43.238037109375,5356.25390625,True
1599561990.4482882,0.0,10,0.5,0.5,-7.139786497497559,-0.15025,-0.001,-0.5,-0.006419289859200548,10,1,100,0.03431599986457374,-10,-1,-100,15031.842203510343,-0.0024749492189596917,0.0004779518262376213,0.9999968230891613,20.788036518809225,0.015299055162382526,10.337062942224506,-4.383593812053984,-43.126373291015625,5356.25390625,True
1599561990.4862201,0.0,10,0.5,0.5,-7.085209553527831,-0.15025,-0.001,-0.5,0.0065837088447088625,10,1,100,0.02643976863247475,-10,-1,-100,15031.842203510343,-0.0024749492189596917,0.0004779518262376213,0.9999968230891613,20.788036518809225,0.015299055162382526,10.337062942224506,-4.383593812053984,-43.126373291015625,5356.25390625,True
1599561990.5520115,0.0,10,0.5,0.5,-6.928843188476562,-0.15025,-0.001,-0.5,-0.049967740708090264,10,1,100,0.06018632476989247,-10,-1,-100,15031.461345807184,-0.002780176868385546,-3.3621153221936504e-05,0.9999961347356291,20.9686168773765,0.015516978480488195,12.195486092004908,-5.126731825050635,-43.3687744140625,5356.25390625,True
1599561990.585955,0.0,10,0.5,0.5,-6.70332177734375,-0.15025,-0.001,-0.5,-0.02578206574161278,10,1,100,0.04559416740000563,-10,-1,-100,15031.269940771163,-0.002923472091363752,-0.0002762571822420919,0.9999956884871556,21.07586166644699,0.015640203921270416,13.146854559255233,-5.498301609029279,-43.9033203125,5356.25390625,True
1599561990.620826,0.0,10,0.5,0.5,-6.444642822265625,-0.15025,-0.001,-0.5,-0.02422743995074166,10,1,100,0.047341978937623,-10,-1,-100,15031.017988846637,-0.003068255693495775,-0.00048037401991216284,0.9999951775122721,21.1915160721095,0.015766584449051574,14.112982654401288,-5.869870799228755,-44.71295166015625,5356.25390625,True
1599561990.6517782,0.0,10,0.5,0.5,-6.849888412475586,-0.15025,-0.001,-0.5,-0.004092292834938179,10,1,100,0.033029234685549365,-10,-1,-100,15031.017988846637,-0.003068255693495775,-0.00048037401991216284,0.9999951775122721,21.1915160721095,0.015766584449051574,14.112982654401288,-5.869870799228755,-44.71295166015625,5356.25390625,True
1599561990.6856868,0.0,10,0.5,0.5,-5.724497966003417,-0.15025,-0.001,-0.5,-0.03693300626894509,10,1,100,0.0554689309114981,-10,-1,-100,15030.670334073948,-0.0032708387538055877,-0.0007765508217499808,0.9999943492753687,21.372019502956288,0.015946628932655943,15.585812474240795,-6.427221513884602,-46.444183349609375,5356.25390625,True
1599561990.7206285,0.0,10,0.5,0.5,-6.590064161682128,-0.15025,-0.001,-0.5,-0.007558918737601338,10,1,100,0.03535779094724262,-10,-1,-100,15030.670334073948,-0.0032708387538055877,-0.0007765508217499808,0.9999943492753687,21.372019502956288,0.015946628932655943,15.585812474240795,-6.427221513884602,-46.444183349609375,5356.25390625,True
1599561990.7495515,0.0,10,0.5,0.5,-5.61553265838623,-0.15025,-0.001,-0.5,-0.027733031464443295,10,1,100,0.04963227222826297,-10,-1,-100,15030.416429376113,-0.0033993501175125043,-0.0009578838258349891,0.9999937634192299,21.488622223226358,0.016046339148839718,16.577666363773137,-6.798785301039757,-47.942718505859375,5356.25390625,True
1599561990.7854218,0.0,10,0.5,0.5,-5.810140252685547,-0.15025,-0.001,-0.5,-0.0180738545145924,10,1,100,0.04390823185505209,-10,-1,-100,15030.25822791818,-0.003463006252630553,-0.0010330976625637857,0.9999934701271374,21.543106970899426,0.016085733798510218,17.07430636683253,-6.984565798020899,-48.79510498046875,5356.25390625,True
1599561990.819331,0.0,10,0.5,0.5,-4.992785855102539,-0.15025,-0.001,-0.5,-0.027212293725471556,10,1,100,0.05096116427305786,-10,-1,-100,15029.942799444194,-0.0035840216388170155,-0.0011830561763307176,0.9999928775581235,21.63906417275672,0.016135321263488787,18.06372016613022,-7.356123466110608,-50.7066650390625,5356.25390625,True
1599561990.849278,0.0,10,0.5,0.5,-4.525802705383301,-0.15025,-0.001,-0.5,-0.02651152829487884,10,1,100,0.05162624540677515,-10,-1,-100,15029.62737126823,-0.003699073570729541,-0.0013115014958383871,0.9999922983796148,21.709294317147126,0.01613412339830243,19.038808313481397,-7.727676967188231,-52.893524169921875,5356.25390625,True
1599561990.8831587,0.0,10,0.5,0.5,-3.149397119140624,-0.15025,-0.001,-0.5,-0.032080946405311804,10,1,100,0.05768955745473888,-10,-1,-100,15029.149833889678,-0.0038576744144026257,-0.0014772742661019536,0.9999914679680298,21.74136128851028,0.01600578266084957,20.443922278231202,-8.284999301170886,-56.6903076171875,5356.25390625,True
1599561990.915106,0.0,10,0.5,0.5,-5.046456689453124,-0.15025,-0.001,-0.5,-0.015648034690243156,10,1,100,0.041937222842032135,-10,-1,-100,15029.149833889678,-0.0038576744144026257,-0.0014772742661019536,0.9999914679680298,21.74136128851028,0.01600578266084957,20.443922278231202,-8.284999301170886,-56.6903076171875,5356.25390625,True
1599561990.9510114,0.0,10,0.5,0.5,-2.1734852340698243,-0.15025,-0.001,-0.5,-0.029332147643415886,10,1,100,0.05715466295074767,-10,-1,-100,15028.674250443932,-0.003995165504188186,-0.0016005834592363786,0.9999907383497029,21.647570867117327,0.01568863388528066,21.727127750643987,-8.842314560090326,-61.106597900390625,5356.25390625,True
1599561990.9858854,0.0,10,0.5,0.5,-2.2416551574707033,-0.15025,-0.001,-0.5,-0.024614615417862532,10,1,100,0.05244339331892058,-10,-1,-100,15028.293392475345,-0.004076485034785093,-0.0016687776969087124,0.9999902986783218,21.492636941111968,0.015359354211583461,22.479560076281896,-9.21385707367334,-64.39508056640625,5356.25390625,True
1599561991.0208256,0.0,10,0.5,0.5,-1.5666188903808589,-0.15025,-0.001,-0.5,-0.022707067631374703,10,1,100,0.05174832982746119,-10,-1,-100,15027.914487198927,-0.0041431765496405685,-0.0017123507479364023,0.9999899509210053,21.247357890589825,0.01493439795792974,23.120779178620907,-9.585401391857133,-67.95880126953125,5356.25390625,True
1599561991.0527058,0.0,10,0.5,0.5,-3.346327780151367,-0.15025,-0.001,-0.5,-0.01844334252122435,10,1,100,0.045166412121497114,-10,-1,-100,15027.914487198927,-0.0041431765496405685,-0.0017123507479364023,0.9999899509210053,21.247357890589825,0.01493439795792974,23.120779178620907,-9.585401391857133,-67.95880126953125,5356.25390625,True
1599561991.0886497,0.0,10,0.5,0.5,-2.11834949798584,-0.15025,-0.001,-0.5,-0.020608754531450238,10,1,100,0.04849840956817425,-10,-1,-100,15027.692807152634,-0.0041726744011596015,-0.0017311855844601045,0.9999897958403445,21.08658270404821,0.014687044615761376,23.391387286621786,-9.771175091817268,-69.84396362304688,5356.25390625,True
1599561991.1285393,0.0,10,0.5,0.5,2.2921890838623047,-0.15025,-0.001,-0.5,-0.023275876289145098,10,1,100,0.05489951067934873,-10,-1,-100,15026.868589582271,-0.0042569794360206295,-0.0017718517229528552,0.9999893692772706,20.147911262281518,0.013499128698204261,24.053547210520804,-10.514287755506876,-78.072998046875,5356.25390625,True
1599561991.1654403,0.0,10,0.5,0.5,1.1246239990234375,-0.15025,-0.001,-0.5,-0.019597738888773704,10,1,100,0.048736607295035234,-10,-1,-100,15026.487730582245,-0.00427687218859745,-0.001774711732433444,0.9999892793238081,19.532029972911868,0.012859329682226674,24.144294529498264,-10.88585891315831,-82.60052490234375,5356.25390625,True
1599561991.2023337,0.0,10,0.5,0.5,0.34939733123779304,-0.15025,-0.001,-0.5,-0.019084401633552323,10,1,100,0.047168901449497105,-10,-1,-100,15026.267028013477,-0.004280074773662595,-0.0017721071700446006,0.9999892702404909,19.182560657552518,0.012539809938862709,24.118007293825194,-11.071648649879691,-84.88479614257812,5356.25390625,True
1599561991.2342534,0.0,10,0.5,0.5,2.0810621719360354,-0.15025,-0.001,-0.5,-0.018226395877369746,10,1,100,0.04651553315318195,-10,-1,-100,15025.759215230122,-0.004276518319934468,-0.0017615206012947138,0.9999893041609147,18.436027159415623,0.011941945948615442,23.959395992140863,-11.443235435546331,-89.29940795898438,5356.25390625,True
1599561991.2711022,0.0,10,0.5,0.5,1.2502009868621826,-0.15025,-0.001,-0.5,-0.01841912580116593,10,1,100,0.04605813620680205,-10,-1,-100,15025.539488278097,-0.004268746258936779,-0.0017533901323427887,0.9999893516575168,18.049924834903145,0.011674775181334283,23.83952612208503,-11.6290317254544,-91.41118621826172,5356.25390625,True
1599561991.3075535,0.0,10,0.5,0.5,4.12119178199768,-0.15025,-0.001,-0.5,-0.015597973863136994,10,1,100,0.041558058570881046,-10,-1,-100,15024.808042489341,-0.004220397250571839,-0.0017201009467078293,0.9999896146959629,19.183220318257014,0.01251166565042545,26.55428365824735,-12.186402759950003,-97.44487762451172,5356.25390625,True
1599561991.343495,0.0,10,0.5,0.5,1.1079799068450926,-0.15025,-0.001,-0.5,-0.01893884417538008,10,1,100,0.04641548258201335,-10,-1,-100,15024.808042489341,-0.004220397250571839,-0.0017201009467078293,0.9999896146959629,19.183220318257014,0.01251166565042545,26.55428365824735,-12.186402759950003,-97.44487762451172,5356.25390625,True
1599561991.3744087,0.0,10,0.5,0.5,3.5143305141448975,-0.15025,-0.001,-0.5,-0.01581704981422663,10,1,100,0.0406137124781659,-10,-1,-100,15024.304135886836,-0.004167523056704329,-0.0016916743404702533,0.9999898849435916,19.980844949665848,0.013211350242517987,28.50435428260025,-12.55796213487541,-101.14044952392578,5356.25390625,True
1599561991.4112766,0.0,10,0.5,0.5,2.8045606872558593,-0.15025,-0.001,-0.5,-0.01705206675473364,10,1,100,0.042434178551411794,-10,-1,-100,15024.080501980614,-0.004135983166120588,-0.0016770781946293081,0.9999900404763934,20.362935754602734,0.013578966017164712,29.480574427924182,-12.743734383879158,-102.88546752929688,5356.25390625,True
1599561991.4472175,0.0,10,0.5,0.5,4.0705960136413575,-0.15025,-0.001,-0.5,-0.014969580172427062,10,1,100,0.03712290408817494,-10,-1,-100,15023.57268838759,-0.0040590327644545975,-0.0016449093408923046,0.9999904092171472,21.045822725905328,0.01430624950474293,31.360546369036477,-13.115263528121973,-106.16889953613281,5356.25390625,True
1599561991.4841187,0.0,10,0.5,0.5,6.16476255722046,-0.15025,-0.001,-0.5,-0.01074899244248413,10,1,100,0.023089609752038026,-10,-1,-100,15022.493584605516,-0.003861605761372184,-0.0015773743819897,0.9999912999076557,22.148928367670386,0.015704051575381114,34.880891618325464,-13.858259719040927,-111.90861511230469,5356.25390625,True
1599561991.5157676,0.0,10,0.5,0.5,3.2982883308410647,-0.15025,-0.001,-0.5,-0.01748304059864828,10,1,100,0.04279277269281451,-10,-1,-100,15022.493584605516,-0.003861605761372184,-0.0015773743819897,0.9999912999076557,22.148928367670386,0.015704051575381114,34.880891618325464,-13.858259719040927,-111.90861511230469,5356.25390625,True
1599561991.5506742,0.0,10,0.5,0.5,4.8983828037261965,-0.15025,-0.001,-0.5,-0.013736612373217775,10,1,100,0.029592969273866416,-10,-1,-100,15021.925223811413,-0.0037419850634064973,-0.0015434953411680079,0.9999918075514004,22.641940355030208,0.016392678842857576,36.61675708665005,-14.229727120087183,-114.3648452758789,5356.25390625,True
1599561991.5855892,0.0,10,0.5,0.5,5.091068508148193,-0.15025,-0.001,-0.5,-0.013407750092345324,10,1,100,0.02692600111579821,-10,-1,-100,15021.293386556325,-0.0036094829817373037,-0.0015099143849847897,0.9999923458662846,23.066002948854102,0.01703535170210965,38.28016498774476,-14.601175021923234,-116.54531860351562,5356.25390625,True
1599561991.6234794,0.0,10,0.5,0.5,4.645253647613526,-0.15025,-0.001,-0.5,-0.01496133968227108,10,1,100,0.03203905994284102,-10,-1,-100,15021.008230107487,-0.0035361152925913325,-0.0014937385176505618,0.9999926322897976,23.25520233886255,0.017338375987466167,39.087046088328705,-14.78689206143283,-117.53216552734375,5356.25390625,True
1599561991.6573555,0.0,10,0.5,0.5,5.303363468170166,-0.15025,-0.001,-0.5,-0.012981990427708593,10,1,100,0.022814539756326947,-10,-1,-100,15020.435962992837,-0.0033862241470960903,-0.001461275146500416,0.9999931990573595,23.593584737431264,0.017907314553658866,40.656066098423665,-15.158313069061768,-119.29905700683594,5356.25390625,True
1599561991.6962833,0.0,10,0.5,0.5,4.929332079696655,-0.15025,-0.001,-0.5,-0.014473050480767156,10,1,100,0.028976179594278857,-10,-1,-100,15020.089281870518,-0.0033067327161758653,-0.0014455533784828224,0.9999934879258833,23.74481126147727,0.018173521239105737,41.420078012653164,-15.344017463939126,-120.07910919189453,5356.25390625,True
1599561991.7341814,0.0,10,0.5,0.5,5.421539154052734,-0.15025,-0.001,-0.5,-0.012670491976846054,10,1,100,0.018269406207456595,-10,-1,-100,15019.516038252856,-0.003137964079581273,-0.0014151235553113864,0.9999940752858281,24.016297155378236,0.018671424906302626,42.91217336589905,-15.715414363777612,-121.43238830566406,5356.25390625,True
1599561991.775039,0.0,10,0.5,0.5,5.969054695129395,-0.15025,-0.001,-0.5,-0.009279782007703017,10,1,100,-0.005114913070903164,-10,-1,-100,15018.1879104221,-0.002772889288307576,-0.0013568868534225614,0.9999952349601781,24.45783997668662,0.01954632469989509,45.77632471367668,-16.458165123305598,-123.31185913085938,5356.25390625,True
1599561991.813937,0.0,10,0.5,0.5,5.2248464206695555,-0.15025,-0.001,-0.5,-0.013420789824226172,10,1,100,0.020741482603634613,-10,-1,-100,15017.837324081804,-0.002677300433170752,-0.00134188100580221,0.999995515698824,24.550951820846105,0.019744237271571295,46.471530157457245,-16.643844516230153,-123.60941314697266,5356.25390625,True
1599561991.85187,0.0,10,0.5,0.5,5.389315520095825,-0.15025,-0.001,-0.5,-0.009694816113786937,10,1,100,-0.0019214025963310462,-10,-1,-100,15016.85294676898,-0.0023856313651660277,-0.001294642318175252,0.9999963163253439,24.796116425437916,0.02030106252002546,48.51440121397543,-17.200864656420382,-124.08846282958984,5356.25390625,True
1599561991.89173,0.0,10,0.5,0.5,5.15100866355896,-0.15025,-0.001,-0.5,-0.014390411670101291,10,1,100,0.027097906764520768,-10,-1,-100,15016.85294676898,-0.0023856313651660277,-0.001294642318175252,0.9999963163253439,24.796116425437916,0.02030106252002546,48.51440121397543,-17.200864656420382,-124.08846282958984,5356.25390625,True
1599561991.9435904,0.0,10,0.5,0.5,5.135850341796875,-0.15025,-0.001,-0.5,-0.011191887563796108,10,1,100,0.004002788350196303,-10,-1,-100,15016.155679518939,-0.0021770175381232654,-0.0012658218554486725,0.9999968291398074,24.933892370670907,0.020649775533141727,49.84270120932239,-17.57219717625505,-124.06327819824219,5356.25390625,True
1599561991.982486,0.0,10,0.5,0.5,4.5788165382385255,-0.15025,-0.001,-0.5,-0.0066567120712205715,10,1,100,-0.0215531000313518,-10,-1,-100,15014.699622758082,-0.0017564650441842108,-0.0011986449971153857,0.9999977390378036,25.14996773668627,0.021318967089135124,52.4113572881895,-18.314831380766435,-123.18577575683594,5356.25390625,True
1599561992.020383,0.0,10,0.5,0.5,4.464036953735351,-0.15025,-0.001,-0.5,-0.009117469442412816,10,1,100,-0.0031121637135690487,-10,-1,-100,15013.938879408175,-0.0015434740325263254,-0.0011602286196303903,0.9999981357769929,25.225576884473114,0.02164793891186527,53.640974386963,-18.68613465202983,-122.33349609375,5356.25390625,True
1599561992.059281,0.0,10,0.5,0.5,4.157190872955322,-0.15025,-0.001,-0.5,-0.008139346854926873,10,1,100,-0.004960497775474772,-10,-1,-100,15013.17911258468,-0.0013348542952382548,-0.0011167158073923588,0.9999984855537613,25.275644891639327,0.0219761734553982,54.82196073958947,-19.05742995829322,-121.20552062988281,5356.25390625,True
1599561992.1002042,0.0,10,0.5,0.5,4.721369251251221,-0.15025,-0.001,-0.5,-0.012456172144819217,10,1,100,0.015696338968146505,-10,-1,-100,15013.17911258468,-0.0013348542952382548,-0.0011167158073923588,0.9999984855537613,25.275644891639327,0.0219761734553982,54.82196073958947,-19.05742995829322,-121.20552062988281,5356.25390625,True
1599561992.1400917,0.0,10,0.5,0.5,3.808799223709106,-0.15025,-0.001,-0.5,-0.0075713612987608064,10,1,100,-0.008318021003705474,-10,-1,-100,15012.417393002543,-0.0011183345486040891,-0.001072607379311001,0.999998799419903,25.295857773156936,0.02230334612294853,55.94154006414582,-19.428718729213873,-119.80193328857422,5356.25390625,True
1599561992.1779947,0.0,10,0.5,0.5,3.4185007907867426,-0.15025,-0.001,-0.5,-0.006478883718351942,10,1,100,-0.010060487631947364,-10,-1,-100,15011.65469707537,-0.0009074938364353552,-0.0010228885723024136,0.9999990650765156,25.280660324950485,0.022626195495537658,56.98340291380512,-19.800002107935175,-118.12268829345703,5356.25390625,True
1599561992.2148657,0.0,10,0.5,0.5,2.283661631774902,-0.15025,-0.001,-0.5,-0.0025134960674971316,10,1,100,-0.024574139934626156,-10,-1,-100,15010.419345590635,-0.0005855739821229465,-0.0009419443129969451,0.999999384921822,25.176004663881933,0.0230853465312723,58.3547982011819,-20.35692064981282,-115.08702087402344,5356.25390625,True
1599561992.2488098,0.0,10,0.5,0.5,2.2606650444030763,-0.15025,-0.001,-0.5,-0.003994884352817681,10,1,100,-0.015624740004359068,-10,-1,-100,15009.597079527215,-0.0003761793197968646,-0.0008821893677610744,0.9999995401154137,25.039680732831748,0.023355584029953774,59.10508691145977,-20.72819786913003,-112.71873474121094,5356.25390625,True
1599561992.286689,0.0,10,0.5,0.5,3.4436711380004885,-0.15025,-0.001,-0.5,-0.009929133581363329,10,1,100,0.005113781023712205,-10,-1,-100,15009.597079527215,-0.0003761793197968646,-0.0008821893677610744,0.9999995401154137,25.039680732831748,0.023355584029953774,59.10508691145977,-20.72819786913003,-112.71873474121094,5356.25390625,True
1599561992.3266017,0.0,10,0.5,0.5,-0.17501724929809592,-0.15025,-0.001,-0.5,0.0046636083816746655,10,1,100,-0.03969452126630003,-10,-1,-100,15007.884188095224,2.9342108252911048e-05,-0.000749903034415651,0.9999997183922003,24.590241955033683,0.023739952968886355,60.13988064355722,-21.470757060593005,-107.15541076660156,5356.25390625,True
1599561992.3655064,0.0,10,0.5,0.5,0.5274103607177736,-0.15025,-0.001,-0.5,-0.0005160286435396105,10,1,100,-0.021687317423559525,-10,-1,-100,15007.058992759907,0.00023229031732199687,-0.0006771993578045168,0.9999997437210864,24.31369629046725,0.023852970669613314,60.500341050305224,-21.84204226156681,-103.96041870117188,5356.25390625,True
1599561992.6477451,0.0,10,0.5,0.5,2.122983857727051,-0.15025,-0.001,-0.5,-0.007734251740721946,10,1,100,-0.001591372052801564,-10,-1,-100,15007.058992759907,0.00023229031732199687,-0.0006771993578045168,0.9999997437210864,24.31369629046725,0.023852970669613314,60.500341050305224,-21.84204226156681,-103.96041870117188,5356.25390625,True
1599561992.6799698,0.0,10,0.5,0.5,-0.02807376785278337,-0.15025,-0.001,-0.5,0.0005929522596526586,10,1,100,-0.02130147253067806,-10,-1,-100,15006.172273925273,0.00040985871771192107,-0.0006019366207664075,0.9999997348440328,23.96363762074491,0.023844838023768477,60.65167169808076,-22.213332954405878,-100.65519714355469,5356.25390625,True
1599561992.7158394,0.0,10,0.5,0.5,-0.5887857387542725,-0.15025,-0.001,-0.5,0.001885687977076612,10,1,100,-0.02398373052033296,-10,-1,-100,15005.282625854714,0.0005940825970514875,-0.0005222317889248413,0.9999996871698642,23.553763534852113,0.023704989821822783,60.61968899477309,-22.584629532315134,-97.25455474853516,5356.25390625,True
1599561992.7507658,0.0,10,0.5,0.5,-1.163351226425171,-0.15025,-0.001,-0.5,0.0028731428509807385,10,1,100,-0.024188335896429013,-10,-1,-100,15004.334383792244,0.0007616653208771577,-0.000441336428413805,0.9999996125439728,23.1411741313346,0.023467471795905994,60.546087796111166,-22.955931339783916,-93.75975799560547,5356.25390625,True
1599561992.8116043,0.0,10,0.5,0.5,-0.5426632610321045,-0.15025,-0.001,-0.5,-0.0006841656458603917,10,1,100,-0.01642882830189976,-10,-1,-100,15003.856844394351,0.0008417631827052453,-0.00040070824242132515,0.99999956543373,22.913097622079786,0.02328524768325538,60.43878517889758,-23.141583929926938,-92.0310287475586,5356.25390625,True
1599561992.8714428,0.0,10,0.5,0.5,-1.8505129264831544,-0.15025,-0.001,-0.5,0.004353925390993496,10,1,100,-0.025432654849238207,-10,-1,-100,15002.969149221433,0.000994842155689183,-0.0003185383187566546,0.9999994544110635,22.43479726626867,0.02280896283076351,60.13588425841013,-23.51289121845145,-88.6944580078125,5356.25390625,True
1599561992.906808,0.0,10,0.5,0.5,-2.235194281768799,-0.15025,-0.001,-0.5,0.005373406329400456,10,1,100,-0.02636538679945711,-10,-1,-100,15001.956454469822,0.0011410474978240145,-0.00023513711234347286,0.9999993213603428,23.112226044102204,0.023388312881202224,62.93976758433211,-23.88418317881508,-85.54132080078125,5356.25390625,True
1599561992.9447062,0.0,10,0.5,0.5,-0.6613434196472168,-0.15025,-0.001,-0.5,-0.002902009086375955,10,1,100,-0.01189657526773605,-10,-1,-100,15001.956454469822,0.0011410474978240145,-0.00023513711234347286,0.9999993213603428,23.112226044102204,0.023388312881202224,62.93976758433211,-23.88418317881508,-85.54132080078125,5356.25390625,True
1599561992.9806132,0.0,10,0.5,0.5,-4.305504817962646,-0.15025,-0.001,-0.5,0.01467858924954456,10,1,100,-0.03997313838614943,-10,-1,-100,15000.05215823499,0.0013949096836117535,-7.590172043093875e-05,0.9999990242324758,24.562069540228368,0.024330945441537254,68.98911508202772,-24.626687314981954,-79.94125366210938,5356.25390625,True
1599561993.0185084,0.0,10,0.5,0.5,-2.3174530784606935,-0.15025,-0.001,-0.5,0.003322386612011923,10,1,100,-0.02129038114563738,-10,-1,-100,14999.516026429483,0.0014546088161638078,-3.499320750073597e-05,0.9999989414437733,24.87151472026103,0.02446076330020826,70.39036693871681,-24.812297003142056,-78.69671630859375,5356.25390625,True
1599561993.0534158,0.0,10,0.5,0.5,-3.212347971343994,-0.15025,-0.001,-0.5,0.007454851070054412,10,1,100,-0.02703807011490811,-10,-1,-100,14998.561925037298,0.001560021274114644,3.918038464501302e-05,0.9999987823985196,25.44022847704607,0.02462251312391064,73.08867280475718,-25.18349751062132,-76.36740112304688,5356.25390625,True
1599561993.0843334,0.0,10,0.5,0.5,-3.3956781806945804,-0.15025,-0.001,-0.5,0.007884151983000246,10,1,100,-0.027140827950464765,-10,-1,-100,14997.549230566714,0.0016555779153415622,0.00010986240422024739,0.9999986234950617,25.943885245726115,0.024669459624281093,75.64628772647069,-25.5546738923357,-74.29861450195312,5356.25390625,True
1599561993.1202435,0.0,10,0.5,0.5,-3.5313264503479003,-0.15025,-0.001,-0.5,0.00821581418280453,10,1,100,-0.027146300798375142,-10,-1,-100,14996.471105797682,0.0017413648703491916,0.00017648680653687516,0.9999984682492246,26.384589486022072,0.024618759578301765,78.06110933904698,-25.92582767763772,-72.5032958984375,5356.25390625,True
1599561993.1581416,0.0,10,0.5,0.5,-3.6243365341186524,-0.15025,-0.001,-0.5,0.008215398576810055,10,1,100,-0.026773604547171672,-10,-1,-100,14995.455480822362,0.0018149218796421889,0.00023641546804707635,0.9999983250817459,26.76893545069718,0.02448921758938662,80.34487178304919,-26.29696026571482,-70.98358154296875,5356.25390625,True
1599561993.1990688,0.0,10,0.5,0.5,-3.29358275680542,-0.15025,-0.001,-0.5,0.005390535926324854,10,1,100,-0.02314736316171809,-10,-1,-100,14994.91739457706,0.0018478685513510038,0.00026459936178242934,0.9999982576829795,26.94200065286258,0.024399890986523533,81.44147861399826,-26.482519131866507,-70.32717895507812,5356.25390625,True
1599561993.2349734,0.0,10,0.5,0.5,-3.6866408752441404,-0.15025,-0.001,-0.5,0.008330329421601427,10,1,100,-0.026305334383038614,-10,-1,-100,14993.838293332607,0.0019056142591267987,0.0003163416536768975,0.9999981342793862,27.253647667549643,0.024180190825159577,83.55151215286985,-26.85362288475165,-69.2213134765625,5356.25390625,True
1599561993.2708435,0.0,10,0.5,0.5,-3.427918695068359,-0.15025,-0.001,-0.5,0.005861768236171307,10,1,100,-0.023400454189493547,-10,-1,-100,14993.30020826892,0.0019308743807058047,0.0003403614719202915,0.99999807793725,27.393552305002636,0.02405237288061354,84.56755332803552,-27.03916814864401,-68.7718505859375,5356.25390625,True
1599561993.3067553,0.0,10,0.5,0.5,-3.6548281478881837,-0.15025,-0.001,-0.5,0.008389793664546154,10,1,100,-0.02566416562677136,-10,-1,-100,14992.22208354692,0.0019736992980411705,0.0003846565391410903,0.9999979782731702,27.644082393286645,0.023765460357872692,86.52630160648853,-27.410246314825628,-68.07986450195312,5356.25390625,True
1599561993.3416977,0.0,10,0.5,0.5,-3.4682621139526364,-0.15025,-0.001,-0.5,0.006052449566631323,10,1,100,-0.023396162016795674,-10,-1,-100,14991.681067579892,0.001991255870255163,0.00040311275058669573,0.999997936197955,27.755605491856446,0.023607740639767564,87.47059173659713,-27.595779743551617,-67.83737182617188,5356.25390625,True
1599561993.3785636,0.0,10,0.5,0.5,-3.529084883117676,-0.15025,-0.001,-0.5,0.008039630113696329,10,1,100,-0.024707129243847895,-10,-1,-100,14990.541419374174,0.002018592141435046,0.00043752093462782104,0.999997866928324,27.952939631739312,0.023266084206969788,89.29173594819024,-27.96683556803361,-67.55923461914062,5356.25390625,True
1599561993.4149754,0.0,10,0.5,0.5,-3.3260415267944334,-0.15025,-0.001,-0.5,0.009032544922710056,10,1,100,-0.02457396950824165,-10,-1,-100,14988.861732699792,0.0020417200418882727,0.00047739804189067016,0.9999978017327738,28.187481879655543,0.022691007135859146,91.85584766781865,-28.523394386055955,-67.65933227539062,5356.25390625,True
1599561993.451877,0.0,10,0.5,0.5,-3.265576480102539,-0.15025,-0.001,-0.5,0.0062508211949955685,10,1,100,-0.0226036736166189,-10,-1,-100,14988.258216591552,0.002044395717133023,0.00048796318037108705,0.9999977911666037,28.249466611719072,0.02248275538049049,92.6643981516375,-28.70890814503865,-67.83062744140625,5356.25390625,True
1599561993.4827938,0.0,10,0.5,0.5,-2.748730648803711,-0.15025,-0.001,-0.5,0.007609745950194621,10,1,100,-0.021619448524001647,-10,-1,-100,14986.514076307183,0.002037527177602829,0.0005095779851495021,0.9999977944042064,28.385801078769354,0.02180778956384634,94.94089687667842,-29.26543385093825,-68.7581787109375,5356.25390625,True
1599561993.5231323,0.0,10,0.5,0.5,-2.5866222579956055,-0.15025,-0.001,-0.5,0.006320978017513211,10,1,100,-0.020507580419737163,-10,-1,-100,14985.309974761796,0.0020209059204391085,0.0005172089253976733,0.999997824214727,28.432514258242755,0.021315229000517025,96.31940794418576,-29.63643985273673,-69.72128295898438,5356.25390625,True
1599561993.564983,0.0,10,0.5,0.5,-3.0683006118774414,-0.15025,-0.001,-0.5,0.005585963338431149,10,1,100,-0.02219030454018891,-10,-1,-100,14985.309974761796,0.0020209059204391085,0.0005172089253976733,0.999997824214727,28.432514258242755,0.021315229000517025,96.31940794418576,-29.63643985273673,-69.72128295898438,5356.25390625,True
1599561993.6033914,0.0,10,0.5,0.5,-1.2779710113525389,-0.15025,-0.001,-0.5,0.005443883468018998,10,1,100,-0.01545052113827862,-10,-1,-100,14982.900794696528,0.001959477855540753,0.0005156876451542763,0.9999979472542864,28.40422407740316,0.020231460416733456,98.6675956521858,-30.378432253662393,-72.47467041015625,5356.25390625,True
1599561993.6392963,0.0,10,0.5,0.5,-2.654339401245117,-0.15025,-0.001,-0.5,0.005615946091506441,10,1,100,-0.02159871398775556,-10,-1,-100,14982.900794696528,0.001959477855540753,0.0005156876451542763,0.9999979472542864,28.40422407740316,0.020231460416733456,98.6675956521858,-30.378432253662393,-72.47467041015625,5356.25390625,True
1599561993.6772296,0.0,10,0.5,0.5,-1.4898771545410154,-0.15025,-0.001,-0.5,0.004738294040879976,10,1,100,-0.016516279550283765,-10,-1,-100,14981.69376319379,0.0019132479029502505,0.0005075496027183684,0.9999980409360123,28.31926897154706,0.019647144416711424,99.59186774489027,-30.749422069165195,-74.264892578125,5356.25390625,True
