Timestamp,Input Throttle,horizon,dT,dt,Input Roll,Roll P,Roll I,Roll D,Input Pitch,Pitch P,Pitch I,Pitch D,Input Yaw,Yaw P,Yaw I,Yaw D,Altitude,Direction X,Direction Y,Direction Z,Drag X,Drag Y,Drag Z,Vertical Velocity,Roll,Mass,Has Fuel
1599558884.519698,0.0,10,0.5,0.5,-0.05843792724609376,-0.001,-0.0155,-0.37525,-0.0004933395896092986,10,1,100,0.1711677376742598,-10,-1,-100,14993.381625695969,-0.016777163479268296,-7.562722553375825e-05,0.9998592506278635,28.717056121865937,0.02710916914504538,-88.3276986131932,27.194950221645808,-31.791107177734375,5356.25390625,True
1599558884.5500941,0.0,10,0.5,0.5,-0.14890344848632814,-0.001,-0.0155,-0.37525,-0.00026239160168181787,10,1,100,0.17721680480264945,-10,-1,-100,14994.467565883999,-0.016847776694377748,-7.106864938640243e-05,0.9998580636118828,28.571707326214497,0.027439485497615986,-86.68188336988351,26.823011263472388,-31.78985595703125,5356.25390625,True
1599558884.5833476,0.0,10,0.5,0.5,-0.23891226043701175,-0.001,-0.0155,-0.37525,-0.00045581602677473185,10,1,100,0.17588088830882476,-10,-1,-100,14995.010535944253,-0.016884509670265772,-6.861828525384508e-05,0.9998574441512779,28.499125948327684,0.027602435870105666,-85.86383049400457,26.637047753734844,-31.7891845703125,5356.25390625,True
1599558884.6012995,0.0,10,0.5,0.5,-0.3284163146972656,-0.001,-0.0155,-0.37525,0.0031630521550343356,10,1,100,0.17583175508609578,-10,-1,-100,14995.536905141314,-0.016902107064802562,-3.342949958484338e-05,0.9998571486263618,28.426537536456866,0.027763839176914808,-85.04880223000812,26.451088138523605,-31.790435791015625,5356.25390625,True
1599558884.6182542,0.0,10,0.5,0.5,-0.403483332824707,-0.001,-0.0155,-0.37525,0.012926757247868638,10,1,100,0.1811939943177902,-10,-1,-100,14997.09550094395,-0.01695148677370159,8.735165141236532e-05,0.999856309409432,28.213477156220325,0.02824238048871619,-82.63576776135986,25.893232615867127,-31.83197021484375,5356.25390625,True
1599558884.6526604,0.0,10,0.5,0.5,-0.4943256256103515,-0.001,-0.0155,-0.37525,0.007514715923440756,10,1,100,0.17863504244346684,-10,-1,-100,14997.582806559978,-0.01695770377677622,0.00014787291150465396,0.9998561968684403,28.14492807529148,0.02840043918659535,-81.84456548036032,25.70728847613247,-31.87158203125,5356.25390625,True
1599558884.6846132,0.0,10,0.5,0.5,-0.5457128814697265,-0.001,-0.0155,-0.37525,0.018957957157962307,10,1,100,0.17829473588908967,-10,-1,-100,14998.600384402322,-0.01694484580746175,0.00030678727471010806,0.9998563787275297,28.013230490857453,0.028714842986626465,-80.2862595105222,25.33541143459332,-32.01397705078125,5356.25390625,True
1599558884.716636,0.0,10,0.5,0.5,-0.6463684310913086,-0.001,-0.0155,-0.37525,0.013949971685139262,10,1,100,0.1793672431250054,-10,-1,-100,14999.126750559197,-0.016927502404950136,0.0004054488394396658,0.9998566373603612,27.95073435188208,0.028871298435473248,-79.52078351293478,25.149478487786162,-32.127349853515625,5356.25390625,True
1599558884.735584,0.0,10,0.5,0.5,-0.7786141830444336,-0.001,-0.0155,-0.37525,0.004124360096127452,10,1,100,0.18279433361666178,-10,-1,-100,14999.126750559197,-0.016927502404950136,0.0004054488394396658,0.9998566373603612,27.95073435188208,0.028871298435473248,-79.52078351293478,25.149478487786162,-32.127349853515625,5356.25390625,True
1599558884.7868555,0.0,10,0.5,0.5,-0.7453420135498046,-0.001,-0.0155,-0.37525,0.030099466460399363,10,1,100,0.17785707716126622,-10,-1,-100,15000.14237257198,-0.016867229616805677,0.0006412175801699198,0.9998575325540479,27.833780581175468,0.029182339315683262,-78.02021288676147,24.77762344872015,-32.454193115234375,5356.25390625,True
1599558884.8178422,0.0,10,0.5,0.5,-0.6559723785400391,-0.001,-0.0155,-0.37525,0.056422500977283185,10,1,100,0.16871592358721837,-10,-1,-100,15001.560336507857,-0.016714000931804092,0.0010942701877325765,0.9998597125325172,27.68049204400844,0.02963983144982479,-75.84837228120126,24.219866795856213,-33.2547607421875,5356.25390625,True
1599558884.8512437,0.0,10,0.5,0.5,-0.9541167175292968,-0.001,-0.0155,-0.37525,0.01123422996234415,10,1,100,0.18403247583263047,-10,-1,-100,15001.560336507857,-0.016714000931804092,0.0010942701877325765,0.9998597125325172,27.68049204400844,0.02963983144982479,-75.84837228120126,24.219866795856213,-33.2547607421875,5356.25390625,True
1599558884.8846688,0.0,10,0.5,0.5,-0.6584863967895508,-0.001,-0.0155,-0.37525,0.05083540143898393,10,1,100,0.1671893260605817,-10,-1,-100,15002.56228435412,-0.016561003002751443,0.0014532214385773754,0.9998618011140307,27.594106966640492,0.029933342584537392,-74.45379594731513,23.848045370899197,-34.034454345703125,5356.25390625,True
1599558884.9199,0.0,10,0.5,0.5,-0.3690995819091797,-0.001,-0.0155,-0.37525,0.08363761267071211,10,1,100,0.14882523746670331,-10,-1,-100,15003.927507822053,-0.016255261813366062,0.002076359187157602,0.9998657185822029,27.484015066360154,0.030338003754517034,-72.42677515459528,23.29033622758089,-35.57196044921875,5356.25390625,True
1599558884.9511342,0.0,10,0.5,0.5,-0.940187384033203,-0.001,-0.0155,-0.37525,0.021534816681363672,10,1,100,0.17933467188009775,-10,-1,-100,15003.927507822053,-0.016255261813366062,0.002076359187157602,0.9998657185822029,27.484015066360154,0.030338003754517034,-72.42677515459528,23.29033622758089,-35.57196044921875,5356.25390625,True
1599558884.9854867,0.0,10,0.5,0.5,-0.45266455383300785,-0.001,-0.0155,-0.37525,0.07260765109388802,10,1,100,0.15046989751082446,-10,-1,-100,15004.85718721163,-0.01599348770542752,0.002538849493148055,0.9998688726999493,27.41934181441573,0.030569908634327625,-71.10567130717378,22.918545116286726,-36.852294921875,5356.25390625,True
1599558885.0176833,0.0,10,0.5,0.5,-0.6628141235351561,-0.001,-0.0155,-0.37525,0.052895035986234226,10,1,100,0.15997182190635362,-10,-1,-100,15005.330815917696,-0.015842768934598517,0.0027779160189046657,0.9998706365600885,27.387976536457703,0.030670004577264782,-70.44963096397814,22.73265389865374,-37.5501708984375,5356.25390625,True
1599558885.0536892,0.0,10,0.5,0.5,-0.3504384902954101,-0.001,-0.0155,-0.37525,0.08636116796048565,10,1,100,0.13854711706909398,-10,-1,-100,15006.203853237559,-0.015511983714299666,0.003297240306863693,0.9998742453766906,27.32307341364965,0.030830231450253747,-69.1359573268344,22.36088024426773,-39.053619384765625,5356.25390625,True
1599558885.084616,0.0,10,0.5,0.5,-0.2771941894531249,-0.001,-0.0155,-0.37525,0.09363522668450094,10,1,100,0.12906337454229425,-10,-1,-100,15007.081772658625,-0.015126340871684942,0.00383285220116529,0.999878244115671,27.252531935748827,0.030928401266283094,-67.81364644977072,21.989118601044613,-40.719207763671875,5356.25390625,True
1599558885.1184013,0.0,10,0.5,0.5,0.1614833892822266,-0.001,-0.0155,-0.37525,0.13507532850570494,10,1,100,0.09363999816919341,-10,-1,-100,15008.416716970387,-0.014455363194582698,0.004693384482212482,0.9998845006384562,27.126266137177392,0.030934180628975586,-65.79158755887677,21.431499543275983,-43.510894775390625,5356.25390625,True
1599558885.1515794,0.0,10,0.5,0.5,-0.8689592742919922,-0.001,-0.0155,-0.37525,0.049427317091190005,10,1,100,0.16049657923719549,-10,-1,-100,15008.416716970387,-0.014455363194582698,0.004693384482212482,0.9998845006384562,27.126266137177392,0.030934180628975586,-65.79158755887677,21.431499543275983,-43.510894775390625,5356.25390625,True
1599558885.185364,0.0,10,0.5,0.5,0.2861939819335937,-0.001,-0.0155,-0.37525,0.14629250612121553,10,1,100,0.0731329928341738,-10,-1,-100,15009.695997053757,-0.013663202079770884,0.0055707051876722775,0.9998911361506508,26.961838910808243,0.030739096215571984,-63.69519929805299,20.873910760597347,-46.538818359375,5356.25390625,True
1599558885.2176244,0.0,10,0.5,0.5,-0.4485093002319335,-0.001,-0.0155,-0.37525,0.09093167280721741,10,1,100,0.12000616598736902,-10,-1,-100,15010.099310567952,-0.01337194882120013,0.005860919676144891,0.9998934146224152,26.896844054162788,0.030626490026065614,-62.97714541065183,20.688055188428798,-47.55126953125,5356.25390625,True
1599558885.2376034,0.0,10,0.5,0.5,-0.41403014526367193,-0.001,-0.0155,-0.37525,0.09698006767519188,10,1,100,0.11543443298040823,-10,-1,-100,15010.499696125393,-0.013068511062601212,0.006175729438794701,0.9998955317354437,26.826322031196444,0.03049025617779955,-62.24899164533641,20.50220345161092,-48.59698486328125,5356.25390625,True
1599558885.2856178,0.0,10,0.5,0.5,0.040911480712890524,-0.001,-0.0155,-0.37525,0.13105230913216592,10,1,100,0.0740907351221504,-10,-1,-100,15011.30632502737,-0.012419703802209638,0.006767941081492803,0.9998999679622871,26.663482212614575,0.030140116710386876,-60.75190254692176,20.130512362146824,-50.79541015625,5356.25390625,True
1599558885.321037,0.0,10,0.5,0.5,0.09615819549560534,-0.001,-0.0155,-0.37525,0.13848601806514566,10,1,100,0.061397926223257196,-10,-1,-100,15012.099282912328,-0.011717976719146593,0.007369629399796044,0.999904184201726,26.47342362195554,0.029690779798738527,-59.20761615046641,19.758838475056706,-53.072113037109375,5356.25390625,True
1599558885.3521008,0.0,10,0.5,0.5,0.16554319915771487,-0.001,-0.0155,-0.37525,0.14378574982396433,10,1,100,0.048079174073611064,-10,-1,-100,15012.850248421077,-0.01096285027044366,0.00796040654160039,0.9999082197090092,26.250171404820712,0.029139326950465234,-57.60646120617951,19.387183394604712,-55.460357666015625,5356.25390625,True
1599558885.3850558,0.0,10,0.5,0.5,-0.2446056945800782,-0.001,-0.0155,-0.37525,0.11613344829968844,10,1,100,0.079781564495652,-10,-1,-100,15013.239891269011,-0.01056901151969969,0.008241380756181199,0.999910183785888,26.125009531245755,0.02882574155301679,-56.783503678094235,19.201363430614432,-56.678375244140625,5356.25390625,True
1599558885.4191186,0.0,10,0.5,0.5,0.6942425842285155,-0.001,-0.0155,-0.37525,0.17802326565439824,10,1,100,-0.018824151689545154,-10,-1,-100,15014.376596806105,-0.009319054301153014,0.009054951890434463,0.9999155779730579,25.70190803584075,0.027755217450084656,-54.245719117316796,18.643936045325802,-60.315826416015625,5356.25390625,True
1599558885.454113,0.0,10,0.5,0.5,-0.6403362091064453,-0.001,-0.0155,-0.37525,0.0971883621979988,10,1,100,0.10559084150806916,-10,-1,-100,15014.376596806105,-0.009319054301153014,0.009054951890434463,0.9999155779730579,25.70190803584075,0.027755217450084656,-54.245719117316796,18.643936045325802,-60.315826416015625,5356.25390625,True
1599558885.4740598,0.0,10,0.5,0.5,0.3027748809814452,-0.001,-0.0155,-0.37525,0.15477316229857405,10,1,100,0.006854083357339405,-10,-1,-100,15015.112916370155,-0.008426116780594952,0.009574485011886763,0.99991866158841,25.38123354876386,0.026950380033878084,-52.50365738963242,18.27234656015032,-62.753204345703125,5356.25390625,True
1599558885.5182278,0.0,10,0.5,0.5,0.3081349533081055,-0.001,-0.0155,-0.37525,0.151763161344498,10,1,100,-0.004191796457899133,-10,-1,-100,15015.833612328279,-0.007519419442143626,0.010014986840415732,0.9999215761097665,25.028725763507772,0.026087315841437555,-50.72404886101229,17.900781283273517,-65.11907958984375,5356.25390625,True
1599558885.5520182,0.0,10,0.5,0.5,-0.10882858123779299,-0.001,-0.0155,-0.37525,0.13404440121558195,10,1,100,0.03252859409524193,-10,-1,-100,15016.18321803317,-0.0070345561237051815,0.01025032315458579,0.9999227199615823,24.84679586054194,0.02564537311917825,-49.83397321822465,17.71500790424074,-66.29391479492188,5356.25390625,True
1599558885.5872524,0.0,10,0.5,0.5,0.38696768951416005,-0.001,-0.0155,-0.37525,0.15570283375747462,10,1,100,-0.026799201234920328,-10,-1,-100,15016.904891835526,-0.006060188960939207,0.010657169732868104,0.9999248465975042,24.452193522897705,0.024729254516966368,-48.01639017908406,17.343480088257003,-68.70614624023438,5356.25390625,True
1599558885.6182103,0.0,10,0.5,0.5,-0.03797111968994149,-0.001,-0.0155,-0.37525,0.13520376988214106,10,1,100,0.016090911940574472,-10,-1,-100,15017.237898019957,-0.005570681952839785,0.010836601095808926,0.9999257650342203,24.255603282724184,0.024274928494189205,-47.121414222703734,17.15772574917695,-69.89971923828125,5356.25390625,True
1599558885.652233,0.0,10,0.5,0.5,0.42756317443847647,-0.001,-0.0155,-0.37525,0.15473154046380166,10,1,100,-0.04672796091911287,-10,-1,-100,15017.903910146793,-0.004560821302978943,0.011173546921939028,0.999927172727207,23.86093217587254,0.02337885963771476,-45.353402288624345,16.78623605545018,-72.24871826171875,5356.25390625,True
1599558885.6852016,0.0,10,0.5,0.5,0.43753260192871085,-0.001,-0.0155,-0.37525,0.15151320101280058,10,1,100,-0.05782748488808649,-10,-1,-100,15018.569922983763,-0.003548367908311297,0.01144714557111898,0.999928183392918,23.44171365902383,0.022487720242124757,-43.57290746309145,16.414771710030355,-74.53897094726562,5356.25390625,True
1599558885.7222524,0.0,10,0.5,0.5,0.454754850769043,-0.001,-0.0155,-0.37525,0.15025681012219702,10,1,100,-0.07195532930594034,-10,-1,-100,15019.222265161225,-0.0025062612205985226,0.011681280117704798,0.9999286306279592,23.004743067170583,0.021619977197402197,-41.795351373586186,16.04333219578524,-76.79031372070312,5356.25390625,True
1599558885.743158,0.0,10,0.5,0.5,0.8615361740112305,-0.001,-0.0155,-0.37525,0.15216411132436436,10,1,100,-0.13760845163718696,-10,-1,-100,15020.151952363667,-0.0009693747108474867,0.011908341626110222,0.9999286233088768,22.313314809889196,0.02038203519214695,-39.13467068297286,15.486218417518272,-80.03396606445312,5356.25390625,True
1599558885.7867851,0.0,10,0.5,0.5,0.06038898620605465,-0.001,-0.0155,-0.37525,0.13509116182197603,10,1,100,-0.04070493413303623,-10,-1,-100,15020.484961462906,-0.00046073684255728403,0.011956958556697372,0.9999284068690294,22.07958509929188,0.019996000331643827,-38.26146911544604,15.300525254062116,-81.0584716796875,5356.25390625,True
1599558885.8201237,0.0,10,0.5,0.5,0.08203642425537105,-0.001,-0.0155,-0.37525,0.13421573313030954,10,1,100,-0.04643104175765257,-10,-1,-100,15020.748633831041,4.566372751341633e-05,0.01199055913579212,0.9999281096191042,21.84585820317047,0.019625678556471727,-37.39807076333097,15.114837510567575,-82.05233764648438,5356.25390625,True
1599558885.8553777,0.0,10,0.5,0.5,0.7567760391235351,-0.001,-0.0155,-0.37525,0.13241857324075712,10,1,100,-0.1583727265575174,-10,-1,-100,15021.661723561818,0.0015159779434781803,0.012002570868587864,0.9999268173738614,21.161777637713094,0.01862507572766353,-34.8948460556782,14.557805199293522,-84.75738525390625,5356.25390625,True
1599558885.8862865,0.0,10,0.5,0.5,0.4118677490234375,-0.001,-0.0155,-0.37525,0.12491939490459894,10,1,100,-0.11830838595660476,-10,-1,-100,15022.204695432913,0.0024801919549054673,0.01194350938259331,0.9999255978479072,20.717195784877234,0.01804542444405252,-33.29223244102738,14.18647340623167,-86.4576416015625,5356.25390625,True
1599558885.9201965,0.0,10,0.5,0.5,-0.19489966888427734,-0.001,-0.0155,-0.37525,0.13099486212685515,10,1,100,-0.022838459621737126,-10,-1,-100,15022.204695432913,0.0024801919549054673,0.01194350938259331,0.9999255978479072,20.717195784877234,0.01804542444405252,-33.29223244102738,14.18647340623167,-86.4576416015625,5356.25390625,True
1599558885.9531448,0.0,10,0.5,0.5,0.13788194885253904,-0.001,-0.0155,-0.37525,0.1254643071846583,10,1,100,-0.07286074531043948,-10,-1,-100,15022.52305618173,0.0029271760239701753,0.011892062210709951,0.9999250024361335,20.492797266197616,0.017776828497629894,-32.50154930480638,14.000813893242771,-87.26898193359375,5356.25390625,True
1599558885.9880512,0.0,10,0.5,0.5,0.4238741607666015,-0.001,-0.0155,-0.37525,0.11557205041681898,10,1,100,-0.1266744665183048,-10,-1,-100,15023.049427299644,0.003815015499576131,0.01175440293736754,0.9999236369185018,20.058998275225296,0.017296707875580186,-30.971535226948266,13.62950638201786,-88.7667236328125,5356.25390625,True
1599558886.020153,0.0,10,0.5,0.5,0.7096811325073242,-0.001,-0.0155,-0.37525,0.09631964803109153,10,1,100,-0.18335732519765613,-10,-1,-100,15023.840448910487,0.005129826613755144,0.011453708252626527,0.9999212456219624,20.031533665249885,0.017212150670382287,-29.66767395929912,13.072566310637324,-90.95205688476562,5356.25390625,True
1599558886.052978,0.0,10,0.5,0.5,-0.08492488708496093,-0.001,-0.0155,-0.37525,0.12638977277334357,10,1,100,-0.05274403323196151,-10,-1,-100,15023.840448910487,0.005129826613755144,0.011453708252626527,0.9999212456219624,20.031533665249885,0.017212150670382287,-29.66767395929912,13.072566310637324,-90.95205688476562,5356.25390625,True
1599558886.0869722,0.0,10,0.5,0.5,0.47219861106872557,-0.001,-0.0155,-0.37525,0.0982367986221622,10,1,100,-0.14293927259522182,-10,-1,-100,15024.35217232164,0.005942841437208098,0.011197979007493131,0.999919640722093,20.19519388220239,0.017371478793706874,-29.06209687112077,12.701280314108034,-92.37444305419922,5356.25390625,True
1599558886.122846,0.0,10,0.5,0.5,0.44037824554443356,-0.001,-0.0155,-0.37525,0.09199517660762437,10,1,100,-0.14495776132905985,-10,-1,-100,15024.863895248389,0.006694011886883806,0.010909401641438443,0.9999180842252449,20.332824858574423,0.017550633549763415,-28.406304211451825,12.329999284788599,-93.65763854980469,5356.25390625,True
1599558886.1537633,0.0,10,0.5,0.5,0.6527483390808104,-0.001,-0.0155,-0.37525,0.0632519949941493,10,1,100,-0.19104912803919136,-10,-1,-100,15025.584603782045,0.0077894022214725165,0.010386709254825552,0.9999157171901479,20.482129664048443,0.017834938304101287,-27.324500700784494,11.773085998288368,-95.44995880126953,5356.25390625,True
1599558886.1866755,0.0,10,0.5,0.5,0.21048011169433592,-0.001,-0.0155,-0.37525,0.09489453124451397,10,1,100,-0.11840968182743083,-10,-1,-100,15025.776989160222,0.008117813252360832,0.010200651823708936,0.9999150202944105,20.52356641592236,0.017937574248743326,-26.948722100356008,11.587450028469402,-96.0068588256836,5356.25390625,True
1599558886.2214932,0.0,10,0.5,0.5,0.4020162525177002,-0.001,-0.0155,-0.37525,0.070119069464397,10,1,100,-0.15410721173076922,-10,-1,-100,15026.234023762168,0.00873489006564521,0.009807915342006293,0.9999137495265207,20.58684145716654,0.01814451315308468,-26.166946934603352,11.216180637357514,-97.0250015258789,5356.25390625,True
1599558886.2555223,0.0,10,0.5,0.5,0.3635527114868164,-0.001,-0.0155,-0.37525,0.06272515904432163,10,1,100,-0.15550709683465838,-10,-1,-100,15026.67640938959,0.00930290912583842,0.009385606258494649,0.9999126793260285,20.619206595804123,0.018344368497758945,-25.341752202729282,10.844914404397036,-97.8946762084961,5356.25390625,True
1599558886.286609,0.0,10,0.5,0.5,0.054934690475463864,-0.001,-0.0155,-0.37525,0.10470027708307623,10,1,100,-0.09938746253243075,-10,-1,-100,15026.67640938959,0.00930290912583842,0.009385606258494649,0.9999126793260285,20.619206595804123,0.018344368497758945,-25.341752202729282,10.844914404397036,-97.8946762084961,5356.25390625,True
1599558886.3196483,0.0,10,0.5,0.5,0.48718786468505854,-0.001,-0.0155,-0.37525,0.03150410667168954,10,1,100,-0.18055917904511604,-10,-1,-100,15027.325825760723,0.010035037700406587,0.008722465123802238,0.9999116044033669,20.623033200900423,0.018630773756448758,-24.046504888757436,10.288020012330183,-98.99974822998047,5356.25390625,True
1599558886.3395648,0.0,10,0.5,0.5,0.08837077674865723,-0.001,-0.0155,-0.37525,0.09751502635957407,10,1,100,-0.1079683238083823,-10,-1,-100,15027.325825760723,0.010035037700406587,0.008722465123802238,0.9999116044033669,20.623033200900423,0.018630773756448758,-24.046504888757436,10.288020012330183,-98.99974822998047,5356.25390625,True
1599558886.3885965,0.0,10,0.5,0.5,0.43949323692321773,-0.001,-0.0155,-0.37525,0.01988732961564428,10,1,100,-0.17499878510616051,-10,-1,-100,15027.891256823787,0.010639946247580342,0.008019241738065444,0.9999112377135257,20.583187149564814,0.018897443467585644,-22.70235884743147,9.731130087600949,-99.89981079101562,5356.25390625,True
1599558886.4195457,0.0,10,0.5,0.5,0.2971393627166748,-0.001,-0.0155,-0.37525,0.03599469762019185,10,1,100,-0.15172555753307904,-10,-1,-100,15028.278951499029,0.010973279112861356,0.007529500611541119,0.9999114429618516,20.53517483001144,0.019061060532182057,-21.78616320527147,9.359871534930697,-100.38227081298828,5356.25390625,True
1599558886.4535942,0.0,10,0.5,0.5,0.2883325244903564,-0.001,-0.0155,-0.37525,0.029942903976305356,10,1,100,-0.1491922301237161,-10,-1,-100,15028.651020464837,0.01124870561605384,0.007032600080116357,0.9999120007071006,20.47363842751354,0.01921329082756294,-20.86011921132556,8.988613318898679,-100.80705261230469,5356.25390625,True
1599558886.4875576,0.0,10,0.5,0.5,0.14001474609375,-0.001,-0.0155,-0.37525,0.07924527696264931,10,1,100,-0.12210504917738481,-10,-1,-100,15028.651020464837,0.01124870561605384,0.007032600080116357,0.9999120007071006,20.47363842751354,0.01921329082756294,-20.86011921132556,8.988613318898679,-100.80705261230469,5356.25390625,True
1599558886.523611,0.0,10,0.5,0.5,0.3285291084289551,-0.001,-0.0155,-0.37525,-0.004374016364089392,10,1,100,-0.15650537989983349,-10,-1,-100,15029.161757943686,0.011558291074081026,0.006275473876395741,0.9999135084271407,20.35477397892325,0.019413813321555753,-19.4551761339194,8.43172469304017,-101.28601837158203,5356.25390625,True
1599558886.5552323,0.0,10,0.5,0.5,0.15697990455627442,-0.001,-0.0155,-0.37525,0.07094608621324092,10,1,100,-0.12589088187928682,-10,-1,-100,15029.161757943686,0.011558291074081026,0.006275473876395741,0.9999135084271407,20.35477397892325,0.019413813321555753,-19.4551761339194,8.43172469304017,-101.28601837158203,5356.25390625,True
1599558886.5873017,0.0,10,0.5,0.5,0.24823154487609864,-0.001,-0.0155,-0.37525,0.013270341897828372,10,1,100,-0.14168042826136867,-10,-1,-100,15029.534801320056,0.011699265676637738,0.005754360238497091,0.9999150036482466,20.257559822359674,0.019525282054432505,-18.510331555735846,8.060463387919164,-101.51099395751953,5356.25390625,True
1599558886.6207871,0.0,10,0.5,0.5,0.24530086479187008,-0.001,-0.0155,-0.37525,-0.018959164499812088,10,1,100,-0.139509666122229,-10,-1,-100,15029.96057509398,0.01180551169901457,0.0049909261877197665,0.9999178569009121,20.088479665059776,0.01965815538257381,-17.0884327274968,7.503566470524474,-101.71268463134766,5356.25390625,True
1599558886.657088,0.0,10,0.5,0.5,0.19820316238403318,-0.001,-0.0155,-0.37525,-3.6610382900731375e-05,10,1,100,-0.12995575967660053,-10,-1,-100,15030.276975223562,0.011812970203875816,0.004472913615413006,0.9999202202069679,19.960392814690604,0.019721574422910927,-16.139812961696823,7.132296955843469,-101.77293395996094,5356.25390625,True
1599558886.6873007,0.0,10,0.5,0.5,0.17989303970336915,-0.001,-0.0155,-0.37525,0.05133969169693635,10,1,100,-0.1293877024408228,-10,-1,-100,15030.276975223562,0.011812970203875816,0.004472913615413006,0.9999202202069679,19.960392814690604,0.019721574422910927,-16.139812961696823,7.132296955843469,-101.77293395996094,5356.25390625,True
1599558886.721295,0.0,10,0.5,0.5,0.17297045974731445,-0.001,-0.0155,-0.37525,-0.03167277440208986,10,1,100,-0.12089434201401315,-10,-1,-100,15030.647081427509,0.011734141534083484,0.0037221180613385765,0.9999242250088732,19.74579817205758,0.019776080579081007,-14.720177163924657,6.575382403781083,-101.74311065673828,5356.25390625,True
1599558886.7544806,0.0,10,0.5,0.5,0.1523883369445801,-0.001,-0.0155,-0.37525,-0.012986290330155394,10,1,100,-0.11633404264403235,-10,-1,-100,15030.880471761338,0.01162002711701199,0.003213360252540069,0.9999273220017979,19.58680351348314,0.019782423893576026,-13.777487757094464,6.204097262438496,-101.65106964111328,5356.25390625,True
1599558886.7895706,0.0,10,0.5,0.5,0.13523973503112796,-0.001,-0.0155,-0.37525,-0.014714155073052293,10,1,100,-0.11106412602247101,-10,-1,-100,15031.127533421037,0.011467790452201755,0.002739069056296,0.9999304912256898,19.416063318042674,0.0197644189306434,-12.84032865757502,5.83280358188791,-101.50846862792969,5356.25390625,True
1599558886.8205745,0.0,10,0.5,0.5,0.1898379600524902,-0.001,-0.0155,-0.37525,0.03228561144897254,10,1,100,-0.12630970098710925,-10,-1,-100,15031.127533421037,0.011467790452201755,0.002739069056296,0.9999304912256898,19.416063318042674,0.0197644189306434,-12.84032865757502,5.83280358188791,-101.50846862792969,5356.25390625,True
1599558886.854564,0.0,10,0.5,0.5,0.15764675636291506,-0.001,-0.0155,-0.37525,0.005396937351802123,10,1,100,-0.11605635408629059,-10,-1,-100,15031.237881019246,0.011374379039615997,0.002498529774525197,0.9999321881259893,19.326118643788156,0.0197458234395718,-12.374178490572177,5.647152914689512,-101.4200210571289,5356.25390625,True
1599558886.887565,0.0,10,0.5,0.5,0.11259775619506837,-0.001,-0.0155,-0.37525,-0.022593939336242364,10,1,100,-0.10154806025864326,-10,-1,-100,15031.471270237118,0.011157733186136208,0.002028828770389399,0.9999356923542471,19.13780753725498,0.019689609474418942,-11.448137978412653,5.27584349048886,-101.2115249633789,5356.25390625,True
1599558886.922547,0.0,10,0.5,0.5,0.094955708694458,-0.001,-0.0155,-0.37525,-0.02828926555864011,10,1,100,-0.0938834096491524,-10,-1,-100,15031.646065111621,0.010891467911875525,0.0015539127510677906,0.9999394788095362,18.938205445044442,0.019607473614992668,-10.531594173967449,4.904521796756719,-100.95700073242188,5356.25390625,True
1599558886.953536,0.0,10,0.5,0.5,0.13496039199829102,-0.001,-0.0155,-0.37525,-0.006376325174686278,10,1,100,-0.10448832961278261,-10,-1,-100,15031.76910647354,0.010746551296548598,0.0013251980528908446,0.9999413760242903,18.833828352124062,0.01955617732533063,-10.077147688242285,4.718856013198553,-100.81175994873047,5356.25390625,True
1599558886.9865816,0.0,10,0.5,0.5,0.06691072044372558,-0.001,-0.0155,-0.37525,-0.03343055878607416,10,1,100,-0.08381118211298426,-10,-1,-100,15031.934135418269,0.010427797542073649,0.0008746605018399392,0.9999452465047413,18.61599716712886,0.019432989349838264,-9.176908808623054,4.347513850601131,-100.48975372314453,5356.25390625,True
1599558887.0205567,0.0,10,0.5,0.5,-0.018141227722167946,-0.001,-0.0155,-0.37525,-0.061428384699474224,10,1,100,-0.05541538462599187,-10,-1,-100,15032.16458892054,0.00988113703599813,0.00021382635904781825,0.9999511575117876,18.26734608435111,0.019197285325962054,-7.851399466997197,3.790472114371201,-99.94783782958984,5356.25390625,True
1599558887.0565453,0.0,10,0.5,0.5,0.10806789245605469,-0.001,-0.0155,-0.37525,-0.019672269015095053,10,1,100,-0.08773070461090944,-10,-1,-100,15032.27200484462,0.009679704787763161,-3.459003399421742e-06,0.9999531505541932,18.14362541254433,0.01910272096556119,-7.416248097980977,3.604782627498442,-99.75032043457031,5356.25390625,True
1599558887.0775278,0.0,10,0.5,0.5,0.02357054595947264,-0.001,-0.0155,-0.37525,-0.04397429546510213,10,1,100,-0.061731931233515884,-10,-1,-100,15032.380393290194,0.009262099746615357,-0.00041853177601994246,0.9999570182460026,17.893905436068025,0.018897760416399248,-6.560687568735232,3.2333887731632336,-99.33695983886719,5356.25390625,True
1599558887.1223707,0.0,10,0.5,0.5,0.09576932220458984,-0.001,-0.0155,-0.37525,-0.024643349300143825,10,1,100,-0.07966800579713407,-10,-1,-100,15032.419451221474,0.009047657593759698,-0.0006168330659675585,0.9999588788590432,17.76804551747136,0.018787485657495596,-6.140423732755939,3.0476840868437756,-99.1261215209961,5356.25390625,True
1599558887.1552813,0.0,10,0.5,0.5,-0.07870568161010741,-0.001,-0.0155,-0.37525,-0.07030556261577875,10,1,100,-0.023527624557575275,-10,-1,-100,15032.637209646986,0.00834454320067533,-0.0012091671759509237,0.9999644526249484,17.387305996629042,0.018427915685185564,-4.910453222472956,2.49054080794412,-98.4619369506836,5356.25390625,True
1599558887.1916087,0.0,10,0.5,0.5,-0.008002064514160134,-0.001,-0.0155,-0.37525,-0.05251661257538604,10,1,100,-0.038916345171956974,-10,-1,-100,15032.67333313427,0.007848085073685307,-0.001582345697175643,0.9999679513578278,17.152999200380282,0.018190002372512285,-4.121825127284254,2.1190903744607987,-97.99998474121094,5356.25390625,True
1599558887.2226324,0.0,10,0.5,0.5,0.16004444580078125,-0.001,-0.0155,-0.37525,-0.015606848000084198,10,1,100,-0.08820952847436617,-10,-1,-100,15032.67333313427,0.007848085073685307,-0.001582345697175643,0.9999679513578278,17.152999200380282,0.018190002372512285,-4.121825127284254,2.1190903744607987,-97.99998474121094,5356.25390625,True
1599558887.2557251,0.0,10,0.5,0.5,0.06764079246520995,-0.001,-0.0155,-0.37525,-0.03512009250093453,10,1,100,-0.06085978927639169,-10,-1,-100,15032.713368448429,0.0076024598519877674,-0.0017564559431219504,0.9999695582700099,17.040192858788476,0.018070925793181584,-3.735850183163277,1.9333600209163238,-97.76762390136719,5356.25390625,True
1599558887.2887526,0.0,10,0.5,0.5,-0.021487491226196254,-0.001,-0.0155,-0.37525,-0.05546400920481759,10,1,100,-0.02880882449326788,-10,-1,-100,15032.806133707287,0.007090781796106958,-0.0020966732561137217,0.9999726620137059,16.822155312399115,0.01783320258184402,-2.9794700138334056,1.5618909789361592,-97.3121337890625,5356.25390625,True
1599558887.3246577,0.0,10,0.5,0.5,-0.034506483840942376,-0.001,-0.0155,-0.37525,-0.058751946294313476,10,1,100,-0.01897524297256105,-10,-1,-100,15032.846164951916,0.006539547158300198,-0.0024327412675480176,0.9999756577501722,16.61408198691223,0.01759830292773469,-2.242775286773817,1.190414265853621,-96.8376693725586,5356.25390625,True
1599558887.3555753,0.0,10,0.5,0.5,0.04446180419921876,-0.001,-0.0155,-0.37525,-0.04275620356060643,10,1,100,-0.04362126668383587,-10,-1,-100,15032.88522344199,0.0062660142943818,-0.0025898350696642336,0.999977014645424,16.512248216984403,0.017481175158545356,-1.8812440818823588,1.0046741875519252,-96.58939361572266,5356.25390625,True
1599558887.389485,0.0,10,0.5,0.5,-0.24960674324035645,-0.001,-0.0155,-0.37525,-0.09183823340235281,10,1,100,0.05357172415102446,-10,-1,-100,15032.943804408656,0.005137061885722358,-0.003176299105214204,0.9999817606932522,16.12485445497171,0.017028037855224804,-0.47856666011664334,0.2617113620223588,-95.57403564453125,5356.25390625,True
1599558887.5086246,0.0,10,0.5,0.5,0.1249330940246582,-0.001,-0.0155,-0.37525,-0.03350911385753723,10,1,100,-0.05886925242471559,-10,-1,-100,15032.943804408656,0.005137061885722358,-0.003176299105214204,0.9999817606932522,16.12485445497171,0.017028037855224804,-0.47856666011664334,0.2617113620223588,-95.57403564453125,5356.25390625,True
1599558887.564703,0.0,10,0.5,0.5,-0.165475244140625,-0.001,-0.0155,-0.37525,-0.07690812884028247,10,1,100,0.03718659635024326,-10,-1,-100,15032.894969704212,0.00426757693127809,-0.0035683285438489845,0.9999845272895669,15.92048067472246,0.01678140410287659,0.5335269947057111,-0.29550680531959106,-94.81768798828125,5356.25390625,True
1599558887.590638,0.0,10,0.5,0.5,0.01832415237426757,-0.001,-0.0155,-0.37525,-0.05191719258562229,10,1,100,-0.01563571824342483,-10,-1,-100,15032.919380855863,0.003961684451418902,-0.0036948454353128908,0.9999853264791022,15.905841370290542,0.016757340452369308,0.8680762925371981,-0.4812441044671618,-94.5696029663086,5356.25390625,True
1599558887.6260915,0.0,10,0.5,0.5,-0.18548887443542478,-0.001,-0.0155,-0.37525,-0.0770497069634814,10,1,100,0.05322764685088591,-10,-1,-100,15032.871525051305,0.0030615542040979583,-0.004036078487115741,0.9999871683958256,15.86387778462524,0.016692156023210527,1.8682726023309157,-1.038449008829655,-93.79651641845703,5356.25390625,True
1599558887.657009,0.0,10,0.5,0.5,0.09809647674560547,-0.001,-0.0155,-0.37525,-0.04317177506219037,10,1,100,-0.036306724794249755,-10,-1,-100,15032.871525051305,0.0030615542040979583,-0.004036078487115741,0.9999871683958256,15.86387778462524,0.016692156023210527,1.8682726023309157,-1.038449008829655,-93.79651641845703,5356.25390625,True
1599558887.6919162,0.0,10,0.5,0.5,-0.09513445434570313,-0.001,-0.0155,-0.37525,-0.06556482319812054,10,1,100,0.030100878780660936,-10,-1,-100,15032.825624421705,0.0024622001087529406,-0.004237420985815161,0.9999879908448969,15.839661743338501,0.01665712098567268,2.53274592366568,-1.409914838190233,-93.30026245117188,5356.25390625,True
1599558887.7228363,0.0,10,0.5,0.5,-0.17630553817749023,-0.001,-0.0155,-0.37525,-0.07447147919777869,10,1,100,0.06802939980471677,-10,-1,-100,15032.691833267687,0.001577200976168994,-0.004499173798227259,0.999988634871524,15.800148524087724,0.01660706610303407,3.524965219219871,-1.9671128068336106,-92.60799407958984,5356.25390625,True
1599558887.7557983,0.0,10,0.5,0.5,-0.09664242401123047,-0.001,-0.0155,-0.37525,-0.06504152992776771,10,1,100,0.04483003909905209,-10,-1,-100,15032.589294099249,0.0009885719355259377,-0.0046492199974726,0.9999887036756683,15.767235572642655,0.016569579313078977,4.181970691937419,-2.338582302882436,-92.14867401123047,5356.25390625,True
1599558887.7897813,0.0,10,0.5,0.5,0.06844948883056641,-0.001,-0.0155,-0.37525,-0.0502585578762261,10,1,100,-0.013477767442976105,-10,-1,-100,15032.589294099249,0.0009885719355259377,-0.0046492199974726,0.9999887036756683,15.767235572642655,0.016569579313078977,4.181970691937419,-2.338582302882436,-92.14867401123047,5356.25390625,True
1599558887.8266716,0.0,10,0.5,0.5,-0.17622505035400388,-0.001,-0.0155,-0.37525,-0.07016512846798906,10,1,100,0.07963953563984115,-10,-1,-100,15032.442811183864,0.00014684867328110425,-0.004828316652917892,0.9999883328288217,15.71212561731991,0.016508754277370596,5.160481642655875,-2.8958013565088923,-91.51667022705078,5356.25390625,True
1599558887.858589,0.0,10,0.5,0.5,-0.09170142097473143,-0.001,-0.0155,-0.37525,-0.06306159892662039,10,1,100,0.05796961080328052,-10,-1,-100,15032.325624790974,-0.0004168184182341557,-0.004925052418812348,0.9999877849859359,15.677911820692783,0.016470177600477837,5.809961595111173,-3.267295261624443,-91.1277084350586,5356.25390625,True
1599558887.891465,0.0,10,0.5,0.5,0.04736468429565429,-0.001,-0.0155,-0.37525,-0.0535628976685346,10,1,100,0.00215828968215019,-10,-1,-100,15032.325624790974,-0.0004168184182341557,-0.004925052418812348,0.9999877849859359,15.677911820692783,0.016470177600477837,5.809961595111173,-3.267295261624443,-91.1277084350586,5356.25390625,True
1599558887.9245358,0.0,10,0.5,0.5,-0.1591906223297119,-0.001,-0.0155,-0.37525,-0.06434645460213362,10,1,100,0.08832709080143845,-10,-1,-100,15032.12250245933,-0.0011959126144554014,-0.005021851369231463,0.9999866753121484,15.639679497792343,0.016422405866599567,6.784584323939373,-3.824562959393246,-90.59392547607422,5356.25390625,True
1599558887.9594421,0.0,10,0.5,0.5,-0.08702381896972655,-0.001,-0.0155,-0.37525,-0.05929920216469185,10,1,100,0.06785753513796898,-10,-1,-100,15031.935005018488,-0.0017134044712923803,-0.005062759932968535,0.9999857162514767,15.636518253990241,0.01641049109114534,7.442371128884743,-4.196093208527864,-90.26974487304688,5356.25390625,True
1599558887.9903607,0.0,10,0.5,0.5,-0.029125387573242182,-0.001,-0.0155,-0.37525,-0.056473564362380185,10,1,100,0.0426786215403472,-10,-1,-100,15031.851999063627,-0.0019506115278245355,-0.005073328573212264,0.9999852281168236,15.63860596845101,0.016407047713239597,7.773018604014185,-4.381863467274482,-90.11483764648438,5356.25390625,True
1599558888.0235758,0.0,10,0.5,0.5,-0.08356824913024902,-0.001,-0.0155,-0.37525,-0.056290533102521786,10,1,100,0.07100513074831248,-10,-1,-100,15031.663525216863,-0.002419211512260795,-0.0050803295528114,0.9999841687083321,15.656413524458848,0.016411425245843523,8.441990981009011,-4.753413143770803,-89.830810546875,5356.25390625,True
1599558888.0566924,0.0,10,0.5,0.5,0.01763526954650879,-0.001,-0.0155,-0.37525,-0.05567472599930787,10,1,100,0.024633273466787897,-10,-1,-100,15031.663525216863,-0.002419211512260795,-0.0050803295528114,0.9999841687083321,15.656413524458848,0.016411425245843523,8.441990981009011,-4.753413143770803,-89.830810546875,5356.25390625,True
1599558888.092596,0.0,10,0.5,0.5,-0.08452100372314453,-0.001,-0.0155,-0.37525,-0.054293009667398,10,1,100,0.0752475200322898,-10,-1,-100,15031.47798119532,-0.0028757079242304217,-0.005067240171835324,0.9999830265464388,15.764395403073605,0.016505981994935453,9.164975071776041,-5.124972903721637,-89.57073974609375,5356.25390625,True
1599558888.123514,0.0,10,0.5,0.5,-0.08165788459777831,-0.001,-0.0155,-0.37525,-0.05193534347785162,10,1,100,0.07674459926977623,-10,-1,-100,15031.233843436697,-0.0033008014919438168,-0.005033527387248141,0.9999818839916815,15.904048288119615,0.016629035562363653,9.91690602257216,-5.4965419091086964,-89.32958984375,5356.25390625,True
1599558888.1564252,0.0,10,0.5,0.5,-0.12596271438598633,-0.001,-0.0155,-0.37525,-0.04572983750758756,10,1,100,0.10273998049442548,-10,-1,-100,15030.893027509912,-0.0039196724069732874,-0.004946116340266687,0.9999800858523987,16.11817445501788,0.016809256400783835,11.07026705367912,-6.053911319643311,-88.98294067382812,5356.25390625,True
1599558888.1893682,0.0,10,0.5,0.5,-0.04066369972229004,-0.001,-0.0155,-0.37525,-0.05018697085784291,10,1,100,0.06224990849040591,-10,-1,-100,15030.735803210642,-0.004110493928708761,-0.004907064055570096,0.9999795120711306,16.19592879070938,0.016873390850856824,11.465310186469466,-6.239704732469816,-88.87435913085938,5356.25390625,True
1599558888.226475,0.0,10,0.5,0.5,-0.0784131507873535,-0.001,-0.0155,-0.37525,-0.04412468177336576,10,1,100,0.08353826633039071,-10,-1,-100,15030.480923056137,-0.004474140678367712,-0.004816466612680897,0.9999783916238185,16.356578494025225,0.017003030983147545,12.269176832148851,-6.611296323743389,-88.67501831054688,5356.25390625,True
1599558888.2563586,0.0,10,0.5,0.5,-0.07178160820007325,-0.001,-0.0155,-0.37525,-0.041163794485664415,10,1,100,0.0852493821183205,-10,-1,-100,15030.22506664705,-0.004816595755893272,-0.004707286858171731,0.9999773206707038,16.516565100490514,0.017126791834793615,13.086190862562253,-6.982893539725157,-88.50393676757812,5356.25390625,True
1599558888.290431,0.0,10,0.5,0.5,-0.04013689727783203,-0.001,-0.0155,-0.37525,-0.04542328799120249,10,1,100,0.06890208672735114,-10,-1,-100,15030.068817389896,-0.004976015247233662,-0.0046470411718601634,0.9999768218716906,16.596279951638465,0.017186495010618325,13.499580283841496,-7.168693933746615,-88.426025390625,5356.25390625,True
1599558888.3230007,0.0,10,0.5,0.5,-0.04109762878417969,-0.001,-0.0155,-0.37525,-0.044261029068346905,10,1,100,0.06996027204136253,-10,-1,-100,15029.966280207387,-0.005127595914237809,-0.004582084302061059,0.9999763558522716,16.675987585760698,0.01724495993074747,13.91635893393373,-7.3544952167765665,-88.35336303710938,5356.25390625,True
1599558888.3585775,0.0,10,0.5,0.5,-0.04200600738525391,-0.001,-0.0155,-0.37525,-0.043150811470017855,10,1,100,0.07101393142855356,-10,-1,-100,15029.79635890678,-0.00527208707468294,-0.0045133863006872,0.9999759169309917,16.75551470089628,0.017302031756113494,14.336378826515883,-7.54029722075453,-88.28573608398438,5356.25390625,True
1599558888.391489,0.0,10,0.5,0.5,-0.06484947357177734,-0.001,-0.0155,-0.37525,-0.03340478015117629,10,1,100,0.0868229369742855,-10,-1,-100,15029.483860841137,-0.005544567384082966,-0.004362848690405246,0.9999751113521915,16.91417655330987,0.0174122567582635,15.186236075435852,-7.911903354362478,-88.1639404296875,5356.25390625,True
1599558888.4234385,0.0,10,0.5,0.5,-0.08165510711669921,-0.001,-0.0155,-0.37525,-0.020324906820951505,10,1,100,0.09959099088619783,-10,-1,-100,15028.98874654097,-0.005905508741035082,-0.004107740633385431,0.9999741253819512,17.151896628556404,0.01756886281885898,16.486136863395025,-8.469315742413064,-88.00466918945312,5356.25390625,True
1599558888.463666,0.0,10,0.5,0.5,-0.024315983581542973,-0.001,-0.0155,-0.37525,-0.04573976256908798,10,1,100,0.06379983527266675,-10,-1,-100,15028.98874654097,-0.005905508741035082,-0.004107740633385431,0.9999741253819512,17.151896628556404,0.01756886281885898,16.486136863395025,-8.469315742413064,-88.00466918945312,5356.25390625,True
1599558888.512534,0.0,10,0.5,0.5,-0.08766180114746094,-0.001,-0.0155,-0.37525,-0.003287997034502936,10,1,100,0.10578553785999686,-10,-1,-100,15028.28074118041,-0.006284829030693454,-0.0037226571164836243,0.9999733210181401,17.467619660399457,0.01776163308922111,18.265405448677473,-9.212533508812125,-87.84176635742188,5356.25390625,True
1599558888.557643,0.0,10,0.5,0.5,-0.050312785339355466,-0.001,-0.0155,-0.37525,-0.017522187271347703,10,1,100,0.08572149165508638,-10,-1,-100,15027.884257373633,-0.00644511509522577,-0.0035030951571112822,0.9999730940458996,17.622772005941577,0.01784967169495248,19.17233219625016,-9.584141425189566,-87.78326416015625,5356.25390625,True
1599558888.5895946,0.0,10,0.5,0.5,-0.0388923568725586,-0.001,-0.0155,-0.37525,-0.02786320499313325,10,1,100,0.07639334596253278,-10,-1,-100,15027.65964751714,-0.006503905991989646,-0.003398778963242166,0.9999730733916821,17.69997755965983,0.017892055050124717,19.63036241901113,-9.769944769174572,-87.759765625,5356.25390625,True
1599558888.623504,0.0,10,0.5,0.5,-0.04297541198730469,-0.001,-0.0155,-0.37525,-0.013880796127855175,10,1,100,0.08163378961536139,-10,-1,-100,15027.262186653563,-0.006603147417424682,-0.0031781220588126585,0.9999731486316834,17.852570183222426,0.01797266112283343,20.554242722583236,-10.141549724118503,-87.729248046875,5356.25390625,True
1599558888.6594572,0.0,10,0.5,0.5,-0.035755769348144534,-0.001,-0.0155,-0.37525,-0.023007905091385054,10,1,100,0.07659891997585634,-10,-1,-100,15027.0932414243,-0.006645971215041458,-0.0030618887406355226,0.9999732275935936,17.92752030524977,0.018010589075409252,21.019505899922894,-10.32735120563028,-87.72119140625,5356.25390625,True
1599558888.6903753,0.0,10,0.5,0.5,-0.03627072448730469,-0.001,-0.0155,-0.37525,-0.00812851037814688,10,1,100,0.07944468450486625,-10,-1,-100,15026.640115568181,-0.006709254384986065,-0.0028223959107461652,0.9999735096425907,18.07520523993692,0.01808243948819881,21.956977796075403,-10.698951464626898,-87.71469116210938,5356.25390625,True
1599558888.7242844,0.0,10,0.5,0.5,-0.03294984436035157,-0.001,-0.0155,-0.37525,-0.005265803478533684,10,1,100,0.07675223402835737,-10,-1,-100,15026.243630042882,-0.006740869845630402,-0.0025802502648423703,0.9999739511518762,18.220804051194733,0.018150101552814286,22.904497183248434,-11.070547927470558,-87.71966552734375,5356.25390625,True
1599558888.7571952,0.0,10,0.5,0.5,-0.03332854309082031,-0.001,-0.0155,-0.37525,-0.015499809338204657,10,1,100,0.07443113664599049,-10,-1,-100,15026.005347466795,-0.006747175031130147,-0.0024549116727776064,0.9999742241866927,18.292875116325224,0.018182521286983677,23.382013207635435,-11.256344534157597,-87.7259521484375,5356.25390625,True
1599558888.7921028,0.0,10,0.5,0.5,-0.02878820190429688,-0.001,-0.0155,-0.37525,-0.0002848539116936284,10,1,100,0.07294741388055416,-10,-1,-100,15025.552220949205,-0.00673832534949227,-0.002204384209766473,0.9999748675150493,18.435689100991507,0.018244872267206193,24.344580155418544,-11.627934408175076,-87.74609375,5356.25390625,True
1599558888.8230195,0.0,10,0.5,0.5,-0.03161456909179688,-0.001,-0.0155,-0.37525,-0.011061712649294411,10,1,100,0.07240414989929968,-10,-1,-100,15025.311986176996,-0.006724584314893289,-0.0020763337377560126,0.9999752340953256,18.506372471882905,0.01827482317209585,24.82949646360442,-11.813727371808039,-87.75973510742188,5356.25390625,True
1599558888.8569393,0.0,10,0.5,0.5,-0.024275993347167967,-0.001,-0.0155,-0.37525,0.00506482582750099,10,1,100,0.06872011019443473,-10,-1,-100,15024.79049948859,-0.006677856581055572,-0.0018151660560443898,0.9999760554151643,18.646196036062285,0.018332376656703096,25.80631540352965,-12.18530927682088,-87.79385375976562,5356.25390625,True
1599558888.8915284,0.0,10,0.5,0.5,-0.02108963012695313,-0.001,-0.0155,-0.37525,0.007742238343222647,10,1,100,0.06545653890861244,-10,-1,-100,15024.325653522043,-0.0066053506953771155,-0.0015551348598549352,0.9999769751838082,18.78398269395718,0.01838710147512924,26.792267337861492,-12.556885405188241,-87.8365478515625,5356.25390625,True
1599558888.9274266,0.0,10,0.5,0.5,-0.027842207336425777,-0.001,-0.0155,-0.37525,-0.003364186264794764,10,1,100,0.06773401928508974,-10,-1,-100,15024.02877636475,-0.00655999495218272,-0.001421481232753095,0.9999774726749259,18.852104058984523,0.01841348325385866,27.288578913525093,-12.742671280668104,-87.8609619140625,5356.25390625,True
1599558888.9573166,0.0,10,0.5,0.5,-0.016385380554199223,-0.001,-0.0155,-0.37525,0.012324890780468981,10,1,100,0.06035565584565569,-10,-1,-100,15023.548304934986,-0.0064516354371382395,-0.0011591475056403782,0.9999785161578454,18.986963460783244,0.01846465692180092,28.287952210336005,-13.114237970262007,-87.91534423828125,5356.25390625,True
1599558888.9902518,0.0,10,0.5,0.5,-0.013642761230468751,-0.001,-0.0155,-0.37525,0.015150591951590499,10,1,100,0.05675576460620749,-10,-1,-100,15023.013145544799,-0.0063205382412667155,-0.0008968095381215057,0.9999796230568865,19.11999581416098,0.018514014608714043,29.296165459925287,-13.485797931762228,-87.97610473632812,5356.25390625,True
1599558889.023361,0.0,10,0.5,0.5,-0.02369313354492187,-0.001,-0.0155,-0.37525,0.0038782314297108253,10,1,100,0.06160651854530384,-10,-1,-100,15022.717246266082,-0.006245752583533274,-0.0007627647353055405,0.9999802041863747,19.185868267003077,0.018538137718732216,29.803580992367504,-13.671575228145402,-88.00894165039062,5356.25390625,True
1599558889.0591,0.0,10,0.5,0.5,-0.008908821105957032,-0.001,-0.0155,-0.37525,0.019553267754116782,10,1,100,0.05089391903764506,-10,-1,-100,15022.182087466936,-0.006080799718980023,-0.000500277885410464,0.9999813866251785,19.316074651008325,0.01858520674645377,30.824499336086493,-14.043124471759441,-88.07977294921875,5356.25390625,True
1599558889.0901153,0.0,10,0.5,0.5,-0.020898803710937504,-0.001,-0.0155,-0.37525,0.007671918104470744,10,1,100,0.05748097397921384,-10,-1,-100,15021.88716323662,-0.005991324950788283,-0.00037155662993847827,0.999981982823193,19.38048491931607,0.01860830797403321,31.338061573295633,-14.228896154420262,-88.1170654296875,5356.25390625,True
1599558889.1231213,0.0,10,0.5,0.5,0.010356362915039066,-0.001,-0.0155,-0.37525,0.037477595049975734,10,1,100,0.033360298030755825,-10,-1,-100,15020.98481521383,-0.005691392516610122,1.4529433592609414e-05,0.9999838037889002,19.571268240336565,0.018676537887885713,32.891366147715935,-14.78619944410986,-88.2357177734375,5356.25390625,True
1599558889.1569998,0.0,10,0.5,0.5,-0.017827613830566406,-0.001,-0.0155,-0.37525,0.012815482739610197,10,1,100,0.0512749425450522,-10,-1,-100,15020.688914514263,-0.005582538829153471,0.0001392985488508578,0.9999844078065093,19.634062829538216,0.01869904149752879,33.41328418064238,-14.971963165795684,-88.27713012695312,5356.25390625,True
1599558889.1930158,0.0,10,0.5,0.5,-0.016559396362304687,-0.001,-0.0155,-0.37525,0.01458916579746765,10,1,100,0.049391696942951355,-10,-1,-100,15020.380319621763,-0.0054674987400699085,0.00026683519753287237,0.9999850175160148,19.69652590115803,0.01872154450775415,33.937353648130845,-15.157724647572891,-88.31967163085938,5356.25390625,True
1599558889.223026,0.0,10,0.5,0.5,0.0014066986083984406,-0.001,-0.0155,-0.37525,0.02879950400963998,10,1,100,0.034559841582296844,-10,-1,-100,15019.772894609254,-0.005229182117479797,0.0005100697698512002,0.9999861976463537,19.82005446138516,0.01876623302958295,34.991157857416965,-15.529241461420728,-88.40768432617188,5356.25390625,True
1599558889.2574017,0.0,10,0.5,0.5,0.003378927612304683,-0.001,-0.0155,-0.37525,0.0314482052376926,10,1,100,0.029775262730764508,-10,-1,-100,15019.168399419752,-0.0049702855333638545,0.0007533937516413347,0.9999873642499548,19.942315105573556,0.018811266373514834,36.053398927221316,-15.900749462430994,-88.49835205078125,5356.25390625,True
1599558889.2903185,0.0,10,0.5,0.5,-0.011962051391601565,-0.001,-0.0155,-0.37525,0.02039030779977309,10,1,100,0.040649089433688876,-10,-1,-100,15018.802186764311,-0.0048352231627566905,0.0008720938720291028,0.9999879299617794,20.002785300230457,0.01883379150793972,36.58729800000813,-16.086500138608727,-88.54537963867188,5356.25390625,True
1599558889.326662,0.0,10,0.5,0.5,0.04438295745849608,-0.001,-0.0155,-0.37525,0.058243285735009455,10,1,100,-0.008553174141457509,-10,-1,-100,15017.520931132254,-0.00426661534995283,0.0013222744705404322,0.9999900237420772,20.240916782532768,0.018925240772893502,38.74203177078864,-16.829480308212688,-88.73944091796875,5356.25390625,True
1599558889.3576908,0.0,10,0.5,0.5,0.00987819366455078,-0.001,-0.0155,-0.37525,0.03725368401309547,10,1,100,0.014359512799121548,-10,-1,-100,15016.843194061657,-0.003959863513128507,0.0015386976498890936,0.9999909759045327,20.35832154465565,0.01897252881185614,39.83171307306052,-17.200956599849864,-88.838134765625,5356.25390625,True
1599558889.3908038,0.0,10,0.5,0.5,-0.025871423339843748,-0.001,-0.0155,-0.37525,0.015841512316748792,10,1,100,0.044806107574513414,-10,-1,-100,15016.843194061657,-0.003959863513128507,0.0015386976498890936,0.9999909759045327,20.35832154465565,0.01897252881185614,39.83171307306052,-17.200956599849864,-88.838134765625,5356.25390625,True
1599558889.4238749,0.0,10,0.5,0.5,0.027467848205566404,-0.001,-0.0155,-0.37525,0.047539966259999705,10,1,100,-0.005308117665909107,-10,-1,-100,15015.788504094118,-0.0035062077711299853,0.0018250117988865568,0.9999921878889853,20.533431006027726,0.019046686956842123,41.48343018258422,-17.758153290556105,-88.97677612304688,5356.25390625,True
1599558889.4596713,0.0,10,0.5,0.5,-0.023224769592285158,-0.001,-0.0155,-0.37525,0.019128208203135884,10,1,100,0.039808944815977215,-10,-1,-100,15015.788504094118,-0.0035062077711299853,0.0018250117988865568,0.9999921878889853,20.533431006027726,0.019046686956842123,41.48343018258422,-17.758153290556105,-88.97677612304688,5356.25390625,True
1599558889.4905572,0.0,10,0.5,0.5,0.029513569641113277,-0.001,-0.0155,-0.37525,0.048895011740610506,10,1,100,-0.013302732660484852,-10,-1,-100,15014.679125503404,-0.003025360871112585,0.0020939732107133316,0.9999932312109879,20.708108951689905,0.019125164214927586,43.1572003113281,-18.31532842017978,-89.1138916015625,5356.25390625,True
1599558889.5247457,0.0,10,0.5,0.5,-0.0031545837402343797,-0.001,-0.0155,-0.37525,0.03169031441012388,10,1,100,0.016179547568047757,-10,-1,-100,15014.311937896302,-0.0028585727622270998,0.002180300268767919,0.9999935374053679,20.765949156023535,0.019152074316953434,43.71940568513442,-18.501048697450702,-89.16036987304688,5356.25390625,True
1599558889.5578482,0.0,10,0.5,0.5,-0.0013227691650390602,-0.001,-0.0155,-0.37525,0.03244947073383418,10,1,100,0.01403086648436351,-10,-1,-100,15013.946702398127,-0.002689785495186659,0.002263941319877424,0.9999938197927477,20.823123771950875,0.019178936471797622,44.28272802261083,-18.68676658026629,-89.2081298828125,5356.25390625,True
1599558889.5927582,0.0,10,0.5,0.5,0.033964590454101565,-0.001,-0.0155,-0.37525,0.048325443742347304,10,1,100,-0.02310923132086933,-10,-1,-100,15012.822677480057,-0.002201013814758954,0.00248271123773616,0.9999944958264005,20.99353821052297,0.01926209149464062,45.98530275241145,-19.24390607842312,-89.34625244140625,5356.25390625,True
1599558889.6235657,0.0,10,0.5,0.5,-0.016551654052734375,-0.001,-0.0155,-0.37525,0.026621383705083164,10,1,100,0.025491009550040716,-10,-1,-100,15012.822677480057,-0.002201013814758954,0.00248271123773616,0.9999944958264005,20.99353821052297,0.01926209149464062,45.98530275241145,-19.24390607842312,-89.34625244140625,5356.25390625,True
1599558889.6566732,0.0,10,0.5,0.5,0.0511603790283203,-0.001,-0.0155,-0.37525,0.05423400400387553,10,1,100,-0.04713395166180899,-10,-1,-100,15011.206465412746,-0.0015431816304221362,0.002732270861029084,0.9999950766310789,21.219340459550708,0.019379830739025404,48.28708798253016,-19.98672536821823,-89.52291870117188,5356.25390625,True
1599558889.690894,0.0,10,0.5,0.5,0.0018803161621093745,-0.001,-0.0155,-0.37525,0.03570965915034228,10,1,100,-0.0005595372227863091,-10,-1,-100,15010.825605222723,-0.0013710319883975361,0.0027894582959082687,0.9999951695851846,21.275843551522552,0.0194107342177745,48.86885900848425,-20.17242414807551,-89.56491088867188,5356.25390625,True
1599558889.7267888,0.0,10,0.5,0.5,0.018733549499511712,-0.001,-0.0155,-0.37525,0.040717129541267785,10,1,100,-0.019139211557694,-10,-1,-100,15010.009198237676,-0.001047979666716676,0.0028858322760377418,0.9999952868442394,21.388260269947473,0.019473680860757996,50.03848285898134,-20.543814526653303,-89.64859008789062,5356.25390625,True
1599558889.756856,0.0,10,0.5,0.5,0.018672601318359374,-0.001,-0.0155,-0.37525,0.040709992969645364,10,1,100,-0.023309313741031033,-10,-1,-100,15009.19474515901,-0.0007190328852004775,0.00297215543948056,0.9999953246309472,21.500730030301305,0.01953886756527227,51.21813831340671,-20.91519545120402,-89.72854614257812,5356.25390625,True
1599558889.7898233,0.0,10,0.5,0.5,-0.010165664672851562,-0.001,-0.0155,-0.37525,0.03219239098942292,10,1,100,0.00930664692199588,-10,-1,-100,15009.19474515901,-0.0007190328852004775,0.00297215543948056,0.9999953246309472,21.500730030301305,0.01953886756527227,51.21813831340671,-20.91519545120402,-89.72854614257812,5356.25390625,True
1599558889.8239422,0.0,10,0.5,0.5,0.00566239776611328,-0.001,-0.0155,-0.37525,0.03635005443003348,10,1,100,-0.008354608968378868,-10,-1,-100,15008.74552702345,-0.000561009808820643,0.0030089095219946616,0.9999953158547709,21.556892873450312,0.01957219589085954,51.81151156861721,-21.1008822848579,-89.76751708984375,5356.25390625,True
1599558889.8599768,0.0,10,0.5,0.5,0.04783238525390625,-0.001,-0.0155,-0.37525,0.04545922128609092,10,1,100,-0.062199764481266226,-10,-1,-100,15006.98869164777,6.990862794882631e-05,0.0031243011717795657,0.9999951169155635,21.814007452186072,0.01974000101642107,54.29059172105363,-21.843604804013722,-89.915771484375,5356.25390625,True
1599558889.890802,0.0,10,0.5,0.5,-0.006629203796386718,-0.001,-0.0155,-0.37525,0.034014456397901675,10,1,100,0.0005992310566631053,-10,-1,-100,15006.98869164777,6.990862794882631e-05,0.0031243011717795657,0.9999951169155635,21.814007452186072,0.01974000101642107,54.29059172105363,-21.843604804013722,-89.915771484375,5356.25390625,True
1599558889.9236453,0.0,10,0.5,0.5,0.008418560791015625,-0.001,-0.0155,-0.37525,0.03629121690840376,10,1,100,-0.016458329484106835,-10,-1,-100,15006.55509784841,0.0002224685472984299,0.003144216849282401,0.9999950321917357,21.878440031411763,0.01978333617869244,54.91781809075479,-22.029279216158002,-89.95285034179688,5356.25390625,True
1599558889.9568439,0.0,10,0.5,0.5,0.04830917358398437,-0.001,-0.0155,-0.37525,0.03963029657721863,10,1,100,-0.06707807793265368,-10,-1,-100,15004.768966127187,0.000819135748637534,0.0031920759116273443,0.9999945698192564,22.135822904165284,0.01996143647613449,57.454205138910886,-22.771951300781645,-90.09335327148438,5356.25390625,True
1599558889.992645,0.0,10,0.5,0.5,0.009597821807861326,-0.001,-0.0155,-0.37525,0.03532305292419131,10,1,100,-0.023524212171973695,-10,-1,-100,15004.334396842867,0.0009628706524274503,0.003195782512664416,0.9999944299116061,22.2001435718757,0.020007172047574667,58.09532976673335,-22.957612949649477,-90.12751770019531,5356.25390625,True
1599558890.0236454,0.0,10,0.5,0.5,0.02231544494628906,-0.001,-0.0155,-0.37525,0.034646747712241285,10,1,100,-0.039301928581376336,-10,-1,-100,15003.378342760727,0.0012346943029738985,0.0031925825465425398,0.9999941414561696,22.32851647738406,0.020099890172151944,59.385382791649434,-23.328928660528547,-90.19290161132812,5356.25390625,True
1599558890.057523,0.0,10,0.5,0.5,0.021310375976562497,-0.001,-0.0155,-0.37525,0.033418334014664486,10,1,100,-0.04234830458940525,-10,-1,-100,15002.423265621648,0.0015071321978242312,0.0031781396125895593,0.9999938139714369,22.457729290065277,0.020195226361517608,60.6890485111356,-23.700234085320734,-90.25285339355469,5356.25390625,True
1599558890.091461,0.0,10,0.5,0.5,0.010405595397949217,-0.001,-0.0155,-0.37525,0.03352726377788181,10,1,100,-0.02929995671383414,-10,-1,-100,15001.973070285749,0.0016338588380333955,0.0031657342092646875,0.999993654295973,22.522497404607364,0.02024369977951085,61.345606476307445,-23.885882955166068,-90.28117370605469,5356.25390625,True
1599558890.128331,0.0,10,0.5,0.5,0.02037580986022949,-0.001,-0.0155,-0.37525,0.03106593530049038,10,1,100,-0.04360807387008679,-10,-1,-100,15001.017016442609,0.0018769996744410836,0.0031319048757478055,0.9999933339998179,22.6527233503963,0.020342499314326298,62.66922622466077,-24.25717285041172,-90.3336410522461,5356.25390625,True
1599558890.1572552,0.0,10,0.5,0.5,0.0016253353118896483,-0.001,-0.0155,-0.37525,0.03446484359580531,10,1,100,-0.01955359348528214,-10,-1,-100,15001.017016442609,0.0018769996744410836,0.0031319048757478055,0.9999933339998179,22.6527233503963,0.020342499314326298,62.66922622466077,-24.25717285041172,-90.3336410522461,5356.25390625,True
1599558890.191165,0.0,10,0.5,0.5,0.020705046463012692,-0.001,-0.0155,-0.37525,0.029422065104270347,10,1,100,-0.045478353612758954,-10,-1,-100,15000.00822842808,0.0021104629397060894,0.003085949620957712,0.9999930114061382,22.783750855726545,0.020443529639798053,64.00662685738544,-24.628452307339575,-90.38201904296875,5356.25390625,True
1599558890.2251012,0.0,10,0.5,0.5,0.011805192565917968,-0.001,-0.0155,-0.37525,0.031036276807164767,10,1,100,-0.034150197279670474,-10,-1,-100,14999.488697949448,0.0022178639829991474,0.003058881633493778,0.999992862135778,22.849473528037603,0.020494770020901467,64.68027174234984,-24.814088091043754,-90.40469360351562,5356.25390625,True
1599558890.2609792,0.0,10,0.5,0.5,0.02742936058044433,-0.001,-0.0155,-0.37525,0.02283466435289691,10,1,100,-0.057242984742571994,-10,-1,-100,14998.013112483546,0.002523483039878259,0.0029597737312498447,0.9999924358577954,23.057102375206785,0.0206597994723765,66.7489705170083,-25.370979491925223,-90.4668197631836,5356.25390625,True
1599558890.2908995,0.0,10,0.5,0.5,0.018539718627929684,-0.001,-0.0155,-0.37525,0.023968751952496627,10,1,100,-0.0470118044620217,-10,-1,-100,14996.987722567748,0.0027062159849519218,0.0028801532011317505,0.9999921905257966,23.20685111868417,0.02078144259155234,68.17671666666526,-25.742226744630045,-90.50303649902344,5356.25390625,True
1599558890.32381,0.0,10,0.5,0.5,0.017669453811645506,-0.001,-0.0155,-0.37525,0.022106241406811,10,1,100,-0.046948587882656836,-10,-1,-100,14995.964285921538,0.002870046620446194,0.002791122553073155,0.9999919862015346,23.35688194459275,0.020904351784061585,69.61855398544604,-26.11346315876984,-90.53515625,5356.25390625,True
1599558890.3581421,0.0,10,0.5,0.5,0.016332633209228516,-0.001,-0.0155,-0.37525,0.02009282257721404,10,1,100,-0.04690067132025483,-10,-1,-100,14994.883231523563,0.0030168141603573156,0.0026922496654413607,0.9999918252786174,23.506739315624568,0.02102796005288174,71.07315288585673,-26.484688477391217,-90.56195831298828,5356.25390625,True
1599558890.395045,0.0,10,0.5,0.5,0.011190353775024413,-0.001,-0.0155,-0.37525,0.024160768172613138,10,1,100,-0.03969730185182709,-10,-1,-100,14994.364677422796,0.003083133910693189,0.002639801393807995,0.9999917628330195,23.58161559039602,0.021089985947854103,71.80527361858628,-26.67029688132604,-90.57350158691406,5356.25390625,True
1599558890.4249954,0.0,10,0.5,0.5,0.011248223876953125,-0.001,-0.0155,-0.37525,0.023355022192578137,10,1,100,-0.03995500639458793,-10,-1,-100,14993.846122254618,0.0031443346325573823,0.0025852855817944187,0.9999917146947664,23.656404438997672,0.02115207261670212,72.5404464740103,-26.85590245467632,-90.58384704589844,5356.25390625,True
1599558890.4576285,0.0,10,0.5,0.5,0.01728798713684082,-0.001,-0.0155,-0.37525,0.009363061864775236,10,1,100,-0.05131162886867992,-10,-1,-100,14992.175224633073,0.0033018405151124634,0.0024090537939179322,0.9999916471196301,23.88092421037501,0.021339166126786286,74.76636337405813,-27.412702414720066,-90.60897064208984,5356.25390625,True
1599558890.4915376,0.0,10,0.5,0.5,0.010844787216186523,-0.001,-0.0155,-0.37525,0.019988249539381518,10,1,100,-0.04048549255156407,-10,-1,-100,14991.65666945139,0.003345312950151783,0.0023460928302373924,0.999991652330007,23.955833480559647,0.021401753096869567,75.51520390386811,-27.598296904757312,-90.61576843261719,5356.25390625,True
