Timestamp,Input Throttle,horizon,dT,dt,Input Roll,Roll P,Roll I,Roll D,Input Pitch,Pitch P,Pitch I,Pitch D,Input Yaw,Yaw P,Yaw I,Yaw D,Altitude,Direction X,Direction Y,Direction Z,Drag X,Drag Y,Drag Z,Vertical Velocity,Roll,Mass,Has Fuel
1599561057.6253521,0.0,10,0.5,0.5,-5.8497949218750005,-0.1005,-0.0155,-0.001,-0.000550557067482456,10,1,100,0.1711527656595856,-10,-1,-100,14993.431430692668,-0.016776159366673458,-7.725122689350908e-05,0.9998592673517368,28.717243554187164,0.027109143720952956,-88.32827454190176,27.194950004251478,-31.7930908203125,5356.25390625,True
1599561057.659367,0.0,10,0.5,0.5,-5.940070837402344,-0.1005,-0.0155,-0.001,-0.0005295151994623857,10,1,100,0.17326336045129415,-10,-1,-100,14993.96756497561,-0.01681092437438157,-7.497193423749039e-05,0.9998586836152836,28.644571325016347,0.027275055220953495,-87.50384430384395,27.00897834125437,-31.79254150390625,5356.25390625,True
1599561057.6943412,0.0,10,0.5,0.5,-6.026314614868164,-0.1005,-0.0155,-0.001,0.0036440999127530715,10,1,100,0.1813789551040106,-10,-1,-100,14995.568155674962,-0.016901024401527836,-3.488973813529879e-05,0.9998571668777921,28.426739584321815,0.027763778138902028,-85.04940561624379,26.45108741952254,-31.83172607421875,5356.25390625,True
1599561057.7252972,0.0,10,0.5,0.5,-6.116514624023438,-0.1005,-0.0155,-0.001,-0.00036760867127961773,10,1,100,0.17405905482953665,-10,-1,-100,14995.568155674962,-0.016901024401527836,-3.488973813529879e-05,0.9998571668777921,28.426739584321815,0.027763778138902028,-85.04940561624379,26.45108741952254,-31.83172607421875,5356.25390625,True
1599561057.7593358,0.0,10,0.5,0.5,-6.15690426940918,-0.1005,-0.0155,-0.001,0.012918912092584172,10,1,100,0.1809446644897373,-10,-1,-100,14997.173626703443,-0.016948256285346453,8.59285322072223e-05,0.9998563642969792,28.233391172334134,0.02825623078213274,-82.6940793295873,25.893231015770418,-32.32208251953125,5356.25390625,True
1599561057.9828718,0.0,10,0.5,0.5,-6.216585147094727,-0.1005,-0.0155,-0.001,0.007397296498491798,10,1,100,0.17855112883834987,-10,-1,-100,14997.647259898367,-0.01695402744081863,0.00014548870117939513,0.9998562595626302,28.178959891201682,0.02842263960582029,-81.94349841078593,25.707285975760296,-32.619720458984375,5356.25390625,True
1599561058.011794,0.0,10,0.5,0.5,-6.268667295837403,-0.1005,-0.0155,-0.001,0.009453181765286157,10,1,100,0.17950293273504186,-10,-1,-100,14998.179486387642,-0.016952513956271613,0.00021819191294206517,0.9998562720025572,28.12948665178046,0.028588802313217542,-81.20950519850875,25.52134422607745,-32.98577880859375,5356.25390625,True
1599561058.0460122,0.0,10,0.5,0.5,-6.204145600891113,-0.1005,-0.0155,-0.001,0.034529407788298716,10,1,100,0.17472239038731735,-10,-1,-100,14999.71464053134,-0.01689226720901658,0.0005120530766510229,0.999857184356939,28.007092350881862,0.029073200337010593,-79.0934005241964,24.963538086551154,-34.4957275390625,5356.25390625,True
1599561058.133086,0.0,10,0.5,0.5,-6.291687171936036,-0.1005,-0.0155,-0.001,0.00519449672506804,10,1,100,0.1824362918337222,-10,-1,-100,14999.71464053134,-0.01689226720901658,0.0005120530766510229,0.999857184356939,28.007092350881862,0.029073200337010593,-79.0934005241964,24.963538086551154,-34.4957275390625,5356.25390625,True
1599561058.1640027,0.0,10,0.5,0.5,-6.240686979675293,-0.1005,-0.0155,-0.001,0.0337529267143248,10,1,100,0.17510499053979828,-10,-1,-100,15000.65994987276,-0.016810262408881803,0.0007712096646654926,0.9998584001314375,27.942071894306757,0.029368853348572595,-77.73726120483393,24.591682095556415,-35.845794677734375,5356.25390625,True
1599561058.1899374,0.0,10,0.5,0.5,-6.068115637207032,-0.1005,-0.0155,-0.001,0.059973805011559314,10,1,100,0.16283142348914653,-10,-1,-100,15002.133575254818,-0.01660885265156346,0.0012444770840492646,0.9998612890248257,27.85525292340284,0.029732485543226567,-75.7422799628001,24.03391942949567,-38.38629150390625,5356.25390625,True
1599561058.2188568,0.0,10,0.5,0.5,-5.9605411956787115,-0.1005,-0.0155,-0.001,0.032985037144310864,10,1,100,0.1735733719717218,-10,-1,-100,15002.604275117163,-0.016523559046311205,0.0014281661862313962,0.9998624567098156,27.82563747819376,0.029823087150362877,-75.07785723266724,23.848004091531187,-39.3704833984375,5356.25390625,True
1599561058.2427924,0.0,10,0.5,0.5,-5.842902258300782,-0.1005,-0.0155,-0.001,0.03552631276047365,10,1,100,0.17104773145132812,-10,-1,-100,15003.073998451699,-0.016423320278012913,0.0016168922955252967,0.9998638208327925,27.793934297059156,0.029894057011607172,-74.40907211289289,23.662091638428077,-40.4234619140625,5356.25390625,True
1599561058.2677252,0.0,10,0.5,0.5,-5.716775787353516,-0.1005,-0.0155,-0.001,0.03816394703969623,10,1,100,0.16855201009682919,-10,-1,-100,15003.541768039111,-0.016309940025540398,0.0018109383592093565,0.9998653441132074,27.759042661458793,0.02994265615316794,-73.73313389272589,23.47618213493667,-41.545257568359375,5356.25390625,True
1599561058.2926595,0.0,10,0.5,0.5,-5.454205638122558,-0.1005,-0.0155,-0.001,0.06570981340241439,10,1,100,0.15143968081848125,-10,-1,-100,15004.482188911876,-0.016051837788376756,0.0022360828130401716,0.9998686605936146,27.6746728208336,0.029961539022859945,-72.34748237033057,23.104372295916576,-43.994873046875,5356.25390625,True
1599561058.3296692,0.0,10,0.5,0.5,-5.438562428283691,-0.1005,-0.0155,-0.001,0.023410383447416167,10,1,100,0.17716026268514853,-10,-1,-100,15004.482188911876,-0.016051837788376756,0.0022360828130401716,0.9998686605936146,27.6746728208336,0.029961539022859945,-72.34748237033057,23.104372295916576,-43.994873046875,5356.25390625,True
1599561058.3605864,0.0,10,0.5,0.5,-5.144383090209962,-0.1005,-0.0155,-0.001,0.07399353499563861,10,1,100,0.143230876974406,-10,-1,-100,15005.421632121783,-0.015744208999781316,0.0026940291051950477,0.9998724229071185,27.561810220103506,0.02985712684659337,-70.8955923715348,22.73257597061255,-46.719482421875,5356.25390625,True
1599561058.3930275,0.0,10,0.5,0.5,-4.658650354003907,-0.1005,-0.0155,-0.001,0.10854798613846639,10,1,100,0.11195671298005269,-10,-1,-100,15006.705794920796,-0.015181334341979059,0.0034222245291867757,0.9998789004008779,27.312448546556205,0.029423437684266942,-68.53461199705984,22.174911198241524,-51.3221435546875,5356.25390625,True
1599561058.4269023,0.0,10,0.5,0.5,-4.290818188476563,-0.1005,-0.0155,-0.001,0.09220940003738819,10,1,100,0.11936604372796661,-10,-1,-100,15007.581759085646,-0.014738543053382623,0.003933042157848967,0.999883646494955,27.0732583074324,0.028925315529516965,-66.7981308484301,21.80315814065279,-54.7344970703125,5356.25390625,True
1599561058.4627042,0.0,10,0.5,0.5,-4.079185964965821,-0.1005,-0.0155,-0.001,0.06853408548068858,10,1,100,0.13691278027117448,-10,-1,-100,15008.047572997399,-0.014497479236101965,0.0041790816978616915,0.9998861727076546,26.92640233998774,0.0286097747640808,-65.87075928385032,21.617289846556304,-56.544097900390625,5356.25390625,True
1599561058.4936202,0.0,10,0.5,0.5,-3.660627993774414,-0.1005,-0.0155,-0.001,0.09994662580391381,10,1,100,0.1033640441287724,-10,-1,-100,15008.923535748036,-0.013975444331072966,0.004685224489872401,0.9998913619124972,26.568515790203882,0.02784443020304588,-63.88028655493963,21.24557199844882,-60.36956787109375,5356.25390625,True
1599561058.5275276,0.0,10,0.5,0.5,-3.630379385375977,-0.1005,-0.0155,-0.001,0.04967642134342514,10,1,100,0.15530419379962326,-10,-1,-100,15008.923535748036,-0.013975444331072966,0.004685224489872401,0.9998913619124972,26.568515790203882,0.02784443020304588,-63.88028655493963,21.24557199844882,-60.36956787109375,5356.25390625,True
1599561058.5604079,0.0,10,0.5,0.5,-2.962991174316407,-0.1005,-0.0155,-0.001,0.13297911925132505,10,1,100,0.057699267177899166,-10,-1,-100,15010.144217763096,-0.013090443284252963,0.005439560781486363,0.9998995206885171,25.84186617992208,0.026375799813452686,-60.5067176605507,20.68804952899326,-66.6241455078125,5356.25390625,True
1599561058.596058,0.0,10,0.5,0.5,-2.4704505340576173,-0.1005,-0.0155,-0.001,0.11167972921801488,10,1,100,0.07349479193869726,-10,-1,-100,15010.956702788593,-0.012432522445872726,0.005928215074936271,0.9999051398266029,25.206707577998337,0.025211445866488533,-57.96211904693686,20.31641040075791,-71.13827514648438,5356.25390625,True
1599561058.6270113,0.0,10,0.5,0.5,-1.9428786437988284,-0.1005,-0.0155,-0.001,0.11086149976647158,10,1,100,0.06353276199385499,-10,-1,-100,15011.765281405416,-0.011747373609282732,0.006361264822407861,0.9999107627799307,24.431554451783033,0.023938076232128062,-55.15495606495476,19.944809858562547,-75.9285888671875,5356.25390625,True
1599561058.6609273,0.0,10,0.5,0.5,-1.6445796722412112,-0.1005,-0.0155,-0.001,0.09153228296917397,10,1,100,0.09179860932823095,-10,-1,-100,15012.170547696645,-0.011385386428312605,0.0065754760928526295,0.9999135643094509,23.98624901696486,0.02327402421359545,-53.64671034355015,19.75902482546627,-78.42703247070312,5356.25390625,True
1599561058.6933482,0.0,10,0.5,0.5,-1.3331158157348633,-0.1005,-0.0155,-0.001,0.09297872969212059,10,1,100,0.0866876772660421,-10,-1,-100,15012.573860527016,-0.011014086382647195,0.006779418224120286,0.9999163611971245,23.499871666372325,0.022599796537106254,-52.06617814339787,19.573250180402187,-80.99444580078125,5356.25390625,True
1599561058.7299974,0.0,10,0.5,0.5,-1.0149610580444337,-0.1005,-0.0155,-0.001,0.09409778329728931,10,1,100,0.08187001741128919,-10,-1,-100,15012.917603300419,-0.010637044090287371,0.006971279386120667,0.9999191240079078,22.970689546323566,0.021921271368507016,-50.41213077335336,19.387485798343903,-83.630859375,5356.25390625,True
1599561058.7609127,0.0,10,0.5,0.5,-0.4113257247924805,-0.1005,-0.0155,-0.001,0.1147835634450835,10,1,100,0.032445295430143545,-10,-1,-100,15013.72422959318,-0.009849093888542292,0.007330524757594657,0.9999246265375971,21.813692516186805,0.020607639700268382,-46.958325810259126,19.0159868318131,-89.110595703125,5356.25390625,True
1599561058.7937305,0.0,10,0.5,0.5,0.5232899116516114,-0.1005,-0.0155,-0.001,0.12901652456508,10,1,100,-0.024574134303038994,-10,-1,-100,15014.816005831002,-0.008618862024985869,0.007783413394025756,0.9999325645728976,22.22324304763461,0.021050453942798766,-46.44218754781516,18.4587730203024,-97.84766387939453,5356.25390625,True
1599561058.8276412,0.0,10,0.5,0.5,1.202331572341919,-0.1005,-0.0155,-0.001,0.11083552531947949,10,1,100,0.005451004699450784,-10,-1,-100,15015.55818017351,-0.007778769428330952,0.008026571859733874,0.9999375304939611,23.20209906744812,0.02223677557292798,-47.51467119117072,18.08728227223591,-103.9930648803711,5356.25390625,True
1599561058.8635292,0.0,10,0.5,0.5,1.2638025917053224,-0.1005,-0.0155,-0.001,0.08685381348565382,10,1,100,0.08884059687466829,-10,-1,-100,15015.55818017351,-0.007778769428330952,0.008026571859733874,0.9999375304939611,23.20209906744812,0.02223677557292798,-47.51467119117072,18.08728227223591,-103.9930648803711,5356.25390625,True
1599561058.894489,0.0,10,0.5,0.5,1.6451845111846926,-0.1005,-0.0155,-0.001,0.09863491353026244,10,1,100,0.04322464871222017,-10,-1,-100,15015.900947282906,-0.007369712331311189,0.00813063518071226,0.9999397882431281,23.633233779362495,0.022822053557683478,-47.90186099081949,17.90153067392131,-107.0843505859375,5356.25390625,True
1599561058.928437,0.0,10,0.5,0.5,2.9159749317169195,-0.1005,-0.0155,-0.001,0.12111305557794942,10,1,100,-0.10247814653903181,-10,-1,-100,15017.328659398714,-0.005678472041693606,0.00842713851439956,0.9999483678129241,24.857243992398008,0.024759027969525237,-48.29642642480186,17.158484598866448,-119.01704406738281,5356.25390625,True
1599561058.9613113,0.0,10,0.5,0.5,2.9782543300628666,-0.1005,-0.0155,-0.001,0.09171261455316575,10,1,100,0.06597047738230855,-10,-1,-100,15017.328659398714,-0.005678472041693606,0.00842713851439956,0.9999483678129241,24.857243992398008,0.024759027969525237,-48.29642642480186,17.158484598866448,-119.01704406738281,5356.25390625,True
1599561058.9972553,0.0,10,0.5,0.5,3.6111281970977784,-0.1005,-0.0155,-0.001,0.1004434579915485,10,1,100,-0.025479088542584773,-10,-1,-100,15018.00736006035,-0.004852629534710566,0.008504631751392138,0.9999520604635863,25.26611956781499,0.025446618955051667,-48.030086000279425,16.786944938972116,-124.59425354003906,5356.25390625,True
1599561059.0323145,0.0,10,0.5,0.5,3.9496978343963627,-0.1005,-0.0155,-0.001,0.09689673796889499,10,1,100,0.014123985001579055,-10,-1,-100,15018.288605906302,-0.004467830430485294,0.008541083461489869,0.999953543113153,25.398617975990827,0.025674186219000382,-47.748719452087606,16.60117378311189,-127.27984619140625,5356.25390625,True
1599561059.0640774,0.0,10,0.5,0.5,4.54304634513855,-0.1005,-0.0155,-0.001,0.0940643464862119,10,1,100,-0.039129847978889805,-10,-1,-100,15018.970238599111,-0.0036398384504145675,0.008546870852429441,0.9999568503563975,25.53242750090484,0.025892628826707696,-46.928065477846815,16.22963353718048,-132.44528198242188,5356.25390625,True
1599561059.094155,0.0,10,0.5,0.5,5.3475365123748775,-0.1005,-0.0155,-0.001,0.09056895042251958,10,1,100,-0.08363560809307176,-10,-1,-100,15019.923353017191,-0.002488881745348501,0.00851892343318975,0.999960615930046,25.447797868734014,0.025662893672881684,-45.169382443262975,15.672341883691175,-139.67674255371094,5356.25390625,True
1599561059.1301131,0.0,10,0.5,0.5,5.649377632522584,-0.1005,-0.0155,-0.001,0.09018813770888273,10,1,100,-0.010596462999432617,-10,-1,-100,15020.20460051403,-0.0021132407980880633,0.008488974392233702,0.9999617350314448,25.354113357105163,0.025453578817646705,-44.470673949586235,15.486586482967603,-141.94960021972656,5356.25390625,True
1599561059.1630564,0.0,10,0.5,0.5,6.36552833557129,-0.1005,-0.0155,-0.001,0.08436356342015676,10,1,100,-0.08941250905290699,-10,-1,-100,15021.1557656175,-0.0010611537193896236,0.008408155896923232,0.9999640877887549,24.913107412442933,0.024509453468610783,-42.12771573406925,14.929354337998218,-148.35418701171875,5356.25390625,True
1599561059.1939409,0.0,10,0.5,0.5,6.630603161239624,-0.1005,-0.0155,-0.001,0.087313891759002,10,1,100,-0.022387600844736098,-10,-1,-100,15021.43310780893,-0.0007201351912916334,0.00836115880968759,0.9999647855943056,24.724583100498226,0.024114631419533412,-41.28975412944705,14.7436230213632,-150.35142517089844,5356.25390625,True
1599561059.2279198,0.0,10,0.5,0.5,7.08487621459961,-0.1005,-0.0155,-0.001,0.08343852808914147,10,1,100,-0.05961088813197593,-10,-1,-100,15021.988769415068,-7.814176698858868e-05,0.008282899436156498,0.9999656931469172,24.36098443598619,0.023303222900087416,-39.65951042531765,14.37218042668412,-154.13876342773438,5356.25390625,True
1599561059.2635312,0.0,10,0.5,0.5,7.335743156433106,-0.1005,-0.0155,-0.001,0.08609352320598565,10,1,100,-0.030187543590371818,-10,-1,-100,15022.267088846304,0.0002313749678502123,0.008235752448321866,0.9999660588476162,24.165940276501033,0.02287469557840059,-38.834570143693924,14.186469273787504,-155.92910766601562,5356.25390625,True
1599561059.2944489,0.0,10,0.5,0.5,7.391166510772706,-0.1005,-0.0155,-0.001,0.09078908338284103,10,1,100,0.0001731451925538999,-10,-1,-100,15022.267088846304,0.0002313749678502123,0.008235752448321866,0.9999660588476162,24.165940276501033,0.02287469557840059,-38.834570143693924,14.186469273787504,-155.92910766601562,5356.25390625,True
1599561059.3273606,0.0,10,0.5,0.5,7.79081571044922,-0.1005,-0.0155,-0.001,0.08102376293312717,10,1,100,-0.0651245428046426,-10,-1,-100,15022.81591598678,0.0008196177250887769,0.00814715079520272,0.9999664755184069,23.739584454182737,0.021981103525037207,-37.152523449385626,13.815067432685872,-159.3028564453125,5356.25390625,True
1599561059.3613105,0.0,10,0.5,0.5,8.155686478424073,-0.1005,-0.0155,-0.001,0.07943011508853785,10,1,100,-0.06772321688338309,-10,-1,-100,15023.368649917073,0.001372851589421659,0.008052441112831038,0.9999666361787466,23.278387872846718,0.02107317680502585,-35.45323375947503,13.443692267053521,-162.40084838867188,5356.25390625,True
1599561059.3973029,0.0,10,0.5,0.5,8.35376242904663,-0.1005,-0.0155,-0.001,0.0829381092541395,10,1,100,-0.04198901659066668,-10,-1,-100,15023.640134515357,0.0016365344797723963,0.007998676477951942,0.9999666709093346,23.039514149399725,0.020624910873654582,-34.60568217495333,13.258014202179908,-163.84652709960938,5356.25390625,True
1599561059.4282212,0.0,10,0.5,0.5,8.673441591644286,-0.1005,-0.0155,-0.001,0.07807754740745716,10,1,100,-0.07105899619099883,-10,-1,-100,15024.188962786924,0.0021357220374304616,0.007906110969796085,0.9999664654880743,22.553881003846463,0.019757233695772074,-32.92914131639241,12.886675950369742,-166.53079223632812,5356.25390625,True
1599561059.4611683,0.0,10,0.5,0.5,9.068555717468263,-0.1005,-0.0155,-0.001,0.0733271181479192,10,1,100,-0.09696939708489251,-10,-1,-100,15024.892089715344,0.002820873821807028,0.007779331889534409,0.9999657617469879,21.829416221295475,0.018565708990742207,-30.49629252767569,12.329708541559809,-170.03990173339844,5356.25390625,True
1599561059.4966207,0.0,10,0.5,0.5,9.108586575317384,-0.1005,-0.0155,-0.001,0.08593406192381682,10,1,100,-0.02894763010922537,-10,-1,-100,15024.892089715344,0.002820873821807028,0.007779331889534409,0.9999657617469879,21.829416221295475,0.018565708990742207,-30.49629252767569,12.329708541559809,-170.03990173339844,5356.25390625,True
1599561059.531531,0.0,10,0.5,0.5,9.435342324066163,-0.1005,-0.0155,-0.001,0.0755740997027948,10,1,100,-0.09628623846327991,-10,-1,-100,15025.651857994613,0.003429513872715527,0.007685722072986381,0.9999645834282401,21.142401085970526,0.01754237040029873,-28.204530314911263,11.772781438788769,-172.92800903320312,5356.25390625,True
1599561059.5614152,0.0,10,0.5,0.5,9.697576126098634,-0.1005,-0.0155,-0.001,0.07711416614112271,10,1,100,-0.09448931323028659,-10,-1,-100,15026.34912804421,0.003962714917728762,0.0076152368771427005,0.9999631518499998,20.523639600339635,0.01670265376162814,-26.085898490921565,11.215885636473516,-175.19528198242188,5356.25390625,True
1599561059.595361,0.0,10,0.5,0.5,9.72794645690918,-0.1005,-0.0155,-0.001,0.08409591946958934,10,1,100,-0.041573294397434825,-10,-1,-100,15026.34912804421,0.003962714917728762,0.0076152368771427005,0.9999631518499998,20.523639600339635,0.01670265376162814,-26.085898490921565,11.215885636473516,-175.19528198242188,5356.25390625,True
1599561059.628307,0.0,10,0.5,0.5,9.820487631225586,-0.1005,-0.0155,-0.001,0.08394860432332646,10,1,100,-0.059776886519956614,-10,-1,-100,15026.563973456621,0.004124809991615434,0.007614461753605019,0.9999625022543276,20.336816615998597,0.016463169443554027,-25.42125816434437,11.030259281965275,-175.81280517578125,5356.25390625,True
1599561059.6642034,0.0,10,0.5,0.5,9.955039570617677,-0.1005,-0.0155,-0.001,0.08471110095657894,10,1,100,-0.07703977181231239,-10,-1,-100,15026.983898343402,0.004425564984148584,0.007621253693140983,0.9999611646792669,19.99670835525474,0.016042003342825625,-24.155963970221197,10.659013235005034,-176.84088134765625,5356.25390625,True
1599561059.695122,0.0,10,0.5,0.5,10.022883596801758,-0.1005,-0.0155,-0.001,0.08399237135400933,10,1,100,-0.06238587569638573,-10,-1,-100,15027.195814183797,0.004562483242434787,0.007621372366424919,0.9999605484367445,19.844765062774716,0.015859073391687142,-23.555494048200234,10.473393010240658,-177.25160217285156,5356.25390625,True
1599561059.7280765,0.0,10,0.5,0.5,10.10783251724243,-0.1005,-0.0155,-0.001,0.08685817375682808,10,1,100,-0.07661576614731042,-10,-1,-100,15027.614763448015,0.004813417361655184,0.007647924881023582,0.9999591692955851,19.579378634130663,0.015544409278486776,-22.417713308316543,10.102157009002362,-177.8657989501953,5356.25390625,True
1599561059.761989,0.0,10,0.5,0.5,10.163251834106445,-0.1005,-0.0155,-0.001,0.09047494082394004,10,1,100,-0.07599100360044667,-10,-1,-100,15027.975118608214,0.005032971553355072,0.0077052620963569554,0.999957648169846,19.367671048459783,0.015291953204313308,-21.361340217815986,9.730925210791955,-178.20376586914062,5356.25390625,True
1599561059.7976117,0.0,10,0.5,0.5,10.187304263305665,-0.1005,-0.0155,-0.001,0.09252317202008514,10,1,100,-0.07485785128996118,-10,-1,-100,15028.335474305553,0.00521963102524517,0.007776189711055377,0.9999561422010156,19.21158515976681,0.015094000722140732,-20.381670346992124,9.35969583834568,-178.26580810546875,5356.25390625,True
1599561059.828533,0.0,10,0.5,0.5,10.192627988433838,-0.1005,-0.0155,-0.001,0.0906883040875946,10,1,100,-0.06531190585649785,-10,-1,-100,15028.544460729929,0.005300359443747013,0.007823991599739009,0.999955344675558,19.154635242114193,0.01501289550924131,-19.918652141009318,9.174081427740333,-178.19325256347656,5356.25390625,True
1599561059.861408,0.0,10,0.5,0.5,10.169591144561767,-0.1005,-0.0155,-0.001,0.09822871835183425,10,1,100,-0.07246831979204617,-10,-1,-100,15028.900910255616,0.005436553145779182,0.007935956483026122,0.9999537311718941,19.082686038528127,0.014881100045878387,-19.04158227692711,8.802852212078967,-177.841064453125,5356.25390625,True
1599561059.896031,0.0,10,0.5,0.5,10.071399877166748,-0.1005,-0.0155,-0.001,0.11017850241882465,10,1,100,-0.0744511264632998,-10,-1,-100,15029.405799645232,0.005576566536207948,0.008146149655341555,0.999951269888418,19.07745117562349,0.014744023637547992,-17.833123600230063,8.24600414182815,-176.795166015625,5356.25390625,True
1599561059.9309394,0.0,10,0.5,0.5,10.074925595855714,-0.1005,-0.0155,-0.001,0.08921227646510119,10,1,100,-0.06061117258227119,-10,-1,-100,15029.405799645232,0.005576566536207948,0.008146149655341555,0.999951269888418,19.07745117562349,0.014744023637547992,-17.833123600230063,8.24600414182815,-176.795166015625,5356.25390625,True
1599561059.9628763,0.0,10,0.5,0.5,9.971606038665772,-0.1005,-0.0155,-0.001,0.10792821822206347,10,1,100,-0.06605603284958722,-10,-1,-100,15029.700725815143,0.00562459812807584,0.008315811932424668,0.9999496043140386,19.139040120378564,0.014681234730375206,-17.08582391471552,7.8747666934063165,-175.7528076171875,5356.25390625,True
1599561059.9959908,0.0,10,0.5,0.5,9.761328350067139,-0.1005,-0.0155,-0.001,0.12345692540883421,10,1,100,-0.061190271228981054,-10,-1,-100,15030.198779290775,0.005622665571280721,0.008610582840399214,0.9999471203493825,19.321324814834355,0.014612308864397537,-16.029560630004788,7.317898309229629,-173.6717529296875,5356.25390625,True
1599561060.0378795,0.0,10,0.5,0.5,9.674081705474855,-0.1005,-0.0155,-0.001,0.10589029888093242,10,1,100,-0.059586690533689056,-10,-1,-100,15030.34331255767,0.005605242421885112,0.008717960398170368,0.9999462877694419,19.422142581890608,0.014606787537326861,-15.704701227793795,7.132271186359414,-172.84007263183594,5356.25390625,True
1599561060.0727894,0.0,10,0.5,0.5,9.372813910675049,-0.1005,-0.0155,-0.001,0.13356514246647566,10,1,100,-0.04697413086452988,-10,-1,-100,15030.718319166219,0.005473795598915429,0.009066168948711133,0.999943919498656,19.78074646220436,0.014593855595477238,-14.746390157663537,6.575374579597151,-169.93109130859375,5356.25390625,True
1599561060.108691,0.0,10,0.5,0.5,9.131581405639649,-0.1005,-0.0155,-0.001,0.12637715447056586,10,1,100,-0.045360569935335174,-10,-1,-100,15030.949768564547,0.005339029407552801,0.009316087518269296,0.9999423509774639,20.056259969169307,0.014584772770684195,-14.107887206590876,6.204096113162279,-167.6469268798828,5356.25390625,True
1599561060.137613,0.0,10,0.5,0.5,9.11750246963501,-0.1005,-0.0155,-0.001,0.10154638005694079,10,1,100,-0.05886779485701772,-10,-1,-100,15030.949768564547,0.005339029407552801,0.009316087518269296,0.9999423509774639,20.056259969169307,0.014584772770684195,-14.107887206590876,6.204096113162279,-167.6469268798828,5356.25390625,True
1599561060.169527,0.0,10,0.5,0.5,8.700801519775393,-0.1005,-0.0155,-0.001,0.14386828458503279,10,1,100,-0.025489674814527043,-10,-1,-100,15031.318914907286,0.005035483408637151,0.009699432197790847,0.9999402806777423,20.50091203375294,0.01456935547756626,-13.126584612818062,5.6471566698547715,-163.7036590576172,5356.25390625,True
1599561060.2004442,0.0,10,0.5,0.5,8.534869619750978,-0.1005,-0.0155,-0.001,0.12060141032473046,10,1,100,-0.04269851228068991,-10,-1,-100,15031.463447802118,0.004916217273892687,0.009834705376264007,0.9999395528620107,20.652215059053795,0.014564405348378402,-12.788878501762385,5.461504744995103,-162.25128173828125,5356.25390625,True
1599561060.2323596,0.0,10,0.5,0.5,8.512157833862306,-0.1005,-0.0155,-0.001,0.10726396736673827,10,1,100,-0.054573092167947715,-10,-1,-100,15031.463447802118,0.004916217273892687,0.009834705376264007,0.9999395528620107,20.652215059053795,0.014564405348378402,-12.788878501762385,5.461504744995103,-162.25128173828125,5356.25390625,True
1599561060.2642741,0.0,10,0.5,0.5,8.17381655731201,-0.1005,-0.0155,-0.001,0.13613046486408487,10,1,100,-0.02326132503664125,-10,-1,-100,15031.630443530157,0.00463216516293746,0.010095593030129956,0.9999383091207543,20.95065024032517,0.014555934560420081,-12.09189896565974,5.09019343067966,-159.1399688720703,5356.25390625,True
1599561060.2951918,0.0,10,0.5,0.5,7.805784032440187,-0.1005,-0.0155,-0.001,0.1391409741399264,10,1,100,-0.015453247310361462,-10,-1,-100,15031.853102802997,0.004303811993078593,0.010358359669447752,0.9999370888147348,21.23082038240365,0.014547863714928113,-11.359956134986316,4.718873657838699,-155.75299072265625,5356.25390625,True
1599561060.3291008,0.0,10,0.5,0.5,7.595790030670166,-0.1005,-0.0155,-0.001,0.1276239062574177,10,1,100,-0.028257296106747796,-10,-1,-100,15031.936112083727,0.004122910269660405,0.010490680953771103,0.9999364715940879,21.35892569364292,0.014543499341645517,-10.978958796553597,4.533211069610563,-153.9561309814453,5356.25390625,True
1599561060.366048,0.0,10,0.5,0.5,7.181308781433105,-0.1005,-0.0155,-0.001,0.14201541742697824,10,1,100,-0.0021602235762933977,-10,-1,-100,15032.102130493731,0.003722571457459394,0.010740095770048906,0.99993539431535,21.579084096469703,0.014532414814750486,-10.1837301748001,4.161881467288115,-150.15594482421875,5356.25390625,True
1599561060.3989599,0.0,10,0.5,0.5,6.5189715644836435,-0.1005,-0.0155,-0.001,0.15471692283248806,10,1,100,0.03335161243613297,-10,-1,-100,15032.341392650502,0.003037503728949532,0.011080466438195291,0.9999339962390562,21.778071566197493,0.014495254076851472,-8.90238182113681,3.6048777381858765,-143.93942260742188,5356.25390625,True
1599561060.4318728,0.0,10,0.5,0.5,6.029343550872803,-0.1005,-0.0155,-0.001,0.141750567330931,10,1,100,0.021232492357052563,-10,-1,-100,15032.440027607721,0.002527103514541266,0.01127018717968741,0.9999332960896749,21.78903873447407,0.01443660961961755,-7.9894995884013165,3.233534478238487,-139.451171875,5356.25390625,True
1599561060.4647825,0.0,10,0.5,0.5,5.990128381347657,-0.1005,-0.0155,-0.001,0.12297390314786096,10,1,100,-0.02952633649447286,-10,-1,-100,15032.440027607721,0.002527103514541266,0.01127018717968741,0.9999332960896749,21.78903873447407,0.01443660961961755,-7.9894995884013165,3.233534478238487,-139.451171875,5356.25390625,True
1599561060.499149,0.0,10,0.5,0.5,5.2107698860168465,-0.1005,-0.0155,-0.001,0.14568439557209234,10,1,100,0.06216729026146999,-10,-1,-100,15032.618740097154,0.0016960813857536143,0.011474869747488224,0.9999327230730131,21.57328334027165,0.01425110147076362,-6.5478546338212205,2.676502677629278,-132.20333862304688,5356.25390625,True
1599561060.532077,0.0,10,0.5,0.5,5.169192222595216,-0.1005,-0.0155,-0.001,0.12539368254698063,10,1,100,-0.020600982415006835,-10,-1,-100,15032.618740097154,0.0016960813857536143,0.011474869747488224,0.9999327230730131,21.57328334027165,0.01425110147076362,-6.5478546338212205,2.676502677629278,-132.20333862304688,5356.25390625,True
1599561060.5649812,0.0,10,0.5,0.5,4.597285406494141,-0.1005,-0.0155,-0.001,0.13593331551760407,10,1,100,0.045816520189123855,-10,-1,-100,15032.715420415625,0.001095213303796189,0.011569193534156415,0.9999324748545716,21.25236033182592,0.014036179173126159,-5.555523546192334,2.3051316711662118,-127.02764892578125,5356.25390625,True
1599561060.595956,0.0,10,0.5,0.5,3.7076033378601077,-0.1005,-0.0155,-0.001,0.1298085559318049,10,1,100,0.08856257061815843,-10,-1,-100,15032.83065386943,0.00016384277445284838,0.011597685991113058,0.9999327311550495,20.442811362781914,0.013514251204230937,-4.052510653381871,1.7480410729325464,-118.74921417236328,5356.25390625,True
1599561060.631851,0.0,10,0.5,0.5,3.65327610282898,-0.1005,-0.0155,-0.001,0.12710951953223895,10,1,100,-0.004127650077327156,-10,-1,-100,15032.83065386943,0.00016384277445284838,0.011597685991113058,0.9999327311550495,20.442811362781914,0.013514251204230937,-4.052510653381871,1.7480410729325464,-118.74921417236328,5356.25390625,True
1599561060.6647627,0.0,10,0.5,0.5,3.0008785125732422,-0.1005,-0.0155,-0.001,0.12280547314699922,10,1,100,0.06750263006416647,-10,-1,-100,15032.924402942415,-0.00048357798208925205,0.011557431636409364,0.9999330937249277,19.654926205433092,0.012999192832887729,-3.0684821542069844,1.3766202134442276,-112.88673400878906,5356.25390625,True
1599561060.6957588,0.0,10,0.5,0.5,1.9982402534484864,-0.1005,-0.0155,-0.001,0.10890732452108348,10,1,100,0.10948254164239997,-10,-1,-100,15032.976157997036,-0.0014495901494280573,0.01139352018945892,0.999934041017752,18.243041955379802,0.012033793325728138,-1.6953668669301638,0.819444741120507,-103.57793426513672,5356.25390625,True
1599561060.7296417,0.0,10,0.5,0.5,1.9353531368255616,-0.1005,-0.0155,-0.001,0.12536381165806892,10,1,100,0.013398541069208186,-10,-1,-100,15032.976157997036,-0.0014495901494280573,0.01139352018945892,0.999934041017752,18.243041955379802,0.012033793325728138,-1.6953668669301638,0.819444741120507,-103.57793426513672,5356.25390625,True
1599561060.765711,0.0,10,0.5,0.5,0.865202906036377,-0.1005,-0.0155,-0.001,0.09446952308070833,10,1,100,0.1180571324840595,-10,-1,-100,15032.961506388616,-0.0023969527133099987,0.011112378426254493,0.999935382744006,16.56358690266569,0.010874325736077994,-0.492601768506001,0.26223242170580807,-93.65093994140625,5356.25390625,True
1599561060.7966282,0.0,10,0.5,0.5,0.8041395408630372,-0.1005,-0.0155,-0.001,0.12256791852580774,10,1,100,0.023813281718650485,-10,-1,-100,15032.961506388616,-0.0023969527133099987,0.011112378426254493,0.999935382744006,16.56358690266569,0.010874325736077994,-0.492601768506001,0.26223242170580807,-93.65093994140625,5356.25390625,True
1599561060.82954,0.0,10,0.5,0.5,-0.7060178565979003,-0.1005,-0.0155,-0.001,0.06383486408948692,10,1,100,0.15381825546682534,-10,-1,-100,15032.959547202801,-0.003574339696268087,0.010578585030245606,0.9999376568739141,16.652636306870427,0.010924572668845438,0.9079024048411295,-0.4807167497487901,-79.47195434570312,5356.25390625,True
1599561061.0770128,0.0,10,0.5,0.5,-0.77357251663208,-0.1005,-0.0155,-0.001,0.11712457521865131,10,1,100,0.036606599279218666,-10,-1,-100,15032.959547202801,-0.003574339696268087,0.010578585030245606,0.9999376568739141,16.652636306870427,0.010924572668845438,0.9079024048411295,-0.4807167497487901,-79.47195434570312,5356.25390625,True
1599561061.109939,0.0,10,0.5,0.5,-1.2305073799133301,-0.1005,-0.0155,-0.001,0.09859733396306714,10,1,100,0.06874453284325917,-10,-1,-100,15032.975170433056,-0.0038617114367757084,0.010410970368574152,0.999938347539869,17.37262311493962,0.011405804020072035,1.3131220965051391,-0.6664527034145695,-75.775390625,5356.25390625,True
1599561061.137952,0.0,10,0.5,0.5,-2.0673841102600097,-0.1005,-0.0155,-0.001,0.07778105727210696,10,1,100,0.09707909128153248,-10,-1,-100,15032.942939842236,-0.004376039073275511,0.010070407454560086,0.9999397167708303,18.60668202490506,0.012234109019878274,2.1903604208171377,-1.0379313059177249,-68.27655029296875,5356.25390625,True
1599561061.1723037,0.0,10,0.5,0.5,-2.886801202774048,-0.1005,-0.0155,-0.001,0.06843362748205431,10,1,100,0.10058690635742705,-10,-1,-100,15032.8491858216,-0.004871371714558256,0.009677216606034595,0.9999413088858657,19.53743581082854,0.012837080976530786,3.1231795399701565,-1.4094273295277413,-60.900360107421875,5356.25390625,True
1599561061.2632096,0.0,10,0.5,0.5,-3.6943690719604496,-0.1005,-0.0155,-0.001,0.06314847757345332,10,1,100,0.09995807240769947,-10,-1,-100,15032.81402536761,-0.005311379975736854,0.009273469444010574,0.9999428943730858,20.156533961864167,0.01323073457385284,4.071567573443002,-1.7809406389620177,-53.7547607421875,5356.25390625,True
1599561061.2941227,0.0,10,0.5,0.5,-4.131355738067628,-0.1005,-0.0155,-0.001,0.08080937018004541,10,1,100,0.0787556208427578,-10,-1,-100,15032.768124387832,-0.005514249015314612,0.009069056467859937,0.9999436710498146,20.351014072756534,0.01335478809596074,4.539691847997224,-1.966703038234072,-50.282073974609375,5356.25390625,True
1599561061.3290627,0.0,10,0.5,0.5,-5.550760601425172,-0.1005,-0.0155,-0.001,0.009028864876140241,10,1,100,0.1366835651389658,-10,-1,-100,15032.57182720711,-0.006221597945927295,0.008232789590161674,0.9999467550297683,20.492614407578518,0.013472646075652944,6.298772167765531,-2.7097801694627712,-37.07745361328125,5356.25390625,True
1599561061.362974,0.0,10,0.5,0.5,-5.640631726074219,-0.1005,-0.0155,-0.001,0.09233947958603686,10,1,100,0.0664258728573474,-10,-1,-100,15032.57182720711,-0.006221597945927295,0.008232789590161674,0.9999467550297683,20.492614407578518,0.013472646075652944,6.298772167765531,-2.7097801694627712,-37.07745361328125,5356.25390625,True
1599561061.3958812,0.0,10,0.5,0.5,-6.660148739624023,-0.1005,-0.0155,-0.001,0.025204889389272428,10,1,100,0.11311382318422436,-10,-1,-100,15032.363813471282,-0.006642556907778343,0.007625092941860263,0.9999488658903288,19.9917357109057,0.013221816467068518,7.408945774669384,-3.267099139035464,-27.896881103515625,5356.25390625,True
1599561061.431875,0.0,10,0.5,0.5,-6.752886958312988,-0.1005,-0.0155,-0.001,0.08562582567097406,10,1,100,0.07144248741856644,-10,-1,-100,15032.363813471282,-0.006642556907778343,0.007625092941860263,0.9999488658903288,19.9917357109057,0.013221816467068518,7.408945774669384,-3.267099139035464,-27.896881103515625,5356.25390625,True
1599561061.463819,0.0,10,0.5,0.5,-7.419064543151856,-0.1005,-0.0155,-0.001,0.04036620326952376,10,1,100,0.09613867210921229,-10,-1,-100,15032.263223838992,-0.006864278389319205,0.007216326821927429,0.9999504019247121,19.442016822710652,0.012942303173997909,8.024866708941552,-3.6386431793304945,-22.12115478515625,5356.25390625,True
1599561061.4969356,0.0,10,0.5,0.5,-8.329180816650391,-0.1005,-0.0155,-0.001,0.02134753298991847,10,1,100,0.10573470077737512,-10,-1,-100,15031.990758131491,-0.007150089143436877,0.0066748808541814576,0.9999521599510766,18.638729735072026,0.012559556655919823,8.872080612831423,-4.195956223597689,-13.973388671875,5356.25390625,True
1599561061.529855,0.0,10,0.5,0.5,-8.678505841064453,-0.1005,-0.0155,-0.001,0.05568511270010729,10,1,100,0.08549063417388192,-10,-1,-100,15031.94388115732,-0.007222890698324221,0.00649821350769992,0.9999528004216842,18.306225648133434,0.012388257260505004,9.099757412207568,-4.381728219635681,-11.395263671875,5356.25390625,True
1599561061.5657582,0.0,10,0.5,0.5,-9.018797750854493,-0.1005,-0.0155,-0.001,0.055249559296263934,10,1,100,0.0867509627607292,-10,-1,-100,15031.832551645814,-0.007297943415715829,0.006336894701724365,0.9999532908028457,17.945889158787526,0.012194029244547778,9.299011534625889,-4.567501785324813,-8.8858642578125,5356.25390625,True
1599561061.596049,0.0,10,0.5,0.5,-9.585370277404786,-0.1005,-0.0155,-0.001,0.037796214287154274,10,1,100,0.09439832578535778,-10,-1,-100,15031.608916482888,-0.007433488666567407,0.006034611125213146,0.9999541623068586,17.166447738359032,0.011740441918853942,9.619069407313896,-4.9390561662770915,-4.073455810546875,5356.25390625,True
1599561061.6299245,0.0,10,0.5,0.5,-9.89130691833496,-0.1005,-0.0155,-0.001,0.05168002801751735,10,1,100,0.08679377874324301,-10,-1,-100,15031.5542276575,-0.00748565018633068,0.0058889687789506085,0.9999546415153082,16.808941951914804,0.011517018234811481,9.773210820319955,-5.124837836332677,-1.77056884765625,5356.25390625,True
1599561061.663849,0.0,10,0.5,0.5,-10.829341258239745,-0.1005,-0.0155,-0.001,0.011691045388886101,10,1,100,0.10156421700784866,-10,-1,-100,15031.104028637288,-0.00766555427836551,0.005395921429077935,0.9999560606894369,17.32488833262112,0.011788311002075133,11.534851065067349,-5.8679901913392065,6.753021240234375,5356.25390625,True
1599561061.6997874,0.0,10,0.5,0.5,-11.087576330566407,-0.1005,-0.0155,-0.001,0.049251319019374885,10,1,100,0.08746003690260021,-10,-1,-100,15030.929223048151,-0.007699570946229062,0.005291732569617297,0.9999563561344345,17.780398481303934,0.012038060637832835,12.213220824273241,-6.053781273330826,8.71185302734375,5356.25390625,True
1599561061.7316988,0.0,10,0.5,0.5,-11.533288250732424,-0.1005,-0.0155,-0.001,0.0394739287267543,10,1,100,0.09185913756725488,-10,-1,-100,15030.700706232805,-0.00776914340214706,0.005110803746557025,0.9999567591130434,18.600416360076668,0.012433627941433843,13.56136043340215,-6.425364872705366,12.42315673828125,5356.25390625,True
1599561061.7636173,0.0,10,0.5,0.5,-11.592073005676271,-0.1005,-0.0155,-0.001,0.0573153821132512,10,1,100,0.08501455062489201,-10,-1,-100,15030.700706232805,-0.00776914340214706,0.005110803746557025,0.9999567591130434,18.600416360076668,0.012433627941433843,13.56136043340215,-6.425364872705366,12.42315673828125,5356.25390625,True
1599561061.7977743,0.0,10,0.5,0.5,-12.003323535156252,-0.1005,-0.0155,-0.001,0.04064649221307656,10,1,100,0.09089562289576217,-10,-1,-100,15030.413595766877,-0.007821583525978271,0.0049615541012784405,0.9999571019859034,19.31048501791946,0.012708595057836497,14.894029993643418,-6.796948427568292,15.859161376953125,5356.25390625,True
1599561061.8336377,0.0,10,0.5,0.5,-12.529514070129395,-0.1005,-0.0155,-0.001,0.03796474675070578,10,1,100,0.0939124419269041,-10,-1,-100,15030.005392549792,-0.0078958117159837,0.004803542894749674,0.9999572901544366,20.193790189352416,0.012938722271392653,16.853933880713427,-7.3543185638025665,20.497161865234375,5356.25390625,True
1599561061.8655808,0.0,10,0.5,0.5,-12.857219790649415,-0.1005,-0.0155,-0.001,0.046694432889087645,10,1,100,0.09181632738789122,-10,-1,-100,15029.714377070079,-0.007943558372386203,0.004740958342762841,0.9999572106817255,20.677443737564072,0.012997720503088814,18.13059451424328,-7.725892559943759,23.245086669921875,5356.25390625,True
1599561061.8982146,0.0,10,0.5,0.5,-12.908164408874512,-0.1005,-0.0155,-0.001,0.05277716257127724,10,1,100,0.0871137285150471,-10,-1,-100,15029.714377070079,-0.007943558372386203,0.004740958342762841,0.9999572106817255,20.677443737564072,0.012997720503088814,18.13059451424328,-7.725892559943759,23.245086669921875,5356.25390625,True
1599561061.931126,0.0,10,0.5,0.5,-13.086948706054688,-0.1005,-0.0155,-0.001,0.05061455501270569,10,1,100,0.08978679732607295,-10,-1,-100,15029.535666361335,-0.007967272075253102,0.004722749125283973,0.9999571081883354,20.891676996499257,0.013005004115416167,18.759514870614566,-7.91167726687528,24.515838623046875,5356.25390625,True
1599561061.96703,0.0,10,0.5,0.5,-13.367002285766603,-0.1005,-0.0155,-0.001,0.05120930720007727,10,1,100,0.09247901979309579,-10,-1,-100,15029.243674712488,-0.00801281947900623,0.004712794731097408,0.9999567912114101,21.27236994843045,0.012985122979242236,19.999686660964414,-8.283241533952726,26.850921630859375,5356.25390625,True
1599561061.9981902,0.0,10,0.5,0.5,-13.618106326293946,-0.1005,-0.0155,-0.001,0.05481132016260569,10,1,100,0.09271010283793651,-10,-1,-100,15028.886254183832,-0.008055847719832466,0.004737560103357927,0.9999563284672895,21.59768374913952,0.012930914242675952,21.217754595569794,-8.654798059926382,28.910781860351562,5356.25390625,True
1599561062.0311024,0.0,10,0.5,0.5,-13.91162773513794,-0.1005,-0.0155,-0.001,0.06387712307258292,10,1,100,0.09627063731071708,-10,-1,-100,15028.352077012183,-0.008126977985389352,0.004843088978527029,0.9999552473575859,22.002262389545958,0.012809718591217463,23.00946226595909,-9.212117118640275,31.484542846679688,5356.25390625,True
1599561062.0640688,0.0,10,0.5,0.5,-13.944351643371581,-0.1005,-0.0155,-0.001,0.05327937119656371,10,1,100,0.08920035145894449,-10,-1,-100,15028.352077012183,-0.008126977985389352,0.004843088978527029,0.9999552473575859,22.002262389545958,0.012809718591217463,23.00946226595909,-9.212117118640275,31.484542846679688,5356.25390625,True
1599561062.100159,0.0,10,0.5,0.5,-14.113138697052003,-0.1005,-0.0155,-0.001,0.06607047441565686,10,1,100,0.09454889695714858,-10,-1,-100,15027.934111012728,-0.008175275822115533,0.004959615112126085,0.9999542824965411,22.228333284661936,0.012713648441284774,24.18513080810022,-9.583652531349019,32.85638427734375,5356.25390625,True
1599561062.1330616,0.0,10,0.5,0.5,-14.254751346588135,-0.1005,-0.0155,-0.001,0.07162326090954227,10,1,100,0.09514058060729177,-10,-1,-100,15027.578645298607,-0.00822419267739521,0.005116165282282759,0.9999530926536552,22.427959774180568,0.012611402772690253,25.35018183314097,-9.955179167235253,33.95306396484375,5356.25390625,True
1599561062.1659734,0.0,10,0.5,0.5,-14.365081189727785,-0.1005,-0.0155,-0.001,0.07714130667258329,10,1,100,0.09600224521570597,-10,-1,-100,15027.157750463695,-0.008276129852133756,0.005308507115561013,0.9999516615451342,22.606909397079836,0.01250572349528832,26.508034577554998,-10.326696978900248,34.77455139160156,5356.25390625,True
1599561062.1988933,0.0,10,0.5,0.5,-14.417608154296875,-0.1005,-0.0155,-0.001,0.07033621290404396,10,1,100,0.09372102228070875,-10,-1,-100,15026.920448136865,-0.008302261331454142,0.005421039780444694,0.9999508411839468,22.690060316471723,0.012451860448071221,27.085152016458085,-10.512452519500918,35.082122802734375,5356.25390625,True
1599561062.236785,0.0,10,0.5,0.5,-14.459886193847657,-0.1005,-0.0155,-0.001,0.0726703570652523,10,1,100,0.09394974686424205,-10,-1,-100,15026.735880254535,-0.008327770442542006,0.005543943439588406,0.9999499552130571,22.769668792324918,0.01239726602132909,27.661526573963304,-10.698205763871787,35.3209228515625,5356.25390625,True
1599561062.2686703,0.0,10,0.5,0.5,-14.505499339294435,-0.1005,-0.0155,-0.001,0.12556584603479018,10,1,100,0.10290306045878117,-10,-1,-100,15025.833547768532,-0.008432005019781188,0.0061358121338995555,0.9999456250720856,23.058413952344026,0.01216566996960798,29.96258331841932,-11.441196965371132,35.5882568359375,5356.25390625,True
1599561062.297632,0.0,10,0.5,0.5,-14.522394253540039,-0.1005,-0.0155,-0.001,0.06652028290453675,10,1,100,0.09252607602931581,-10,-1,-100,15025.833547768532,-0.008432005019781188,0.0061358121338995555,0.9999456250720856,23.058413952344026,0.01216566996960798,29.96258331841932,-11.441196965371132,35.5882568359375,5356.25390625,True
1599561062.3305414,0.0,10,0.5,0.5,-14.483006459045411,-0.1005,-0.0155,-0.001,0.12845048820251997,10,1,100,0.09996685931973902,-10,-1,-100,15025.10601934651,-0.00849926742647524,0.006697520348060492,0.9999414511232149,23.24732766850226,0.011965224021191805,31.68328397301083,-11.998418067368817,35.0667724609375,5356.25390625,True
1599561062.3665736,0.0,10,0.5,0.5,-14.493069728851319,-0.1005,-0.0155,-0.001,0.0724756628108966,10,1,100,0.0932849606209981,-10,-1,-100,15025.10601934651,-0.00849926742647524,0.006697520348060492,0.9999414511232149,23.24732766850226,0.011965224021191805,31.68328397301083,-11.998418067368817,35.0667724609375,5356.25390625,True
1599561062.3944647,0.0,10,0.5,0.5,-14.42842276763916,-0.1005,-0.0155,-0.001,0.11873643257956443,10,1,100,0.09885810931971008,-10,-1,-100,15024.620676775347,-0.008549593969698907,0.007116386953803351,0.9999381288258173,23.359074684757356,0.01180976560907627,32.82405947203031,-12.369888794953285,34.375152587890625,5356.25390625,True
1599561062.4254134,0.0,10,0.5,0.5,-14.388042494964601,-0.1005,-0.0155,-0.001,0.10306024169222698,10,1,100,0.0951037355680876,-10,-1,-100,15024.376540793339,-0.008560830505810847,0.00735259731643445,0.9999363237195421,23.409725327948443,0.011723360793671962,33.39062882119548,-12.555621416781358,33.926361083984375,5356.25390625,True
1599561062.4523482,0.0,10,0.5,0.5,-14.211601685333253,-0.1005,-0.0155,-0.001,0.16387296871003387,10,1,100,0.09793782211255436,-10,-1,-100,15023.585541452863,-0.008596459457513493,0.008118001544257049,0.9999300970246484,23.535414168477033,0.011420767651963778,35.06442819053815,-13.112809126941368,32.167266845703125,5356.25390625,True
1599561062.483301,0.0,10,0.5,0.5,-14.210592794036867,-0.1005,-0.0155,-0.001,0.08763272955397139,10,1,100,0.09441215362030153,-10,-1,-100,15023.585541452863,-0.008596459457513493,0.008118001544257049,0.9999300970246484,23.535414168477033,0.011420767651963778,35.06442819053815,-13.112809126941368,32.167266845703125,5356.25390625,True
1599561062.5112257,0.0,10,0.5,0.5,-14.052638127136232,-0.1005,-0.0155,-0.001,0.15080629535756987,10,1,100,0.09493467970191055,-10,-1,-100,15023.034772659768,-0.008600918485886866,0.008689752602081857,0.9999252534069303,23.59064748350149,0.011176041847495021,36.145718072452055,-13.484260037239855,30.65087890625,5356.25390625,True
1599561062.5431423,0.0,10,0.5,0.5,-13.959875221252442,-0.1005,-0.0155,-0.001,0.12806447696261736,10,1,100,0.09305869424099963,-10,-1,-100,15022.792592144688,-0.00858764622825944,0.008999810930312444,0.9999226248742834,23.60750671935043,0.011038855058842997,36.67150655316648,-13.66998360398083,29.789688110351562,5356.25390625,True
1599561062.5700667,0.0,10,0.5,0.5,-13.648061031341554,-0.1005,-0.0155,-0.001,0.20667361471815243,10,1,100,0.08809797983575224,-10,-1,-100,15021.936170297093,-0.008530246885108879,0.009993168965126274,0.9999136820056587,23.603334315162567,0.010561900737800878,38.16505480042715,-14.227148901712773,26.793609619140625,5356.25390625,True
1599561062.6005042,0.0,10,0.5,0.5,-13.39981975479126,-0.1005,-0.0155,-0.001,0.18769558857908492,10,1,100,0.0853343558030821,-10,-1,-100,15021.387360078515,-0.008452852498433796,0.010720187525664391,0.9999068090897544,23.543946796486534,0.01018757861799219,39.06691122432602,-14.59859011161857,24.452667236328125,5356.25390625,True
1599561062.631489,0.0,10,0.5,0.5,-13.384900533294678,-0.1005,-0.0155,-0.001,0.1154521700644497,10,1,100,0.09307587921845559,-10,-1,-100,15021.387360078515,-0.008452852498433796,0.010720187525664391,0.9999068090897544,23.543946796486534,0.01018757861799219,39.06691122432602,-14.59859011161857,24.452667236328125,5356.25390625,True
1599561062.667474,0.0,10,0.5,0.5,-12.959747620391846,-0.1005,-0.0155,-0.001,0.24709737113976066,10,1,100,0.06912008247374087,-10,-1,-100,15020.464539356064,-0.008235114723416427,0.011913305110733033,0.999895122523773,23.404361862759938,0.009572005553741632,40.32386183501158,-15.155752006254195,20.426055908203125,5356.25390625,True
1599561062.6983564,0.0,10,0.5,0.5,-12.790894078826906,-0.1005,-0.0155,-0.001,0.17420522458499815,10,1,100,0.08232058406879637,-10,-1,-100,15020.156933556776,-0.008157415990358468,0.012330559960513346,0.9998907009545697,23.329838316729884,0.009351482434230805,40.69024773470587,-15.341473426776734,18.946380615234375,5356.25390625,True
1599561062.7312398,0.0,10,0.5,0.5,-12.611299565887451,-0.1005,-0.0155,-0.001,0.1803579705977882,10,1,100,0.07984967330123502,-10,-1,-100,15019.85030507308,-0.008064674478763712,0.012761076448605621,0.9998860514845801,23.236867844897297,0.009124745504724686,41.02099941203075,-15.527195615734303,17.39801025390625,5356.25390625,True
1599561062.7651765,0.0,10,0.5,0.5,-12.423099948883058,-0.1005,-0.0155,-0.001,0.18685305796698148,10,1,100,0.07415476955542777,-10,-1,-100,15019.542700431542,-0.007929043212376637,0.013206584523743837,0.9998813511607032,23.124058603180977,0.008893780296385448,41.31245813015406,-15.712918888611206,15.780975341796875,5356.25390625,True
1599561062.8016973,0.0,10,0.5,0.5,-12.05012700881958,-0.1005,-0.0155,-0.001,0.24363205151984865,10,1,100,0.05794523494161882,-10,-1,-100,15018.926516979816,-0.007658989397576613,0.014123138548914201,0.999870930089947,22.833881589139498,0.008428949041215451,41.76322592176026,-16.08436933118924,12.340667724609375,5356.25390625,True
1599561062.8326144,0.0,10,0.5,0.5,-11.837777005767823,-0.1005,-0.0155,-0.001,0.2046414160965809,10,1,100,0.06729353547194535,-10,-1,-100,15018.556414484628,-0.00749932272536132,0.014596449943398773,0.9998653428375798,22.653657853084415,0.008200817916760042,41.914510306518316,-16.270096850039465,10.517425537109375,5356.25390625,True
1599561062.8655262,0.0,10,0.5,0.5,-11.417345192718507,-0.1005,-0.0155,-0.001,0.26484557170551515,10,1,100,0.042656244899649615,-10,-1,-100,15017.939258268801,-0.0071311972870179334,0.015568673809973862,0.9998533704604151,22.215835760779246,0.007769169966884935,42.04796753006902,-16.641557166248976,6.66473388671875,5356.25390625,True
1599561062.8980544,0.0,10,0.5,0.5,-10.966384829711913,-0.1005,-0.0155,-0.001,0.2779453438688243,10,1,100,0.028716178157725154,-10,-1,-100,15017.259604700026,-0.006671133962634852,0.01656563083299979,0.9998405252072741,21.666034135320338,0.007394200091336302,41.92790767277227,-17.013024677788536,2.536956787109375,5356.25390625,True
1599561062.9339557,0.0,10,0.5,0.5,-10.25210775756836,-0.1005,-0.0155,-0.001,0.34773974516487816,10,1,100,-0.015975617809520462,-10,-1,-100,15016.211809925968,-0.005848295625241158,0.018100474991289417,0.9998190687536268,20.68252890447185,0.007022219354919832,41.34339325240385,-17.570236302485466,-4.170501708984375,5356.25390625,True
1599561062.9648778,0.0,10,0.5,0.5,-9.973532388305665,-0.1005,-0.0155,-0.001,0.2511322595807929,10,1,100,0.029963848928964046,-10,-1,-100,15015.839759770897,-0.005520260067845107,0.0186108286412741,0.9998115641389973,21.14334692297121,0.0072424532309887015,42.71406772947268,-17.755968304526203,-6.5440673828125,5356.25390625,True
1599561062.9983776,0.0,10,0.5,0.5,-9.679959159851075,-0.1005,-0.0155,-0.001,0.2571230034765769,10,1,100,0.024083376248419247,-10,-1,-100,15015.467709947727,-0.005171253075326098,0.01912207450293493,0.999803782953603,21.61322653430345,0.007506300137113709,44.1228949055249,-17.94169352631889,-8.9864501953125,5356.25390625,True
1599561063.0312524,0.0,10,0.5,0.5,-9.119991677856447,-0.1005,-0.0155,-0.001,0.3156891483771233,10,1,100,-0.029031652185216833,-10,-1,-100,15014.72556461196,-0.004373895425137661,0.02011270954045683,0.9997881515369901,22.584674035502697,0.008162690422123546,47.066684813189475,-18.313120487370263,-14.078277587890625,5356.25390625,True
1599561063.0672257,0.0,10,0.5,0.5,-8.52912885131836,-0.1005,-0.0155,-0.001,0.3264913648722455,10,1,100,-0.045495599280309655,-10,-1,-100,15013.981468223152,-0.0035027921518884396,0.021104414133996087,0.999771140887354,23.516033589646717,0.008940942507786638,50.00801362169159,-18.684512087613577,-19.4454345703125,5356.25390625,True
1599561063.0981865,0.0,10,0.5,0.5,-7.9045802581787115,-0.1005,-0.0155,-0.001,0.3305482925011524,10,1,100,-0.06793803116014918,-10,-1,-100,15013.238349740393,-0.0025110051430514016,0.022035260072307845,0.9997540408354033,24.33646548290363,0.009770286398217467,52.788065888674026,-19.055866226306062,-25.0888671875,5356.25390625,True
1599561063.1311493,0.0,10,0.5,0.5,-7.549952003479004,-0.1005,-0.0155,-0.001,0.28691243326748767,10,1,100,-0.02799332317118363,-10,-1,-100,15012.866302834125,-0.0019774397877077134,0.022476767954513796,0.9997454099090453,24.69553840125769,0.010181013706562016,54.09227411140921,-19.24152944511178,-28.01422119140625,5356.25390625,True
1599561063.1650128,0.0,10,0.5,0.5,-7.186391030883789,-0.1005,-0.0155,-0.001,0.2902189132831985,10,1,100,-0.036442283302392735,-10,-1,-100,15012.491326205316,-0.0014207366903932494,0.022900603457202396,0.9997367372806467,25.03470259065473,0.010583395948944897,55.36774283331941,-19.427183542357607,-31.0086669921875,5356.25390625,True
1599561063.2009509,0.0,10,0.5,0.5,-6.4960874008178715,-0.1005,-0.0155,-0.001,0.3346852606934379,10,1,100,-0.11096293518414208,-10,-1,-100,15011.68473150779,-0.00024270848121416818,0.02368259875109075,0.999719498463938,25.661049997290874,0.011330286760984886,57.844854205866866,-19.798465818907818,-37.205047607421875,5356.25390625,True
1599561063.2328653,0.0,10,0.5,0.5,-5.438279699707031,-0.1005,-0.0155,-0.001,0.37043398978216907,10,1,100,-0.20488797577856485,-10,-1,-100,15010.505112720886,0.001675827997256291,0.024711115714576706,0.9996932291261477,26.225292963797923,0.01207125468509969,60.79083431097812,-20.355338619861605,-47.017913818359375,5356.25390625,True
1599561063.265237,0.0,10,0.5,0.5,-5.371282516479492,-0.1005,-0.0155,-0.001,0.26839684192173136,10,1,100,-0.01386902412750804,-10,-1,-100,15010.505112720886,0.001675827997256291,0.024711115714576706,0.9996932291261477,26.225292963797923,0.01207125468509969,60.79083431097812,-20.355338619861605,-47.017913818359375,5356.25390625,True
1599561063.2992182,0.0,10,0.5,0.5,-4.245515435791015,-0.1005,-0.0155,-0.001,0.3482689337023741,10,1,100,-0.2380766315283689,-10,-1,-100,15009.257130418438,0.0037072388612436648,0.02543121596647047,0.9996697002682898,26.34374898121396,0.012221831558919696,62.74770617405216,-20.91217850638736,-57.45489501953125,5356.25390625,True
1599561063.3341284,0.0,10,0.5,0.5,-4.177040634155274,-0.1005,-0.0155,-0.001,0.2769409472455174,10,1,100,-0.0358582950225404,-10,-1,-100,15009.257130418438,0.0037072388612436648,0.02543121596647047,0.9996697002682898,26.34374898121396,0.012221831558919696,62.74770617405216,-20.91217850638736,-57.45489501953125,5356.25390625,True
1599561063.3650389,0.0,10,0.5,0.5,-2.5909590545654297,-0.1005,-0.0155,-0.001,0.3326900662377435,10,1,100,-0.34175876357471274,-10,-1,-100,15007.518921218463,0.006480080855411986,0.025932290555978402,0.9996426985971677,25.530005487834664,0.011417478900511828,62.98500468500884,-21.65464516325708,-72.34115600585938,5356.25390625,True
1599561063.3987129,0.0,10,0.5,0.5,-2.5155378540039064,-0.1005,-0.0155,-0.001,0.28316456538850243,10,1,100,-0.06555996178593555,-10,-1,-100,15007.518921218463,0.006480080855411986,0.025932290555978402,0.9996426985971677,25.530005487834664,0.011417478900511828,62.98500468500884,-21.65464516325708,-72.34115600585938,5356.25390625,True
1599561063.4317355,0.0,10,0.5,0.5,-2.038248368835449,-0.1005,-0.0155,-0.001,0.289871941156012,10,1,100,-0.14541012556086186,-10,-1,-100,15007.083389719366,0.0071969160960864975,0.02598887772075396,0.999636325187076,25.136607638753,0.01108810944693504,62.55038008405047,-21.840273755435952,-76.23574829101562,5356.25390625,True
1599561063.4676313,0.0,10,0.5,0.5,-1.1510852203369142,-0.1005,-0.0155,-0.001,0.2814716128438085,10,1,100,-0.2223426278924282,-10,-1,-100,15006.20548648364,0.00853914549858744,0.025960359778940394,0.999626501606626,24.11337639424346,0.010375999534030025,61.032906251522654,-22.211551514138655,-84.23358154296875,5356.25390625,True
1599561063.4985511,0.0,10,0.5,0.5,-0.23206833496093748,-0.1005,-0.0155,-0.001,0.26937783180668085,10,1,100,-0.2390029095301625,-10,-1,-100,15005.333438710775,0.009901250620034704,0.02582132401165924,0.9996175390930494,22.77477425561923,0.009698772919872081,58.61704911941416,-22.5828583315637,-92.50820922851562,5356.25390625,True
1599561063.5325482,0.0,10,0.5,0.5,0.2854743049621583,-0.1005,-0.0155,-0.001,0.2703694421071884,10,1,100,-0.17405048151632482,-10,-1,-100,15004.832471297355,0.010538758669124213,0.025701287298176934,0.9996141147447501,21.988631307429156,0.009405392542057356,57.06320846923686,-22.768521599028116,-96.74951934814453,5356.25390625,True
1599561063.5654905,0.0,10,0.5,0.5,1.255570692062378,-0.1005,-0.0155,-0.001,0.24803045238262778,10,1,100,-0.2450431609261078,-10,-1,-100,15003.89791567251,0.011753898101885122,0.025387246117017846,0.999608590206189,23.34755171944115,0.0102860980104978,61.5869914763255,-23.13981859040467,-105.43960571289062,5356.25390625,True
1599561063.6014986,0.0,10,0.5,0.5,2.687219594192505,-0.1005,-0.0155,-0.001,0.21021211183335223,10,1,100,-0.3062583564261408,-10,-1,-100,15002.52195168112,0.013405910208845677,0.024757336374241223,0.9996035993668314,25.466182093664735,0.012009680153593357,68.80714746838709,-23.696660002898145,-118.73798370361328,5356.25390625,True
1599561063.6324267,0.0,10,0.5,0.5,3.2344675163269043,-0.1005,-0.0155,-0.001,0.24570977783685838,10,1,100,-0.19726676149627614,-10,-1,-100,15002.020976496278,0.013906243004709603,0.024507355189331018,0.9996029241389393,25.983593494213277,0.012521547375095773,70.76000190302275,-23.882247987742478,-123.16537475585938,5356.25390625,True
1599561063.665335,0.0,10,0.5,0.5,3.7765516929626464,-0.1005,-0.0155,-0.001,0.24309277705793286,10,1,100,-0.1987302620367838,-10,-1,-100,15001.581523911445,0.014365123729369182,0.02425714852394709,0.9996025379948409,26.39864483361047,0.012962621825596916,72.45400694760608,-24.067825264859692,-127.5462646484375,5356.25390625,True
1599561063.6984823,0.0,10,0.5,0.5,5.176435083770752,-0.1005,-0.0155,-0.001,0.18221876421107067,10,1,100,-0.28597696407359763,-10,-1,-100,15000.078590422985,0.01556575087496881,0.02347735513630161,0.9996031818654353,27.272854438581977,0.013826989024926243,76.60072628134196,-24.624509515093706,-140.31101989746094,5356.25390625,True
1599561063.73536,0.0,10,0.5,0.5,5.269023617553711,-0.1005,-0.0155,-0.001,0.2599526094336509,10,1,100,-0.16682281651559044,-10,-1,-100,15000.078590422985,0.01556575087496881,0.02347735513630161,0.9996031818654353,27.272854438581977,0.013826989024926243,76.60072628134196,-24.624509515093706,-140.31101989746094,5356.25390625,True
1599561063.7663033,0.0,10,0.5,0.5,6.203721549224854,-0.1005,-0.0155,-0.001,0.1996202297601159,10,1,100,-0.23898774420855207,-10,-1,-100,14999.079560736194,0.016213535972159774,0.022931110716923726,0.9996055649167663,27.3954708563,0.013875800563344694,78.11577347202753,-24.995614306731433,-148.48190307617188,5356.25390625,True
1599561063.7988048,0.0,10,0.5,0.5,7.108786859893798,-0.1005,-0.0155,-0.001,0.20088102406766079,10,1,100,-0.23367871671042084,-10,-1,-100,14998.073693313287,0.016745970701553935,0.022448766435743176,0.9996077357397631,27.176503645108095,0.013548591724537465,78.6534218617669,-25.366723675896818,-156.37603759765625,5356.25390625,True
1599561063.8326864,0.0,10,0.5,0.5,7.985994355010987,-0.1005,-0.0155,-0.001,0.1926838744993865,10,1,100,-0.22625961850114082,-10,-1,-100,14997.070753173088,0.01715509517618884,0.021938944450724907,0.9996121174865198,26.661722011588385,0.01296779324296094,78.3044333299115,-25.73784958565833,-163.99456787109375,5356.25390625,True
1599561063.8686104,0.0,10,0.5,0.5,8.834276039886475,-0.1005,-0.0155,-0.001,0.19740885579171535,10,1,100,-0.2211968726517613,-10,-1,-100,14996.00433573837,0.01747440715035698,0.02152195373023941,0.9996156514392804,25.89743976926332,0.01228123782265127,77.16884815236597,-26.10899917062577,-171.33541870117188,5356.25390625,True
1599561063.8985434,0.0,10,0.5,0.5,9.659528020858765,-0.1005,-0.0155,-0.001,0.19810283945585885,10,1,100,-0.21470324194426166,-10,-1,-100,14994.93889477197,0.017699352621822356,0.021152979593624752,0.9996195698219799,24.93074320334539,0.011627332964324421,75.35679592431164,-26.480174379161497,-178.39930725097656,5356.25390625,True
1599561063.9324584,0.0,10,0.5,0.5,9.765551669692993,-0.1005,-0.0155,-0.001,0.23457682646498537,10,1,100,-0.19280324024971796,-10,-1,-100,14994.93889477197,0.017699352621822356,0.021152979593624752,0.9996195698219799,24.93074320334539,0.011627332964324421,75.35679592431164,-26.480174379161497,-178.39930725097656,5356.25390625,True
1599561064.178793,0.0,10,0.5,0.5,-25.993137432861328,-0.1005,-0.0155,-0.001,0.2015917491054372,10,1,100,-0.20904985974331433,-10,-1,-100,14993.869548400515,0.01784314603320689,0.020856391941974875,0.9996232455554445,23.80640665557659,0.011107913715928074,72.9792522055577,-26.851372967864684,174.8141326904297,5356.25390625,True
1599561064.209719,0.0,10,0.5,0.5,-24.808613526153565,-0.1005,-0.0155,-0.001,0.1927667605407874,10,1,100,-0.20307171748933206,-10,-1,-100,14991.730860629003,0.017915941565767084,0.020509858692839403,0.999629113588741,25.62821341129269,0.012673919675392668,80.76319477677124,-27.59370345172434,162.07345581054688,5356.25390625,True
