Timestamp,Input Throttle,horizon,dT,dt,Input Roll,Roll P,Roll I,Roll D,Input Pitch,Pitch P,Pitch I,Pitch D,Input Yaw,Yaw P,Yaw I,Yaw D,Altitude,Direction X,Direction Y,Direction Z,Drag X,Drag Y,Drag Z,Vertical Velocity,Roll,Mass,Has Fuel
1599560961.7711675,0.0,10,0.5,0.5,-5.850328498840333,-0.1005,-0.00825,-0.37525,-0.0002472412023342133,10,1,100,0.17552202024053254,-10,-1,-100,14994.999791588518,-0.016845960549663426,-7.26926214201129e-05,0.9998580940958284,28.503929880653704,0.02736321855815403,-85.87455482118709,26.637366941977568,-31.7919921875,5356.25390625,True
1599560961.8669505,0.0,10,0.5,0.5,-5.898202247619628,-0.1005,-0.00825,-0.37525,-0.00047856874075919445,10,1,100,0.1741692513325328,-10,-1,-100,14995.477332041133,-0.016882551911308264,-7.03687420057134e-05,0.9998574770882109,28.431394497628478,0.02752540806105081,-85.05962792144453,26.4514072044418,-31.791412353515625,5356.25390625,True
1599560961.9038131,0.0,10,0.5,0.5,-5.946297124481202,-0.1005,-0.00825,-0.37525,-0.0003902656896730033,10,1,100,0.17633615463112967,-10,-1,-100,14996.01053705858,-0.016920168131962354,-6.738939776274328e-05,0.9998568414373405,28.35893067983253,0.027686121172415857,-84.24795671647634,26.265451461746242,-31.790802001953125,5356.25390625,True
1599560961.9337401,0.0,10,0.5,0.5,-5.851197261047363,-0.1005,-0.00825,-0.37525,0.011583606972501692,10,1,100,0.18495889853381756,-10,-1,-100,14998.084761342616,-0.017017371306097814,4.42337479304202e-05,0.99985519307408,28.080677444767566,0.028322503110811182,-81.06515179040389,25.521667101891083,-32.091156005859375,5356.25390625,True
1599560961.9636536,0.0,10,0.5,0.5,-6.011679897308349,-0.1005,-0.00825,-0.37525,0.0004257157779783871,10,1,100,0.17694031825088133,-10,-1,-100,14998.084761342616,-0.017017371306097814,4.42337479304202e-05,0.99985519307408,28.080677444767566,0.028322503110811182,-81.06515179040389,25.521667101891083,-32.091156005859375,5356.25390625,True
1599560961.9975624,0.0,10,0.5,0.5,-5.808672535705567,-0.1005,-0.00825,-0.37525,0.012459706172242643,10,1,100,0.18096949597499734,-10,-1,-100,14999.08476245706,-0.01703852985694787,0.00015359344810743125,0.9998548219163452,27.966993320785438,0.02864754812480834,-79.56361006565929,25.149796826223078,-32.6182861328125,5356.25390625,True
1599560962.0305195,0.0,10,0.5,0.5,-5.8796802886962904,-0.1005,-0.00825,-0.37525,0.009605287388966436,10,1,100,0.1801477301625311,-10,-1,-100,14999.618942167028,-0.017034804732282822,0.00022692246528574175,0.9998548714358138,27.917654852529438,0.028810340610855755,-78.83759130447409,24.963866690219174,-32.98431396484375,5356.25390625,True
1599560962.0664566,0.0,10,0.5,0.5,-5.857323347473145,-0.1005,-0.00825,-0.37525,0.011798818254649903,10,1,100,0.1813530846623927,-10,-1,-100,15000.092574413982,-0.0170268898373749,0.00031332010471288665,0.9998549829115109,27.872970922579523,0.02897184825255584,-78.1266765105881,24.777939763235235,-33.41888427734375,5356.25390625,True
1599560962.0973797,0.0,10,0.5,0.5,-4.913285704040527,-0.1005,-0.00825,-0.37525,0.055188154712138,10,1,100,0.1703970182982058,-10,-1,-100,15002.029093409074,-0.016904614884295656,0.0007860270900740803,0.9998567978250823,27.73086897136142,0.029575226760341775,-75.40122025347281,24.034261854997304,-35.844085693359375,5356.25390625,True
1599560962.1299653,0.0,10,0.5,0.5,-5.86802116470337,-0.1005,-0.00825,-0.37525,0.007996058885026044,10,1,100,0.18431497509455963,-10,-1,-100,15002.029093409074,-0.016904614884295656,0.0007860270900740803,0.9998567978250823,27.73086897136142,0.029575226760341775,-75.40122025347281,24.034261854997304,-35.844085693359375,5356.25390625,True
1599560962.1638691,0.0,10,0.5,0.5,-4.70411650390625,-0.1005,-0.00825,-0.37525,0.06056841883638185,10,1,100,0.16443604326326747,-10,-1,-100,15003.443148865364,-0.016708529490480004,0.0012632430650045203,0.9998596047742024,27.644183158521855,0.02993120102805087,-73.42542864271968,23.476533282217183,-38.38446044921875,5356.25390625,True
1599560962.200077,0.0,10,0.5,0.5,-4.682871153259278,-0.1005,-0.00825,-0.37525,0.05520573749930614,10,1,100,0.1645406429658875,-10,-1,-100,15004.378689135425,-0.01653134588527067,0.0016471096339802096,0.9998619912933361,27.58296306998896,0.030088535249607022,-72.10524496416615,23.104728088954218,-40.421417236328125,5356.25390625,True
1599560962.2299943,0.0,10,0.5,0.5,-4.340107264709473,-0.1005,-0.00825,-0.37525,0.06139796569947834,10,1,100,0.1563668722441628,-10,-1,-100,15005.319110976183,-0.016296282152179264,0.0020508108817996872,0.99986510358285,27.50878981831363,0.03015710793974165,-70.75682208694487,22.732934516175177,-42.73358154296875,5356.25390625,True
1599560962.2650118,0.0,10,0.5,0.5,-5.198719127655029,-0.1005,-0.00825,-0.37525,0.02123966094548682,10,1,100,0.1798108569553249,-10,-1,-100,15005.319110976183,-0.016296282152179264,0.0020508108817996872,0.99986510358285,27.50878981831363,0.03015710793974165,-70.75682208694487,22.732934516175177,-42.73358154296875,5356.25390625,True
1599560962.2968996,0.0,10,0.5,0.5,-4.590896005249023,-0.1005,-0.00825,-0.37525,0.04539327256398369,10,1,100,0.16504175123085912,-10,-1,-100,15005.727309656795,-0.016162673090278593,0.0022685650082097776,0.9998668019348278,27.4637916835931,0.03015114941336516,-70.06474412151223,22.5470425670004,-43.99273681640625,5356.25390625,True
1599560962.3338368,0.0,10,0.5,0.5,-3.757342307281495,-0.1005,-0.00825,-0.37525,0.07387182736643114,10,1,100,0.14449162748873987,-10,-1,-100,15006.660893502994,-0.015855167998364006,0.002723397138368219,0.9998705900044117,27.35103418019011,0.030044777574283796,-68.62911923430826,22.17526874920698,-46.71734619140625,5356.25390625,True
1599560962.363755,0.0,10,0.5,0.5,-2.5785348854064942,-0.1005,-0.00825,-0.37525,0.11076115366836146,10,1,100,0.11364560304156755,-10,-1,-100,15007.94115005806,-0.015296275294247891,0.003469902219720477,0.9998769843039232,27.101969041766196,0.029610407561778723,-66.29789741296509,21.61763735578811,-51.319732666015625,5356.25390625,True
1599560962.3976307,0.0,10,0.5,0.5,-3.495073677062988,-0.1005,-0.00825,-0.37525,0.0638506750313806,10,1,100,0.14576924568797256,-10,-1,-100,15008.408917360008,-0.01508180461405332,0.003719136142655036,0.9998793463193127,26.990981702483275,0.029383603384926228,-65.45998229207349,21.431769308946606,-52.9915771484375,5356.25390625,True
1599560962.4306533,0.0,10,0.5,0.5,-3.278209637451172,-0.1005,-0.00825,-0.37525,0.06742961442551605,10,1,100,0.14194899484759846,-10,-1,-100,15008.815161205363,-0.014853869974621509,0.003975152052507737,0.9998817733677,26.86304615835147,0.029113202613786585,-64.58599120179048,21.24590632034212,-54.732147216796875,5356.25390625,True
1599560962.4665682,0.0,10,0.5,0.5,-3.0548873474121097,-0.1005,-0.00825,-0.37525,0.06960247585019336,10,1,100,0.1380247012845557,-10,-1,-100,15009.217498429818,-0.014612845583573723,0.0042247478699050465,0.9998843014316138,26.716325367073093,0.028798334922753775,-63.67261719090833,21.060048906558006,-56.54168701171875,5356.25390625,True
1599560962.4974835,0.0,10,0.5,0.5,0.05399398269653277,-0.1005,-0.00825,-0.37525,0.15815095959680608,10,1,100,0.0402110371270617,-10,-1,-100,15010.90106365981,-0.013506600798735538,0.005253513264526506,0.9998949806520898,25.9031858614403,0.02709730652391857,-59.56072366960753,20.31668446008866,-64.4677734375,5356.25390625,True
1599560962.531541,0.0,10,0.5,0.5,-1.8741348518371583,-0.1005,-0.00825,-0.37525,0.0834572338214857,10,1,100,0.1163045490659397,-10,-1,-100,15011.303400391713,-0.013195593765319483,0.005506093143316264,0.9998977743967019,25.633256089140016,0.02656757480921562,-58.402324367294206,20.130862343897146,-66.6214599609375,5356.25390625,True
1599560962.5645494,0.0,10,0.5,0.5,-2.6606906845092775,-0.1005,-0.00825,-0.37525,0.05858514429344349,10,1,100,0.1470716771955501,-10,-1,-100,15011.303400391713,-0.013195593765319483,0.005506093143316264,0.9998977743967019,25.633256089140016,0.02656757480921562,-58.402324367294206,20.130862343897146,-66.6214599609375,5356.25390625,True
1599560962.5995693,0.0,10,0.5,0.5,1.703328056335449,-0.1005,-0.00825,-0.37525,0.16321516004742107,10,1,100,-0.002936057630390232,-10,-1,-100,15012.862940919935,-0.01183470589270808,0.006454133939023773,0.999909137817797,24.242726405234237,0.024142307670509264,-53.20033452210984,19.387664331439186,-75.75296020507812,5356.25390625,True
1599560962.6347344,0.0,10,0.5,0.5,-0.5411769813537599,-0.1005,-0.00825,-0.37525,0.0942855768694368,10,1,100,0.09116547323153022,-10,-1,-100,15013.206683460041,-0.011457059540223783,0.006685353612542356,0.9999120170463835,23.810372928350844,0.023486073353668216,-51.752251200642405,19.20188914568768,-78.18038940429688,5356.25390625,True
1599560962.6646543,0.0,10,0.5,0.5,0.9437927093505857,-0.1005,-0.00825,-0.37525,0.11668116043739983,10,1,100,0.04493131707387599,-10,-1,-100,15014.013309249422,-0.010697711994304887,0.0070951342676277025,0.9999176056194887,22.83788261457504,0.02215784075283647,-48.680826617990085,18.830368858673204,-83.15707397460938,5356.25390625,True
1599560962.6985216,0.0,10,0.5,0.5,0.264528832244873,-0.1005,-0.00825,-0.37525,0.09641878748403492,10,1,100,0.07827515985790387,-10,-1,-100,15014.351192550734,-0.010315210483328017,0.007279484438920828,0.9999202995934167,22.328413589678288,0.021528192566820314,-47.126714612435435,18.64462328419425,-85.59149169921875,5356.25390625,True
1599560962.7341406,0.0,10,0.5,0.5,0.5390881134033202,-0.1005,-0.00825,-0.37525,0.0996449306866297,10,1,100,0.07068133567488152,-10,-1,-100,15014.753529459937,-0.009902975312422404,0.007472940821738894,0.9999230401563095,21.79931858191322,0.020922892700190297,-45.55296120307472,18.45888652782832,-88.02932739257812,5356.25390625,True
1599560962.7660785,0.0,10,0.5,0.5,3.012404035949707,-0.1005,-0.00825,-0.37525,0.13371403987092,10,1,100,-0.024634296093058505,-10,-1,-100,15015.840422681533,-0.00866641834943751,0.00795511688535879,0.9999308022600027,21.67445976605165,0.020777555488404844,-43.92872888345715,17.901706213251178,-95.09019470214844,5356.25390625,True
1599560962.7979763,0.0,10,0.5,0.5,1.4802521556854247,-0.1005,-0.00825,-0.37525,0.10104573875532755,10,1,100,0.05184632670328918,-10,-1,-100,15016.177330316044,-0.008243179000895481,0.008092856055932535,0.9999332756143369,22.031924376919854,0.02119071941679458,-44.191229170504236,17.715978966304725,-97.36900329589844,5356.25390625,True
1599560962.8319287,0.0,10,0.5,0.5,1.725692176055908,-0.1005,-0.00825,-0.37525,0.10152495367652521,10,1,100,0.0465943281114688,-10,-1,-100,15016.5249802256,-0.007816461121006795,0.008218913521023167,0.99993567412913,22.392032667952783,0.021640031742326614,-44.443943091623055,17.53025017222052,-99.61152648925781,5356.25390625,True
1599560962.867061,0.0,10,0.5,0.5,1.9535299896240237,-0.1005,-0.00825,-0.37525,0.10132483211111853,10,1,100,0.043744797230057114,-10,-1,-100,15016.861887985026,-0.007407803803711273,0.008328996111186865,0.9999378742034853,22.73470643295538,0.022101792683694353,-44.64726625565933,17.344519455044065,-101.79828643798828,5356.25390625,True
1599560962.9019656,0.0,10,0.5,0.5,3.15039745388031,-0.1005,-0.00825,-0.37525,0.1117339658895006,10,1,100,-0.009041961283709751,-10,-1,-100,15017.537658355897,-0.006561679156009834,0.00852113340662291,0.9999421656536542,23.31483863447072,0.022990526670770582,-44.808418466048025,16.97305240157225,-105.97785186767578,5356.25390625,True
1599560962.931851,0.0,10,0.5,0.5,3.473953744125366,-0.1005,-0.00825,-0.37525,0.10878923673490422,10,1,100,-0.018903944822652688,-10,-1,-100,15018.216358686564,-0.005708851366481145,0.00866629246446543,0.9999461507456268,23.763381223958785,0.02380522268738935,-44.673291535254094,16.601578562789665,-109.8863525390625,5356.25390625,True
1599560962.9649014,0.0,10,0.5,0.5,3.764325693511963,-0.1005,-0.00825,-0.37525,0.10542260607646255,10,1,100,-0.027300839267830168,-10,-1,-100,15018.897013492184,-0.0048627869306136565,0.00876563845785876,0.9999497571806762,24.129203786250432,0.02455628040610642,-44.34826758761824,16.23009967334173,-113.52035522460938,5356.25390625,True
1599560963.0008316,0.0,10,0.5,0.5,3.245172193908691,-0.1005,-0.00825,-0.37525,0.09958429090534504,10,1,100,0.011459177284952576,-10,-1,-100,15019.173376384424,-0.0044519960235863375,0.008800986236801341,0.9999513600034081,24.302543368132916,0.02491981861212763,-44.15677289792157,16.044358672925327,-115.23417663574219,5356.25390625,True
1599560963.0317564,0.0,10,0.5,0.5,4.161009760284424,-0.1005,-0.00825,-0.37525,0.10073986646512059,10,1,100,-0.03797566158151015,-10,-1,-100,15019.852079289034,-0.003634820042021585,0.008842075039138761,0.9999543018519718,24.577422647686365,0.025553118323671648,-43.62437255153073,15.672875300452446,-118.45537567138672,5356.25390625,True
1599560963.2651188,0.0,10,0.5,0.5,4.380886693382263,-0.1005,-0.00825,-0.37525,0.0975286881567108,10,1,100,-0.04444152944391088,-10,-1,-100,15020.467307237908,-0.002839225251342082,0.008848815428823402,0.9999568177003839,24.767832550380625,0.026057094107565834,-42.922342885094864,15.301392439254347,-121.40129089355469,5356.25390625,True
1599560963.2935393,0.0,10,0.5,0.5,5.159670880699158,-0.1005,-0.00825,-0.37525,0.09065921316993604,10,1,100,-0.09276749169498202,-10,-1,-100,15021.354994365713,-0.0016830519212246873,0.008791242488105045,0.9999599398934669,24.92339544913197,0.026576672987722868,-41.62187161411511,14.744174666917683,-125.30398559570312,5356.25390625,True
1599560963.3292258,0.0,10,0.5,0.5,3.7201110712051397,-0.1005,-0.00825,-0.37525,0.09650011980204629,10,1,100,0.022151504673936163,-10,-1,-100,15021.354994365713,-0.0016830519212246873,0.008791242488105045,0.9999599398934669,24.92339544913197,0.026576672987722868,-41.62187161411511,14.744174666917683,-125.30398559570312,5356.25390625,True
1599560963.4134712,0.0,10,0.5,0.5,4.296524603843689,-0.1005,-0.00825,-0.37525,0.09330341703805145,10,1,100,-0.018747184759160526,-10,-1,-100,15021.633312214748,-0.001317209405541691,0.00876154665713039,0.999960749359472,24.946666807676557,0.026691444282714194,-41.136834192454266,14.558438335512275,-126.46713256835938,5356.25390625,True
1599560963.443409,0.0,10,0.5,0.5,4.890637548255921,-0.1005,-0.00825,-0.37525,0.0882761744860597,10,1,100,-0.06032670126811991,-10,-1,-100,15022.180183854303,-0.0006125381063988498,0.008688354939284318,0.9999620679233374,24.958424228397558,0.026842792353264294,-40.10785102803579,14.186971163067081,-128.5867919921875,5356.25390625,True
1599560963.4718707,0.0,10,0.5,0.5,5.741263948059082,-0.1005,-0.00825,-0.37525,0.06855500098879147,10,1,100,-0.13913200387753322,-10,-1,-100,15023.280764676281,0.0007383064931826607,0.00844220692869627,0.999964091378133,24.877781810705972,0.026882814691501417,-37.88803439584222,13.444064736444789,-132.0001983642578,5356.25390625,True
1599560963.4997697,0.0,10,0.5,0.5,4.481851642799378,-0.1005,-0.00825,-0.37525,0.09316190939980357,10,1,100,-0.004777542484301401,-10,-1,-100,15023.280764676281,0.0007383064931826607,0.00844220692869627,0.999964091378133,24.877781810705972,0.026882814691501417,-37.88803439584222,13.444064736444789,-132.0001983642578,5356.25390625,True
1599560963.5296893,0.0,10,0.5,0.5,4.824117496299744,-0.1005,-0.00825,-0.37525,0.08579305851235595,10,1,100,-0.03956203915352598,-10,-1,-100,15023.554201760795,0.001048668137575917,0.008375421089297445,0.9999643756738108,24.842250168104687,0.026849352334343907,-37.312063602737574,13.258344734621625,-132.6812744140625,5356.25390625,True
1599560963.55562,0.0,10,0.5,0.5,5.3597682149887085,-0.1005,-0.00825,-0.37525,0.06778188839163331,10,1,100,-0.10650869615082845,-10,-1,-100,15024.314942023484,0.0019340470096650911,0.00815132352271791,0.9999649070777396,24.71233868290387,0.02667505352991406,-35.55945280273346,12.701201730518362,-134.3111572265625,5356.25390625,True
1599560963.5810611,0.0,10,0.5,0.5,4.956883520698548,-0.1005,-0.00825,-0.37525,0.0802329403125107,10,1,100,-0.04987760446012775,-10,-1,-100,15024.589355971897,0.0022183032934368326,0.008061380445757292,0.9999650460270134,24.663601867441876,0.02659838819265117,-34.971150294792324,12.515493046083419,-134.71681213378906,5356.25390625,True
1599560963.6109815,0.0,10,0.5,0.5,5.105497394561768,-0.1005,-0.00825,-0.37525,0.07176141341884787,10,1,100,-0.07942316609539793,-10,-1,-100,15025.074707377935,0.002739993090517728,0.00790330985366287,0.9999650144536163,24.561537444461134,0.02642743626421509,-33.79432163873311,12.144084269042946,-135.32095336914062,5356.25390625,True
1599560963.6379108,0.0,10,0.5,0.5,4.984866694259644,-0.1005,-0.00825,-0.37525,0.0776096440067097,10,1,100,-0.05559945910404564,-10,-1,-100,15025.284668334643,0.002992605371268194,0.007813634598535013,0.9999649951010547,24.508957464543517,0.026336010782338395,-33.20700120534589,11.958384097905569,-135.519775390625,5356.25390625,True
1599560963.6680508,0.0,10,0.5,0.5,5.0094651653289795,-0.1005,-0.00825,-0.37525,0.06697707912781309,10,1,100,-0.08299695600804133,-10,-1,-100,15025.76904397842,0.003467070455357221,0.007636340693055692,0.9999648322432532,24.402282269562797,0.026148009903798182,-32.03694744455798,11.586991970836053,-135.71058654785156,5356.25390625,True
1599560963.7001996,0.0,10,0.5,0.5,4.942666593170166,-0.1005,-0.00825,-0.37525,0.07446769643812617,10,1,100,-0.06075201889916264,-10,-1,-100,15026.037598653114,0.003691493719560547,0.007544310847072837,0.999964727501906,24.348500668710255,0.026053668832746676,-31.4546828375477,11.401299918751583,-135.70263671875,5356.25390625,True
1599560963.7321134,0.0,10,0.5,0.5,4.9532690574646,-0.1005,-0.00825,-0.37525,0.08354895745540596,10,1,100,-0.03881056279134027,-10,-1,-100,15026.037598653114,0.003691493719560547,0.007544310847072837,0.999964727501906,24.348500668710255,0.026053668832746676,-31.4546828375477,11.401299918751583,-135.70263671875,5356.25390625,True
1599560963.7660222,0.0,10,0.5,0.5,4.75100626373291,-0.1005,-0.00825,-0.37525,0.053438482535244386,10,1,100,-0.10696899139956514,-10,-1,-100,15026.669435998541,0.004307203041611719,0.007271619296973378,0.9999642851396033,24.201808843315426,0.025797567591016965,-29.739349309206883,10.844239059707844,-135.26515197753906,5356.25390625,True
1599560963.8018286,0.0,10,0.5,0.5,4.782914331817627,-0.1005,-0.00825,-0.37525,0.07029680254473718,10,1,100,-0.06638740766295717,-10,-1,-100,15026.87939728552,0.004494770849008686,0.007178039512998099,0.9999641357487601,24.152236537801485,0.02571799392162892,-29.17083022630474,10.658556917384363,-134.9814910888672,5356.25390625,True
1599560963.8327465,0.0,10,0.5,0.5,4.724118965911866,-0.1005,-0.00825,-0.37525,0.06874627936043064,10,1,100,-0.0678584984027692,-10,-1,-100,15027.091311983299,0.004675245622135287,0.007080020559904783,0.9999640070458756,24.10084849325678,0.02564107287456408,-28.602221848942083,10.472877217927806,-134.62899780273438,5356.25390625,True
1599560963.8656585,0.0,10,0.5,0.5,4.157905406951905,-0.1005,-0.00825,-0.37525,0.049451920011647096,10,1,100,-0.10236623768766348,-10,-1,-100,15027.716313347453,0.005149723429854363,0.006816686790766822,0.9999635058989865,23.931903865207943,0.025429103306374296,-26.892639020398406,9.915851807091068,-133.15744018554688,5356.25390625,True
1599560963.8991182,0.0,10,0.5,0.5,4.078534210205078,-0.1005,-0.00825,-0.37525,0.05544296855449171,10,1,100,-0.08540362423144214,-10,-1,-100,15028.072759119095,0.005423937972342249,0.006632969838969036,0.9999632916302414,23.801248104845907,0.02530350445450147,-25.74516531244306,9.544512612589656,-131.8319091796875,5356.25390625,True
1599560963.935018,0.0,10,0.5,0.5,3.8116308345794683,-0.1005,-0.00825,-0.37525,0.05553327353981859,10,1,100,-0.08382246399283384,-10,-1,-100,15028.42725188611,0.0056559355227267,0.006468073937752918,0.9999630865251468,23.64928457503468,0.02518747244531585,-24.58645351968207,9.173181928814628,-130.23037719726562,5356.25390625,True
1599560963.966024,0.0,10,0.5,0.5,3.9782883785247805,-0.1005,-0.00825,-0.37525,0.06240029309025719,10,1,100,-0.07236288093060314,-10,-1,-100,15028.641119326465,0.005760013502117551,0.006381900783393081,0.9999630461106283,23.563087329202922,0.02513134647055927,-24.00145722609122,8.987519642279214,-129.3262939453125,5356.25390625,True
1599560963.9989772,0.0,10,0.5,0.5,3.3538000370025642,-0.1005,-0.00825,-0.37525,0.05245562380857792,10,1,100,-0.08200205982213397,-10,-1,-100,15028.991705212626,0.005939742920458742,0.006214457043973546,0.9999630493061668,23.364839075437747,0.025017386616958185,-22.817037264880852,8.61620105645693,-127.31129455566406,5356.25390625,True
1599560964.0325446,0.0,10,0.5,0.5,4.1029991420745855,-0.1005,-0.00825,-0.37525,0.0690578093856232,10,1,100,-0.06427638523452506,-10,-1,-100,15028.991705212626,0.005939742920458742,0.006214457043973546,0.9999630493061668,23.364839075437747,0.025017386616958185,-22.817037264880852,8.61620105645693,-127.31129455566406,5356.25390625,True
1599560964.0684774,0.0,10,0.5,0.5,3.0062998260498053,-0.1005,-0.00825,-0.37525,0.05036832704570965,10,1,100,-0.08044876867014064,-10,-1,-100,15029.345220337505,0.00608472072514534,0.006045761617068058,0.9999632117933972,23.13434831759254,0.024902146520176707,-21.619088563679636,8.244889963997757,-125.02064514160156,5356.25390625,True
1599560964.0999446,0.0,10,0.5,0.5,2.6360783428192143,-0.1005,-0.00825,-0.37525,0.04925597292253826,10,1,100,-0.07813184944979383,-10,-1,-100,15029.632328984211,0.006193280166488562,0.005883652145334243,0.9999635122934296,22.864282670170308,0.024774228198606595,-20.405135852333345,7.8735854622283945,-122.4542236328125,5356.25390625,True
1599560964.132857,0.0,10,0.5,0.5,1.51128332901001,-0.1005,-0.00825,-0.37525,0.03744845273462569,10,1,100,-0.07849840831248933,-10,-1,-100,15030.070803339011,0.006293588305438836,0.005630200594005787,0.9999643451581225,22.344395262841747,0.024501463353379972,-18.531464280036307,7.316639233100048,-118.08790588378906,5356.25390625,True
1599560964.1668549,0.0,10,0.5,0.5,2.3778162235260014,-0.1005,-0.00825,-0.37525,0.053304092674593094,10,1,100,-0.07051761854287796,-10,-1,-100,15030.214357286342,0.006310589599800408,0.005545339400360524,0.999964712212305,22.134019774755856,0.024376964117417788,-17.89147574361331,7.130992658921312,-116.4946517944336,5356.25390625,True
1599560964.2019997,0.0,10,0.5,0.5,2.9607239850997926,-0.1005,-0.00825,-0.37525,0.061636743923165,10,1,100,-0.06898102350448723,-10,-1,-100,15030.214357286342,0.006310589599800408,0.005545339400360524,0.999964712212305,22.134019774755856,0.024376964117417788,-17.89147574361331,7.130992658921312,-116.4946517944336,5356.25390625,True
1599560964.2327971,0.0,10,0.5,0.5,1.3326641372680668,-0.1005,-0.00825,-0.37525,0.042604942220718416,10,1,100,-0.07021298956879854,-10,-1,-100,15030.49951106601,0.006320733958412378,0.005373478791602288,0.9999655864318047,21.648808093931763,0.024058048572456824,-16.588595196068777,6.759701188618962,-113.10145568847656,5356.25390625,True
1599560964.266804,0.0,10,0.5,0.5,-0.07668541183471689,-0.1005,-0.00825,-0.37525,0.029091596316481144,10,1,100,-0.06461585767611182,-10,-1,-100,15030.873529696953,0.00627825781632059,0.005095538267281159,0.999967308949927,20.777564931008076,0.023397697085696403,-14.60982125444706,6.2027642372646925,-107.49516296386719,5356.25390625,True
1599560964.299715,0.0,10,0.5,0.5,0.0663402000427249,-0.1005,-0.00825,-0.37525,0.03539822374888866,10,1,100,-0.06185499968390288,-10,-1,-100,15031.09618251829,0.006213978685131979,0.004901445799711539,0.9999686806585361,20.12188920350279,0.022840647769728124,-13.302149547012853,5.8314688729485535,-103.4132308959961,5356.25390625,True
1599560964.3356748,0.0,10,0.5,0.5,0.5777560667037964,-0.1005,-0.00825,-0.37525,0.043902817098440586,10,1,100,-0.06387257072057619,-10,-1,-100,15031.237782282871,0.006173471970582077,0.004803658455083885,0.9999694060866439,19.74377271765885,0.022490925564457035,-12.636793282067304,5.645818730597884,-101.31349182128906,5356.25390625,True
1599560964.366344,0.0,10,0.5,0.5,-0.6624143018722533,-0.1005,-0.00825,-0.37525,0.030663514114339756,10,1,100,-0.056741705329789796,-10,-1,-100,15031.463363972493,0.006071609154665814,0.004595686113375001,0.9999710071954188,18.89186882753667,0.02164567214104813,-11.296544195358914,5.274511756735944,-97.09562683105469,5356.25390625,True
1599560964.4007,0.0,10,0.5,0.5,-1.1306274335861204,-0.1005,-0.00825,-0.37525,0.026908599009872327,10,1,100,-0.05313571719472265,-10,-1,-100,15031.624492416275,0.005946105006028413,0.004373956366263219,0.9999727557993585,17.993529334400208,0.0206899707624667,-10.002104194382824,4.903193506672511,-92.83700561523438,5356.25390625,True
1599560964.4329436,0.0,10,0.5,0.5,-1.5648513948440552,-0.1005,-0.00825,-0.37525,0.023628339929795517,10,1,100,-0.04978997880372752,-10,-1,-100,15031.846167162294,0.005801720536184563,0.004144083154752542,0.9999745829838009,17.07346324543723,0.019645211192625293,-8.772045705997998,4.531862356848307,-88.62109375,5356.25390625,True
1599560964.468812,0.0,10,0.5,0.5,-0.010742799568176281,-0.1005,-0.00825,-0.37525,0.04644170418180507,10,1,100,-0.06418926982508218,-10,-1,-100,15031.846167162294,0.005801720536184563,0.004144083154752542,0.9999745829838009,17.07346324543723,0.019645211192625293,-8.772045705997998,4.531862356848307,-88.62109375,5356.25390625,True
1599560964.4987297,0.0,10,0.5,0.5,-1.0035543615341187,-0.1005,-0.00825,-0.37525,0.033166331875635974,10,1,100,-0.05541137593336827,-10,-1,-100,15031.92624277249,0.005722368653322849,0.004024748967823053,0.9999755276469228,17.09734386401243,0.019655400459488874,-8.424478056974174,4.346190721801552,-86.58535766601562,5356.25390625,True
1599560964.533792,0.0,10,0.5,0.5,-2.109201056289673,-0.1005,-0.00825,-0.37525,0.01760909598538387,10,1,100,-0.04431106128166974,-10,-1,-100,15032.081511003547,0.005549853372929921,0.00377621628109626,0.9999774694052549,17.84539318239553,0.020445508716784785,-8.04185927777519,3.9748330210461447,-82.70751953125,5356.25390625,True
1599560964.5676694,0.0,10,0.5,0.5,-2.463728775978088,-0.1005,-0.00825,-0.37525,0.012274247309765611,10,1,100,-0.04026724218178255,-10,-1,-100,15032.241661744774,0.005356950886416348,0.003503387144401977,0.9999795144680299,18.468920994339495,0.02106704056752624,-7.5453298440364245,3.603458413214353,-78.96224975585938,5356.25390625,True
1599560964.80961,0.0,10,0.5,0.5,-1.952828740501404,-0.1005,-0.00825,-0.37525,0.024133762108562377,10,1,100,-0.04839486633608009,-10,-1,-100,15032.321737152175,0.005256348648326711,0.0033648745107118724,0.9999805240195504,18.75011315174612,0.02134006711432266,-7.265513255659797,3.4177663029051817,-77.1412353515625,5356.25390625,True
1599560964.8405535,0.0,10,0.5,0.5,-4.456251567268372,-0.1005,-0.00825,-0.37525,-0.026881833789076284,10,1,100,-0.01011589507184979,-10,-1,-100,15032.511179529829,0.004817830428723123,0.0027767491207937615,0.9999845389676183,19.61677725895703,0.022157383215110276,-5.949485833189035,2.6749776424052554,-70.4954833984375,5356.25390625,True
1599560964.8751929,0.0,10,0.5,0.5,-2.6990629295349122,-0.1005,-0.00825,-0.37525,0.014270572374509943,10,1,100,-0.04079406501999905,-10,-1,-100,15032.587349024252,0.0046993391815724995,0.00261813400115437,0.9999855306881238,19.77484914510551,0.02230353213895647,-5.581114690489769,2.489276785120161,-69.00421142578125,5356.25390625,True
1599560964.9340403,0.0,10,0.5,0.5,-2.1661182781219486,-0.1005,-0.00825,-0.37525,0.029913531893056157,10,1,100,-0.05249577645616048,-10,-1,-100,15032.587349024252,0.0046993391815724995,0.00261813400115437,0.9999855306881238,19.77484914510551,0.02230353213895647,-5.581114690489769,2.489276785120161,-69.00421142578125,5356.25390625,True
1599560964.9690914,0.0,10,0.5,0.5,-3.5100051979064943,-0.1005,-0.00825,-0.37525,-0.0046975931644141974,10,1,100,-0.025854019563478423,-10,-1,-100,15032.682070461451,0.004458388909796384,0.0023052851843702944,0.9999874041349459,20.021082095287014,0.022528583150679363,-4.807591842792888,2.11787072765438,-66.2281494140625,5356.25390625,True
1599560964.9999645,0.0,10,0.5,0.5,-4.225113250732422,-0.1005,-0.00825,-0.37525,-0.02939615247532496,10,1,100,-0.007456922741752657,-10,-1,-100,15032.790461897966,0.0040734493426171645,0.0017982254219054852,0.9999900866487552,20.25758256748425,0.022747403380487537,-3.5848449201113257,1.5607483938185704,-62.58154296875,5356.25390625,True
1599560965.0331385,0.0,10,0.5,0.5,-3.3908634429931643,-0.1005,-0.00825,-0.37525,0.001791166209999407,10,1,100,-0.031139126133248474,-10,-1,-100,15032.807061570347,0.00394036819528017,0.0016229156783793776,0.9999909197803681,20.302505950085905,0.022789653270622563,-3.1653147118568583,1.3750365217083247,-61.50396728515625,5356.25390625,True
1599560965.0660932,0.0,10,0.5,0.5,-3.4887771560668948,-0.1005,-0.00825,-0.37525,0.0004506107309355245,10,1,100,-0.02952669722944304,-10,-1,-100,15032.821707753115,0.0038064190279764026,0.001453648286706311,0.9999916990059678,20.33214928358834,0.022817721492121867,-2.7418202794721163,1.189322073161852,-60.4952392578125,5356.25390625,True
1599560965.1030087,0.0,10,0.5,0.5,-4.374609304046631,-0.1005,-0.00825,-0.37525,-0.040674377323643776,10,1,100,0.0030891799211840362,-10,-1,-100,15032.864670663374,0.003389880855990319,0.0009282426762174537,0.9999938235175837,20.34259133191375,0.022827075616659028,-1.4581425290295777,0.6321608397981708,-57.88287353515625,5356.25390625,True
1599560965.1349235,0.0,10,0.5,0.5,-4.079292990875245,-0.1005,-0.00825,-0.37525,-0.028353451084903565,10,1,100,-0.006629669685393552,-10,-1,-100,15032.892987764091,0.0031015265801690754,0.0005651986994023844,0.9999950305293036,20.296954091868923,0.02278101405429864,-0.5999980989374117,0.26070296734165543,-56.48614501953125,5356.25390625,True
1599560965.1678953,0.0,10,0.5,0.5,-4.107088272094726,-0.1005,-0.00825,-0.37525,-0.031314971603365854,10,1,100,-0.002708762423337622,-10,-1,-100,15032.918375793495,0.0028057921036822066,0.0002109068870799365,0.9999960415166431,20.22024541261559,0.022702361815798995,0.25397363431742626,-0.11076994176103572,-55.365020751953125,5356.25390625,True
1599560965.2008088,0.0,10,0.5,0.5,-3.704351767730713,-0.1005,-0.00825,-0.37525,0.0037988128665157397,10,1,100,-0.03203715441756005,-10,-1,-100,15032.918375793495,0.0028057921036822066,0.0002109068870799365,0.9999960415166431,20.22024541261559,0.022702361815798995,0.25397363431742626,-0.11076994176103572,-55.365020751953125,5356.25390625,True
1599560965.2377086,0.0,10,0.5,0.5,-4.1190469924926765,-0.1005,-0.00825,-0.37525,-0.03516335201953668,10,1,100,0.0015737998798447013,-10,-1,-100,15032.884194054757,0.002502067099455837,-0.00014096202803534568,0.999996859890038,20.242447321044633,0.02273570446036071,1.1069509467740397,-0.4822557091300821,-54.51959228515625,5356.25390625,True
1599560965.2686598,0.0,10,0.5,0.5,-4.084843643188477,-0.1005,-0.00825,-0.37525,-0.03848427583095333,10,1,100,0.005585931650426753,-10,-1,-100,15032.847083003959,0.0021914770541375883,-0.0004885248073083084,0.9999974793827402,20.268600775070293,0.022772826428210886,1.9622389660076511,-0.8537523598076198,-53.94976806640625,5356.25390625,True
1599560965.3041682,0.0,10,0.5,0.5,-3.9697218795776372,-0.1005,-0.00825,-0.37525,-0.023931078913456076,10,1,100,-0.007753719255440807,-10,-1,-100,15032.802160515916,0.0020326718958356446,-0.0006693649448442424,0.9999977100951454,20.277838238925604,0.022786522950296702,2.390278805584342,-1.0395044743691984,-53.768402099609375,5356.25390625,True
1599560965.3370788,0.0,10,0.5,0.5,-3.9295838584899907,-0.1005,-0.00825,-0.37525,-0.08058210789492286,10,1,100,0.04838653002326294,-10,-1,-100,15032.723057771218,0.0013801428648583533,-0.0013460701968636855,0.9999981416486222,20.29865768062797,0.022817139096158696,4.103225961861878,-1.7825371811037023,-53.7313232421875,5356.25390625,True
1599560965.3700461,0.0,10,0.5,0.5,-3.922971448516846,-0.1005,-0.00825,-0.37525,-0.013226012254855472,10,1,100,-0.016597042426690314,-10,-1,-100,15032.723057771218,0.0013801428648583533,-0.0013460701968636855,0.9999981416486222,20.29865768062797,0.022817139096158696,4.103225961861878,-1.7825371811037023,-53.7313232421875,5356.25390625,True
1599560965.4019608,0.0,10,0.5,0.5,-3.851824782562256,-0.1005,-0.00825,-0.37525,-0.032120237795984906,10,1,100,0.002169101105366224,-10,-1,-100,15032.677159052226,0.0012118690375945865,-0.001515136805532823,0.9999981178651769,20.30104536093682,0.022819415480885445,4.531422721601723,-1.9683008118125558,-53.89434814453125,5356.25390625,True
1599560965.433876,0.0,10,0.5,0.5,-3.6651226753234867,-0.1005,-0.00825,-0.37525,-0.04986720629313239,10,1,100,0.02293751103009116,-10,-1,-100,15032.57462062093,0.0008724477862121915,-0.0018274709042131623,0.9999979495903751,20.302510768079067,0.02281637981866364,5.387290563617543,-2.3398337149919843,-54.42681884765625,5356.25390625,True
1599560965.4678822,0.0,10,0.5,0.5,-3.4831967063903813,-0.1005,-0.00825,-0.37525,-0.05482540792139044,10,1,100,0.027750180648110714,-10,-1,-100,15032.475988954771,0.0005224200457641803,-0.0021539803600154252,0.9999975437199355,20.306433142129432,0.022809268807360544,6.244108043234552,-2.711373549757729,-55.235198974609375,5356.25390625,True
1599560965.5037863,0.0,10,0.5,0.5,-3.5461993637084963,-0.1005,-0.00825,-0.37525,-0.03900672153659918,10,1,100,0.012426389100668908,-10,-1,-100,15032.421302173636,0.0003458648471831001,-0.0023045289171926366,0.9999972847583024,20.306521008718423,0.022800290608225568,6.672052398302109,-2.8971456311754924,-55.7425537109375,5356.25390625,True
1599560965.5357013,0.0,10,0.5,0.5,-2.81556700668335,-0.1005,-0.00825,-0.37525,-0.07137207516668753,10,1,100,0.05403522104131235,-10,-1,-100,15032.205484535894,-0.0001906656898450959,-0.002733334969623384,0.9999962462562241,20.308615381491194,0.022757783552991493,7.956739110214384,-3.454469328586903,-57.677825927734375,5356.25390625,True
1599560965.5674074,0.0,10,0.5,0.5,-3.167449698638916,-0.1005,-0.00825,-0.37525,-0.043611515047984356,10,1,100,0.020636477400050215,-10,-1,-100,15032.155680836295,-0.0003720717287742298,-0.0028681133417933955,0.999995817735498,20.30102728090871,0.02272702670017007,8.381644649772507,-3.6402457801864507,-58.46063232421875,5356.25390625,True
1599560965.601284,0.0,10,0.5,0.5,-3.0527284690856935,-0.1005,-0.00825,-0.37525,-0.045276828791711646,10,1,100,0.02294509393247536,-10,-1,-100,15032.100994608598,-0.0005553608791607346,-0.0030032991220602374,0.9999953358734617,20.287700347401792,0.022685494379311878,8.803759900065902,-3.826022916879008,-59.3123779296875,5356.25390625,True
1599560965.6372182,0.0,10,0.5,0.5,-2.459339243316651,-0.1005,-0.00825,-0.37525,-0.058762037303591245,10,1,100,0.045058666949891434,-10,-1,-100,15031.936935098027,-0.0009205227360947048,-0.0032465019321246793,0.99999430641534,20.239120148378447,0.02256316028028653,9.635926678219585,-4.197578623964779,-61.22216796875,5356.25390625,True
1599560965.6672668,0.0,10,0.5,0.5,-2.1301953414916994,-0.1005,-0.00825,-0.37525,-0.060176688175817145,10,1,100,0.049597752956337296,-10,-1,-100,15031.707445734995,-0.0012910677564278853,-0.0034781130064877887,0.9999931179132996,20.153144876879292,0.022377384727497934,10.444700840828226,-4.5691358084690865,-63.407440185546875,5356.25390625,True
1599560965.7011814,0.0,10,0.5,0.5,-1.1372229057312015,-0.1005,-0.00825,-0.37525,-0.07005442531283519,10,1,100,0.07358576455234425,-10,-1,-100,15031.423271575826,-0.0018435713252205796,-0.0037765279182365758,0.9999911695018369,19.929490934831247,0.021950936143493405,11.589370971191993,-5.1264739970103275,-67.20147705078125,5356.25390625,True
1599560965.7341275,0.0,10,0.5,0.5,-2.5498223625183107,-0.1005,-0.00825,-0.37525,-0.04045597991009377,10,1,100,0.018657779092082716,-10,-1,-100,15031.423271575826,-0.0018435713252205796,-0.0037765279182365758,0.9999911695018369,19.929490934831247,0.021950936143493405,11.589370971191993,-5.1264739970103275,-67.20147705078125,5356.25390625,True
1599560965.7701583,0.0,10,0.5,0.5,-0.439231233978272,-0.1005,-0.00825,-0.37525,-0.06685991363389879,10,1,100,0.07803569322173905,-10,-1,-100,15031.077573519666,-0.002380592871523987,-0.004014507869259618,0.9999891081927581,19.554508358429718,0.021313987778474208,12.608390448550225,-5.683816564041625,-71.61474609375,5356.25390625,True
1599560965.8050327,0.0,10,0.5,0.5,-0.5176656044006349,-0.1005,-0.00825,-0.37525,-0.05774553398368711,10,1,100,0.06350005633414071,-10,-1,-100,15030.850038658362,-0.002733694814041885,-0.00414600706703769,0.9999876686930014,19.19922776220623,0.0207598637704597,13.189178944072266,-6.055383013955202,-74.90106201171875,5356.25390625,True
1599560965.8359795,0.0,10,0.5,0.5,-0.07785458984375038,-0.1005,-0.00825,-0.37525,-0.05505453174103457,10,1,100,0.0645179337514909,-10,-1,-100,15030.613714035018,-0.0030609899066160614,-0.004239277202169075,0.9999863293413541,18.748805536376583,0.020103371218965087,13.670736664181735,-6.42695525328601,-78.38351440429688,5356.25390625,True
1599560965.867968,0.0,10,0.5,0.5,-1.3659660575866701,-0.1005,-0.00825,-0.37525,-0.04592099305639366,10,1,100,0.03212910996945319,-10,-1,-100,15030.613714035018,-0.0030609899066160614,-0.004239277202169075,0.9999863293413541,18.748805536376583,0.020103371218965087,13.670736664181735,-6.42695525328601,-78.38351440429688,5356.25390625,True
1599560965.9038398,0.0,10,0.5,0.5,-0.49474652023315446,-0.1005,-0.00825,-0.37525,-0.050486047157936836,10,1,100,0.05019406390677877,-10,-1,-100,15030.496527850744,-0.0032226073749401386,-0.004279408655608063,0.9999856506286804,18.490762949579633,0.019744944237995273,13.87267764410635,-6.612744116389782,-80.17886352539062,5356.25390625,True
1599560965.937748,0.0,10,0.5,0.5,0.599961441040039,-0.1005,-0.00825,-0.37525,-0.053223421451719155,10,1,100,0.0683237424971471,-10,-1,-100,15030.200633440632,-0.0035317562100143154,-0.004339494020210786,0.9999843476223623,17.906720651261317,0.018977563556459184,14.190140072494978,-6.984328692642117,-83.85830688476562,5356.25390625,True
1599560965.96767,0.0,10,0.5,0.5,1.0730866264343262,-0.1005,-0.00825,-0.37525,-0.05176122427844403,10,1,100,0.07094547407699878,-10,-1,-100,15029.907667850144,-0.003833928715052352,-0.004379609654730624,0.9999830598614557,17.235105564431258,0.01816359514906782,14.385348916823235,-7.355923494889348,-87.71240234375,5356.25390625,True
1599560966.001611,0.0,10,0.5,0.5,0.6011064292907714,-0.1005,-0.00825,-0.37525,-0.04900238897577246,10,1,100,0.05643837046830337,-10,-1,-100,15029.787552135065,-0.003974099681390647,-0.004389967994522003,0.9999824672026651,16.885559670096413,0.017766139528018733,14.449986871852863,-7.541724919428758,-89.71432495117188,5356.25390625,True
1599560966.0390515,0.0,10,0.5,0.5,1.8082571037292479,-0.1005,-0.00825,-0.37525,-0.04880575672988604,10,1,100,0.07200514170727926,-10,-1,-100,15029.42915658385,-0.004240604814848003,-0.004396768142107894,0.9999813426763066,16.935249190412954,0.017816237257879997,15.207482655275806,-7.913332167569135,-93.78509521484375,5356.25390625,True
1599560966.0689647,0.0,10,0.5,0.5,3.0565244537353515,-0.1005,-0.00825,-0.37525,-0.045809997712064454,10,1,100,0.08543571785844137,-10,-1,-100,15028.95455121377,-0.004602799234374684,-0.004375152066820443,0.9999798359385054,18.186509061315455,0.019265408043953408,17.483049116527816,-8.470734694474414,-99.57362365722656,5356.25390625,True
1599560966.1028736,0.0,10,0.5,0.5,0.9110861766815186,-0.1005,-0.00825,-0.37525,-0.04803146765566795,10,1,100,0.04949219869668865,-10,-1,-100,15028.95455121377,-0.004602799234374684,-0.004375152066820443,0.9999798359385054,18.186509061315455,0.019265408043953408,17.483049116527816,-8.470734694474414,-99.57362365722656,5356.25390625,True
1599560966.3256075,0.0,10,0.5,0.5,2.6499621643066407,-0.1005,-0.00825,-0.37525,-0.04430703587215641,10,1,100,0.07292479162780503,-10,-1,-100,15028.593225211604,-0.0048138026188731505,-0.004340965737699828,0.9999789914397256,18.96221992317278,0.02024835170115012,19.02966756893895,-8.842327229992225,-103.18016052246094,5356.25390625,True
1599560966.3511639,0.0,10,0.5,0.5,2.1328363315582273,-0.1005,-0.00825,-0.37525,-0.0454844533527661,10,1,100,0.06216518783836646,-10,-1,-100,15028.411585506168,-0.004905918290508832,-0.00432041381680421,0.9999786327668099,19.316380204729732,0.020723443105095024,19.793078007896533,-9.02812005631655,-104.88882446289062,5356.25390625,True
1599560966.3821154,0.0,10,0.5,0.5,3.762486812210083,-0.1005,-0.00825,-0.37525,-0.03866124887455062,10,1,100,0.08017561964216906,-10,-1,-100,15027.868618973764,-0.0051517138007723,-0.004239627360174748,0.9999777424546817,20.230906700486987,0.02204842767379775,22.01232004396845,-9.5854824312106,-109.61601257324219,5356.25390625,True
1599560966.4170232,0.0,10,0.5,0.5,2.699965602111816,-0.1005,-0.00825,-0.37525,-0.04328384550691143,10,1,100,0.06332431474144044,-10,-1,-100,15027.688932113466,-0.005220069925646868,-0.004208208414298512,0.9999775206732965,20.49146096005243,0.022456595605749818,22.728779511430368,-9.771264093850004,-111.05708312988281,5356.25390625,True
1599560966.5138345,0.0,10,0.5,0.5,2.837578786087036,-0.1005,-0.00825,-0.37525,-0.04271261256889543,10,1,100,0.06345971410351978,-10,-1,-100,15027.443815494538,-0.005281626885596555,-0.00417451743701207,0.9999773386540365,20.763022782434483,0.02288191576148935,23.468729558388734,-9.957042516065279,-112.429443359375,5356.25390625,True
1599560966.5836573,0.0,10,0.5,0.5,2.9663360527038574,-0.1005,-0.00825,-0.37525,-0.042504890113143984,10,1,100,0.06316939740334959,-10,-1,-100,15027.264128323644,-0.005333357724026011,-0.004142150868593199,0.9999771986808348,21.021985956476936,0.02329726182046781,24.205688386241505,-10.142817608884732,-113.73299407958984,5356.25390625,True
1599560966.614534,0.0,10,0.5,0.5,4.651324366950989,-0.1005,-0.00825,-0.37525,-0.02905434580826265,10,1,100,0.0747188770908393,-10,-1,-100,15026.410613241373,-0.005484017911567266,-0.003990664911609975,0.9999769998060498,21.888199126487827,0.024785972344034762,27.053714976149617,-10.88588501212248,-118.25780487060547,5356.25390625,True
1599560966.6408484,0.0,10,0.5,0.5,2.9769374885559086,-0.1005,-0.00825,-0.37525,-0.044163011198293876,10,1,100,0.0598038501597315,-10,-1,-100,15026.410613241373,-0.005484017911567266,-0.003990664911609975,0.9999769998060498,21.888199126487827,0.024785972344034762,27.053714976149617,-10.88588501212248,-118.25780487060547,5356.25390625,True
1599560966.6707695,0.0,10,0.5,0.5,4.267266582679749,-0.1005,-0.00825,-0.37525,-0.03115677560268188,10,1,100,0.06448269781918234,-10,-1,-100,15025.7377612415,-0.005525422514747074,-0.0038727955909503183,0.9999772353210568,22.391511781295158,0.02572979063555107,29.096146793610295,-11.443151290003765,-120.92756652832031,5356.25390625,True
1599560966.695702,0.0,10,0.5,0.5,3.2830555234909062,-0.1005,-0.00825,-0.37525,-0.04289347202106051,10,1,100,0.06043449982923874,-10,-1,-100,15025.7377612415,-0.005525422514747074,-0.0038727955909503183,0.9999772353210568,22.391511781295158,0.02572979063555107,29.096146793610295,-11.443151290003765,-120.92756652832031,5356.25390625,True
1599560966.7216332,0.0,10,0.5,0.5,3.9834125413894657,-0.1005,-0.00825,-0.37525,-0.033534484586575375,10,1,100,0.06009006160244135,-10,-1,-100,15025.249478995567,-0.005521452509703123,-0.00378817057470579,0.9999775814116435,22.672562566686555,0.02628456455372044,30.420355353502597,-11.814646169368205,-122.3626480102539,5356.25390625,True
1599560966.7515533,0.0,10,0.5,0.5,3.460723767471314,-0.1005,-0.00825,-0.37525,-0.041941706694728804,10,1,100,0.06055782709591947,-10,-1,-100,15025.249478995567,-0.005521452509703123,-0.00378817057470579,0.9999775814116435,22.672562566686555,0.02628456455372044,30.420355353502597,-11.814646169368205,-122.3626480102539,5356.25390625,True
1599560966.7784805,0.0,10,0.5,0.5,4.253347647285461,-0.1005,-0.00825,-0.37525,-0.028652189872961795,10,1,100,0.05468943634051021,-10,-1,-100,15024.513148870086,-0.005467543926272862,-0.0036678406429098156,0.9999783262193399,23.029624155326466,0.02702022449894021,32.360951806359424,-12.371865800620041,-123.99839782714844,5356.25390625,True
1599560966.809398,0.0,10,0.5,0.5,4.006235947990417,-0.1005,-0.00825,-0.37525,-0.03177152716792947,10,1,100,0.052752192613246165,-10,-1,-100,15024.020959714893,-0.0054006376982470424,-0.003587327213701604,0.9999789818770763,23.232875630360777,0.02745677171196434,33.629752836797344,-12.74333101807034,-124.74424743652344,5356.25390625,True
1599560966.8363264,0.0,10,0.5,0.5,3.7376477926254275,-0.1005,-0.00825,-0.37525,-0.03976078196869093,10,1,100,0.05946087219308817,-10,-1,-100,15024.020959714893,-0.0054006376982470424,-0.003587327213701604,0.9999789818770763,23.232875630360777,0.02745677171196434,33.629752836797344,-12.74333101807034,-124.74424743652344,5356.25390625,True
1599560966.8704536,0.0,10,0.5,0.5,3.971512217903137,-0.1005,-0.00825,-0.37525,-0.031201347152714543,10,1,100,0.04990128853672812,-10,-1,-100,15023.530723036849,-0.005313624200632269,-0.0035100479792139192,0.9999797222749258,23.413328967496412,0.02785878053397371,34.88200145514757,-13.114785248224262,-125.21446228027344,5356.25390625,True
1599560966.90536,0.0,10,0.5,0.5,3.804536309051514,-0.1005,-0.00825,-0.37525,-0.0388660603125451,10,1,100,0.058600664945866104,-10,-1,-100,15023.530723036849,-0.005313624200632269,-0.0035100479792139192,0.9999797222749258,23.413328967496412,0.02785878053397371,34.88200145514757,-13.114785248224262,-125.21446228027344,5356.25390625,True
1599560966.9362767,0.0,10,0.5,0.5,3.9028034673690803,-0.1005,-0.00825,-0.37525,-0.030228765503375672,10,1,100,0.04614374215092169,-10,-1,-100,15022.97310404887,-0.005200534351324533,-0.0034319640417963754,0.9999805878442225,23.57388168796233,0.02823323880849517,36.11925449802842,-13.486228956016559,-125.40895080566406,5356.25390625,True
1599560966.9683402,0.0,10,0.5,0.5,3.7971160198211673,-0.1005,-0.00825,-0.37525,-0.029673952977889884,10,1,100,0.04306754513093511,-10,-1,-100,15022.418413760606,-0.00507001768228148,-0.0033564428037940225,0.999981514435345,23.71617378856046,0.028586399938988417,37.34157890314187,-13.85766258712723,-125.32780456542969,5356.25390625,True
1599560967.002255,0.0,10,0.5,0.5,3.7627114566802984,-0.1005,-0.00825,-0.37525,-0.03300104697122206,10,1,100,0.04767692364491117,-10,-1,-100,15022.168412614497,-0.00499368361039891,-0.0033185028535377727,0.999982025169858,23.780573741537488,0.028756584647372754,37.94658370393273,-14.043375709047538,-125.18385314941406,5356.25390625,True
1599560967.0383222,0.0,10,0.5,0.5,3.5849137004852296,-0.1005,-0.00825,-0.37525,-0.028492898804221574,10,1,100,0.037136256718971195,-10,-1,-100,15021.554152149358,-0.004828948153819254,-0.0032435327270024616,0.9999830802344492,23.895573699945558,0.02908684189508022,39.142354596035915,-14.414795104139928,-124.689208984375,5356.25390625,True
1599560967.0692391,0.0,10,0.5,0.5,3.405980875587464,-0.1005,-0.00825,-0.37525,-0.027667370201579007,10,1,100,0.03343919078440592,-10,-1,-100,15020.995555581409,-0.004646208506937958,-0.0031683683863533403,0.9999841869691131,23.990591762185243,0.029405895876445563,40.31454447032004,-14.786205888787169,-123.91891479492188,5356.25390625,True
1599560967.103251,0.0,10,0.5,0.5,3.1987097305297856,-0.1005,-0.00825,-0.37525,-0.026760343521956102,10,1,100,0.029099430980198328,-10,-1,-100,15020.375435232534,-0.004441424869737407,-0.003092354927028797,0.9999853554358342,24.062739576197906,0.029715180108203374,41.455650136215894,-15.157608549592453,-122.87297058105469,5356.25390625,True
1599560967.1361735,0.0,10,0.5,0.5,2.5979632770538332,-0.1005,-0.00825,-0.37525,-0.021364437626563013,10,1,100,0.012765464333700197,-10,-1,-100,15019.444766473724,-0.004107700156456501,-0.002974721261062803,0.999987138833717,24.11868764258125,0.030158404948659172,43.08591847347163,-15.714699111448205,-120.78719329833984,5356.25390625,True
1599560967.1719491,0.0,10,0.5,0.5,2.981043239402771,-0.1005,-0.00825,-0.37525,-0.028589878464636148,10,1,100,0.0329918013810402,-10,-1,-100,15019.131288239616,-0.003989365242578578,-0.002934024305033145,0.999987738157993,24.12060670412397,0.030298656229245786,43.60082825497317,-15.90039308941775,-119.9541015625,5356.25390625,True
1599560967.2028356,0.0,10,0.5,0.5,2.3986723264694216,-0.1005,-0.00825,-0.37525,-0.023303321279219833,10,1,100,0.017844948440073775,-10,-1,-100,15018.510191241396,-0.003745372360004106,-0.0028495613732375516,0.9999889260316162,24.094361966322797,0.0305623818788649,44.57547078159015,-16.27177742159776,-118.08119201660156,5356.25390625,True
1599560967.235746,0.0,10,0.5,0.5,3.095596685600281,-0.1005,-0.00825,-0.37525,-0.03168356579818154,10,1,100,0.042087411513458156,-10,-1,-100,15018.510191241396,-0.003745372360004106,-0.0028495613732375516,0.9999889260316162,24.094361966322797,0.0305623818788649,44.57547078159015,-16.27177742159776,-118.08119201660156,5356.25390625,True
1599560967.268708,0.0,10,0.5,0.5,1.5072528009414676,-0.1005,-0.00825,-0.37525,-0.016665003772143007,10,1,100,-0.0013728642002747704,-10,-1,-100,15017.454522863147,-0.0033517046279161957,-0.0027136294335517253,0.9999907011024575,23.964928270441558,0.030892916768583085,45.86151881704533,-16.828848221820486,-114.75495147705078,5356.25390625,True
1599560967.3046122,0.0,10,0.5,0.5,2.746635013961792,-0.1005,-0.00825,-0.37525,-0.03018636427990117,10,1,100,0.037809026036175405,-10,-1,-100,15017.454522863147,-0.0033517046279161957,-0.0027136294335517253,0.9999907011024575,23.964928270441558,0.030892916768583085,45.86151881704533,-16.828848221820486,-114.75495147705078,5356.25390625,True
1599560967.3375318,0.0,10,0.5,0.5,1.5190171865463256,-0.1005,-0.00825,-0.37525,-0.01939609419702033,10,1,100,0.007173498366049361,-10,-1,-100,15016.76604290225,-0.0030747619336917455,-0.002616120444953029,0.99999185084323,23.805553857598227,0.031044092755546787,46.5672051914079,-17.20022757610428,-112.19290161132812,5356.25390625,True
1599560967.3685474,0.0,10,0.5,0.5,1.1196586221694949,-0.1005,-0.00825,-0.37525,-0.017541913218779615,10,1,100,0.004797151918121956,-10,-1,-100,15016.083422651747,-0.0028031371727580937,-0.0025112582486143753,0.9999929179769224,23.57615241954606,0.031111091673404565,47.11977855428023,-17.571608399532543,-109.35517120361328,5356.25390625,True
1599560967.4024553,0.0,10,0.5,0.5,1.4476681056976322,-0.1005,-0.00825,-0.37525,-0.021889977470366265,10,1,100,0.015380995570483433,-10,-1,-100,15015.765061991522,-0.002654263978731752,-0.002456122540119467,0.9999934611510213,23.438374953475023,0.031111847197450908,47.34229318264647,-17.757299909132186,-107.83294677734375,5356.25390625,True
1599560967.438451,0.0,10,0.5,0.5,0.45885090789794925,-0.1005,-0.00825,-0.37525,-0.014565717781794354,10,1,100,-0.0021250383972911367,-10,-1,-100,15015.020919030067,-0.002361589806753678,-0.0023400624859972914,0.999994473485302,23.162779753632172,0.031097168401759245,47.76998322606131,-18.128685734926144,-104.58174133300781,5356.25390625,True
1599560967.4703658,0.0,10,0.5,0.5,-0.014111483764648325,-0.1005,-0.00825,-0.37525,-0.012577053783862535,10,1,100,-0.0052769047804016,-10,-1,-100,15014.270916407695,-0.002068759806075319,-0.00221715848448778,0.99999540220999,22.793546366353954,0.030916276835900293,47.977565915318166,-18.50007677296274,-101.05491638183594,5356.25390625,True
1599560967.5036576,0.0,10,0.5,0.5,-0.5159733892440796,-0.1005,-0.00825,-0.37525,-0.010190140213516576,10,1,100,-0.009485730845585523,-10,-1,-100,15013.522867526277,-0.001766142241548213,-0.0020844170531819656,0.9999962679666015,22.318290874010223,0.03052365408888619,47.92649212440066,-18.871474649638728,-97.25244903564453,5356.25390625,True
1599560967.536417,0.0,10,0.5,0.5,-0.05084743804931635,-0.1005,-0.00825,-0.37525,-0.015862096346336833,10,1,100,0.0043176854352753626,-10,-1,-100,15013.142007018323,-0.0016185420790777883,-0.002016078632522183,0.9999966578686581,22.054006573512964,0.03025623796198551,47.82813480216826,-19.057176200937782,-95.27027130126953,5356.25390625,True
1599560967.5722852,0.0,10,0.5,0.5,-2.214825366020203,-0.1005,-0.00825,-0.37525,0.0011051354033909631,10,1,100,-0.02995150226185378,-10,-1,-100,15012.013098014519,-0.0011747555252952522,-0.0018004629457800514,0.9999976891386483,21.17796273564441,0.029164176579184468,47.2804080368057,-19.6142890139586,-89.19781494140625,5356.25390625,True
1599560967.6042368,0.0,10,0.5,0.5,0.04003509693145753,-0.1005,-0.00825,-0.37525,-0.020351523428076473,10,1,100,0.014170091432928945,-10,-1,-100,15012.013098014519,-0.0011747555252952522,-0.0018004629457800514,0.9999976891386483,21.17796273564441,0.029164176579184468,47.2804080368057,-19.6142890139586,-89.19781494140625,5356.25390625,True
1599560967.636505,0.0,10,0.5,0.5,-1.869240428161621,-0.1005,-0.00825,-0.37525,-0.003371604891555087,10,1,100,-0.018372343330185177,-10,-1,-100,15011.202549524372,-0.0008808942539056883,-0.001646930201346013,0.9999982558215915,21.56413994845659,0.02960803084111999,49.060818591707594,-19.98569118470472,-85.22894287109375,5356.25390625,True
1599560967.6695814,0.0,10,0.5,0.5,-2.2131842012405394,-0.1005,-0.00825,-0.37525,-0.0019848341220555094,10,1,100,-0.0197617877343986,-10,-1,-100,15010.387118816725,-0.0006033625220350632,-0.0014957176987125326,0.9999986993902706,22.472237477334243,0.030643494462345964,52.08404138806704,-20.357066150937158,-81.42672729492188,5356.25390625,True
1599560967.7054546,0.0,10,0.5,0.5,-1.6913881105422972,-0.1005,-0.00825,-0.37525,-0.007791325274899908,10,1,100,-0.00828100864549593,-10,-1,-100,15009.948641740019,-0.00045767839333511615,-0.0014120566183863546,0.9999988983126905,22.904336560704873,0.031089513089447143,53.57341362958642,-20.542742817491856,-79.57785034179688,5356.25390625,True
1599560967.9608092,0.0,10,0.5,0.5,-2.7532324306488034,-0.1005,-0.00825,-0.37525,0.0019451364565643715,10,1,100,-0.024359901563470246,-10,-1,-100,15009.133211498498,-0.0001811987577894187,-0.0012484870765585429,0.9999992042231984,23.710028503068365,0.031832275851098275,56.46821190858618,-20.914073845068568,-75.93923950195312,5356.25390625,True
1599560967.9917285,0.0,10,0.5,0.5,-3.036929863357544,-0.1005,-0.00825,-0.37525,0.0036037895451317623,10,1,100,-0.02628857124577919,-10,-1,-100,15008.312898352859,8.543148507225813e-05,-0.0010858066790586113,0.9999994068624827,24.427760816277306,0.03238513064608913,59.218648343130326,-21.285375212110857,-72.52825927734375,5356.25390625,True
1599560968.0321379,0.0,10,0.5,0.5,-2.5472925270080564,-0.1005,-0.00825,-0.37525,-0.0032395658444511043,10,1,100,-0.014512176357300203,-10,-1,-100,15007.875398415024,0.00021853991478595,-0.0010012679628793712,0.9999994748512483,24.749944471326952,0.03259449667169338,60.52717749823494,-21.471015240825466,-70.922607421875,5356.25390625,True
1599560968.0710347,0.0,10,0.5,0.5,-2.7009541645050046,-0.1005,-0.00825,-0.37525,-0.0026223999172337673,10,1,100,-0.015525757139178356,-10,-1,-100,15007.433015292743,0.0003466825855237792,-0.000919909340215912,0.9999995167888788,25.0488187364506,0.032765390379022256,61.791992701117735,-21.656648565693384,-69.38540649414062,5356.25390625,True
1599560968.1338637,0.0,10,0.5,0.5,-4.144728440666199,-0.1005,-0.00825,-0.37525,0.016363419157663938,10,1,100,-0.043988218306517425,-10,-1,-100,15006.114655848127,0.0007200048196911865,-0.0006744072441254845,0.999999513383846,25.81897834823552,0.03309455228264352,65.34317198738815,-22.213509968648232,-65.1865234375,5356.25390625,True
1599560968.1707633,0.0,10,0.5,0.5,-3.1941793609619142,-0.1005,-0.00825,-0.37525,0.0009685367176073033,10,1,100,-0.02020786401992917,-10,-1,-100,15005.670320014004,0.0008410776782391461,-0.0005923966983968805,0.9999994708271055,26.038234499188743,0.03315745155166819,66.45330149084377,-22.399118703191096,-63.9248046875,5356.25390625,True
1599560968.2006834,0.0,10,0.5,0.5,-4.345440078735352,-0.1005,-0.00825,-0.37525,0.018868308862426054,10,1,100,-0.04628481976917518,-10,-1,-100,15004.288484568242,0.0011863745717272237,-0.0003562146975519638,0.9999992328129381,26.602788790354932,0.03325541593860436,69.59635054683169,-22.955912982351638,-60.553558349609375,5356.25390625,True
1599560968.241579,0.0,10,0.5,0.5,-3.1040114021301273,-0.1005,-0.00825,-0.37525,-0.004605466397242805,10,1,100,-0.011991243430069663,-10,-1,-100,15004.288484568242,0.0011863745717272237,-0.0003562146975519638,0.9999992328129381,26.602788790354932,0.03325541593860436,69.59635054683169,-22.955912982351638,-60.553558349609375,5356.25390625,True
1599560968.2764826,0.0,10,0.5,0.5,-4.029510264587403,-0.1005,-0.00825,-0.37525,0.01222022755674601,10,1,100,-0.03627359400621864,-10,-1,-100,15003.343172755674,0.0014052438780325482,-0.00020442722115551464,0.999998991749069,26.914019402376653,0.033271656490301164,71.55904382712104,-23.32708512095465,-58.6510009765625,5356.25390625,True
1599560968.31139,0.0,10,0.5,0.5,-4.750726531219483,-0.1005,-0.00825,-0.37525,0.02801067372188651,10,1,100,-0.059358329719009686,-10,-1,-100,15001.453525913763,0.0018122512026081548,7.593700390839184e-05,0.9999983549882221,27.420037096998666,0.03325300485676462,75.24560218327748,-24.06937886117086,-55.67388916015625,5356.25390625,True
1599560968.3403115,0.0,10,0.5,0.5,-3.653286090087891,-0.1005,-0.00825,-0.37525,0.00012305057772533305,10,1,100,-0.018884590221043353,-10,-1,-100,15001.453525913763,0.0018122512026081548,7.593700390839184e-05,0.9999983549882221,27.420037096998666,0.03325300485676462,75.24560218327748,-24.06937886117086,-55.67388916015625,5356.25390625,True
1599560968.3762162,0.0,10,0.5,0.5,-3.94199903793335,-0.1005,-0.00825,-0.37525,0.007020382336015442,10,1,100,-0.029472295608407095,-10,-1,-100,15000.95059696713,0.001906690842529282,0.0001374359980015138,0.9999981728190194,27.527746296027658,0.03324422495074125,76.12899237822101,-24.25494262420146,-55.1021728515625,5356.25390625,True
1599560968.4111292,0.0,10,0.5,0.5,-4.18734648361206,-0.1005,-0.00825,-0.37525,0.013626829585328064,10,1,100,-0.04002392175242881,-10,-1,-100,14999.999426178867,0.0020868132443509976,0.0002522907470098666,0.9999977907774907,27.72597769201361,0.03322567042316913,77.86159795605005,-24.62605944938039,-54.165740966796875,5356.25390625,True
1599560968.4400506,0.0,10,0.5,0.5,-4.164120025634766,-0.1005,-0.00825,-0.37525,0.01555000676693114,10,1,100,-0.0416481534004224,-10,-1,-100,14998.99259150424,0.0022636281943256217,0.0003730479852957705,0.9999973684078365,27.905326121132294,0.03320623225554541,79.55770813214403,-24.997162739280732,-53.5050048828125,5356.25390625,True
1599560968.4719658,0.0,10,0.5,0.5,-4.154523839569092,-0.1005,-0.00825,-0.37525,0.02023622638996633,10,1,100,-0.050737936893687524,-10,-1,-100,14997.475014990196,0.002505260775506052,0.0005242538736509924,0.9999967244077965,28.146823335455505,0.033170722370043815,82.0511650342377,-25.553793291507535,-53.03155517578125,5356.25390625,True
1599560968.5058744,0.0,10,0.5,0.5,-3.9868896858215335,-0.1005,-0.00825,-0.37525,0.005235503666221784,10,1,100,-0.026753204371225962,-10,-1,-100,14997.475014990196,0.002505260775506052,0.0005242538736509924,0.9999967244077965,28.146823335455505,0.033170722370043815,82.0511650342377,-25.553793291507535,-53.03155517578125,5356.25390625,True
1599560968.540783,0.0,10,0.5,0.5,-3.9819386283874514,-0.1005,-0.00825,-0.37525,0.014931976117862553,10,1,100,-0.04328736191079603,-10,-1,-100,14996.461344366195,0.0026540584048682647,0.0006113884863276831,0.9999962910821732,28.292635016557995,0.03313577645326944,83.6863053745273,-25.924864691850477,-53.06085205078125,5356.25390625,True
1599560968.5756881,0.0,10,0.5,0.5,-3.732056100463868,-0.1005,-0.00825,-0.37525,0.018338078145043474,10,1,100,-0.050903318117520746,-10,-1,-100,14994.882244502543,0.0028572306845012817,0.0007206866952046107,0.9999956584123267,28.490193238416442,0.033048080173091875,86.0993197043884,-26.481449690715966,-53.6221923828125,5356.25390625,True
1599560968.609598,0.0,10,0.5,0.5,-3.606283380889893,-0.1005,-0.00825,-0.37525,0.01353176158421973,10,1,100,-0.04395300549404718,-10,-1,-100,14993.805096927215,0.0029772291365790155,0.000775375915091823,0.9999952674382306,28.60639661632217,0.03295229237712792,87.67517079232955,-26.852492235196728,-54.341339111328125,5356.25390625,True
