Timestamp,Input Throttle,horizon,dT,dt,Input Roll,Roll P,Roll I,Roll D,Input Pitch,Pitch P,Pitch I,Pitch D,Input Yaw,Yaw P,Yaw I,Yaw D,Altitude,Direction X,Direction Y,Direction Z,Drag X,Drag Y,Drag Z,Vertical Velocity,Roll,Mass,Has Fuel
1599562087.263291,0.0,10,0.5,0.5,-8.745941017150878,-0.15025,-0.00825,-0.12575,-0.0003111623883274037,10,1,100,0.17499443850512972,-10,-1,-100,14994.017369444598,-0.01681250651817669,-7.580661698399201e-05,0.9998586569500376,28.64439447683432,0.027275109643222203,-87.50330320307826,27.008977675527753,-31.79168701171875,5356.25390625,True
1599562087.2962043,0.0,10,0.5,0.5,-8.793980918884277,-0.15025,-0.00825,-0.12575,-0.0005231295844826284,10,1,100,0.17375205339281785,-10,-1,-100,14994.558386628982,-0.016848376859624266,-7.360191473803119e-05,0.9998580533155466,28.57174240139459,0.027439523997997144,-86.68198784872398,26.823010134497146,-31.791107177734375,5356.25390625,True
1599562087.3241289,0.0,10,0.5,0.5,-8.842275678253172,-0.15025,-0.00825,-0.12575,-0.0001872716124618367,10,1,100,0.18006808548401854,-10,-1,-100,14995.640421411488,-0.01692308802826059,-6.847747484629775e-05,0.9998567919469383,28.426571371531367,0.027763879930957806,-85.04890102296936,26.45108674820295,-31.78985595703125,5356.25390625,True
1599562087.3570406,0.0,10,0.5,0.5,-8.879031964874267,-0.15025,-0.00825,-0.12575,0.0031962004082883204,10,1,100,0.17631190206453817,-10,-1,-100,14996.179485201836,-0.01694147552499992,-3.2997804324405666e-05,0.9998564823604339,28.354035015370712,0.02792379004209367,-84.23707189726652,26.26513106967043,-31.830108642578125,5356.25390625,True
1599562087.3900032,0.0,10,0.5,0.5,-8.796787635803222,-0.15025,-0.00825,-0.12575,0.013102088574565539,10,1,100,0.1817328509952511,-10,-1,-100,14997.67851130187,-0.01699207144365579,8.933996839285678e-05,0.9998556203404689,28.160823079608562,0.02841198006408833,-81.89077149645667,25.707286418563264,-32.3203125,5356.25390625,True
1599562087.4254649,0.0,10,0.5,0.5,-8.722870028686522,-0.15025,-0.00825,-0.12575,0.015614720864141358,10,1,100,0.17882757485163814,-10,-1,-100,14998.696089726058,-0.016996208794361322,0.00022331701897888203,0.9998555290721391,28.05701563188805,0.02874192471682972,-80.41169683142343,25.335407478928488,-32.98388671875,5356.25390625,True
1599562087.4593744,0.0,10,0.5,0.5,-8.733411373901367,-0.15025,-0.00825,-0.12575,0.011692277020738051,10,1,100,0.17878512366571125,-10,-1,-100,14999.23417552968,-0.016984133003499415,0.00030925274182707594,0.9998557113848283,28.012202485928483,0.028905402003420996,-79.69558184591222,25.149472861751015,-33.41845703125,5356.25390625,True
1599562087.4932828,0.0,10,0.5,0.5,-8.53798445739746,-0.15025,-0.00825,-0.12575,0.026202220779575663,10,1,100,0.1764130681789766,-10,-1,-100,15000.25370460609,-0.016936150750106002,0.000519003567004115,0.9998564384115688,27.934818548900562,0.029222795245797954,-78.30326671303678,24.777612750578236,-34.49365234375,5356.25390625,True
1599562087.5232034,0.0,10,0.5,0.5,-8.34638974304199,-0.15025,-0.00825,-0.12575,0.033847740417861365,10,1,100,0.17372145822290652,-10,-1,-100,15001.20877957379,-0.01685266483764762,0.000778719037906744,0.999857680514847,27.86997426882183,0.02951642073372882,-76.95200483620553,24.405764430810333,-35.8436279296875,5356.25390625,True
1599562087.5591078,0.0,10,0.5,0.5,-8.56082817993164,-0.15025,-0.00825,-0.12575,0.007954065231389135,10,1,100,0.18375531595250938,-10,-1,-100,15001.20877957379,-0.01685266483764762,0.000778719037906744,0.999857680514847,27.86997426882183,0.02951642073372882,-76.95200483620553,24.405764430810333,-35.8436279296875,5356.25390625,True
1599562087.592527,0.0,10,0.5,0.5,-7.6327352142333975,-0.15025,-0.00825,-0.12575,0.07999720240324408,10,1,100,0.15343754437263235,-10,-1,-100,15003.118925183662,-0.01656172812797815,0.0014329487221618738,0.9998618183626049,27.753830510261807,0.029967152881163847,-74.30185983916306,23.66210153002979,-39.3681640625,5356.25390625,True
1599562087.6234446,0.0,10,0.5,0.5,-7.779106660461426,-0.15025,-0.00825,-0.12575,0.03621601872345723,10,1,100,0.17184977385515265,-10,-1,-100,15003.595484015532,-0.016464852094838087,0.0016283206240874331,0.999863119240549,27.72224015323818,0.03003748640326021,-73.63554253498874,23.476192728330705,-40.4210205078125,5356.25390625,True
1599562087.6583526,0.0,10,0.5,0.5,-7.904383679962158,-0.15025,-0.00825,-0.12575,0.016849020784783834,10,1,100,0.1814990246926803,-10,-1,-100,15003.595484015532,-0.016464852094838087,0.0016283206240874331,0.999863119240549,27.72224015323818,0.03003748640326021,-73.63554253498874,23.476192728330705,-40.4210205078125,5356.25390625,True
1599562087.6925414,0.0,10,0.5,0.5,-7.259122466278076,-0.15025,-0.00825,-0.12575,0.061510258381304896,10,1,100,0.15538355068738047,-10,-1,-100,15004.488054569694,-0.0162278552729112,0.002032789331238594,0.9998662532962977,27.648152746547098,0.030108274466998687,-72.27833116208515,23.104384340949778,-42.733123779296875,5356.25390625,True
1599562087.727448,0.0,10,0.5,0.5,-6.441439650726318,-0.15025,-0.00825,-0.12575,0.09701526510961814,10,1,100,0.13063693558478987,-10,-1,-100,15005.858157422394,-0.015788083134092377,0.0027213829560556214,0.999871657016918,27.490354257099803,0.029997809323517796,-70.13504184616377,22.54669601608985,-46.716583251953125,5356.25390625,True
1599562087.762355,0.0,10,0.5,0.5,-6.93048275604248,-0.15025,-0.00825,-0.12575,0.028419106926681665,10,1,100,0.1744937506357158,-10,-1,-100,15005.858157422394,-0.015788083134092377,0.0027213829560556214,0.999871657016918,27.490354257099803,0.029997809323517796,-70.13504184616377,22.54669601608985,-46.716583251953125,5356.25390625,True
1599562087.797261,0.0,10,0.5,0.5,-5.648810385894776,-0.15025,-0.00825,-0.12575,0.10793200898429778,10,1,100,0.11233275044529908,-10,-1,-100,15007.227280974272,-0.015224081428416107,0.0034419565511820617,0.9998781827201555,27.241023848921287,0.029562887477311207,-67.78385286771116,21.989042374221775,-51.31927490234375,5356.25390625,True
1599562087.8291752,0.0,10,0.5,0.5,-5.271046384429932,-0.15025,-0.00825,-0.12575,0.09255611713411338,10,1,100,0.11987118308209332,-10,-1,-100,15008.05539353774,-0.01478148385774952,0.003954394708286827,0.9998829283958468,27.001965542664962,0.02906436396444541,-66.05569651456818,21.61729664046978,-54.731536865234375,5356.25390625,True
1599562087.8640842,0.0,10,0.5,0.5,-5.683442071533203,-0.15025,-0.00825,-0.12575,0.04165584053776516,10,1,100,0.16391547345951632,-10,-1,-100,15008.05539353774,-0.01478148385774952,0.003954394708286827,0.9998829283958468,27.001965542664962,0.02906436396444541,-66.05569651456818,21.61729664046978,-54.731536865234375,5356.25390625,True
1599562087.8989897,0.0,10,0.5,0.5,-4.112647388458252,-0.15025,-0.00825,-0.12575,0.1258115234937323,10,1,100,0.07926458238334072,-10,-1,-100,15009.362990318798,-0.014013813194311468,0.004716559393640728,0.9998906775779245,26.497672837798685,0.027983116441645417,-63.153975671050866,21.059721222849866,-60.366363525390625,5356.25390625,True
1599562088.192206,0.0,10,0.5,0.5,-3.6692422882080074,-0.15025,-0.00825,-0.12575,0.10716581864221716,10,1,100,0.09160648217654846,-10,-1,-100,15010.188171662856,-0.013430710636254523,0.005236350117716197,0.999896092926285,26.04153462275662,0.027043520180867215,-60.97409125114308,20.688038794973153,-64.4669189453125,5356.25390625,True
1599562088.226115,0.0,10,0.5,0.5,-2.323829707336426,-0.15025,-0.00825,-0.12575,0.1357370265045437,10,1,100,0.04356404392466709,-10,-1,-100,15011.432290343451,-0.012466714342541764,0.005965167755264542,0.9999044943429112,25.13656291434944,0.02534625784293188,-57.2733480090842,20.130577673137534,-71.13485717773438,5356.25390625,True
1599562088.2610219,0.0,10,0.5,0.5,-3.136984024810791,-0.15025,-0.00825,-0.12575,0.06328894746282687,10,1,100,0.13956385952071335,-10,-1,-100,15011.432290343451,-0.012466714342541764,0.005965167755264542,0.9999044943429112,25.13656291434944,0.02534625784293188,-57.2733480090842,20.130577673137534,-71.13485717773438,5356.25390625,True
1599562088.2949312,0.0,10,0.5,0.5,-1.1000912765502928,-0.15025,-0.00825,-0.12575,0.1378601886080198,10,1,100,0.022350916294811354,-10,-1,-100,15012.610978597659,-0.011404776802081107,0.006639145541010681,0.9999129226150544,23.916305724840786,0.02340259362599095,-52.98836643483168,19.573202512783524,-78.423095703125,5356.25390625,True
1599562088.349786,0.0,10,0.5,0.5,-1.9871430442810059,-0.15025,-0.00825,-0.12575,0.07092304565438318,10,1,100,0.12806236249379413,-10,-1,-100,15012.610978597659,-0.011404776802081107,0.006639145541010681,0.9999129226150544,23.916305724840786,0.02340259362599095,-52.98836643483168,19.573202512783524,-78.423095703125,5356.25390625,True
1599562088.3846905,0.0,10,0.5,0.5,0.987551937866211,-0.15025,-0.00825,-0.12575,0.1570575190281075,10,1,100,-0.04315711907227547,-10,-1,-100,15014.141223361832,-0.009852220884509575,0.007418624605694579,0.9999239459841947,21.75296268978471,0.0207297040282684,-46.3710201928471,18.83017770914449,-89.106201171875,5356.25390625,True
1599562088.4195979,0.0,10,0.5,0.5,1.2675694847106933,-0.15025,-0.00825,-0.12575,0.11713939437079743,10,1,100,0.017932683234422486,-10,-1,-100,15014.84726400848,-0.009001564491550512,0.007760079675204723,0.999929374006054,21.670638223450844,0.02063936903159526,-45.28684649590919,18.45871026125157,-94.86144256591797,5356.25390625,True
1599562088.4485223,0.0,10,0.5,0.5,1.3799389604568482,-0.15025,-0.00825,-0.12575,0.09824802600005852,10,1,100,0.05925320042291804,-10,-1,-100,15015.194913842832,-0.008609538396880292,0.007894828095821753,0.999931771441397,22.16421871313259,0.0211772697171628,-45.85358465746044,18.2729736943729,-97.76060485839844,5356.25390625,True
1599562088.4824293,0.0,10,0.5,0.5,1.0508682832717895,-0.15025,-0.00825,-0.12575,0.08516722727710906,10,1,100,0.09783861534385309,-10,-1,-100,15015.194913842832,-0.008609538396880292,0.007894828095821753,0.999931771441397,22.16421871313259,0.0211772697171628,-45.85358465746044,18.2729736943729,-97.76060485839844,5356.25390625,True
1599562088.5123496,0.0,10,0.5,0.5,2.6447780004501342,-0.15025,-0.00825,-0.12575,0.11310493698390922,10,1,100,0.007069408596383511,-10,-1,-100,15015.9624791221,-0.007789974649594996,0.008145225062803995,0.9999364837846627,23.092329199860334,0.022318021942224268,-46.80511361893197,17.901490780941174,-103.40702056884766,5356.25390625,True
1599562088.547257,0.0,10,0.5,0.5,4.1732107959747315,-0.15025,-0.00825,-0.12575,0.11998810296527376,10,1,100,-0.052143988012052084,-10,-1,-100,15017.013242874527,-0.006512271127026872,0.008432315936555563,0.9999432415755978,24.106034729767607,0.023847321271164408,-47.342634697147474,17.344240602488416,-111.38876342773438,5356.25390625,True
1599562088.5821629,0.0,10,0.5,0.5,3.2082171531677246,-0.15025,-0.00825,-0.12575,0.09159861217200091,10,1,100,0.07493452029383756,-10,-1,-100,15017.013242874527,-0.006512271127026872,0.008432315936555563,0.9999432415755978,24.106034729767607,0.023847321271164408,-47.342634697147474,17.344240602488416,-111.38876342773438,5356.25390625,True
1599562088.6130817,0.0,10,0.5,0.5,5.274456624603271,-0.15025,-0.00825,-0.12575,0.11226912622887437,10,1,100,-0.05941381091436184,-10,-1,-100,15018.004438558593,-0.005296335791693709,0.008617986838725967,0.9999488382562526,24.801700381096143,0.025092529121660618,-47.14733849642528,16.786965428435416,-118.75481414794922,5356.25390625,True
1599562088.6549685,0.0,10,0.5,0.5,4.387462211036682,-0.15025,-0.00825,-0.12575,0.09396731792018019,10,1,100,0.061462684763869624,-10,-1,-100,15018.004438558593,-0.005296335791693709,0.008617986838725967,0.9999488382562526,24.801700381096143,0.025092529121660618,-47.14733849642528,16.786965428435416,-118.75481414794922,5356.25390625,True
1599562088.6898744,0.0,10,0.5,0.5,5.681179817962646,-0.15025,-0.00825,-0.12575,0.1015870893395508,10,1,100,-0.02869533453749079,-10,-1,-100,15018.707555074361,-0.0044822705625998755,0.008685458541358685,0.9999522348895121,25.130721231623937,0.025717600350793877,-46.717670889563315,16.415440500281548,-123.32164001464844,5356.25390625,True
1599562088.728771,0.0,10,0.5,0.5,7.436828262329101,-0.15025,-0.00825,-0.12575,0.09840096971068511,10,1,100,-0.11630836633905427,-10,-1,-100,15019.922384512494,-0.00295202234362716,0.008715971444398425,0.9999576578065009,25.40099854911228,0.026275265305767983,-45.08667564240121,15.672393838423886,-131.6291961669922,5356.25390625,True
1599562088.7666693,0.0,10,0.5,0.5,7.45961925163269,-0.15025,-0.00825,-0.12575,0.09306217015275375,10,1,100,-0.042312792250521994,-10,-1,-100,15020.558121411363,-0.0022398475440394234,0.008693996499509082,0.999959697941795,25.379238306467844,0.026228081132247803,-43.98209106930237,15.300881467608594,-135.36972045898438,5356.25390625,True
1599562088.7975874,0.0,10,0.5,0.5,7.510300219535828,-0.15025,-0.00825,-0.12575,0.09423047521194225,10,1,100,-0.008839196501957986,-10,-1,-100,15020.847181555233,-0.0019028683393534367,0.008683791216671117,0.9999604846503628,25.33677411247131,0.02613198492403027,-43.37639096754076,15.115130016105127,-137.13650512695312,5356.25390625,True
1599562088.840474,0.0,10,0.5,0.5,8.238896711158752,-0.15025,-0.00825,-0.12575,0.09002429319987545,10,1,100,-0.048703534556738926,-10,-1,-100,15021.484872713685,-0.0012402175073750101,0.008635558429326132,0.9999619437714359,25.198463986598192,0.02581243116051007,-42.081167701849466,14.743638588110649,-140.463623046875,5356.25390625,True
1599562088.8763762,0.0,10,0.5,0.5,7.85574162273407,-0.15025,-0.00825,-0.12575,0.09492164496772437,10,1,100,0.016824616552153206,-10,-1,-100,15021.484872713685,-0.0012402175073750101,0.008635558429326132,0.9999619437714359,25.198463986598192,0.02581243116051007,-42.081167701849466,14.743638588110649,-140.463623046875,5356.25390625,True
1599562088.9122808,0.0,10,0.5,0.5,9.494690517044067,-0.15025,-0.00825,-0.12575,0.07886343739982281,10,1,100,-0.11766829254383138,-10,-1,-100,15022.634281801758,-2.350902208625944e-05,0.008489128966557461,0.999963966419148,24.76335259085273,0.024782234769616846,-39.27415969853235,14.000709872629479,-146.29107666015625,5356.25390625,True
1599562088.9501805,0.0,10,0.5,0.5,8.790682633590698,-0.15025,-0.00825,-0.12575,0.09351206497969006,10,1,100,0.003353679774549641,-10,-1,-100,15022.634281801758,-2.350902208625944e-05,0.008489128966557461,0.999963966419148,24.76335259085273,0.024782234769616846,-39.27415969853235,14.000709872629479,-146.29107666015625,5356.25390625,True
1599562088.9820945,0.0,10,0.5,0.5,9.826045706558226,-0.15025,-0.00825,-0.12575,0.07822509978718789,10,1,100,-0.08718631303769965,-10,-1,-100,15023.434084060835,0.0007936829470206063,0.00835010490750744,0.999964822288971,24.42621929295495,0.023866631350398525,-37.2003963444674,13.443564048852041,-149.9380645751953,5356.25390625,True
1599562089.0199933,0.0,10,0.5,0.5,9.393163157844542,-0.15025,-0.00825,-0.12575,0.09210071749906819,10,1,100,-0.00607611800088451,-10,-1,-100,15023.434084060835,0.0007936829470206063,0.00835010490750744,0.999964822288971,24.42621929295495,0.023866631350398525,-37.2003963444674,13.443564048852041,-149.9380645751953,5356.25390625,True
1599562089.0598853,0.0,10,0.5,0.5,9.99480181503296,-0.15025,-0.00825,-0.12575,0.08121957702191582,10,1,100,-0.061479980564436446,-10,-1,-100,15023.946778653772,0.00129181804419952,0.008251428977652617,0.9999651219547445,24.18133959770474,0.02320179254805105,-35.811660149893555,13.072157388174809,-152.0247039794922,5356.25390625,True
1599562089.0987222,0.0,10,0.5,0.5,10.477188317108153,-0.15025,-0.00825,-0.12575,0.07604582889647962,10,1,100,-0.08620487812183358,-10,-1,-100,15024.683106841752,0.001964190757059598,0.008115084085338545,0.9999651430749763,23.808435181207695,0.022177993128658997,-33.759148926219275,12.51508199394789,-154.63739013671875,5356.25390625,True
1599562089.1356244,0.0,10,0.5,0.5,10.717476965713502,-0.15025,-0.00825,-0.12575,0.07469106656765727,10,1,100,-0.08437243884895869,-10,-1,-100,15025.419435869786,0.0025543108543601817,0.00797936442329924,0.9999649020037951,23.4554317112375,0.021173700126761265,-31.78048798803549,11.95804361302658,-156.62960815429688,5356.25390625,True
1599562089.1725264,0.0,10,0.5,0.5,10.484494957351686,-0.15025,-0.00825,-0.12575,0.08819156956396676,10,1,100,-0.025839844958740272,-10,-1,-100,15025.419435869786,0.0025543108543601817,0.00797936442329924,0.9999649020037951,23.4554317112375,0.021173700126761265,-31.78048798803549,11.95804361302658,-156.62960815429688,5356.25390625,True
1599562089.2154105,0.0,10,0.5,0.5,10.771931564712526,-0.15025,-0.00825,-0.12575,0.07998783604473085,10,1,100,-0.06431930086875651,-10,-1,-100,15025.93213186704,0.0029000721088205898,0.007905425415663797,0.9999645462868976,23.24290847750226,0.020534818262216464,-30.515969237130573,11.586702683636188,-157.61277770996094,5356.25390625,True
1599562089.2543063,0.0,10,0.5,0.5,10.926759339141846,-0.15025,-0.00825,-0.12575,0.0757101601755462,10,1,100,-0.07986142483587541,-10,-1,-100,15026.603031979408,0.0033519286583800455,0.007799983930833227,0.9999639617630967,22.97118781525837,0.01963999368026792,-28.711356248405274,11.029713403172705,-158.5704345703125,5356.25390625,True
1599562089.295198,0.0,10,0.5,0.5,10.91425196685791,-0.15025,-0.00825,-0.12575,0.07721118389636471,10,1,100,-0.07574185443090606,-10,-1,-100,15027.213384999428,0.003721082021420052,0.007718533318902416,0.9999632882221201,22.76642617210625,0.018831641771109568,-27.020269717881217,10.472745089040584,-158.90731811523438,5356.25390625,True
1599562089.3340933,0.0,10,0.5,0.5,10.849077533721925,-0.15025,-0.00825,-0.12575,0.08129285041102215,10,1,100,-0.061261544203454615,-10,-1,-100,15027.598151556449,0.003921632630258221,0.007682293908778251,0.9999628008870193,22.670231782725686,0.018342282302865213,-25.95325275404608,10.101441386743089,-158.78695678710938,5356.25390625,True
1599562089.368003,0.0,10,0.5,0.5,10.87452207183838,-0.15025,-0.00825,-0.12575,0.08483610791766073,10,1,100,-0.04160099748487217,-10,-1,-100,15027.598151556449,0.003921632630258221,0.007682293908778251,0.9999628008870193,22.670231782725686,0.018342282302865213,-25.95325275404608,10.101441386743089,-158.78695678710938,5356.25390625,True
1599562089.405903,0.0,10,0.5,0.5,10.77246852607727,-0.15025,-0.00825,-0.12575,0.08181227288274988,10,1,100,-0.059943023409770466,-10,-1,-100,15028.046395425918,0.004085534729863444,0.007655411600277906,0.9999623508308707,22.606365679254445,0.01789157780230615,-24.929873352797536,9.730142644434723,-158.3907470703125,5356.25390625,True
1599562089.4517796,0.0,10,0.5,0.5,10.643794169616699,-0.15025,-0.00825,-0.12575,0.08195597487861857,10,1,100,-0.058053530360690206,-10,-1,-100,15028.42920913035,0.004214366836528515,0.007632911059155699,0.9999619881680154,22.573462232104706,0.017478026896995267,-23.94460453036276,9.358847301579594,-157.71875,5356.25390625,True
1599562089.4886801,0.0,10,0.5,0.5,10.611714749526977,-0.15025,-0.00825,-0.12575,0.08322622562020292,10,1,100,-0.051105560812864284,-10,-1,-100,15028.592295456678,0.0042656667114325895,0.007624566044803092,0.9999618343117577,22.567908774550617,0.017284688520403213,-23.464299682974193,9.173200326407025,-157.27932739257812,5356.25390625,True
1599562089.5255816,0.0,10,0.5,0.5,9.99366431388855,-0.15025,-0.00825,-0.12575,0.08356914200005286,10,1,100,-0.05842685104165519,-10,-1,-100,15029.294444707804,0.004376767894375872,0.007620543015245299,0.9999613848679116,22.606649088169174,0.01659573470016291,-21.60340655153605,8.430614335476863,-154.8319091796875,5356.25390625,True
1599562089.5644777,0.0,10,0.5,0.5,9.848053854751587,-0.15025,-0.00825,-0.12575,0.08421094302942117,10,1,100,-0.04778087070691272,-10,-1,-100,15029.621593407821,0.00437933055124482,0.0076230464717397944,0.9999613545664715,22.653168831031373,0.01629907515340516,-20.695166718112915,8.059320548842713,-153.1946258544922,5356.25390625,True
1599562089.601379,0.0,10,0.5,0.5,10.051108372497557,-0.15025,-0.00825,-0.12575,0.08392496558481571,10,1,100,-0.04770710698970644,-10,-1,-100,15029.621593407821,0.00437933055124482,0.0076230464717397944,0.9999613545664715,22.653168831031373,0.01629907515340516,-20.695166718112915,8.059320548842713,-153.1946258544922,5356.25390625,True
1599562089.6382809,0.0,10,0.5,0.5,9.519451678466798,-0.15025,-0.00825,-0.12575,0.08494912914053666,10,1,100,-0.04395908745656914,-10,-1,-100,15029.941905754153,0.004343912865995913,0.007632613757649916,0.9999614360705313,22.708656373898435,0.01603306590446576,-19.790731986367827,7.688025505786107,-151.2815399169922,5356.25390625,True
1599562089.6731882,0.0,10,0.5,0.5,8.819354539108277,-0.15025,-0.00825,-0.12575,0.08526739165559166,10,1,100,-0.03461889833275904,-10,-1,-100,15030.360850182828,0.004225902356273528,0.007644356740589784,0.9999618520520159,22.789656882773166,0.015692112805524582,-18.423352000031397,7.131080091960532,-147.89511108398438,5356.25390625,True
1599562089.7130814,0.0,10,0.5,0.5,8.517913187026977,-0.15025,-0.00825,-0.12575,0.08481690615417194,10,1,100,-0.032901596157231594,-10,-1,-100,15030.616708370158,0.004102549309171244,0.007651004290138859,0.9999623149011757,22.826824839707577,0.015503007164100422,-17.493080296643043,6.7597814300558685,-145.29293823242188,5356.25390625,True
1599562089.7509792,0.0,10,0.5,0.5,8.834003857803346,-0.15025,-0.00825,-0.12575,0.08414902223740042,10,1,100,-0.045254992535351334,-10,-1,-100,15030.616708370158,0.004102549309171244,0.007651004290138859,0.9999623149011757,22.826824839707577,0.015503007164100422,-17.493080296643043,6.7597814300558685,-145.29293823242188,5356.25390625,True
1599562089.7868848,0.0,10,0.5,0.5,8.028630081558227,-0.15025,-0.00825,-0.12575,0.0839788140526644,10,1,100,-0.028146108836416255,-10,-1,-100,15030.87647233461,0.003946849533109186,0.0076494853881127495,0.9999629531897969,22.83581683516239,0.01534178146851549,-16.539195898105092,6.388481818178498,-142.41525268554688,5356.25390625,True
1599562089.824782,0.0,10,0.5,0.5,7.507036541366577,-0.15025,-0.00825,-0.12575,0.08308457872335578,10,1,100,-0.022976247139439854,-10,-1,-100,15031.136235994636,0.003758431616895488,0.007639980543469994,0.9999637517875718,22.802025316319686,0.015202530161727084,-15.555294505119333,6.0171814484787,-139.26205444335938,5356.25390625,True
1599562089.8626812,0.0,10,0.5,0.5,6.942000227737426,-0.15025,-0.00825,-0.12575,0.08221165065328748,10,1,100,-0.017155306641311964,-10,-1,-100,15031.39306929789,0.0035346394478269934,0.007623397639081128,0.9999646944429639,22.709175131179446,0.015075115079456275,-14.536361283074934,5.645879817682878,-135.83334350585938,5356.25390625,True
1599562089.8995824,0.0,10,0.5,0.5,5.23483371925354,-0.15025,-0.00825,-0.12575,0.07445352869904528,10,1,100,0.018511257861129816,-10,-1,-100,15031.783688182244,0.0030076150961639873,0.007537794952239704,0.9999670674070679,22.276012452778755,0.014792688380594525,-12.384149550052593,4.903268512717107,-128.14988708496094,5356.25390625,True
1599562089.9374812,0.0,10,0.5,0.5,5.601368112945557,-0.15025,-0.00825,-0.12575,0.0793831726099046,10,1,100,-0.01778069673885034,-10,-1,-100,15031.880366016412,0.0028596735935594486,0.007504864497994409,0.9999677491178427,22.102944940424422,0.014702632298580914,-11.82279504770125,4.71761247033522,-126.05696105957031,5356.25390625,True
1599562089.970392,0.0,10,0.5,0.5,5.245515451049805,-0.15025,-0.00825,-0.12575,0.07846840976326593,10,1,100,-0.015512306148370117,-10,-1,-100,15031.97802022961,0.0027059410921488527,0.007466719133687193,0.9999684624967853,21.89866133999517,0.014598822079678685,-11.25266471827888,4.531954422572763,-123.89518737792969,5356.25390625,True
1599562090.0082927,0.0,10,0.5,0.5,3.589327201843261,-0.15025,-0.00825,-0.12575,0.06536261000232228,10,1,100,0.021783427160979273,-10,-1,-100,15032.204576973105,0.002228653414835222,0.007313040011343012,0.999970775847849,21.073977317308955,0.01417416204034577,-9.49826787787827,3.974963852083566,-116.99714660644531,5356.25390625,True
1599562090.0461917,0.0,10,0.5,0.5,3.0642851081848144,-0.15025,-0.00825,-0.12575,0.0660361033601109,10,1,100,0.011959100684918969,-10,-1,-100,15032.340314584784,0.001885990548378979,0.007179744906779387,0.9999724467717722,20.33430486055017,0.013766983127275938,-8.308833156632824,3.603617624798396,-112.054443359375,5356.25390625,True
1599562090.083091,0.0,10,0.5,0.5,3.6562614906311035,-0.15025,-0.00825,-0.12575,0.0793191526330924,10,1,100,-0.022073194779915855,-10,-1,-100,15032.340314584784,0.001885990548378979,0.007179744906779387,0.9999724467717722,20.33430486055017,0.013766983127275938,-8.308833156632824,3.603617624798396,-112.054443359375,5356.25390625,True
1599562090.1224968,0.0,10,0.5,0.5,1.4401659652709957,-0.15025,-0.00825,-0.12575,0.05167860016336379,10,1,100,0.03431813486395675,-10,-1,-100,15032.564916727832,0.0013753571504899484,0.006928895574675817,0.999975049088138,19.175031841401765,0.013091037231160873,-6.624100941710583,3.046557964971989,-104.12446594238281,5356.25390625,True
1599562090.166379,0.0,10,0.5,0.5,0.8493531482696535,-0.15025,-0.00825,-0.12575,0.05434626252785983,10,1,100,0.02266048594221285,-10,-1,-100,15032.636201517773,0.001019602862750939,0.006725758665818412,0.9999768620225027,18.166203812579898,0.012444147266659008,-5.510599062940496,2.675149200446485,-98.4938735961914,5356.25390625,True
1599562090.2072732,0.0,10,0.5,0.5,-0.9523085432052613,-0.15025,-0.00825,-0.12575,0.036060261759130935,10,1,100,0.044144604432986324,-10,-1,-100,15032.800256820628,0.0005035408391360426,0.00637569212961623,0.9999795482891096,16.405655635635892,0.011253693533139014,-3.940112726852956,2.1179805114720134,-89.53201293945312,5356.25390625,True
1599562090.2461662,0.0,10,0.5,0.5,0.133618150138855,-0.15025,-0.00825,-0.12575,0.07094048653796377,10,1,100,-0.007136108850727365,-10,-1,-100,15032.800256820628,0.0005035408391360426,0.00637569212961623,0.9999795482891096,16.405655635635892,0.011253693533139014,-3.940112726852956,2.1179805114720134,-89.53201293945312,5356.25390625,True
1599562090.2860599,0.0,10,0.5,0.5,-2.515740237617493,-0.15025,-0.00825,-0.12575,0.026765299217160997,10,1,100,0.04825611234875948,-10,-1,-100,15032.90083551663,2.730736057699355e-06,0.005975233795344809,0.9999821481274724,17.165715579364115,0.011754486445780952,-3.038110526703626,1.560781648857842,-80.0712890625,5356.25390625,True
1599562090.3279483,0.0,10,0.5,0.5,-2.226222837638855,-0.15025,-0.00825,-0.12575,0.051172249704835686,10,1,100,0.015824335522273962,-10,-1,-100,15032.935989722959,-0.00015498512799082945,0.005834482642401374,0.9999829672508955,17.727706331520466,0.01213871824002577,-2.764221184763624,1.3750491492804722,-76.95352172851562,5356.25390625,True
1599562090.375823,0.0,10,0.5,0.5,-5.264155744361878,-0.15025,-0.00825,-0.12575,-0.003257449632013,10,1,100,0.06700063686414502,-10,-1,-100,15033.007270490052,-0.0007608616904869105,0.005213230129259256,0.9999861215642483,19.45881465911084,0.013347551781355209,-1.3948926499774819,0.6321361024708865,-64.67279052734375,5356.25390625,True
1599562090.416711,0.0,10,0.5,0.5,-5.37394774684906,-0.15025,-0.00825,-0.12575,0.02139950581571165,10,1,100,0.03759622092163819,-10,-1,-100,15033.014103006106,-0.001041194054385435,0.004874657884113399,0.9999875767355582,19.961340612002722,0.013693779205634367,-0.5900844493046385,0.2606777169888308,-58.856719970703125,5356.25390625,True
1599562090.4585989,0.0,10,0.5,0.5,-4.6905427263259885,-0.15025,-0.00825,-0.12575,0.055012892117574416,10,1,100,0.009889969278707805,-10,-1,-100,15033.014103006106,-0.001041194054385435,0.004874657884113399,0.9999875767355582,19.961340612002722,0.013693779205634367,-0.5900844493046385,0.2606777169888308,-58.856719970703125,5356.25390625,True
1599562090.5104783,0.0,10,0.5,0.5,-7.718815613746643,-0.15025,-0.00825,-0.12575,-0.016815116110246123,10,1,100,0.06455100964789035,-10,-1,-100,15033.02288537426,-0.0015354515262845814,0.004223771524790181,0.9999899010203638,20.40478911008988,0.014015286728810876,1.1160030531921412,-0.4822783231958212,-48.043731689453125,5356.25390625,True
1599562090.5583522,0.0,10,0.5,0.5,-7.789937072944641,-0.15025,-0.00825,-0.12575,0.009814312736721287,10,1,100,0.03949070346242051,-10,-1,-100,15032.965265529812,-0.00175384513352984,0.003876829617997859,0.9999909470687025,20.446541950340496,0.014059040694332612,1.9797372989262119,-0.8537758471990999,-43.050811767578125,5356.25390625,True
1599562090.6023092,0.0,10,0.5,0.5,-7.212463157463073,-0.15025,-0.00825,-0.12575,0.044203296820285704,10,1,100,0.01796426296629663,-10,-1,-100,15032.965265529812,-0.00175384513352984,0.003876829617997859,0.9999909470687025,20.446541950340496,0.014059040694332612,1.9797372989262119,-0.8537758471990999,-43.050811767578125,5356.25390625,True
1599562090.6471703,0.0,10,0.5,0.5,-9.786297311401366,-0.15025,-0.00825,-0.12575,-0.025827860334561734,10,1,100,0.06204134261430451,-10,-1,-100,15032.848074202891,-0.0021520245412423836,0.003242772670269992,0.9999924265792131,20.15841849450699,0.013901994872713935,3.6506467747479956,-1.596802420729542,-33.89105224609375,5356.25390625,True
1599562090.6920502,0.0,10,0.5,0.5,-9.264797745513915,-0.15025,-0.00825,-0.12575,0.019144044172611185,10,1,100,0.03203549405030583,-10,-1,-100,15032.817799883313,-0.002238811229144364,0.0030780408673638177,0.9999927566681166,20.0324957698253,0.013828884643793385,4.049927208841496,-1.7825635931168538,-31.773529052734375,5356.25390625,True
1599562090.7409196,0.0,10,0.5,0.5,-9.61158755569458,-0.15025,-0.00825,-0.12575,0.017511180791692164,10,1,100,0.03276047986197997,-10,-1,-100,15032.789478474879,-0.0023218059509174925,0.002916438335133716,0.9999930517781429,19.886120768318477,0.013743814095076266,4.439348377433349,-1.9683255944071416,-29.72491455078125,5356.25390625,True
1599562090.792782,0.0,10,0.5,0.5,-10.977826935577394,-0.15025,-0.00825,-0.12575,-0.01524759388407762,10,1,100,0.05215819085091278,-10,-1,-100,15032.639086332987,-0.002571485309986112,0.002474500622835908,0.9999936321347092,19.350999523074808,0.013439190273650798,5.54317598217846,-2.5256138766741154,-23.99188232421875,5356.25390625,True
1599562090.8516226,0.0,10,0.5,0.5,-10.789967584228515,-0.15025,-0.00825,-0.12575,0.012217292480017123,10,1,100,0.035583668973089094,-10,-1,-100,15032.60783598572,-0.0026455922555391914,0.002325474380438367,0.9999937964860198,19.149297576973073,0.013327531571443703,5.8889339495649855,-2.7113769133961267,-22.218780517578125,5356.25390625,True
1599562090.9044824,0.0,10,0.5,0.5,-12.369517876434324,-0.15025,-0.00825,-0.12575,-0.033547699891365704,10,1,100,0.06002217248711427,-10,-1,-100,15032.364670889103,-0.0029334170283830813,0.0017765758255633233,0.9999941194041461,18.448796324824954,0.012979792088180037,7.228740449751823,-3.4544321282360286,-15.8148193359375,5356.25390625,True
1599562090.959337,0.0,10,0.5,0.5,-12.369367387390136,-0.15025,-0.00825,-0.12575,-0.007842513524681495,10,1,100,0.04548403223560206,-10,-1,-100,15032.18010039453,-0.0030611907987055996,0.0015140770899727308,0.9999941683237253,18.10928487408146,0.012823726432181128,7.859105867999389,-3.8259643802557997,-13.026275634765625,5356.25390625,True
1599562090.9992292,0.0,10,0.5,0.5,-12.750198919677734,-0.15025,-0.00825,-0.12575,-0.0074564840836214424,10,1,100,0.04856223091314402,-10,-1,-100,15032.056077463902,-0.0032034960353907065,0.0012820063078037751,0.99999404701877,17.779577348679826,0.012675978019825469,8.465587936175755,-4.19750304739035,-10.512939453125,5356.25390625,True
1599562091.0520976,0.0,10,0.5,0.5,-13.082732234954833,-0.15025,-0.00825,-0.12575,-0.008923988990113305,10,1,100,0.04941592013050992,-10,-1,-100,15031.871507277014,-0.003339108839344943,0.0010603662477884225,0.9999938629689583,17.50314926951134,0.012561329950192062,9.071965312913564,-4.569049725685018,-8.275177001953125,5356.25390625,True
1599562091.0939755,0.0,10,0.5,0.5,-13.371621283721923,-0.15025,-0.00825,-0.12575,-0.009353466582463678,10,1,100,0.05102973388956705,-10,-1,-100,15031.683031659224,-0.003475623091925845,0.0008575313636351071,0.9999935923215125,17.274842638037843,0.012471263744503087,9.682092108669472,-4.940605784997968,-6.3128662109375,5356.25390625,True
1599562091.1368604,0.0,10,0.5,0.5,-13.155169506835938,-0.15025,-0.00825,-0.12575,0.010628092007431585,10,1,100,0.037550486427316426,-10,-1,-100,15031.683031659224,-0.003475623091925845,0.0008575313636351071,0.9999935923215125,17.274842638037843,0.012471263744503087,9.682092108669472,-4.940605784997968,-6.3128662109375,5356.25390625,True
1599562091.1797452,0.0,10,0.5,0.5,-13.643494630432128,-0.15025,-0.00825,-0.12575,-0.009909462186248079,10,1,100,0.053155493091757135,-10,-1,-100,15031.437915348331,-0.003616283517465594,0.0006729947266985964,0.9999932347629253,17.07848289611796,0.012390471610927226,10.292313371745573,-5.31217198129537,-4.626007080078125,5356.25390625,True
1599562091.227374,0.0,10,0.5,0.5,-14.00956750640869,-0.15025,-0.00825,-0.12575,-0.01881410704713167,10,1,100,0.06238691316973295,-10,-1,-100,15031.096120123053,-0.003826826384766672,0.0004264692363307042,0.9999925867344275,16.857996801924024,0.012292595559440888,11.226097963341706,-5.869540347567743,-2.61224365234375,5356.25390625,True
1599562091.2842205,0.0,10,0.5,0.5,-14.054207760620118,-0.15025,-0.00825,-0.12575,-0.010159374367612207,10,1,100,0.05714326946241001,-10,-1,-100,15030.85002796771,-0.003969191302761217,0.00028329815044534555,0.9999920825999374,16.768459433005543,0.01224872887465497,11.873940632015849,-6.241130819485082,-1.614044189453125,5356.25390625,True
1599562091.329102,0.0,10,0.5,0.5,-14.056381856536865,-0.15025,-0.00825,-0.12575,-0.0031719363474573,10,1,100,0.05106245977522392,-10,-1,-100,15030.755301952711,-0.004042063225606588,0.00021865678388951007,0.9999918069234822,16.742360049182086,0.012234824018209328,12.208686007264168,-6.426929265916177,-1.21826171875,5356.25390625,True
1599562091.3829565,0.0,10,0.5,0.5,-14.18542054901123,-0.15025,-0.00825,-0.12575,-0.009310372057120323,10,1,100,0.06041255328517392,-10,-1,-100,15030.442803568323,-0.004192041759220047,0.00010600323292958566,0.9999912077359498,16.72917402651201,0.012226115970972945,12.905056999275587,-6.798531589652613,-0.6331787109375,5356.25390625,True
1599562091.444792,0.0,10,0.5,0.5,-14.209812620544433,-0.15025,-0.00825,-0.12575,-0.008784565242569755,10,1,100,0.06210188274635896,-10,-1,-100,15030.194758310216,-0.004342599216942294,9.889678182508376e-06,0.999990570822663,16.76961003136985,0.01224716446731377,13.644066345093139,-7.170140193358431,-0.3236083984375,5356.25390625,True
1599562091.4896698,0.0,10,0.5,0.5,-14.167002892303465,-0.15025,-0.00825,-0.12575,-0.011154962764041227,10,1,100,0.07282067611237014,-10,-1,-100,15029.727963918005,-0.004575748292364223,-9.766790595385687e-05,0.9999895264394248,16.93299884741663,0.01234620779929219,14.84931545377828,-7.72756138812956,-0.375640869140625,5356.25390625,True
1599562091.5305624,0.0,10,0.5,0.5,-14.139129583740235,-0.15025,-0.00825,-0.12575,-0.0032581885223389065,10,1,100,0.05850840776746584,-10,-1,-100,15029.57073848811,-0.004656342964833235,-0.0001224044218680245,0.9999891516848327,17.014755992907194,0.012399780448793562,15.280242990292269,-7.913369972861377,-0.5306396484375,5356.25390625,True
1599562091.5714548,0.0,10,0.5,0.5,-13.92265079269409,-0.15025,-0.00825,-0.12575,-0.005407308422867078,10,1,100,0.07764139692065548,-10,-1,-100,15029.102968150866,-0.004902349628356344,-0.00016335437118601806,0.9999879700693758,17.339810561328232,0.012631034144632907,16.670657064243557,-8.470797751581891,-1.40875244140625,5356.25390625,True
1599562091.6118531,0.0,10,0.5,0.5,-13.623759506988526,-0.15025,-0.00825,-0.12575,-0.000578606077639498,10,1,100,0.08090051644066175,-10,-1,-100,15028.571721263696,-0.005154323384889745,-0.00015575622585046954,0.9999867042568328,17.77899514868152,0.012981272863252883,18.21955503945898,-9.028224987312065,-2.90643310546875,5356.25390625,True
1599562091.6537414,0.0,10,0.5,0.5,-13.444381917572022,-0.15025,-0.00825,-0.12575,0.0031038177089854693,10,1,100,0.07463971324288628,-10,-1,-100,15028.194770422764,-0.005324947952401274,-0.00011445107058566612,0.9999858158145327,18.13028460766597,0.013288874463053567,19.34570061618999,-9.399840771315045,-4.2489013671875,5356.25390625,True
1599562091.693636,0.0,10,0.5,0.5,-13.61350841369629,-0.15025,-0.00825,-0.12575,-0.0011054423972232993,10,1,100,0.0577481229352269,-10,-1,-100,15028.194770422764,-0.005324947952401274,-0.00011445107058566612,0.9999858158145327,18.13028460766597,0.013288874463053567,19.34570061618999,-9.399840771315045,-4.2489013671875,5356.25390625,True
1599562092.0105429,0.0,10,0.5,0.5,-13.165645964050292,-0.15025,-0.00825,-0.12575,0.00615414294217677,10,1,100,0.07654273140749035,-10,-1,-100,15027.759226341383,-0.005494446100724001,-4.796309449392333e-05,0.9999849042668534,18.523558697403114,0.013660491721417,20.548278093352074,-9.77145267058789,-5.86669921875,5356.25390625,True
1599562092.0484757,0.0,10,0.5,0.5,-12.244611980438233,-0.15025,-0.00825,-0.12575,0.021872288804807807,10,1,100,0.09662447146456173,-10,-1,-100,15026.945754798711,-0.005829710004447163,0.00015567390183606977,0.9999829949788648,19.413008392964027,0.014604381862353013,23.176546827970544,-10.514655885256799,-9.92816162109375,5356.25390625,True
1599562092.0883334,0.0,10,0.5,0.5,-12.07373748550415,-0.15025,-0.00825,-0.12575,0.017441073640447117,10,1,100,0.08073807569548602,-10,-1,-100,15026.50630392402,-0.00598844845831404,0.00030057192689828763,0.9999820239092195,19.899667317053492,0.015179505874727316,24.599195760554593,-10.886242863847048,-12.3717041015625,5356.25390625,True
1599562092.137203,0.0,10,0.5,0.5,-12.37132866897583,-0.15025,-0.00825,-0.12575,0.0029707280036222004,10,1,100,0.06504387097870776,-10,-1,-100,15026.50630392402,-0.00598844845831404,0.00030057192689828763,0.9999820239092195,19.899667317053492,0.015179505874727316,24.599195760554593,-10.886242863847048,-12.3717041015625,5356.25390625,True
1599562092.2050211,0.0,10,0.5,0.5,-11.99569404373169,-0.15025,-0.00825,-0.12575,0.01227392308042587,10,1,100,0.07327839729924432,-10,-1,-100,15026.28657864884,-0.006061811561917671,0.0003848821710067612,0.999981552983005,20.178369686782847,0.015513119327208337,25.370497979541327,-11.072031538110997,-13.696685791015625,5356.25390625,True
1599562092.244318,0.0,10,0.5,0.5,-10.940266185760498,-0.15025,-0.00825,-0.12575,0.035191773522644035,10,1,100,0.08953086566509053,-10,-1,-100,15025.629356158897,-0.006274904038274525,0.0006694332605101199,0.9999800885209766,21.023638610957526,0.016595508542429693,27.76750551851011,-11.62937456682854,-18.084564208984375,5356.25390625,True
1599562092.2842112,0.0,10,0.5,0.5,-10.575236666870117,-0.15025,-0.00825,-0.12575,0.031228928480016172,10,1,100,0.0824773904361057,-10,-1,-100,15025.126429224503,-0.006403030550086856,0.0008913703526871216,0.9999791031109945,21.577536674860177,0.017363150163787172,29.41222383626531,-12.000914676695992,-21.353851318359375,5356.25390625,True
1599562092.329925,0.0,10,0.5,0.5,-9.99160587387085,-0.15025,-0.00825,-0.12575,0.036402580186695024,10,1,100,0.08159992996986057,-10,-1,-100,15024.686978666112,-0.006510168028476083,0.0011392057022506826,0.9999781597228057,22.154912670966187,0.01817911317601033,31.13698231576509,-12.37243468626987,-24.89837646484375,5356.25390625,True
1599562092.370816,0.0,10,0.5,0.5,-9.901560214996337,-0.15025,-0.00825,-0.12575,0.026344931374406765,10,1,100,0.0759895721992183,-10,-1,-100,15024.405729504884,-0.0065553298976026445,0.0012719001563530256,0.999977704711423,22.439641044546985,0.018589490808771453,32.01209979171654,-12.558186536737834,-26.773834228515625,5356.25390625,True
1599562092.4117064,0.0,10,0.5,0.5,-7.85835843963623,-0.15025,-0.00825,-0.12575,0.07704653692885352,10,1,100,0.08582475692704561,-10,-1,-100,15023.338351839222,-0.0066846783834750385,0.0018521948458256365,0.9999759419351861,23.441431162237713,0.020082296164190407,35.42624980679725,-13.301136750862538,-34.963897705078125,5356.25390625,True
1599562092.4640925,0.0,10,0.5,0.5,-8.862919049835206,-0.15025,-0.00825,-0.12575,0.01921373257323357,10,1,100,0.07302588138291359,-10,-1,-100,15023.338351839222,-0.0066846783834750385,0.0018521948458256365,0.9999759419351861,23.441431162237713,0.020082296164190407,35.42624980679725,-13.301136750862538,-34.963897705078125,5356.25390625,True
1599562092.5059752,0.0,10,0.5,0.5,-6.944100750732422,-0.15025,-0.00825,-0.12575,0.07195822325179838,10,1,100,0.07553612389607617,-10,-1,-100,15022.552221873775,-0.006706416740610379,0.0023299627993213896,0.9999747973063396,23.974353676647254,0.020877558186220866,37.754644393055834,-13.858292079311786,-41.82916259765625,5356.25390625,True
1599562092.5454245,0.0,10,0.5,0.5,-5.715292488098145,-0.15025,-0.00825,-0.12575,0.07936781619566195,10,1,100,0.0676040050381364,-10,-1,-100,15021.702615117421,-0.006653271705901088,0.002829680612082211,0.9999738631000518,24.233665900692316,0.021207657244547803,39.70290356424942,-14.415409671507021,-49.313934326171875,5356.25390625,True
1599562092.5853167,0.0,10,0.5,0.5,-5.15376969985962,-0.15025,-0.00825,-0.12575,0.06593393153736968,10,1,100,0.06347760065897305,-10,-1,-100,15021.078593166894,-0.006566840886129714,0.00315954411889377,0.9999734465883267,24.214352964719374,0.021105689839251904,40.697344452053926,-14.786810191184212,-54.648193359375,5356.25390625,True
1599562092.6281688,0.0,10,0.5,0.5,-4.241377672576904,-0.15025,-0.00825,-0.12575,0.06882062549657142,10,1,100,0.05903920592231256,-10,-1,-100,15020.51023440063,-0.006447392559251718,0.003483063640904298,0.9999731493379512,24.024905604977654,0.020737663347892125,41.39730190632417,-15.158210095965243,-60.257965087890625,5356.25390625,True
1599562092.6690593,0.0,10,0.5,0.5,-3.2840549110412596,-0.15025,-0.00825,-0.12575,0.071746665879501,10,1,100,0.05429064372364291,-10,-1,-100,15019.884258606355,-0.006295283895740786,0.0038009561357860494,0.9999729607010012,23.6849719753091,0.02014516820314783,41.81588544800936,-15.529616161617241,-66.14324951171875,5356.25390625,True
1599562092.708952,0.0,10,0.5,0.5,-2.2840588928222654,-0.15025,-0.00825,-0.12575,0.07326795886621873,10,1,100,0.04915379997135524,-10,-1,-100,15019.252422541846,-0.006110286185839626,0.004100932410216643,0.9999729230114653,23.200257803338232,0.019379783233480934,41.944312065682404,-15.901034747069136,-72.30419921875,5356.25390625,True
1599562092.748846,0.0,10,0.5,0.5,-3.0167642814636233,-0.15025,-0.00825,-0.12575,0.04359128762891236,10,1,100,0.06762429652504648,-10,-1,-100,15019.252422541846,-0.006110286185839626,0.004100932410216643,0.9999729230114653,23.200257803338232,0.019379783233480934,41.944312065682404,-15.901034747069136,-72.30419921875,5356.25390625,True
1599562092.7917323,0.0,10,0.5,0.5,-1.2011655860900876,-0.15025,-0.00825,-0.12575,0.07463812702440809,10,1,100,0.04408385707050022,-10,-1,-100,15018.625468980405,-0.005896645719746148,0.004380483925895726,0.9999730201009578,22.48407928286161,0.018437956038557322,41.60377650477346,-16.272471202485605,-78.74075317382812,5356.25390625,True
1599562092.8306274,0.0,10,0.5,0.5,-0.11510018234252928,-0.15025,-0.00825,-0.12575,0.0751804279840037,10,1,100,0.03923152934719652,-10,-1,-100,15017.933085686876,-0.005658913847792822,0.0046367256909007224,0.9999732383763731,21.52610415815051,0.017396424330729438,40.745216925734795,-16.643928353726434,-85.45303344726562,5356.25390625,True
1599562092.8675287,0.0,10,0.5,0.5,1.0110981239318848,-0.15025,-0.00825,-0.12575,0.0765470828957064,10,1,100,0.033411940110601744,-10,-1,-100,15017.244608381065,-0.005390821120716829,0.004879565493879767,0.9999735640946892,20.32179757453919,0.016333101244913047,39.32895425523448,-17.015404814078796,-92.44076538085938,5356.25390625,True
1599562092.9054275,0.0,10,0.5,0.5,2.1845805809020993,-0.15025,-0.00825,-0.12575,0.07486825899334747,10,1,100,0.02961849017085144,-10,-1,-100,15016.552224392071,-0.005113790785070705,0.005082314760522858,0.9999740092724817,21.250632809653318,0.017206401198541863,42.029558198326306,-17.38687064980371,-99.70442962646484,5356.25390625,True
1599562092.9463196,0.0,10,0.5,0.5,4.381666556739807,-0.15025,-0.00825,-0.12575,0.08297946343349288,10,1,100,0.008844927010352624,-10,-1,-100,15015.513159687398,-0.00467454229298382,0.005337868359689535,0.9999748275910377,23.348356530302183,0.0194267481536533,47.66694606402989,-17.9439895811307,-110.80133056640625,5356.25390625,True
1599562092.9852135,0.0,10,0.5,0.5,5.9868410253524775,-0.15025,-0.00825,-0.12575,0.07805772052050494,10,1,100,0.0033949148967452533,-10,-1,-100,15014.411594684352,-0.004227478762247419,0.0055231665254069804,0.9999758112348756,24.76387286480964,0.021225326017966544,52.13564843472021,-18.50100952908327,-121.48931121826172,5356.25390625,True
1599562093.0251458,0.0,10,0.5,0.5,6.571956884765625,-0.15025,-0.00825,-0.12575,0.06935016088068649,10,1,100,0.016539408067646123,-10,-1,-100,15013.657686647843,-0.0039426794559715,0.0056103110226003875,0.9999764895680983,25.481759505766444,0.022148792506742662,54.73019222053414,-18.872310167136845,-128.27911376953125,5356.25390625,True
1599562093.062012,0.0,10,0.5,0.5,7.57238385887146,-0.15025,-0.00825,-0.12575,0.06756083093055915,10,1,100,0.014608164962233116,-10,-1,-100,15012.902801905992,-0.0036684912521289838,0.005671332795609876,0.9999771888179522,25.920165907264085,0.02268248076507652,56.77379826707467,-19.24358548011897,-134.7940673828125,5356.25390625,True
1599562093.1039329,0.0,10,0.5,0.5,8.531880540084838,-0.15025,-0.00825,-0.12575,0.06536836269693168,10,1,100,0.01283460321400881,-10,-1,-100,15012.086393931299,-0.0034054939533279403,0.005705175262894776,0.9999779265494582,26.126640599483533,0.022839595662593432,58.337122226843846,-19.61484660738739,-141.0336151123047,5356.25390625,True
1599562093.14479,0.0,10,0.5,0.5,8.636494886779785,-0.15025,-0.00825,-0.12575,0.06310184384217947,10,1,100,0.025256411740565175,-10,-1,-100,15011.73678330786,-0.0032817899339616058,0.005713878022789958,0.9999782904907335,26.16989527459461,0.02280119712802749,58.99031379176842,-19.800474797890317,-144.050048828125,5356.25390625,True
1599562093.1866746,0.0,10,0.5,0.5,9.129885579681398,-0.15025,-0.00825,-0.12575,0.06280604713794066,10,1,100,0.024211944590861158,-10,-1,-100,15011.330532500753,-0.003162407938860245,0.005717634247553794,0.9999786536894871,26.16231490969914,0.022678983180069247,59.52979484479833,-19.986102679466573,-146.99757385253906,5356.25390625,True
1599562093.2255719,0.0,10,0.5,0.5,10.385523601913453,-0.15025,-0.00825,-0.12575,0.06179392478925761,10,1,100,0.011206810009553723,-10,-1,-100,15010.510217848583,-0.002938136026920655,0.005710632293876838,0.999979377805108,26.00998933604758,0.02221746849627466,60.290253961719706,-20.35736160059662,-152.68589782714844,5356.25390625,True
1599562093.268457,0.0,10,0.5,0.5,11.219590408325194,-0.15025,-0.00825,-0.12575,0.05934969244402955,10,1,100,0.010591284530695695,-10,-1,-100,15009.690879798844,-0.002731130218823111,0.005681070308665735,0.9999801329865887,25.700723344035428,0.021535524302559603,60.66788281917882,-20.728629616782257,-158.09860229492188,5356.25390625,True
1599562093.3072512,0.0,10,0.5,0.5,12.010920717620849,-0.15025,-0.00825,-0.12575,0.05739678054274784,10,1,100,0.010662213903815838,-10,-1,-100,15008.811971820774,-0.0025460058338554305,0.005635713391357821,0.999980878111609,25.26477452349682,0.02072241039352563,60.715369793925554,-21.099910536814157,-163.235595703125,5356.25390625,True
1599562093.3481677,0.0,10,0.5,0.5,14.024642286872862,-0.15025,-0.00825,-0.12575,0.04814730481261626,10,1,100,-0.00447352675127885,-10,-1,-100,15007.110796059482,-0.002242447646066874,0.005509890597503216,0.9999823061105423,24.124836021500304,0.019033331121770993,60.03373121250171,-21.842514866518783,-172.68228149414062,5356.25390625,True
1599562093.3870635,0.0,10,0.5,0.5,13.492024492835998,-0.15025,-0.00825,-0.12575,0.05654086870859369,10,1,100,0.018770648469947297,-10,-1,-100,15006.700638975599,-0.0021800073361310755,0.005471654981928085,0.9999826541294469,23.80228283699282,0.018646955597556237,59.73900257122087,-22.02817413187537,-174.87159729003906,5356.25390625,True
1599562093.4289517,0.0,10,0.5,0.5,13.845973932647704,-0.15025,-0.00825,-0.12575,0.05597629770416111,10,1,100,0.018653955592365996,-10,-1,-100,15006.226028306293,-0.00212404391132608,0.005431809696404469,0.999982991795803,23.470329037785625,0.01828742913809973,59.40684143895795,-22.213836223137964,-176.991943359375,5356.25390625,True
1599562093.4678476,0.0,10,0.5,0.5,-84.62716425018311,-0.15025,-0.00825,-0.12575,0.051482017832895605,10,1,100,0.013254856301968663,-10,-1,-100,15005.347120747436,-0.002025738654813059,0.005354891893758946,0.9999836106235485,22.78831167767479,0.01766483469210824,58.65373375769734,-22.58516694897156,178.97433471679688,5356.25390625,True
1599562093.504749,0.0,10,0.5,0.5,-39.086056926727295,-0.15025,-0.00825,-0.12575,0.04921895313697768,10,1,100,0.014974604916355312,-10,-1,-100,15004.401806210866,-0.0019534977295659326,0.005264680976756354,0.9999842333661234,23.00115770850213,0.0178866282098157,60.18423532894796,-22.956493820539407,175.21633911132812,5356.25390625,True
1599562093.5428622,0.0,10,0.5,0.5,-38.85846687736511,-0.15025,-0.00825,-0.12575,0.048328628426591844,10,1,100,0.016579762780207025,-10,-1,-100,15003.518992865575,-0.0019037365019433444,0.00517497764055607,0.9999847975813189,23.762373732901438,0.018671666276595757,63.191550556614466,-23.327794768307893,171.73422241210938,5356.25390625,True
1599562093.5797932,0.0,10,0.5,0.5,-38.089979150772095,-0.15025,-0.00825,-0.12575,0.04205710394801491,10,1,100,0.017589047710994416,-10,-1,-100,15002.038521786337,-0.001868927115686348,0.005036905203643507,0.9999855682445652,24.812012498987386,0.02000014253417319,67.57403905714095,-23.884695421083435,166.41941833496094,5356.25390625,True
1599562093.6196833,0.0,10,0.5,0.5,-38.49454164237976,-0.15025,-0.00825,-0.12575,0.05063635031430941,10,1,100,0.02090278154809514,-10,-1,-100,15001.567818311974,-0.0018685829638110613,0.004989996799820136,0.9999858040640603,25.17649228788903,0.020508350624213464,69.10499260071593,-24.070314051701054,164.52687072753906,5356.25390625,True
1599562093.6605475,0.0,10,0.5,0.5,-37.31470080223083,-0.15025,-0.00825,-0.12575,0.03970651660438813,10,1,100,0.024157309648553796,-10,-1,-100,15000.146918095648,-0.0018988290385314336,0.004848645794885112,0.9999864424492156,26.2258270724319,0.022124308566196457,73.66780475096415,-24.62712191045806,158.44161987304688,5356.25390625,True
1599562093.7004416,0.0,10,0.5,0.5,-38.3410667804718,-0.15025,-0.00825,-0.12575,0.053758374646512494,10,1,100,0.0210494720584874,-10,-1,-100,15000.146918095648,-0.0018988290385314336,0.004848645794885112,0.9999864424492156,26.2258270724319,0.022124308566196457,73.66780475096415,-24.62712191045806,158.44161987304688,5356.25390625,True
1599562093.7409139,0.0,10,0.5,0.5,-37.392001630783085,-0.15025,-0.00825,-0.12575,0.043528689688442854,10,1,100,0.026513041900374963,-10,-1,-100,14999.138127734535,-0.0019490861978170696,0.004756364174899454,0.9999867889441486,26.877674025739086,0.023228242051590773,76.64864816679885,-24.9982863643356,154.04144287109375,5356.25390625,True
1599562093.780839,0.0,10,0.5,0.5,-36.25072093696595,-0.15025,-0.00825,-0.12575,0.03771807089336571,10,1,100,0.033641052819449103,-10,-1,-100,14997.593205257202,-0.002059841315930367,0.0046203330098868855,0.9999872047064556,27.83228575964859,0.024856182700966074,81.15724085105724,-25.554970360655975,146.92495727539062,5356.25390625,True
1599562093.8187351,0.0,10,0.5,0.5,-35.27601357269286,-0.15025,-0.00825,-0.12575,0.03715848210614287,10,1,100,0.04020035382845273,-10,-1,-100,14996.051212095772,-0.002220267037951762,0.004492355072693471,0.9999874445012701,28.55971651251408,0.02610751619392442,85.11174563808905,-26.111586910841847,139.1891326904297,5356.25390625,True
1599562093.8616266,0.0,10,0.5,0.5,-35.759954364395135,-0.15025,-0.00825,-0.12575,0.045276099040658824,10,1,100,0.031245811113630582,-10,-1,-100,14995.51410281763,-0.0022846161940849874,0.004450662060671158,0.9999874859897335,28.73702623045347,0.02639482285321598,86.25519552952808,-26.29711357496255,136.47286987304688,5356.25390625,True
1599562093.900519,0.0,10,0.5,0.5,-33.70351813926697,-0.15025,-0.00825,-0.12575,0.03633790908750244,10,1,100,0.04977450565886882,-10,-1,-100,14993.907657812117,-0.002511322761399838,0.004332325077288623,0.9999874620301061,29.0281724214786,0.02675383193367016,88.99351429462732,-26.853669654084833,127.91148376464844,5356.25390625,True
1599562093.9373899,0.0,10,0.5,0.5,-34.74108593673706,-0.15025,-0.00825,-0.12575,0.04807837183580919,10,1,100,0.027159631430567148,-10,-1,-100,14993.907657812117,-0.002511322761399838,0.004332325077288623,0.9999874620301061,29.0281724214786,0.02675383193367016,88.99351429462732,-26.853669654084833,127.91148376464844,5356.25390625,True
1599562093.9753277,0.0,10,0.5,0.5,-31.288619372177124,-0.15025,-0.00825,-0.12575,0.033125150792739144,10,1,100,0.0691509118539787,-10,-1,-100,14991.764104259433,-0.0028925093231949826,0.004197152751954593,0.9999870085649075,28.736608496326628,0.02593667042791504,90.56279414680868,-27.5957300306025,115.53353881835938,5356.25390625,True
1599562094.0171747,0.0,10,0.5,0.5,-32.803165098571775,-0.15025,-0.00825,-0.12575,0.046558408080973245,10,1,100,0.031134613895215102,-10,-1,-100,14991.764104259433,-0.0028925093231949826,0.004197152751954593,0.9999870085649075,28.736608496326628,0.02593667042791504,90.56279414680868,-27.5957300306025,115.53353881835938,5356.25390625,True
1599562094.0561042,0.0,10,0.5,0.5,-29.042927972793578,-0.15025,-0.00825,-0.12575,0.035729647256761074,10,1,100,0.08337040959552516,-10,-1,-100,14989.493598913425,-0.003366449351052907,0.004099430239050724,0.9999859307462688,27.502681539868334,0.023888041151560513,89.0351099288046,-28.337844887709014,102.05593872070312,5356.25390625,True
1599562094.091976,0.0,10,0.5,0.5,-28.717562785720823,-0.15025,-0.00825,-0.12575,0.04273943190064135,10,1,100,0.06485685634768665,-10,-1,-100,14988.3568825986,-0.003627664692022923,0.004074998010951422,0.9999851171092963,26.489072954681564,0.02264118077869865,86.89223707448342,-28.70894240131345,94.90501403808594,5356.25390625,True
1599562094.1493404,0.0,10,0.5,0.5,-27.514879296874998,-0.15025,-0.00825,-0.12575,0.04338822405570493,10,1,100,0.07265239925388936,-10,-1,-100,14987.15961956873,-0.003934430086912515,0.0040593883211653015,0.9999840206855054,25.19809702177732,0.021403343919424583,83.74129534547271,-29.080071500857976,87.47930908203125,5356.25390625,True
1599562094.2091796,0.0,10,0.5,0.5,-26.268468759918214,-0.15025,-0.00825,-0.12575,0.04583288754661108,10,1,100,0.07718738918131648,-10,-1,-100,14986.02290399978,-0.004252730041707759,0.004068055522053188,0.9999826824557823,26.065643518199238,0.022318969581253588,87.74614744708708,-29.451190627976175,79.77902221679688,5356.25390625,True
1599562094.2640343,0.0,10,0.5,0.5,-26.09033035964966,-0.15025,-0.00825,-0.12575,0.04625489452894879,10,1,100,0.0641680310138346,-10,-1,-100,14985.4232970624,-0.004421742300248348,0.004080273293143277,0.9999818996186298,26.870281709954284,0.023203464066505565,91.03310618532208,-29.636728637056557,75.825927734375,5356.25390625,True
1599562094.3368373,0.0,10,0.5,0.5,-23.148391904830934,-0.15025,-0.00825,-0.12575,0.053811617521426554,10,1,100,0.10732207363203092,-10,-1,-100,14983.626429819851,-0.0049656979452122165,0.004160452459320019,0.9999790160194616,28.917644775670624,0.02581678310000958,99.83620709045809,-30.19325315811005,63.55503845214844,5356.25390625,True
1599562094.464496,0.0,10,0.5,0.5,-22.27879657974243,-0.15025,-0.00825,-0.12575,0.05554415567853378,10,1,100,0.09496865929141687,-10,-1,-100,14982.428193600266,-0.005345461963218217,0.004249356784182897,0.9999766842298478,29.91373674005605,0.027252070810327697,104.56241802087366,-30.56420123479784,55.03147888183594,5356.25390625,True
1599562094.5113719,0.0,10,0.5,0.5,-19.619955823516847,-0.15025,-0.00825,-0.12575,0.07077435391571671,10,1,100,0.1244314525694998,-10,-1,-100,14980.565900617745,-0.005955969064659137,0.004468710671026363,0.9999722781444691,30.95762343401754,0.028592946958194535,110.20970545743873,-31.120546675253248,41.73237609863281,5356.25390625,True
1599562094.568219,0.0,10,0.5,0.5,-18.67965004425049,-0.15025,-0.00825,-0.12575,0.07042951153540536,10,1,100,0.10920565900479848,-10,-1,-100,14979.302237693453,-0.006369427718741543,0.004664864377796013,0.9999688342297837,31.1174183198353,0.028573124151775656,112.11849220454711,-31.491420995104004,32.52378845214844,5356.25390625,True
1599562094.6091087,0.0,10,0.5,0.5,-15.81514872779846,-0.15025,-0.00825,-0.12575,0.09405093137379032,10,1,100,0.13670960819421857,-10,-1,-100,14977.379402232356,-0.00699217428926978,0.005057500917366611,0.9999627648983632,30.454607923538568,0.027212710613778612,111.69986461786385,-32.047756504330614,18.197708129882812,5356.25390625,True
1599562094.6549864,0.0,10,0.5,0.5,-17.53635126800537,-0.15025,-0.00825,-0.12575,0.054873312233271694,10,1,100,0.07484491763800233,-10,-1,-100,14977.379402232356,-0.00699217428926978,0.005057500917366611,0.9999627648983632,30.454607923538568,0.027212710613778612,111.69986461786385,-32.047756504330614,18.197708129882812,5356.25390625,True
1599562094.7068481,0.0,10,0.5,0.5,-14.736728225326537,-0.15025,-0.00825,-0.12575,0.0903505839192131,10,1,100,0.1193644461928558,-10,-1,-100,14976.055195485475,-0.007393601162551887,0.005379150595713064,0.9999581988266897,29.377791318946073,0.02571013156634071,109.01905661916193,-32.418692367222135,8.3048095703125,5356.25390625,True
1599562094.7587125,0.0,10,0.5,0.5,-10.221868761444092,-0.15025,-0.00825,-0.12575,0.1446537505402004,10,1,100,0.1604070371580996,-10,-1,-100,14973.46635553101,-0.008128225568428266,0.00616403895205085,0.9999479669327331,28.302808919640505,0.024733102901633604,107.47822290967837,-33.16067243758798,-12.3018798828125,5356.25390625,True
1599562094.815559,0.0,10,0.5,0.5,-9.773829981231689,-0.15025,-0.00825,-0.12575,0.11697279579579875,10,1,100,0.12100533704383404,-10,-1,-100,14972.143128385069,-0.008434056122293908,0.006624015459562562,0.9999424929047257,30.190808542348016,0.027016791799475852,115.9539855081827,-33.53158636372018,-23.01568603515625,5356.25390625,True
1599562094.8664212,0.0,10,0.5,0.5,-8.003688302612304,-0.15025,-0.00825,-0.12575,0.12469159594903684,10,1,100,0.11665390554791388,-10,-1,-100,14970.752518089255,-0.008668724224862867,0.007110023231477638,0.9999371484198202,31.548501288545594,0.02897471929646817,122.53279713442265,-33.90242506643187,-34.00335693359375,5356.25390625,True
1599562094.922272,0.0,10,0.5,0.5,-6.186561228942871,-0.15025,-0.00825,-0.12575,0.13108823689493462,10,1,100,0.11528001744560731,-10,-1,-100,14969.367766694864,-0.00886570807906403,0.007607245441873747,0.9999317621903226,32.37199986231241,0.030251385728760405,127.13064481527742,-34.273206995301415,-45.2650146484375,5356.25390625,True
1599562094.972174,0.0,10,0.5,0.5,-5.930478059768676,-0.15025,-0.00825,-0.12575,0.10939179724415941,10,1,100,0.10374220616291172,-10,-1,-100,14968.702734440682,-0.008936349652918897,0.007858891824515386,0.9999291872298616,32.59657613162447,0.03056072333578313,128.71718749795426,-34.45858463244599,-50.998565673828125,5356.25390625,True
1599562095.014053,0.0,10,0.5,0.5,-4.962619506835937,-0.15025,-0.00825,-0.12575,0.11224685904028092,10,1,100,0.10299389061230203,-10,-1,-100,14968.039655276225,-0.008990501953518052,0.00811033497502677,0.9999266939837222,32.64012856259506,0.03057847492576991,129.59489333548956,-34.64395967344005,-56.8006591796875,5356.25390625,True
1599562095.05748,0.0,10,0.5,0.5,-0.6933369319915772,-0.15025,-0.00825,-0.12575,0.16784355899543574,10,1,100,0.10593389419946464,-10,-1,-100,14965.927368826582,-0.009063699956774345,0.008841033634807616,0.9999198395208296,31.636555292579555,0.02902333339654102,127.66475957786795,-35.20011721145999,-74.61807250976562,5356.25390625,True
1599562095.103393,0.0,10,0.5,0.5,2.242444149017334,-0.15025,-0.00825,-0.12575,0.16886350928875388,10,1,100,0.0942388812688959,-10,-1,-100,14963.752579297987,-0.00902147595833123,0.009510780901586722,0.999914075317562,28.94596405758715,0.026069416220114494,118.69135017209315,-35.75640067231641,-93.05259704589844,5356.25390625,True
