Timestamp,Input Throttle,horizon,dT,dt,Input Roll,Roll P,Roll I,Roll D,Input Pitch,Pitch P,Pitch I,Pitch D,Input Yaw,Yaw P,Yaw I,Yaw D,Altitude,Direction X,Direction Y,Direction Z,Drag X,Drag Y,Drag Z,Vertical Velocity,Roll,Mass,Has Fuel
1599562184.8887348,0.0,10,0.5,0.5,-8.74626170349121,-0.15025,-0.00825,-0.37525,-0.00030234207778199643,10,1,100,0.17497921021413373,-10,-1,-100,14993.92166585545,-0.016811926218113993,-7.507620916970612e-05,0.9998586667626577,28.644484498555467,0.027275217339388223,-87.50358252136805,27.008979771923084,-31.79150390625,5356.25390625,True
1599562184.9186306,0.0,10,0.5,0.5,-8.794169287109375,-0.15025,-0.00825,-0.37525,-0.0004764269914766738,10,1,100,0.17374849756887412,-10,-1,-100,14994.40213680442,-0.01684781751598602,-7.251400261391195e-05,0.9998580628202522,28.57174435328622,0.027439547166679266,-86.68199810088814,26.823012291139595,-31.7908935546875,5356.25390625,True
1599562184.9495795,0.0,10,0.5,0.5,-8.842636318969724,-0.15025,-0.00825,-0.37525,-0.00017623713778591428,10,1,100,0.18004669319440847,-10,-1,-100,14995.486124669085,-0.01692238609472364,-6.738980343635225e-05,0.9998568039011765,28.42657359102247,0.02776389638876411,-85.04891246987654,26.451089123572352,-31.78961181640625,5356.25390625,True
1599562184.9824648,0.0,10,0.5,0.5,-8.8174672164917,-0.15025,-0.00825,-0.37525,0.007060931227732421,10,1,100,0.17843403950652303,-10,-1,-100,14996.505658390117,-0.016960131236327315,3.1222625965381166e-06,0.9998561666253292,28.2849516279019,0.028084954787087835,-83.43847515397151,26.079181496258215,-31.927978515625,5356.25390625,True
1599562185.0113873,0.0,10,0.5,0.5,-8.917298738098145,-0.15025,-0.00825,-0.37525,1.0036850703037948e-05,10,1,100,0.17635553846978824,-10,-1,-100,14996.505658390117,-0.016960131236327315,3.1222625965381166e-06,0.9998561666253292,28.2849516279019,0.028084954787087835,-83.43847515397151,26.079181496258215,-31.927978515625,5356.25390625,True
1599562185.0433495,0.0,10,0.5,0.5,-8.602804316711426,-0.15025,-0.00825,-0.37525,0.016316372311216982,10,1,100,0.18189221948715445,-10,-1,-100,14998.068159206887,-0.01699504639899762,0.0001513588374533953,0.9998555623130765,28.106575461937258,0.028577189788790324,-81.14338858398317,25.521347585520523,-32.61761474609375,5356.25390625,True
1599562185.0772588,0.0,10,0.5,0.5,-8.488232492065428,-0.15025,-0.00825,-0.37525,0.019138444222016753,10,1,100,0.1789311411839291,-10,-1,-100,14999.089643336483,-0.016984418520124032,0.0003116369602964876,0.9998557057945603,28.01238638697422,0.028905615441839387,-79.69611006170476,25.14947512545084,-33.418182373046875,5356.25390625,True
1599562185.1081762,0.0,10,0.5,0.5,-8.835325493621825,-0.15025,-0.00825,-0.37525,0.003141795633737175,10,1,100,0.18169237092330032,-10,-1,-100,14999.089643336483,-0.016984418520124032,0.0003116369602964876,0.9998557057945603,28.01238638697422,0.028905615441839387,-79.69611006170476,25.14947512545084,-33.418182373046875,5356.25390625,True
1599562185.143082,0.0,10,0.5,0.5,-8.61753953552246,-0.15025,-0.00825,-0.37525,0.014048669968204194,10,1,100,0.18108102077017146,-10,-1,-100,14999.568159041693,-0.016963420410986384,0.0004105070570095546,0.9998560265617826,27.971717227814835,0.02906631472271548,-78.99356085861889,24.96354361947039,-33.92144775390625,5356.25390625,True
1599562185.1759949,0.0,10,0.5,0.5,-8.21545705871582,-0.15025,-0.00825,-0.37525,0.030052048830732155,10,1,100,0.17755727749875516,-10,-1,-100,15000.588664386421,-0.016896875899838387,0.0006455010372653155,0.9998570292362986,27.901209764934272,0.02937355603591178,-77.62366799087398,24.591689462103584,-35.134002685546875,5356.25390625,True
1599562185.2109005,0.0,10,0.5,0.5,-8.342985048675537,-0.15025,-0.00825,-0.37525,0.02178586838606735,10,1,100,0.18095949380131354,-10,-1,-100,15001.06620097009,-0.01685194933254543,0.0007833980143306316,0.9998576889194004,27.870094972354114,0.0295165664890072,-76.9523434105058,24.405766745534677,-35.84332275390625,5356.25390625,True
1599562185.2478628,0.0,10,0.5,0.5,-7.752021486663818,-0.15025,-0.00825,-0.37525,0.04231399536245505,10,1,100,0.17223236894486232,-10,-1,-100,15002.024203975685,-0.01673173311529825,0.001094597807608534,0.9998594155993121,27.812023056372016,0.02977070311587613,-75.62486376035446,24.033929742775335,-37.468048095703125,5356.25390625,True
1599562185.2837672,0.0,10,0.5,0.5,-6.216094250488282,-0.15025,-0.00825,-0.37525,0.0941813003203999,10,1,100,0.14326368414075222,-10,-1,-100,15003.941183439456,-0.016359199496309526,0.0018479666540150144,0.9998644716215721,27.687303234996474,0.030085022391037823,-72.96172343856874,23.290289588670465,-41.5421142578125,5356.25390625,True
1599562185.3196719,0.0,10,0.5,0.5,-7.736841763305664,-0.15025,-0.00825,-0.37525,0.019035951325496996,10,1,100,0.18046072737978308,-10,-1,-100,15003.941183439456,-0.016359199496309526,0.0018479666540150144,0.9998644716215721,27.687303234996474,0.030085022391037823,-72.96172343856874,23.290289588670465,-41.5421142578125,5356.25390625,True
1599562185.3501024,0.0,10,0.5,0.5,-5.743867849731445,-0.15025,-0.00825,-0.37525,0.09074985970868368,10,1,100,0.13542808107521848,-10,-1,-100,15005.314217722975,-0.0159503581042135,0.002498234144415422,0.9998696639575116,27.5507195852064,0.03006621292572234,-70.86725052592104,22.73259114072037,-45.319549560546875,5356.25390625,True
1599562185.3870037,0.0,10,0.5,0.5,-7.1503024009704585,-0.15025,-0.00825,-0.37525,0.025972621856824807,10,1,100,0.17621124297160967,-10,-1,-100,15005.314217722975,-0.0159503581042135,0.002498234144415422,0.9998696639575116,27.5507195852064,0.03006621292572234,-70.86725052592104,22.73259114072037,-45.319549560546875,5356.25390625,True
1599562185.4219112,0.0,10,0.5,0.5,-3.987144044494629,-0.15025,-0.00825,-0.37525,0.13056506305469587,10,1,100,0.09604171164576132,-10,-1,-100,15007.102281376021,-0.015222493899701046,0.0034469409959351936,0.99987818971975,27.24087655130289,0.029561745744539673,-67.78349087514114,21.98904496278376,-51.318939208984375,5356.25390625,True
1599562185.4533415,0.0,10,0.5,0.5,-6.223646885681153,-0.15025,-0.00825,-0.37525,0.036007908306282595,10,1,100,0.16865193963496442,-10,-1,-100,15007.102281376021,-0.015222493899701046,0.0034469409959351936,0.99987818971975,27.24087655130289,0.029561745744539673,-67.78349087514114,21.98904496278376,-51.318939208984375,5356.25390625,True
1599562185.490244,0.0,10,0.5,0.5,-5.330420707702636,-0.15025,-0.00825,-0.37525,0.06487063811394753,10,1,100,0.1447560223672041,-10,-1,-100,15007.517313614837,-0.015006860037830883,0.0037064791723361123,0.9998805209443526,27.13001230584294,0.02933461874832786,-66.93827886481877,21.803169514064017,-52.9906005859375,5356.25390625,True
1599562185.528142,0.0,10,0.5,0.5,-3.0894004714965817,-0.15025,-0.00825,-0.37525,0.12267760870411985,10,1,100,0.08544622872413149,-10,-1,-100,15008.766317379777,-0.014273428003351124,0.004464944545233672,0.9998881605075847,26.68804345049824,0.028387538301175165,-64.16769143697049,21.245575908021852,-58.418914794921875,5356.25390625,True
1599562185.5645607,0.0,10,0.5,0.5,-1.9291476257324214,-0.15025,-0.00825,-0.37525,0.1329132546955566,10,1,100,0.06376518798951869,-10,-1,-100,15010.073912833817,-0.013411956190688034,0.0052440376264190885,0.9998963043738643,26.042203639134705,0.027043243098425394,-60.97566299991127,20.68804139074505,-64.46652221679688,5356.25390625,True
1599562185.6020396,0.0,10,0.5,0.5,-3.043055718231201,-0.15025,-0.00825,-0.37525,0.08200425596803773,10,1,100,0.11561214614437632,-10,-1,-100,15010.425468846457,-0.013103263247076528,0.0054854398575992155,0.9998991021307332,25.772058491828354,0.02651261555727179,-59.80248837109377,20.502212163037164,-66.620361328125,5356.25390625,True
1599562185.6344588,0.0,10,0.5,0.5,-1.4549939132690428,-0.15025,-0.00825,-0.37525,0.11063927873680741,10,1,100,0.07419612876665867,-10,-1,-100,15011.258461667225,-0.012449422658421564,0.005961223145615428,0.9999047333091688,25.137201916787333,0.025345803627356854,-57.27480936117594,20.130580146666617,-71.13461303710938,5356.25390625,True
1599562185.6713605,0.0,10,0.5,0.5,-0.6074837501525878,-0.15025,-0.00825,-0.37525,0.1139657625005574,10,1,100,0.0617457118169686,-10,-1,-100,15012.08657170413,-0.011745390857227039,0.006420254844853711,0.9999104090473996,24.362223998680435,0.0240686895502979,-54.48719242360069,19.758986685288694,-75.92446899414062,5356.25390625,True
1599562185.7092595,0.0,10,0.5,0.5,-2.3765117553710935,-0.15025,-0.00825,-0.37525,0.06851982139581296,10,1,100,0.1316875110725128,-10,-1,-100,15012.08657170413,-0.011745390857227039,0.006420254844853711,0.9999104090473996,24.362223998680435,0.0240686895502979,-54.48719242360069,19.758986685288694,-75.92446899414062,5356.25390625,True
1599562185.7457147,0.0,10,0.5,0.5,0.3108771957397458,-0.15025,-0.00825,-0.37525,0.11428203232343001,10,1,100,0.050307326387282914,-10,-1,-100,15012.858041403699,-0.011009393693949482,0.006832709470831649,0.9999160501421,23.430928542349868,0.02272526045242809,-51.42169320255893,19.387433806154856,-80.99038696289062,5356.25390625,True
1599562185.783611,0.0,10,0.5,0.5,4.117050894927979,-0.15025,-0.00825,-0.37525,0.15269421869109714,10,1,100,-0.051817380313081016,-10,-1,-100,15014.330668570357,-0.009416390724975908,0.00755292948385728,0.9999271397666565,21.166835111693686,0.020136149692900368,-44.67780260243255,18.64444712120622,-91.7948226928711,5356.25390625,True
1599562185.823505,0.0,10,0.5,0.5,3.0402573701858517,-0.15025,-0.00825,-0.37525,0.11232573431238296,10,1,100,0.016886166450050186,-10,-1,-100,15015.097256246256,-0.008598062181187237,0.00783695601181234,0.9999323254336752,22.109090902064047,0.021113898924063946,-45.739543330250655,18.272977104935517,-97.39744567871094,5356.25390625,True
1599562185.8554196,0.0,10,0.5,0.5,2.422764903450012,-0.15025,-0.00825,-0.37525,0.09794587310996711,10,1,100,0.054246690010334664,-10,-1,-100,15015.449787865044,-0.008199790475307863,0.00796044501264418,0.9999346952433253,22.584290953873207,0.021672166185262073,-46.24905269506233,18.08723819225537,-100.1507797241211,5356.25390625,True
1599562185.8913233,0.0,10,0.5,0.5,4.226119849014283,-0.15025,-0.00825,-0.37525,0.11016172324464643,10,1,100,0.002914421328824343,-10,-1,-100,15016.154853806831,-0.007377256545187904,0.008179893682042659,0.9999393308722371,23.390587414693208,0.022749379076540732,-46.9190435632914,17.715750847019248,-105.47454071044922,5356.25390625,True
1599562185.9272287,0.0,10,0.5,0.5,2.2671994302749634,-0.15025,-0.00825,-0.37525,0.08858835121847952,10,1,100,0.0844781971950039,-10,-1,-100,15016.154853806831,-0.007377256545187904,0.008179893682042659,0.9999393308722371,23.390587414693208,0.022749379076540732,-46.9190435632914,17.715750847019248,-105.47454071044922,5356.25390625,True
1599562185.9651265,0.0,10,0.5,0.5,4.958115277862548,-0.15025,-0.00825,-0.37525,0.10757998464015406,10,1,100,-0.00852986915337238,-10,-1,-100,15016.857967565884,-0.0065372147598803925,0.008349875934916406,0.9999437706166555,24.00852533351569,0.02372394451124437,-47.151192094998834,17.344250889166428,-110.53083801269531,5356.25390625,True
1599562186.0010302,0.0,10,0.5,0.5,5.610078037261963,-0.15025,-0.00825,-0.37525,0.10450075929546308,10,1,100,-0.013635500524502256,-10,-1,-100,15017.562058402575,-0.0057330947139425615,0.008473808265234152,0.9999476617295953,24.470470656584723,0.02456491182585392,-47.031399339260865,16.972740660009745,-115.31316375732422,5356.25390625,True
1599562186.0329442,0.0,10,0.5,0.5,7.3506629320144645,-0.15025,-0.00825,-0.37525,0.10312317490410491,10,1,100,-0.06873060003713793,-10,-1,-100,15018.557162554236,-0.004507317702015554,0.008571666357311011,0.9999531042118885,25.034120897400854,0.025628499244700263,-46.53824643461593,16.415461984080558,-121.97102355957031,5356.25390625,True
1599562186.0699718,0.0,10,0.5,0.5,4.8902894487380975,-0.15025,-0.00825,-0.37525,0.09355250684766472,10,1,100,0.05312329384004172,-10,-1,-100,15018.557162554236,-0.004507317702015554,0.008571666357311011,0.9999531042118885,25.034120897400854,0.025628499244700263,-46.53824643461593,16.415461984080558,-121.97102355957031,5356.25390625,True
1599562186.1088266,0.0,10,0.5,0.5,8.101380219841003,-0.15025,-0.00825,-0.37525,0.09650021671871047,10,1,100,-0.07525805219687343,-10,-1,-100,15019.486837108387,-0.0033467946227301536,0.008596507891127375,0.999957448603605,25.31197661395421,0.02622094600975075,-45.4603977472957,15.85818029132241,-128.00927734375,5356.25390625,True
1599562186.15344,0.0,10,0.5,0.5,8.72192372264862,-0.15025,-0.00825,-0.37525,0.0871646593153505,10,1,100,-0.08402868037319045,-10,-1,-100,15020.418469634256,-0.0022190066572961983,0.008532618946911437,0.9999611344564157,25.361630649243295,0.0263538928157647,-43.95179380942862,15.300910770066256,-133.42813110351562,5356.25390625,True
1599562186.1913388,0.0,10,0.5,0.5,8.440070892333983,-0.15025,-0.00825,-0.37525,0.08850834466553345,10,1,100,-0.04693715392446096,-10,-1,-100,15021.05908924283,-0.0015374836419516703,0.008485862783114017,0.9999628124469814,25.296525437118053,0.02621661106521747,-42.776417438971876,14.929410814417597,-136.6959228515625,5356.25390625,True
1599562186.2322295,0.0,10,0.5,0.5,8.818679887771607,-0.15025,-0.00825,-0.37525,0.08586159337413254,10,1,100,-0.05180628742931487,-10,-1,-100,15021.63623414049,-0.0008800711220845508,0.008418705889038806,0.9999641747912641,25.170226935455233,0.02592680799097477,-41.5055578284187,14.557925250827992,-139.68817138671875,5356.25390625,True
1599562186.2731197,0.0,10,0.5,0.5,9.156101656913759,-0.15025,-0.00825,-0.37525,0.08294921975111838,10,1,100,-0.0554889214098358,-10,-1,-100,15022.217286224011,-0.00025559917633990943,0.008330761442509946,0.9999652659381969,24.996961980796794,0.02551342578277112,-40.16980310916082,14.186455975948235,-142.4049072265625,5356.25390625,True
1599562186.315008,0.0,10,0.5,0.5,8.167114085388183,-0.15025,-0.00825,-0.37525,0.09175875118005114,10,1,100,0.00624610742774354,-10,-1,-100,15022.217286224011,-0.00025559917633990943,0.008330761442509946,0.9999652659381969,24.996961980796794,0.02551342578277112,-40.16980310916082,14.186455975948235,-142.4049072265625,5356.25390625,True
1599562186.3558984,0.0,10,0.5,0.5,10.618044131660461,-0.15025,-0.00825,-0.37525,0.07206861712989551,10,1,100,-0.11806115646449121,-10,-1,-100,15023.310056930874,0.0008679926250723627,0.008151623071362652,0.9999663982505138,24.599288685042723,0.024471164915229885,-37.46399629182621,13.443569790915205,-147.01092529296875,5356.25390625,True
1599562186.3957913,0.0,10,0.5,0.5,9.912798307609558,-0.15025,-0.00825,-0.37525,0.07682020211419845,10,1,100,-0.06319602738944485,-10,-1,-100,15023.821774814278,0.0013839338098695045,0.008032146463689278,0.9999667841235506,24.40319786708217,0.023898607274626504,-36.14017448602257,13.072153055256841,-148.9006805419922,5356.25390625,True
1599562186.4386775,0.0,10,0.5,0.5,9.231377351760864,-0.15025,-0.00825,-0.37525,0.08872369670138133,10,1,100,-0.012313611762111881,-10,-1,-100,15023.821774814278,0.0013839338098695045,0.008032146463689278,0.9999667841235506,24.40319786708217,0.023898607274626504,-36.14017448602257,13.072153055256841,-148.9006805419922,5356.25390625,True
1599562186.4845545,0.0,10,0.5,0.5,10.101365597152709,-0.15025,-0.00825,-0.37525,0.08045435140752602,10,1,100,-0.06348877363587205,-10,-1,-100,15024.339352728566,0.0018438068709837924,0.007957461070012068,0.9999666390382941,24.202207152921677,0.023300461865306724,-34.82573960720411,12.700753285451292,-150.51394653320312,5356.25390625,True
1599562186.5284371,0.0,10,0.5,0.5,10.519842528533935,-0.15025,-0.00825,-0.37525,0.07057865904865102,10,1,100,-0.08864744489824457,-10,-1,-100,15025.080563636147,0.0024848147338610775,0.007800344604576921,0.9999664895984206,23.909213077385896,0.022392517855590398,-32.897345111219856,12.143683065078065,-152.41748046875,5356.25390625,True
1599562186.5753124,0.0,10,0.5,0.5,10.311310236358642,-0.15025,-0.00825,-0.37525,0.07576287340436572,10,1,100,-0.06671878063813884,-10,-1,-100,15025.53075956821,0.0028628961983334744,0.0077053644604028766,0.9999662150212326,23.729312045603454,0.02179934421849548,-31.652770388968047,11.772320563684268,-153.34161376953125,5356.25390625,True
1599562186.6192303,0.0,10,0.5,0.5,10.321591467285156,-0.15025,-0.00825,-0.37525,0.0761628909369095,10,1,100,-0.06687584776683174,-10,-1,-100,15025.983885671827,0.003203414591882289,0.007623407447346423,0.9999658103124548,23.567863835415476,0.0212271607926119,-30.44708190514366,11.400970517768977,-153.9898223876953,5356.25390625,True
1599562186.6630778,0.0,10,0.5,0.5,10.208566068649292,-0.15025,-0.00825,-0.37525,0.08011549353185561,10,1,100,-0.050556218182545805,-10,-1,-100,15026.208496732637,0.0033603065914023997,0.007585617873008947,0.9999655827782757,23.495171591271127,0.0209509798477738,-29.85950409089406,11.215299641048839,-154.21046447753906,5356.25390625,True
1599562186.7089546,0.0,10,0.5,0.5,10.260995263671875,-0.15025,-0.00825,-0.37525,0.0752581882764562,10,1,100,-0.06692261564638702,-10,-1,-100,15026.662599108531,0.00364786622453425,0.007507863746758546,0.9999651619201382,23.367772745803197,0.020421623642938987,-28.715551177586892,10.843965064918882,-154.4449920654297,5356.25390625,True
1599562187.069622,0.0,10,0.5,0.5,9.994463199996948,-0.15025,-0.00825,-0.37525,0.06922845428130978,10,1,100,-0.08980961181268346,-10,-1,-100,15027.502445374033,0.004113799069437833,0.007383110502662079,0.9999642825303922,23.188526681218963,0.019464044039096514,-26.54599012274115,10.101319182459084,-154.08636474609375,5356.25390625,True
1599562187.1105132,0.0,10,0.5,0.5,9.826980418777465,-0.15025,-0.00825,-0.37525,0.07652109519331407,10,1,100,-0.06329052519265213,-10,-1,-100,15027.88818863267,0.004292319597126461,0.007336856698992464,0.9999638726105332,23.13616027677679,0.019038349175155594,-25.513451823106855,9.730004760410264,-153.49322509765625,5356.25390625,True
1599562187.1593895,0.0,10,0.5,0.5,10.054903969192505,-0.15025,-0.00825,-0.37525,0.08106499892303853,10,1,100,-0.045780905120994676,-10,-1,-100,15027.88818863267,0.004292319597126461,0.007336856698992464,0.9999638726105332,23.13616027677679,0.019038349175155594,-25.513451823106855,9.730004760410264,-153.49322509765625,5356.25390625,True
1599562187.23818,0.0,10,0.5,0.5,9.0004120262146,-0.15025,-0.00825,-0.37525,0.0742521463402327,10,1,100,-0.07329256465861134,-10,-1,-100,15028.601080755237,0.004539781605843652,0.007275553757116681,0.9999632276741474,23.094590264350224,0.018292524549510115,-23.525628770913503,8.987386373305236,-151.4793701171875,5356.25390625,True
1599562187.281577,0.0,10,0.5,0.5,9.011748841476441,-0.15025,-0.00825,-0.37525,0.07733988220671313,10,1,100,-0.05674666262382141,-10,-1,-100,15028.990729659912,0.0046114608245466674,0.0072485819475672205,0.9999630955634378,23.096943338067703,0.017971648777537506,-22.556788330225817,8.616080468238493,-150.058837890625,5356.25390625,True
1599562187.323465,0.0,10,0.5,0.5,8.652923952102661,-0.15025,-0.00825,-0.37525,0.07890729662499528,10,1,100,-0.05346179747496105,-10,-1,-100,15029.313972319593,0.0046442452911474395,0.007238955778254317,0.9999630135684601,23.10693838430052,0.01768564079833295,-21.59479635813825,8.244775835220613,-148.3623504638672,5356.25390625,True
1599562187.3628738,0.0,10,0.5,0.5,9.286185376739502,-0.15025,-0.00825,-0.37525,0.07981377467365336,10,1,100,-0.05039929387061248,-10,-1,-100,15029.313972319593,0.0046442452911474395,0.007238955778254317,0.9999630135684601,23.10693838430052,0.01768564079833295,-21.59479635813825,8.244775835220613,-148.3623504638672,5356.25390625,True
1599562187.4047978,0.0,10,0.5,0.5,7.064547027969362,-0.15025,-0.00825,-0.37525,0.07686282608975499,10,1,100,-0.04659045981342215,-10,-1,-100,15029.901862108381,0.004608000118724969,0.007212552980839012,0.9999633720363984,23.118018657533334,0.017217401968636418,-19.66044171178855,7.50216904204381,-144.1425018310547,5356.25390625,True
1599562187.4446552,0.0,10,0.5,0.5,7.995009780502319,-0.15025,-0.00825,-0.37525,0.07873427514467977,10,1,100,-0.046936707995125136,-10,-1,-100,15030.064946576487,0.00457692077678653,0.00720593711502124,0.9999635624694019,23.111870260911243,0.01712099999477806,-19.16911149452852,7.3165177861506665,-142.91526794433594,5356.25390625,True
1599562187.4845476,0.0,10,0.5,0.5,7.765079816055297,-0.15025,-0.00825,-0.37525,0.07861711328221406,10,1,100,-0.0458301804185806,-10,-1,-100,15030.226079482236,0.004537501475069013,0.007199202748035384,0.9999637906245188,23.099122153062172,0.01703188898082731,-18.67268515622528,7.130866878467147,-141.61911010742188,5356.25390625,True
1599562187.5254405,0.0,10,0.5,0.5,6.770001290130614,-0.15025,-0.00825,-0.37525,0.07739778014906325,10,1,100,-0.03849743813432442,-10,-1,-100,15030.487797048874,0.004434195693423001,0.007182276350472983,0.9999643757729462,23.047987849309056,0.01687307842005315,-17.661736654218352,6.7595656857376545,-138.82009887695312,5356.25390625,True
1599562187.5653317,0.0,10,0.5,0.5,6.192065243530274,-0.15025,-0.00825,-0.37525,0.07651512263300053,10,1,100,-0.033818618069543546,-10,-1,-100,15030.749513735063,0.004297455348952268,0.007159047133590402,0.999965139353199,22.950750258917303,0.016732514437878692,-16.621626724587692,6.388265301596887,-135.7455596923828,5356.25390625,True
1599562187.6022372,0.0,10,0.5,0.5,5.570700004196167,-0.15025,-0.00825,-0.37525,0.07531273562852506,10,1,100,-0.028922706045922727,-10,-1,-100,15031.010253517772,0.004128632984898843,0.007127160517806826,0.9999660784109776,22.791560724785136,0.016596768518000293,-15.547365301846863,6.016965108279653,-132.39552307128906,5356.25390625,True
1599562187.6371405,0.0,10,0.5,0.5,4.905217587280274,-0.15025,-0.00825,-0.37525,0.07363715081555317,10,1,100,-0.02409258611469574,-10,-1,-100,15031.211422509165,0.0039313967333047825,0.0070831307289594535,0.9999671861510265,22.553892901814738,0.016449277233156805,-14.436195034125754,5.645663975930443,-128.7700653076172,5356.25390625,True
1599562187.6750393,0.0,10,0.5,0.5,3.117814510726929,-0.15025,-0.00825,-0.37525,0.06770459080812517,10,1,100,-0.005646228749010114,-10,-1,-100,15031.569815100287,0.003584949969324439,0.006989346214510822,0.999969148110686,22.011846640532962,0.016162854972700126,-12.69975086208611,5.088705529632071,-122.81550598144531,5356.25390625,True
1599562187.713935,0.0,10,0.5,0.5,3.062854753112793,-0.15025,-0.00825,-0.37525,0.06768078200216593,10,1,100,-0.011625691194725271,-10,-1,-100,15031.706529611256,0.0033252903068990117,0.0069041067901697605,0.9999706374458225,21.49767598971746,0.01589043683806697,-11.498311050119222,4.717391712121052,-118.50164794921875,5356.25390625,True
1599562187.7523413,0.0,10,0.5,0.5,2.245412887954712,-0.15025,-0.00825,-0.37525,0.06445256776450917,10,1,100,-0.007493320472589601,-10,-1,-100,15031.904767613276,0.003052868111751252,0.006797573410415629,0.9999722361105943,20.84515309899385,0.015524129468901002,-10.271893663051628,4.346067367923958,-113.91252899169922,5356.25390625,True
1599562187.7912366,0.0,10,0.5,0.5,3.9390586740493774,-0.15025,-0.00825,-0.37525,0.07506176750313845,10,1,100,-0.03457640226942593,-10,-1,-100,15031.904767613276,0.003052868111751252,0.006797573410415629,0.9999722361105943,20.84515309899385,0.015524129468901002,-10.271893663051628,4.346067367923958,-113.91252899169922,5356.25390625,True
1599562187.8296149,0.0,10,0.5,0.5,-1.342977889633178,-0.15025,-0.00825,-0.37525,0.04425171450249453,10,1,100,0.030482517601799694,-10,-1,-100,15032.23776633339,0.002462837142019177,0.006517859273655615,0.9999757256772289,19.36816160668406,0.014623212940452003,-7.913347090414661,3.603369129719261,-103.90853881835938,5356.25390625,True
1599562187.8665168,0.0,10,0.5,0.5,2.378838871383667,-0.15025,-0.00825,-0.37525,0.0721543203943594,10,1,100,-0.028309171007931073,-10,-1,-100,15032.23776633339,0.002462837142019177,0.006517859273655615,0.9999757256772289,19.36816160668406,0.014623212940452003,-7.913347090414661,3.603369129719261,-103.90853881835938,5356.25390625,True
1599562187.9044147,0.0,10,0.5,0.5,-3.3400745540618892,-0.15025,-0.00825,-0.37525,0.031036242365274386,10,1,100,0.039750776107148736,-10,-1,-100,15032.446740852785,0.0018459964085484968,0.006144677967458823,0.9999794174031461,17.245384016665795,0.01311705159915411,-5.593702329547595,2.8605727210132836,-93.0849380493164,5356.25390625,True
1599562187.9433117,0.0,10,0.5,0.5,-2.1839879522323606,-0.15025,-0.00825,-0.37525,0.04287782722029878,10,1,100,0.014456277920490045,-10,-1,-100,15032.580525019905,0.001517534997349207,0.005914016277219248,0.9999813605757881,16.156986413204326,0.012289572185874025,-4.560226495924639,2.4891353384427055,-87.62777709960938,5356.25390625,True
1599562187.97722,0.0,10,0.5,0.5,-0.1758854764938354,-0.15025,-0.00825,-0.37525,0.06581949315861922,10,1,100,-0.018111871164278634,-10,-1,-100,15032.580525019905,0.001517534997349207,0.005914016277219248,0.9999813605757881,16.156986413204326,0.012289572185874025,-4.560226495924639,2.4891353384427055,-87.62777709960938,5356.25390625,True
1599562188.0191076,0.0,10,0.5,0.5,-3.058421894264221,-0.15025,-0.00825,-0.37525,0.040017824301539495,10,1,100,0.014520204312675738,-10,-1,-100,15032.654738698853,0.0012232534911837578,0.00568055850964633,0.9999831173104449,17.009316851052823,0.01291311460303126,-4.084412209943239,2.1176831081514536,-82.21273803710938,5356.25390625,True
1599562188.058005,0.0,10,0.5,0.5,-5.153003121757507,-0.15025,-0.00825,-0.37525,0.01799556555984995,10,1,100,0.035958578005191456,-10,-1,-100,15032.764107538736,0.0007632924913214984,0.005269396888945875,0.9999858253200391,18.342861355868898,0.013903060172254853,-3.2457872981633673,1.5605003892151705,-74.43316650390625,5356.25390625,True
1599562188.095903,0.0,10,0.5,0.5,-4.8898282579422,-0.15025,-0.00825,-0.37525,0.027562683981698866,10,1,100,0.021640940992187437,-10,-1,-100,15032.834415647201,0.0004778716074540291,0.0049841509915309655,0.9999874648602454,19.05485144483651,0.014445197995148432,-2.5692169270904954,1.1890509485688336,-69.45468139648438,5356.25390625,True
1599562188.1328049,0.0,10,0.5,0.5,-3.0621154687881464,-0.15025,-0.00825,-0.37525,0.055895278143325955,10,1,100,-0.006616405524614997,-10,-1,-100,15032.834415647201,0.0004778716074540291,0.0049841509915309655,0.9999874648602454,19.05485144483651,0.014445197995148432,-2.5692169270904954,1.1890509485688336,-69.45468139648438,5356.25390625,True
1599562188.1697068,0.0,10,0.5,0.5,-7.91365807647705,-0.15025,-0.00825,-0.37525,-0.010812295747104739,10,1,100,0.0530482393405546,-10,-1,-100,15032.85393899423,-6.219334904360624e-05,0.004379367067453309,0.9999904085920404,19.95501347700572,0.015127355995473907,-1.0095812158072253,0.44615085273075694,-60.292236328125,5356.25390625,True
1599562188.2066076,0.0,10,0.5,0.5,-4.519687306022644,-0.15025,-0.00825,-0.37525,0.04942427602636469,10,1,100,-0.000646750163129435,-10,-1,-100,15032.85393899423,-6.219334904360624e-05,0.004379367067453309,0.9999904085920404,19.95501347700572,0.015127355995473907,-1.0095812158072253,0.44615085273075694,-60.292236328125,5356.25390625,True
1599562188.2445054,0.0,10,0.5,0.5,-6.746371332359314,-0.15025,-0.00825,-0.37525,0.012655650650662174,10,1,100,0.027549177993728337,-10,-1,-100,15032.863701328519,-0.00031622448638680164,0.0040470509205889245,0.9999917606565167,20.163960267381025,0.015290529777255537,-0.17077867073360142,0.07468669967859887,-56.123443603515625,5356.25390625,True
1599562188.277419,0.0,10,0.5,0.5,-8.236071402549744,-0.15025,-0.00825,-0.37525,-0.006748891044103915,10,1,100,0.041136598111021494,-10,-1,-100,15032.843188092927,-0.0006681574653756389,0.0035707865974443985,0.9999934015025684,20.35683789406241,0.015450339852218959,1.1139502832055697,-0.48253582328687883,-50.38677978515625,5356.25390625,True
1599562188.3173118,0.0,10,0.5,0.5,-7.947135540771484,-0.15025,-0.00825,-0.37525,0.004100578390489121,10,1,100,0.030355776706600904,-10,-1,-100,15032.850997883128,-0.0008878034754399182,0.0032387904725093247,0.999994361004733,20.434148800615827,0.015521669044121044,1.9790891873977419,-0.8540328856382386,-46.907196044921875,5356.25390625,True
1599562188.353673,0.0,10,0.5,0.5,-7.534999665832519,-0.15025,-0.00825,-0.37525,0.019746485408089185,10,1,100,0.020316247180819022,-10,-1,-100,15032.823653900763,-0.0009940265448341648,0.0030816433552780854,0.9999947576789886,20.445555068969572,0.015538013996116883,2.410912051263421,-1.0397857742097547,-45.27069091796875,5356.25390625,True
1599562188.3955615,0.0,10,0.5,0.5,-9.318414682769776,-0.15025,-0.00825,-0.37525,-0.0178427181123533,10,1,100,0.043196955200984925,-10,-1,-100,15032.741619220353,-0.0012963161703375488,0.0025996371920837917,0.9999957807165267,20.398356578179392,0.015530271602904301,3.694614062588722,-1.5970600129730994,-40.77484130859375,5356.25390625,True
1599562188.4324632,0.0,10,0.5,0.5,-7.665533381652832,-0.15025,-0.00825,-0.37525,0.03004980607531981,10,1,100,0.01321994961679866,-10,-1,-100,15032.741619220353,-0.0012963161703375488,0.0025996371920837917,0.9999957807165267,20.398356578179392,0.015530271602904301,3.694614062588722,-1.5970600129730994,-40.77484130859375,5356.25390625,True
1599562188.4683664,0.0,10,0.5,0.5,-10.336437562561034,-0.15025,-0.00825,-0.37525,-0.03831209926389875,10,1,100,0.05418628888722527,-10,-1,-100,15032.567788967513,-0.001666865064921737,0.0019805923796334976,0.9999966494017272,20.247651982263406,0.015473938819618404,5.373868983609495,-2.3401222539095237,-35.745086669921875,5356.25390625,True
1599562188.5062656,0.0,10,0.5,0.5,-8.476832550048828,-0.15025,-0.00825,-0.37525,0.023292026119940915,10,1,100,0.017345873096044025,-10,-1,-100,15032.567788967513,-0.001666865064921737,0.0019805923796334976,0.9999966494017272,20.247651982263406,0.015473938819618404,5.373868983609495,-2.3401222539095237,-35.745086669921875,5356.25390625,True
1599562188.5441644,0.0,10,0.5,0.5,-10.106770071411132,-0.15025,-0.00825,-0.37525,-0.026673834234108892,10,1,100,0.04556765592590797,-10,-1,-100,15032.425210641231,-0.0019214769664001586,0.0015290877933347698,0.9999969849038485,20.103110284578186,0.015432772916996957,6.6064571471715015,-2.8974346214756648,-32.696319580078125,5356.25390625,True
1599562188.5811212,0.0,10,0.5,0.5,-9.447207753753661,-0.15025,-0.00825,-0.37525,0.003129661326053957,10,1,100,0.02974722163872791,-10,-1,-100,15032.333412909531,-0.002007429943663126,0.001392161110222969,0.9999970160517804,20.054442202269502,0.01542513907985379,7.0131227368068245,-3.0832077176170896,-31.81768798828125,5356.25390625,True
1599562188.616977,0.0,10,0.5,0.5,-9.56637383956909,-0.15025,-0.00825,-0.37525,5.529592298082926e-05,10,1,100,0.029820535092086063,-10,-1,-100,15032.308022846119,-0.0020844671029376077,0.0012424491727817857,0.9999970556541404,20.007775603973368,0.015422596645847724,7.418497268033124,-3.2689818832147717,-31.008209228515625,5356.25390625,True
1599562188.6528804,0.0,10,0.5,0.5,-10.02572121963501,-0.15025,-0.00825,-0.37525,-0.01433864772115228,10,1,100,0.04039796906303311,-10,-1,-100,15032.125405637664,-0.002249051881453427,0.0009780430162956882,0.999996992594224,19.924066266360345,0.015436128001417065,8.22737566453469,-3.640533190172954,-29.595489501953125,5356.25390625,True
1599562188.6908197,0.0,10,0.5,0.5,-10.110273066711425,-0.15025,-0.00825,-0.37525,-0.017176434633500368,10,1,100,0.04095173302429213,-10,-1,-100,15032.01017162914,-0.0024022714484646375,0.0007142327599062066,0.9999968594767948,19.869876278929997,0.015487724902663778,9.042710891832911,-4.012088525424151,-28.45843505859375,5356.25390625,True
1599562188.7266831,0.0,10,0.5,0.5,-10.151553803253172,-0.15025,-0.00825,-0.37525,-0.01831480070204069,10,1,100,0.04254194874127228,-10,-1,-100,15031.828531929175,-0.0025546416813809897,0.00046635152412231423,0.9999966281553834,19.841731361954558,0.015574675633750753,9.86651401590539,-4.383647697358395,-27.596893310546875,5356.25390625,True
1599562188.7587128,0.0,10,0.5,0.5,-10.250533436584472,-0.15025,-0.00825,-0.37525,-0.03151608251198812,10,1,100,0.052288239633984906,-10,-1,-100,15031.494547722046,-0.002780343978387291,0.00012337083134757702,0.9999961272260007,19.868292371879658,0.015786215128946325,11.136494674470875,-4.940993151338299,-26.821075439453125,5356.25390625,True
1599562188.794616,0.0,10,0.5,0.5,-10.06176917037964,-0.15025,-0.00825,-0.37525,-0.02070689874866441,10,1,100,0.04617549519754488,-10,-1,-100,15031.31290813908,-0.0029286083645998833,-8.791334027129925e-05,0.999995707752934,19.942560315855438,0.015989531426699382,12.019230458636203,-5.3125608299227824,-26.648193359375,5356.25390625,True
1599562188.8325517,0.0,10,0.5,0.5,-9.954681414031983,-0.15025,-0.00825,-0.37525,-0.020649473961347427,10,1,100,0.048027231564100485,-10,-1,-100,15031.067792318761,-0.003078744235221598,-0.0002770245886470732,0.9999952222842425,20.049369263928025,0.016232327528319827,12.92932508665783,-5.684131176662744,-26.750701904296875,5356.25390625,True
1599562188.8684597,0.0,10,0.5,0.5,-10.000568112945556,-0.15025,-0.00825,-0.37525,-0.0019641108205980884,10,1,100,0.03315483241895902,-10,-1,-100,15031.067792318761,-0.003078744235221598,-0.0002770245886470732,0.9999952222842425,20.049369263928025,0.016232327528319827,12.92932508665783,-5.684131176662744,-26.750701904296875,5356.25390625,True
1599562188.9063935,0.0,10,0.5,0.5,-9.655768128204345,-0.15025,-0.00825,-0.37525,-0.0302190524401504,10,1,100,0.057707273224665,-10,-1,-100,15030.734787218971,-0.003300664716027743,-0.0005318353152172937,0.9999944113661986,20.270581681675747,0.016669518213833848,14.354777495761946,-6.24148955799998,-27.42095947265625,5356.25390625,True
1599562188.939306,0.0,10,0.5,0.5,-9.495891593933106,-0.15025,-0.00825,-0.37525,-0.021402608977796268,10,1,100,0.05179071547413035,-10,-1,-100,15030.487718966557,-0.0034473699119833535,-0.0006814583777974093,0.999993825608523,20.456313933638295,0.017006739789397124,15.349495138147942,-6.613062453025542,-28.21209716796875,5356.25390625,True
1599562188.9772105,0.0,10,0.5,0.5,-9.235296031188964,-0.15025,-0.00825,-0.37525,-0.020711488271683634,10,1,100,0.05344844128479344,-10,-1,-100,15030.183032757835,-0.0035944994702505543,-0.0008093113196437446,0.9999932122713364,20.66889400269721,0.017376350033868462,16.381297008500592,-6.984634685109235,-29.278594970703125,5356.25390625,True
1599562189.0141127,0.0,10,0.5,0.5,-8.931747857666014,-0.15025,-0.00825,-0.37525,-0.02021676928277321,10,1,100,0.05480231628190643,-10,-1,-100,15029.877370335395,-0.0037391888119514796,-0.0009191785846117496,0.9999925867614011,20.90419690936971,0.017772718576022032,17.450145841741346,-7.356204691482878,-30.620513916015625,5356.25390625,True
1599562189.0500162,0.0,10,0.5,0.5,-8.584561117553712,-0.15025,-0.00825,-0.37525,-0.01932342967502368,10,1,100,0.05611651640822603,-10,-1,-100,15029.567801635829,-0.0038813171810729553,-0.0010092119003295699,0.9999919584018063,21.155908872179324,0.018186789195028204,18.553388787468887,-7.727770948916323,-32.237823486328125,5356.25390625,True
1599562189.0864305,0.0,10,0.5,0.5,-8.19374062271118,-0.15025,-0.00825,-0.37525,-0.018170162414613857,10,1,100,0.057348230570016236,-10,-1,-100,15029.262139069382,-0.004020377603806382,-0.0010790093534691029,0.9999913361138375,21.416266151418267,0.018606576279424275,19.685973743252557,-8.09933183040043,-34.1304931640625,5356.25390625,True
1599562189.1193426,0.0,10,0.5,0.5,-8.898574699401856,-0.15025,-0.00825,-0.37525,-0.011344953188419701,10,1,100,0.043588761888916104,-10,-1,-100,15029.262139069382,-0.004020377603806382,-0.0010790093534691029,0.9999913361138375,21.416266151418267,0.018606576279424275,19.685973743252557,-8.09933183040043,-34.1304931640625,5356.25390625,True
1599562189.155246,0.0,10,0.5,0.5,-7.129357860565185,-0.15025,-0.00825,-0.37525,-0.01860206756428876,10,1,100,0.06569102038280994,-10,-1,-100,15028.7377268204,-0.0042201799231823085,-0.00114389004762717,0.9999904407527979,21.801515214016085,0.01921208040571885,21.421154587548052,-8.656659902569675,-37.485748291015625,5356.25390625,True
1599562189.1921477,0.0,10,0.5,0.5,-8.379476364135742,-0.15025,-0.00825,-0.37525,-0.01221959581921763,10,1,100,0.04583994560107552,-10,-1,-100,15028.7377268204,-0.0042201799231823085,-0.00114389004762717,0.9999904407527979,21.801515214016085,0.01921208040571885,21.421154587548052,-8.656659902569675,-37.485748291015625,5356.25390625,True
1599562189.2300773,0.0,10,0.5,0.5,-7.014227601623534,-0.15025,-0.00825,-0.37525,-0.01489944406179923,10,1,100,0.059990632176278876,-10,-1,-100,15028.42718143831,-0.004347784859604193,-0.0011674642448697482,0.9999898668456855,22.04567886408356,0.019578068619133575,22.592261016942473,-9.028201386894361,-40.06689453125,5356.25390625,True
1599562189.2679813,0.0,10,0.5,0.5,-4.8250231834411625,-0.15025,-0.00825,-0.37525,-0.010534666606540989,10,1,100,0.07261067152826332,-10,-1,-100,15027.62444987672,-0.004577363304438144,-0.0011484060476277236,0.9999888643923637,22.4742939225578,0.02013954246403312,24.930581555286086,-9.771255911937677,-46.055084228515625,5356.25390625,True
1599562189.5731294,0.0,10,0.5,0.5,-5.266300840759277,-0.15025,-0.00825,-0.37525,-0.00822487906963857,10,1,100,0.06069933133194893,-10,-1,-100,15027.25531032111,-0.004676625435603959,-0.0011095218264063971,0.9999884490012133,22.61037302886533,0.020266204777823954,26.037064469225676,-10.14276901743316,-49.462158203125,5356.25390625,True
1599562189.6080759,0.0,10,0.5,0.5,-6.527274049377441,-0.15025,-0.00825,-0.37525,-0.012156107536632118,10,1,100,0.05089604376772946,-10,-1,-100,15027.25531032111,-0.004676625435603959,-0.0011095218264063971,0.9999884490012133,22.61037302886533,0.020266204777823954,26.037064469225676,-10.14276901743316,-49.462158203125,5356.25390625,True
1599562189.6429422,0.0,10,0.5,0.5,-3.553706853485107,-0.15025,-0.00825,-0.37525,-0.002300545699173942,10,1,100,0.06428615438610065,-10,-1,-100,15026.605898416834,-0.004797369963075194,-0.0010196528910597204,0.9999879727023817,22.668953455118423,0.020192962858532146,27.541868384312345,-10.70002510521874,-55.089019775390625,5356.25390625,True
1599562189.731706,0.0,10,0.5,0.5,-3.492852481842041,-0.15025,-0.00825,-0.37525,-0.0026322098664298584,10,1,100,0.059508802908469716,-10,-1,-100,15026.168399138027,-0.004862745264478651,-0.0009408776474410244,0.9999877341536472,22.58521619593168,0.019942860023652077,28.39507229036821,-11.071524344934748,-59.1844482421875,5356.25390625,True
1599562189.788553,0.0,10,0.5,0.5,-5.007431048583984,-0.15025,-0.00825,-0.37525,-0.0105029008030106,10,1,100,0.05306941557646465,-10,-1,-100,15026.168399138027,-0.004862745264478651,-0.0009408776474410244,0.9999877341536472,22.58521619593168,0.019942860023652077,28.39507229036821,-11.071524344934748,-59.1844482421875,5356.25390625,True
1599562189.8224955,0.0,10,0.5,0.5,-2.6899281768798824,-0.15025,-0.00825,-0.37525,-0.0003194766571966833,10,1,100,0.05787458584040765,-10,-1,-100,15025.73773540638,-0.004905662841732067,-0.0008484266385754689,0.9999876072453711,22.38225863669179,0.019523365412691732,29.08649443399203,-11.443024195129894,-63.555206298828125,5356.25390625,True
1599562189.856372,0.0,10,0.5,0.5,0.7219921775817868,-0.15025,-0.00825,-0.37525,0.01439944020075,10,1,100,0.057967977109380654,-10,-1,-100,15024.74164175475,-0.004944723027827722,-0.00063078155245717,0.9999875758372258,21.55073309529074,0.018202019768586857,29.82951697866783,-12.186042371754075,-73.122802734375,5356.25390625,True
1599562189.8872886,0.0,10,0.5,0.5,-2.838847814941406,-0.15025,-0.00825,-0.37525,-0.0073137575615628845,10,1,100,0.0541344128102797,-10,-1,-100,15024.74164175475,-0.004944723027827722,-0.00063078155245717,0.9999875758372258,21.55073309529074,0.018202019768586857,29.82951697866783,-12.186042371754075,-73.122802734375,5356.25390625,True
1599562189.9212267,0.0,10,0.5,0.5,-1.4620516456604005,-0.15025,-0.00825,-0.37525,-0.0008790082288238328,10,1,100,0.05381071380549584,-10,-1,-100,15024.525820595562,-0.004941121634052736,-0.0005727502935187877,0.999987628560523,21.25483127665334,0.017796557838455133,29.869767831323777,-12.371803761216196,-75.68682861328125,5356.25390625,True
1599562189.9551082,0.0,10,0.5,0.5,3.208363120269775,-0.15025,-0.00825,-0.37525,0.020456705148437344,10,1,100,0.04777879992496386,-10,-1,-100,15023.467225716333,-0.004882472661912051,-0.0003265742219191122,0.9999880273333193,19.7851463275614,0.01610229651654451,29.48000592253682,-13.11488399270199,-86.34939575195312,5356.25390625,True
1599562189.9860253,0.0,10,0.5,0.5,-0.7595223915100098,-0.15025,-0.00825,-0.37525,-0.004078718828959349,10,1,100,0.05367420807477978,-10,-1,-100,15023.467225716333,-0.004882472661912051,-0.0003265742219191122,0.9999880273333193,19.7851463275614,0.01610229651654451,29.48000592253682,-13.11488399270199,-86.34939575195312,5356.25390625,True
1599562190.0209324,0.0,10,0.5,0.5,0.7384542877197264,-0.15025,-0.00825,-0.37525,0.0028487418076689397,10,1,100,0.050745935037594475,-10,-1,-100,15023.250429181964,-0.004855664864095541,-0.0002643090775902071,0.9999881762598192,19.32028881999677,0.015668879496527687,29.196599418591656,-13.300662419271971,-89.14205932617188,5356.25390625,True
1599562190.0563204,0.0,10,0.5,0.5,2.721121430969238,-0.15025,-0.00825,-0.37525,0.00993966804966412,10,1,100,0.046173612940173886,-10,-1,-100,15022.691834663856,-0.004789564811168988,-0.00014400981031744282,0.9999885195991474,19.101813507218548,0.0154951064623364,29.67583518646231,-13.672221534615915,-94.84687042236328,5356.25390625,True
1599562190.0862157,0.0,10,0.5,0.5,3.6521643049240113,-0.15025,-0.00825,-0.37525,0.011704246923698713,10,1,100,0.043200650482658934,-10,-1,-100,15022.13030985475,-0.0047024540181237195,-1.940125310619926e-05,0.9999889432137731,20.324065276901052,0.016641454368429617,32.43606723484973,-14.043758844519514,-100.6298828125,5356.25390625,True
1599562190.1211598,0.0,10,0.5,0.5,4.543491269874573,-0.15025,-0.00825,-0.37525,0.012011498883978455,10,1,100,0.040611146142799204,-10,-1,-100,15021.569761804538,-0.004599867158853255,9.58347472753518e-05,0.9999894159629,21.474900116075123,0.01785871136550308,35.18306041520305,-14.4152654141231,-106.39051055908203,5356.25390625,True
1599562190.156063,0.0,10,0.5,0.5,5.336942517852783,-0.15025,-0.00825,-0.37525,0.01242703204143807,10,1,100,0.03799313202661371,-10,-1,-100,15020.947690321947,-0.004483045229465351,0.00020342985596756165,0.9999899304101839,22.423629983469326,0.018991150899004994,37.688065315222126,-14.78673861922909,-111.93985748291016,5356.25390625,True
1599562190.186978,0.0,10,0.5,0.5,6.0711795610427854,-0.15025,-0.00825,-0.37525,0.012706705684040994,10,1,100,0.035254044443649865,-10,-1,-100,15020.386165292584,-0.004352326877096919,0.0003028298456254672,0.9999904827271305,23.179532516243494,0.01998850896785408,39.94136219839241,-15.158179425765319,-117.22380065917969,5356.25390625,True
1599562190.2218523,0.0,10,0.5,0.5,6.7574912652969354,-0.15025,-0.00825,-0.37525,0.012598294951239614,10,1,100,0.032648866814055225,-10,-1,-100,15019.762140317005,-0.00421034712026633,0.0003913591828362027,0.9999910598675955,23.86728906864345,0.020905641781679845,42.13856789377153,-15.529589729873166,-122.23374938964844,5356.25390625,True
1599562190.2597835,0.0,10,0.5,0.5,7.406050856590271,-0.15025,-0.00825,-0.37525,0.012317120121158848,10,1,100,0.03025338114062718,-10,-1,-100,15019.140068353736,-0.004060165086032413,0.00046835504481314316,0.9999916478166336,24.389145218006295,0.021614536635202485,44.09431124083192,-15.900973634495989,-126.96833801269531,5356.25390625,True
1599562190.2947304,0.0,10,0.5,0.5,5.671703721046447,-0.15025,-0.00825,-0.37525,0.004721644457297996,10,1,100,0.04518348890921679,-10,-1,-100,15019.140068353736,-0.004060165086032413,0.00046835504481314316,0.9999916478166336,24.389145218006295,0.021614536635202485,44.09431124083192,-15.900973634495989,-126.96833801269531,5356.25390625,True
1599562190.3276458,0.0,10,0.5,0.5,8.048394600486755,-0.15025,-0.00825,-0.37525,0.012008544325549129,10,1,100,0.027785318884702058,-10,-1,-100,15018.453543359414,-0.0039027474563330788,0.000533876926100215,0.9999922417387646,24.7638655984451,0.02210166302471467,45.82224964347277,-16.27233613636182,-131.4272918701172,5356.25390625,True
1599562190.3645477,0.0,10,0.5,0.5,7.529642298316955,-0.15025,-0.00825,-0.37525,0.008632258446262133,10,1,100,0.03455230482062311,-10,-1,-100,15018.110768383136,-0.0038220492334834926,0.0005619665364149265,0.999992538038794,24.902163731277696,0.022262348096844246,46.60639939311382,-16.45801100070235,-133.5534210205078,5356.25390625,True
1599562190.4004521,0.0,10,0.5,0.5,10.87542793483734,-0.15025,-0.00825,-0.37525,0.014924748971733003,10,1,100,0.005560407598515872,-10,-1,-100,15016.80021867645,-0.0034860641612652686,0.0006439558454653038,0.999993716319024,25.186325499839604,0.022397107035794204,49.27603020272569,-17.20068266834739,-141.36878967285156,5356.25390625,True
1599562190.438348,0.0,10,0.5,0.5,7.981091431427002,-0.15025,-0.00825,-0.37525,0.006804614632273549,10,1,100,0.03902856475534791,-10,-1,-100,15016.80021867645,-0.0034860641612652686,0.0006439558454653038,0.999993716319024,25.186325499839604,0.022397107035794204,49.27603020272569,-17.20068266834739,-141.36878967285156,5356.25390625,True
1599562190.474297,0.0,10,0.5,0.5,11.542228831100465,-0.15025,-0.00825,-0.37525,0.011132999571862302,10,1,100,0.0011791989092526933,-10,-1,-100,15015.364668829017,-0.003143084826170638,0.0006827017475537729,0.999994827454672,25.205729258767995,0.021924333733015274,51.454805210039446,-17.943331143692106,-148.0814971923828,5356.25390625,True
1599562190.506175,0.0,10,0.5,0.5,9.849057610893249,-0.15025,-0.00825,-0.37525,0.007258164509128629,10,1,100,0.025429832309323174,-10,-1,-100,15015.020919026108,-0.003053070081842235,0.0006821660061545492,0.9999951066943354,25.192043027286978,0.021744867595855387,51.96202186518554,-18.128991663485,-149.5874481201172,5356.25390625,True
1599562190.5411143,0.0,10,0.5,0.5,9.315008787536621,-0.15025,-0.00825,-0.37525,0.007359612264069695,10,1,100,0.034288309227401156,-10,-1,-100,15015.020919026108,-0.003053070081842235,0.0006821660061545492,0.9999951066943354,25.192043027286978,0.021744867595855387,51.96202186518554,-18.128991663485,-149.5874481201172,5356.25390625,True
1599562190.5790126,0.0,10,0.5,0.5,11.498451052856446,-0.15025,-0.00825,-0.37525,0.006627379294077076,10,1,100,0.00562094891846741,-10,-1,-100,15013.927166224574,-0.0027936388579385234,0.0006751644917359535,0.9999958698588911,25.104116502900006,0.021090898846542132,53.38114809362928,-18.685971375559888,-153.69161987304688,5356.25390625,True
1599562190.615723,0.0,10,0.5,0.5,11.24109194831848,-0.15025,-0.00825,-0.37525,0.005051450362870629,10,1,100,0.012273386765328149,-10,-1,-100,15013.115641582175,-0.002619556915054181,0.0006542148471545354,0.9999963549556081,25.023604984421564,0.0205935922039518,54.274053411941416,-19.057290356859287,-156.0832061767578,5356.25390625,True
1599562190.6476333,0.0,10,0.5,0.5,10.941753007125856,-0.15025,-0.00825,-0.37525,0.0055882075730576694,10,1,100,0.01996394652359531,-10,-1,-100,15012.770915009547,-0.0025325244267535517,0.000639880363261909,0.9999965884307549,24.98136047838316,0.020335728190191065,54.713746064899546,-19.24294953987615,-157.1756591796875,5356.25390625,True
1599562190.6874897,0.0,10,0.5,0.5,12.061561761474609,-0.15025,-0.00825,-0.37525,0.002095402443612001,10,1,100,0.0005893868889372302,-10,-1,-100,15011.554115814855,-0.0022786603867645232,0.00059494030825688,0.9999972268725906,24.86167377512339,0.019553673408791845,56.038580272793936,-19.799925086421005,-160.03927612304688,5356.25390625,True
1599562190.7254221,0.0,10,0.5,0.5,11.439792281723022,-0.15025,-0.00825,-0.37525,0.004254891889999964,10,1,100,0.016449895757380227,-10,-1,-100,15011.210365920095,-0.002193537782914496,0.0005736619228720563,0.9999974296486932,24.82813957177981,0.01929674932819848,56.491487800165764,-19.985582532280798,-160.85601806640625,5356.25390625,True
1599562190.7613263,0.0,10,0.5,0.5,11.54882088394165,-0.15025,-0.00825,-0.37525,0.0038531468076734516,10,1,100,0.01555643484749717,-10,-1,-100,15010.804114619037,-0.0021095116906433243,0.0005506550759679236,0.999997623366883,24.799207987552247,0.01904397257326295,56.95364643082356,-20.171239254565076,-161.60385131835938,5356.25390625,True
1599562190.802185,0.0,10,0.5,0.5,11.962132355880737,-0.15025,-0.00825,-0.37525,0.0015058614980696869,10,1,100,0.005650729055979648,-10,-1,-100,15009.929113562568,-0.0019443238745381198,0.0005084856221218573,0.9999979805214823,24.75920827131324,0.018555521935355774,57.91637573956143,-20.54254982523782,-162.89260864257812,5356.25390625,True
1599562190.8381205,0.0,10,0.5,0.5,12.416277171325683,-0.15025,-0.00825,-0.37525,-0.0067216993682270056,10,1,100,-0.013780666113538051,-10,-1,-100,15008.302158873412,-0.001618905667707525,0.00039547690186213935,0.9999986113702655,24.769484021067008,0.01766258920396386,60.051743575529336,-21.28515535123698,-164.643310546875,5356.25390625,True
1599562190.8709989,0.0,10,0.5,0.5,11.912415345382689,-0.15025,-0.00825,-0.37525,0.0013476501674456582,10,1,100,0.009843417602538491,-10,-1,-100,15007.832432726631,-0.0015392209490608284,0.00036636053817368507,0.9999987482886296,24.794063584020105,0.01745793727467595,60.63995172441193,-21.470802456321525,-164.90863037109375,5356.25390625,True
1599562190.907929,0.0,10,0.5,0.5,11.825494056701661,-0.15025,-0.00825,-0.37525,0.004227705989493,10,1,100,0.017660504553930013,-10,-1,-100,15007.832432726631,-0.0015392209490608284,0.00036636053817368507,0.9999987482886296,24.794063584020105,0.01745793727467595,60.63995172441193,-21.470802456321525,-164.90863037109375,5356.25390625,True
1599562190.9438405,0.0,10,0.5,0.5,12.0337692401886,-0.15025,-0.00825,-0.37525,-0.009700225711060544,10,1,100,-0.01710969432866795,-10,-1,-100,15006.079501656233,-0.0012245044584306482,0.00024003007313954454,0.9999992214868946,24.98984357243633,0.016705659407035688,63.25096499225001,-22.213368252122283,-165.28091430664062,5356.25390625,True
1599562190.9797113,0.0,10,0.5,0.5,11.862014879226685,-0.15025,-0.00825,-0.37525,-0.0010609571305625317,10,1,100,0.005712665831947941,-10,-1,-100,15005.673250666936,-0.001147301045135636,0.00020411857785721364,0.9999993210177286,25.063972882126937,0.016531550242794662,63.97346943018842,-22.399003072137763,-165.20172119140625,5356.25390625,True
1599562191.0176384,0.0,10,0.5,0.5,11.707340243530274,-0.15025,-0.00825,-0.37525,-0.0047269357542221516,10,1,100,-0.0036114704989783867,-10,-1,-100,15004.733797226334,-0.000993689662649857,0.00013855386399391385,0.9999994966917141,25.242778222807882,0.01619550577298493,65.5075369433743,-22.7702635662353,-164.83651733398438,5356.25390625,True
1599562191.0505571,0.0,10,0.5,0.5,11.70041257247925,-0.15025,-0.00825,-0.37525,-0.0016004229821285306,10,1,100,0.003132315056510491,-10,-1,-100,15004.26602440502,-0.0009167490334073237,0.0001078281734092815,0.9999995739720566,25.347222343450888,0.016032056110304206,66.31979651367084,-22.955888811300614,-164.55052185058594,5356.25390625,True
1599562191.0864263,0.0,10,0.5,0.5,11.143409393692016,-0.15025,-0.00825,-0.37525,-0.010256950796708835,10,1,100,-0.014181740897710914,-10,-1,-100,15002.856843788177,-0.0006906405993787872,1.6428492314744042e-06,0.9999997615064034,25.717495079398404,0.01555081823362787,68.93653701783457,-23.5127421983589,-163.27926635742188,5356.25390625,True
1599562191.1253476,0.0,10,0.5,0.5,11.622447197341918,-0.15025,-0.00825,-0.37525,0.00030437971370781585,10,1,100,0.00827881278678916,-10,-1,-100,15002.856843788177,-0.0006906405993787872,1.6428492314744042e-06,0.9999997615064034,25.717495079398404,0.01555081823362787,68.93653701783457,-23.5127421983589,-163.27926635742188,5356.25390625,True
1599562191.1662521,0.0,10,0.5,0.5,10.997432709121703,-0.15025,-0.00825,-0.37525,-0.007447809926413355,10,1,100,-0.008224696384941877,-10,-1,-100,15001.913483807002,-0.0005418985806278365,-6.833250001804857e-05,0.9999998508382876,26.008037262017382,0.015230818015280624,70.82684672934495,-23.88395739059076,-162.08726501464844,5356.25390625,True
1599562191.203147,0.0,10,0.5,0.5,9.756775277709961,-0.15025,-0.00825,-0.37525,-0.015178068898042235,10,1,100,-0.02589791010676817,-10,-1,-100,14999.974030569196,-0.00024728791637756065,-0.00020169715533047754,0.9999999490834706,26.673380877010278,0.014575690297585845,74.91969632923809,-24.62633207360091,-158.87643432617188,5356.25390625,True
1599562191.239053,0.0,10,0.5,0.5,9.89598699951172,-0.15025,-0.00825,-0.37525,-0.008595510111627746,10,1,100,-0.012524599010311669,-10,-1,-100,14998.97207759216,-0.0001022825204372144,-0.0002625534220496516,0.9999999603019925,27.035540658800482,0.01423895227534758,77.09338240306793,-24.997488924945788,-156.85760498046875,5356.25390625,True
1599562191.2709298,0.0,10,0.5,0.5,10.062153947448731,-0.15025,-0.00825,-0.37525,-0.005496981429969678,10,1,100,-0.00612522728702695,-10,-1,-100,14998.499421747634,-2.9941847456418564e-05,-0.00028913711836089706,0.9999999577516054,27.220718471162833,0.014069483389286944,78.2037363273556,-25.183059370352147,-155.74484252929688,5356.25390625,True
1599562191.3078651,0.0,10,0.5,0.5,10.472157932281494,-0.15025,-0.00825,-0.37525,-0.002904161564498588,10,1,100,0.0009579121008921926,-10,-1,-100,14998.499421747634,-2.9941847456418564e-05,-0.00028913711836089706,0.9999999577516054,27.220718471162833,0.014069483389286944,78.2037363273556,-25.183059370352147,-155.74484252929688,5356.25390625,True
1599562191.3437726,0.0,10,0.5,0.5,9.186190895843506,-0.15025,-0.00825,-0.37525,-0.008903768422537964,10,1,100,-0.01487533723254744,-10,-1,-100,14997.437898388598,0.0001129108168376015,-0.00034319793780534553,0.9999999347331593,27.59318344024283,0.01373252597966261,80.45459078485607,-25.55418353629801,-153.31268310546875,5356.25390625,True
1599562191.3796782,0.0,10,0.5,0.5,8.666216675567625,-0.15025,-0.00825,-0.37525,-0.009354916293826492,10,1,100,-0.016264634386109846,-10,-1,-100,14996.433015949908,0.0002542612022627569,-0.0003959479211159557,0.9999998892882362,27.959948703257393,0.013407357442965956,82.72075594802415,-25.925285202706323,-150.6051025390625,5356.25390625,True
1599562191.4105935,0.0,10,0.5,0.5,8.102895893859863,-0.15025,-0.00825,-0.37525,-0.009575265597422094,10,1,100,-0.017697246768494403,-10,-1,-100,14995.36953958706,0.0003946508007937463,-0.0004454197161718251,0.9999998229259953,28.309205253192914,0.01310823521512873,84.96605832487279,-26.296364276788662,-147.62203979492188,5356.25390625,True
1599562191.4484866,0.0,10,0.5,0.5,8.370231234359741,-0.15025,-0.00825,-0.37525,-0.006909344438826292,10,1,100,-0.01133837665504732,-10,-1,-100,14994.833406383055,0.00046327761675948946,-0.00046565547579030715,0.9999997842693905,28.473135772283083,0.012973812754141105,86.06769671653389,-26.481895573650853,-146.02719116210938,5356.25390625,True
1599562191.4843931,0.0,10,0.5,0.5,6.22310167350769,-0.15025,-0.00825,-0.37525,-0.011046474881839661,10,1,100,-0.026792541713443693,-10,-1,-100,14993.236727454583,0.0006651090243354609,-0.0005212370809935744,0.9999996429708818,28.901620917037686,0.012660913672404994,89.21977015255523,-27.038458438597893,-140.8295440673828,5356.25390625,True
1599562191.5222597,0.0,10,0.5,0.5,5.098051260375977,-0.15025,-0.00825,-0.37525,-0.010503835345776352,10,1,100,-0.028227812974444856,-10,-1,-100,14991.5755945571,0.0008604075430284326,-0.0005663573809139463,0.9999994694689478,29.193446624955378,0.012532919308066525,91.99705876315824,-27.594980952776623,-135.0123291015625,5356.25390625,True
1599562191.5572052,0.0,10,0.5,0.5,5.039762827682495,-0.15025,-0.00825,-0.37525,-0.007843034518582459,10,1,100,-0.022191255590030736,-10,-1,-100,14990.508211858803,0.000981799032778591,-0.0005827339870662527,0.9999993482456674,29.284189071410307,0.01257354460352735,93.5384054735035,-27.965979339368012,-130.78994750976562,5356.25390625,True
1599562191.5910757,0.0,10,0.5,0.5,5.437348258590698,-0.15025,-0.00825,-0.37525,-0.006841755926595229,10,1,100,-0.01661905587404572,-10,-1,-100,14989.913486564416,0.0010403812197250929,-0.0005881728810668876,0.9999992858295347,29.291828858633046,0.012633016516929921,94.19086915507957,-28.151475240732807,-128.57550048828125,5356.25390625,True
1599562191.6279755,0.0,10,0.5,0.5,6.2449867671966555,-0.15025,-0.00825,-0.37525,-0.006330428472433465,10,1,100,-0.010875103553411763,-10,-1,-100,14989.913486564416,0.0010403812197250929,-0.0005881728810668876,0.9999992858295347,29.291828858633046,0.012633016516929921,94.19086915507957,-28.151475240732807,-128.57550048828125,5356.25390625,True
1599562191.6639178,0.0,10,0.5,0.5,3.7866980213165284,-0.15025,-0.00825,-0.37525,-0.0070717033628639086,10,1,100,-0.023365743154752462,-10,-1,-100,14988.782627450186,0.0011529594678580252,-0.0005946398930137953,0.9999991585435776,29.219980089717065,0.01282323626367857,95.21334675085889,-28.522463897536017,-123.94015502929688,5356.25390625,True
1599562191.699829,0.0,10,0.5,0.5,2.9193528919219975,-0.15025,-0.00825,-0.37525,-0.006408022306623076,10,1,100,-0.023925773091002106,-10,-1,-100,14987.655674681766,0.0012593191462035836,-0.0005942078008409284,0.9999990305157188,29.0167321460853,0.013085343691098728,95.79659097642848,-28.893453454135873,-119.02955627441406,5356.25390625,True
1599562191.7327769,0.0,10,0.5,0.5,0.5918105804443359,-0.15025,-0.00825,-0.37525,-0.005025671944685938,10,1,100,-0.029414373470821164,-10,-1,-100,14985.867588169174,0.0014048639405802954,-0.0005810199775179522,0.9999988443858793,28.431277312262424,0.01350502475673265,95.69596539923721,-29.44995365126159,-111.14761352539062,5356.25390625,True
1599562191.7696774,0.0,10,0.5,0.5,3.5169571685791015,-0.15025,-0.00825,-0.37525,-0.006362961482623758,10,1,100,-0.014974954306981734,-10,-1,-100,14985.867588169174,0.0014048639405802954,-0.0005810199775179522,0.9999988443858793,28.431277312262424,0.01350502475673265,95.69596539923721,-29.44995365126159,-111.14761352539062,5356.25390625,True
1599562191.80657,0.0,10,0.5,0.5,0.544808279418945,-0.15025,-0.00825,-0.37525,-0.004553392467962937,10,1,100,-0.024369583659353267,-10,-1,-100,14984.67325288523,0.001489351286383867,-0.0005644460771470846,0.9999987316158815,27.95066462615515,0.01375609519034082,95.28030619125938,-29.820970871125734,-105.54902648925781,5356.25390625,True
1599562192.0945747,0.0,10,0.5,0.5,-0.44416974830627454,-0.15025,-0.00825,-0.37525,-0.003885303537554964,10,1,100,-0.02403321401155154,-10,-1,-100,14983.481846935,0.0015621672642528942,-0.0005432155496231718,0.9999986322742173,27.28430066840653,0.013839900079458728,94.1830924017971,-30.192006537453896,-99.73274993896484,5356.25390625,True
1599562192.124458,0.0,10,0.5,0.5,0.13320722064971924,-0.15025,-0.00825,-0.37525,-0.004664202406745709,10,1,100,-0.020697206819312954,-10,-1,-100,14982.885167809785,0.0015972207621680978,-0.0005309759884407764,0.9999985834741649,26.881438463363594,0.013792740577672259,93.3712913391689,-30.37753240605346,-96.74269104003906,5356.25390625,True
1599562192.1604083,0.0,10,0.5,0.5,-3.6439000341415406,-0.15025,-0.00825,-0.37525,-0.0013395893897357024,10,1,100,-0.026347273264318082,-10,-1,-100,14981.034581837943,0.0016797819886645662,-0.0004896575248407561,0.9999984692828179,25.451135257867982,0.013209508903433184,90.04844928318813,-30.934142724010222,-87.47998046875,5356.25390625,True
1599562192.195269,0.0,10,0.5,0.5,-3.476578873252868,-0.15025,-0.00825,-0.37525,-0.0022024002912700404,10,1,100,-0.02274022275133191,-10,-1,-100,14979.77872233733,0.0017214117508561305,-0.0004600236356385276,0.9999984125586593,26.622485018381887,0.013603582920187268,95.34075445661641,-31.30519651649768,-81.25204467773438,5356.25390625,True
1599562192.2855175,0.0,10,0.5,0.5,-2.7968000226974485,-0.15025,-0.00825,-0.37525,-0.0035496848602702053,10,1,100,-0.020334960896518057,-10,-1,-100,14979.122473448748,0.0017367718536854893,-0.0004454482772141653,0.9999983925983884,27.288431614975583,0.013754823901067423,98.31408857247945,-31.49070407140099,-78.17266845703125,5356.25390625,True
1599562192.3199277,0.0,10,0.5,0.5,-1.6828464323043821,-0.15025,-0.00825,-0.37525,-0.004992948242321164,10,1,100,-0.018868589676978215,-10,-1,-100,14979.122473448748,0.0017367718536854893,-0.0004454482772141653,0.9999983925983884,27.288431614975583,0.013754823901067423,98.31408857247945,-31.49070407140099,-78.17266845703125,5356.25390625,True
