Timestamp,Input Throttle,horizon,dT,dt,Input Roll,Roll P,Roll I,Roll D,Input Pitch,Pitch P,Pitch I,Pitch D,Input Yaw,Yaw P,Yaw I,Yaw D,Altitude,Direction X,Direction Y,Direction Z,Drag X,Drag Y,Drag Z,Vertical Velocity,Roll,Mass,Has Fuel
1599563493.3864462,0.0,10,0.5,0.5,-11.641945449829102,-0.2,-0.00825,-0.2505,-0.00029269654268291565,10,1,100,0.174924922230923,-10,-1,-100,14994.547641871031,-0.01680821973569365,-7.470353290048415e-05,0.9998587291056166,28.576587995221864,0.027199717773915687,-86.69289945682242,26.823330749917723,-31.79168701171875,5356.25390625,True
1599563493.4433012,0.0,10,0.5,0.5,-11.690509346008302,-0.2,-0.00825,-0.2505,6.482043560024288e-05,10,1,100,0.18182911098803609,-10,-1,-100,14996.118936219602,-0.016917911478034835,-6.725511364689203e-05,0.9998568796322658,28.35892990276561,0.027686261744479513,-84.2479565502598,26.265451577077208,-31.78985595703125,5356.25390625,True
1599563493.5031357,0.0,10,0.5,0.5,-11.675739837646486,-0.2,-0.00825,-0.2505,0.007120372070700446,10,1,100,0.1766673902718528,-10,-1,-100,14997.148236099165,-0.016955326590490576,3.7186960969634634e-06,0.9998562481108877,28.217499075990347,0.028005894638803097,-82.64397283670277,25.893551748691948,-31.92822265625,5356.25390625,True
1599563493.5520182,0.0,10,0.5,0.5,-11.68508716430664,-0.2,-0.00825,-0.2505,0.004365397384666856,10,1,100,0.17652465807999268,-10,-1,-100,14997.694134741556,-0.016972628830442076,4.319173626734767e-05,0.9998559536278504,28.15307350719793,0.028168022788640865,-81.86471580694088,25.707607419542608,-32.09075927734375,5356.25390625,True
1599563493.5989144,0.0,10,0.5,0.5,-11.670177732849123,-0.2,-0.00825,-0.2505,0.005838091520942199,10,1,100,0.17780528779500987,-10,-1,-100,14998.175581490621,-0.016984570565234103,9.242518153722974e-05,0.9998557475057591,28.09357141949423,0.02833149235987842,-81.1023687450038,25.521666666240534,-32.320281982421875,5356.25390625,True
1599563493.6437955,0.0,10,0.5,0.5,-11.476318752288819,-0.2,-0.00825,-0.2505,0.015725365667596716,10,1,100,0.1785474451802352,-10,-1,-100,14999.202925240505,-0.016986733054396873,0.00022698314658712977,0.9998556892766026,27.989967551489546,0.028659998586507373,-79.62894917120008,25.149795381922306,-32.983856201171875,5356.25390625,True
1599563493.6876788,0.0,10,0.5,0.5,-11.267101181030274,-0.2,-0.00825,-0.2505,0.02279137902003892,10,1,100,0.17684065827421142,-10,-1,-100,15000.169721006183,-0.01695774022444063,0.0004133387060668888,0.9998561217483215,27.904806318425166,0.028982910661272576,-78.21586802368823,24.77793687123376,-33.921661376953125,5356.25390625,True
1599563493.7355506,0.0,10,0.5,0.5,-10.33197175216675,-0.2,-0.00825,-0.2505,0.06180987711537118,10,1,100,0.16337062761561705,-10,-1,-100,15002.10135539365,-0.01679351215465279,0.0009370907076369022,0.9998585398997786,27.773703319581095,0.029563283759436936,-75.51759430571413,24.034255394403896,-36.62158203125,5356.25390625,True
1599563493.7854154,0.0,10,0.5,0.5,-11.052339070892335,-0.2,-0.00825,-0.2505,0.00952838602913353,10,1,100,0.18147278580986645,-10,-1,-100,15002.10135539365,-0.01679351215465279,0.0009370907076369022,0.9998585398997786,27.773703319581095,0.029563283759436936,-75.51759430571413,24.034255394403896,-36.62158203125,5356.25390625,True
1599563493.8373132,0.0,10,0.5,0.5,-10.302501998138428,-0.2,-0.00825,-0.2505,0.04607842699311396,10,1,100,0.16761398618978574,-10,-1,-100,15003.065217769588,-0.01665225623796601,0.0012685119066661453,0.999860536894885,27.716494914326198,0.029789708884935786,-74.19893875350466,23.662431577031093,-38.3837890625,5356.25390625,True
1599563493.8881462,0.0,10,0.5,0.5,-8.827211684417726,-0.2,-0.00825,-0.2505,0.09896457871164367,10,1,100,0.13738126044723753,-10,-1,-100,15004.932390526403,-0.016233860392193072,0.0020494339105823945,0.9998661218370252,27.581235567201865,0.030018811709824154,-71.52178844504505,22.91881784870438,-42.73297119140625,5356.25390625,True
1599563493.992388,0.0,10,0.5,0.5,-9.340378301239014,-0.2,-0.00825,-0.2505,0.044631262864528766,10,1,100,0.16413750649539932,-10,-1,-100,15005.415783641161,-0.016097261277695056,0.00226349273603841,0.9998678686606504,27.536313730846636,0.030013574515991445,-70.82744766762184,22.732922066500358,-43.9921875,5356.25390625,True
1599563494.0651872,0.0,10,0.5,0.5,-7.7580114814758305,-0.2,-0.00825,-0.2505,0.09728034987620225,10,1,100,0.12406153674893464,-10,-1,-100,15006.738034455338,-0.01560949931245658,0.0029346008703321057,0.9998738578685545,27.352633861785428,0.029802739653049422,-68.63296500205661,22.175255759974917,-48.1824951171875,5356.25390625,True
1599563494.1230345,0.0,10,0.5,0.5,-8.103139563751222,-0.2,-0.00825,-0.2505,0.057469359168786434,10,1,100,0.1522252059738927,-10,-1,-100,15007.156973595964,-0.015423336179992161,0.003180116638555108,0.9998759960911372,27.270268951643935,0.029659176191451465,-67.85401310371415,21.98937484289592,-49.716644287109375,5356.25390625,True
1599563494.1738973,0.0,10,0.5,0.5,-7.750752505493164,-0.2,-0.00825,-0.2505,0.06044640678581795,10,1,100,0.14854958458525164,-10,-1,-100,15007.575913556968,-0.01522209067662818,0.00342752511081968,0.9998782626035267,27.17437836981552,0.029474975744658648,-67.04515317089115,21.803498308843185,-51.31964111328125,5356.25390625,True
1599563494.2476997,0.0,10,0.5,0.5,-6.5991435096740725,-0.2,-0.00825,-0.2505,0.08807504012523726,10,1,100,0.11948455781343464,-10,-1,-100,15008.4782443156,-0.01477651495736132,0.0039005793887555737,0.9998832132234978,26.935668905457348,0.028978894403550125,-65.32572880431542,21.431759860590894,-54.73248291015625,5356.25390625,True
1599563494.7932403,0.0,10,0.5,0.5,-3.989328074645997,-0.2,-0.00825,-0.2505,0.15137182910935829,10,1,100,0.04725298409818546,-10,-1,-100,15010.15790402249,-0.013716804740704669,0.004902714453787333,0.9998939007008144,26.217678569947683,0.027456060320444214,-61.383998988868235,20.688353833348152,-62.383514404296875,5356.25390625,True
1599563494.8411133,0.0,10,0.5,0.5,-2.971503128051758,-0.2,-0.00825,-0.2505,0.13106701331597367,10,1,100,0.050245823374839765,-10,-1,-100,15011.35416940006,-0.01278358575124433,0.005625075845923872,0.9999024644719445,25.40627663052601,0.02587377321759249,-57.88536817331715,20.13087717771724,-68.84506225585938,5356.25390625,True
1599563494.900956,0.0,10,0.5,0.5,-3.5310765022277835,-0.2,-0.00825,-0.2505,0.08380749756898458,10,1,100,0.10543168838058145,-10,-1,-100,15011.77408470132,-0.012440539921244774,0.005847874254586018,0.9999055132027078,25.072659953072726,0.025276186700630796,-56.599386410812414,19.945069195137105,-71.13687133789062,5356.25390625,True
1599563494.953812,0.0,10,0.5,0.5,-1.9185807434082034,-0.2,-0.00825,-0.2505,0.10809702163571872,10,1,100,0.06324342658632191,-10,-1,-100,15012.550435900455,-0.01174910767060046,0.006266767768933781,0.9999113391149611,24.298754759732073,0.02400345791135004,-53.83321304180029,19.5734825781201,-75.9273681640625,5356.25390625,True
1599563495.0066717,0.0,10,0.5,0.5,1.6013649993896482,-0.2,-0.00825,-0.2505,0.1485347905468207,10,1,100,-0.03532759536035089,-10,-1,-100,15014.104116129456,-0.010228890105560755,0.007010652266748794,0.9999231073247599,22.29638766226397,0.021331947859712735,-47.52710550367714,18.830431297133888,-86.33578491210938,5356.25390625,True
1599563495.0904477,0.0,10,0.5,0.5,1.5611080726623536,-0.2,-0.00825,-0.2505,0.10723378382559233,10,1,100,0.028650883981859415,-10,-1,-100,15014.817968229181,-0.00943395574071442,0.007306937005154761,0.9999288020407678,21.114459553384837,0.02009020795206381,-44.12238291692754,18.458963195689368,-91.95416259765625,5356.25390625,True
1599563495.1663628,0.0,10,0.5,0.5,1.4681786056518555,-0.2,-0.00825,-0.2505,0.09190880531857716,10,1,100,0.06496064685256528,-10,-1,-100,15015.17440579913,-0.009047434440166877,0.007432383831579032,0.9999314494507267,21.604619532763085,0.020576718712897894,-44.693700331618906,18.27323224614677,-94.78414154052734,5356.25390625,True
1599563495.2291958,0.0,10,0.5,0.5,4.475769750785828,-0.2,-0.00825,-0.2505,0.11543247068493938,10,1,100,-0.029933251536507527,-10,-1,-100,15016.247628384503,-0.007839345149652349,0.007756189010785074,0.9999391912509749,22.965500354276347,0.022189901242182637,-46.06423031538599,17.716024112582243,-102.94852447509766,5356.25390625,True
1599563495.3129733,0.0,10,0.5,0.5,2.474508126831055,-0.2,-0.00825,-0.2505,0.08350956000155814,10,1,100,0.0901172784119113,-10,-1,-100,15016.247628384503,-0.007839345149652349,0.007756189010785074,0.9999391912509749,22.965500354276347,0.022189901242182637,-46.06423031538599,17.716024112582243,-102.94852447509766,5356.25390625,True
1599563495.3907635,0.0,10,0.5,0.5,7.0003729745864876,-0.2,-0.00825,-0.2505,0.11320845620173145,10,1,100,-0.08641559358795739,-10,-1,-100,15017.60893191304,-0.006241212445587157,0.008022243827241227,0.9999483441014267,24.181080835923687,0.02410529857049417,-46.473268285713765,16.97303807185037,-112.9002914428711,5356.25390625,True
1599563495.4476414,0.0,10,0.5,0.5,6.611465271759034,-0.2,-0.00825,-0.2505,0.0936963192859299,10,1,100,-0.018368346640590394,-10,-1,-100,15018.324741253862,-0.005414735234605568,0.008082981811659092,0.9999526719037113,24.61629421621337,0.02491231843563237,-46.276457672826375,16.601530526495797,-117.46415710449219,5356.25390625,True
1599563495.5004716,0.0,10,0.5,0.5,5.513658453750611,-0.2,-0.00825,-0.2505,0.08794054757993058,10,1,100,0.06344916750695859,-10,-1,-100,15018.324741253862,-0.005414735234605568,0.008082981811659092,0.9999526719037113,24.61629421621337,0.02491231843563237,-46.276457672826375,16.601530526495797,-117.46415710449219,5356.25390625,True
1599563495.5543363,0.0,10,0.5,0.5,9.293522064208984,-0.2,-0.00825,-0.2505,0.09283881441749894,10,1,100,-0.1017310691487501,-10,-1,-100,15019.625504601514,-0.003919795674568797,0.00812527705021359,0.9999593067093915,25.165190743194554,0.02602742216265674,-45.19514545960171,15.858503010850923,-125.76549530029297,5356.25390625,True
1599563495.6098216,0.0,10,0.5,0.5,7.25910546092987,-0.2,-0.00825,-0.2505,0.08883703084161186,10,1,100,0.0469108124302594,-10,-1,-100,15019.625504601514,-0.003919795674568797,0.00812527705021359,0.9999593067093915,25.165190743194554,0.02602742216265674,-45.19514545960171,15.858503010850923,-125.76549530029297,5356.25390625,True
1599563495.664674,0.0,10,0.5,0.5,10.543700244522096,-0.2,-0.00825,-0.2505,0.08002186553353835,10,1,100,-0.10965815181609587,-10,-1,-100,15020.800295482506,-0.002503559010507414,0.008043449629884486,0.9999645169256419,25.288028956171186,0.026341906752073544,-43.291678005782366,15.115487282629003,-132.96522521972656,5356.25390625,True
1599563495.718531,0.0,10,0.5,0.5,9.512040134429933,-0.2,-0.00825,-0.2505,0.08266951592585767,10,1,100,-0.007656892144370479,-10,-1,-100,15021.157713758876,-0.002150378341190073,0.007992191708276261,0.9999657497858053,25.26776147721207,0.026306964844337696,-42.72633139376634,14.92973890413699,-134.59320068359375,5356.25390625,True
1599563495.7733834,0.0,10,0.5,0.5,10.512906557464598,-0.2,-0.00825,-0.2505,0.07846542918327606,10,1,100,-0.04464106369443317,-10,-1,-100,15021.746575774741,-0.0014997066980823965,0.007906751668515205,0.9999676165545922,25.17991664876488,0.026120031834299777,-41.520137881539895,14.558251708278645,-137.64202880859375,5356.25390625,True
1599563495.830238,0.0,10,0.5,0.5,11.611987603950501,-0.2,-0.00825,-0.2505,0.06941702777045794,10,1,100,-0.08140331937048365,-10,-1,-100,15022.563953635516,-0.0005808462688768543,0.007746389466945956,0.9999698275787317,24.95523950329067,0.02559622055726159,-39.5772590642642,14.001048973518072,-141.6985321044922,5356.25390625,True
1599563495.8821013,0.0,10,0.5,0.5,11.690817581558228,-0.2,-0.00825,-0.2505,0.07314112010497106,10,1,100,-0.0524100735677828,-10,-1,-100,15023.089341567247,-1.5692203151619314e-05,0.0076344699408729755,0.9999708568865777,24.762921812937186,0.025126295310871568,-38.23202888767614,13.629601195857248,-144.05816650390625,5356.25390625,True
1599563495.9329674,0.0,10,0.5,0.5,12.07236959476471,-0.2,-0.00825,-0.2505,0.07245377944172425,10,1,100,-0.054779221878239734,-10,-1,-100,15023.676253806683,0.0005125095203786566,0.007526587019386124,0.9999715435060297,24.583920331215783,0.024625084193724826,-36.92292459379952,13.25817021321451,-146.14190673828125,5356.25390625,True
1599563495.9987884,0.0,10,0.5,0.5,11.577816998672487,-0.2,-0.00825,-0.2505,0.08319250590962388,10,1,100,-0.0026344217218087227,-10,-1,-100,15023.676253806683,0.0005125095203786566,0.007526587019386124,0.9999715435060297,24.583920331215783,0.024625084193724826,-36.92292459379952,13.25817021321451,-146.14190673828125,5356.25390625,True
1599563496.0511606,0.0,10,0.5,0.5,12.416055152130127,-0.2,-0.00825,-0.2505,0.0698076136607025,10,1,100,-0.05808024338359164,-10,-1,-100,15024.139142781496,0.0010111740402539702,0.007405411994207087,0.9999720683100386,24.403175016560358,0.024089432628115054,-35.62627943862581,12.886756118949698,-147.9500732421875,5356.25390625,True
1599563496.1010275,0.0,10,0.5,0.5,12.678555886459351,-0.2,-0.00825,-0.2505,0.06925258597494174,10,1,100,-0.05963323647928706,-10,-1,-100,15024.664533001487,0.0014727818053061595,0.007290823146735094,0.9999723370231783,24.217662679451102,0.02352705672285003,-34.338019504552186,12.51535807889504,-149.48236083984375,5356.25390625,True
1599563496.155398,0.0,10,0.5,0.5,13.32227250804901,-0.2,-0.00825,-0.2505,0.053500534442289985,10,1,100,-0.10520601304522062,-10,-1,-100,15025.64988426282,0.0023018208536985684,0.007044209593194155,0.9999725399889562,23.862900906845937,0.02238709881915671,-31.82979670181989,11.77260655421285,-151.7198486328125,5356.25390625,True
1599563496.2092893,0.0,10,0.5,0.5,13.100804356384277,-0.2,-0.00825,-0.2505,0.06507188476495301,10,1,100,-0.0630123080241434,-10,-1,-100,15026.114727661712,0.0026662575642925406,0.0069261923360511655,0.9999724590859115,23.70565852134201,0.02183395362481338,-30.623962482685723,11.40125046250253,-152.42486572265625,5356.25390625,True
1599563496.268095,0.0,10,0.5,0.5,13.052395592880249,-0.2,-0.00825,-0.2505,0.07160524164960547,10,1,100,-0.045597352534116245,-10,-1,-100,15026.343243321753,0.0028345460544006323,0.006879313762412409,0.9999723198123155,23.634043219784687,0.021565480246800647,-30.034876254447816,11.215576688817222,-152.67379760742188,5356.25390625,True
1599563496.3149693,0.0,10,0.5,0.5,13.155070904922487,-0.2,-0.00825,-0.2505,0.060255938203680026,10,1,100,-0.07974882551796135,-10,-1,-100,15026.975080929697,0.0032934717776287705,0.00673453309863773,0.999971899158968,23.450708891467784,0.02080041201076444,-28.32361103190389,10.658569828669583,-153.00701904296875,5356.25390625,True
1599563496.3658717,0.0,10,0.5,0.5,13.028993664932253,-0.2,-0.00825,-0.2505,0.06523446499610254,10,1,100,-0.06345258981495082,-10,-1,-100,15027.372543079546,0.0035581719482854265,0.006649239301109933,0.9999715631102232,23.356846092059392,0.020329034869767483,-27.228561178116635,10.287242222138705,-152.88430786132812,5356.25390625,True
1599563496.4196897,0.0,10,0.5,0.5,12.994679724121093,-0.2,-0.00825,-0.2505,0.0700382460344018,10,1,100,-0.05050492368007315,-10,-1,-100,15027.603011200204,0.0036773396674588056,0.006616367631129053,0.9999713500157592,23.31863674913631,0.020105968344190026,-26.693944998129556,10.101580864105804,-152.71942138671875,5356.25390625,True
1599563496.4715517,0.0,10,0.5,0.5,12.633928820800783,-0.2,-0.00825,-0.2505,0.06295926107817815,10,1,100,-0.07305052248465564,-10,-1,-100,15028.169419943006,0.003987276645048436,0.006523055433644169,0.99997077525934,23.236384828734455,0.019488120613936673,-25.1346115152952,9.54460462232854,-151.81109619140625,5356.25390625,True
1599563496.531391,0.0,10,0.5,0.5,12.66761780395508,-0.2,-0.00825,-0.2505,0.06897094729898129,10,1,100,-0.05200033776744789,-10,-1,-100,15028.338365136646,0.004074513338951057,0.006493790157561341,0.9999706140834541,23.219013680831488,0.019299611202407356,-24.62774624487187,9.35894794327171,-151.37042236328125,5356.25390625,True
1599563496.586245,0.0,10,0.5,0.5,12.000310525512695,-0.2,-0.00825,-0.2505,0.06457213033783243,10,1,100,-0.06692357857257425,-10,-1,-100,15028.904773360817,0.004286247064528614,0.006428135022259075,0.999970153137701,23.190240510704026,0.018786517421785578,-23.134672704277623,8.801982497047343,-149.63455200195312,5356.25390625,True
1599563496.644091,0.0,10,0.5,0.5,12.436535746002198,-0.2,-0.00825,-0.2505,0.07103991617086416,10,1,100,-0.04607771331724604,-10,-1,-100,15028.904773360817,0.004286247064528614,0.006428135022259075,0.999970153137701,23.190240510704026,0.018786517421785578,-23.134672704277623,8.801982497047343,-149.63455200195312,5356.25390625,True
1599563496.700977,0.0,10,0.5,0.5,10.959179957580567,-0.2,-0.00825,-0.2505,0.0631743311761981,10,1,100,-0.06508736734765762,-10,-1,-100,15029.576649155351,0.004456504405478517,0.0063574139660570895,0.9999698609738936,23.181571306430364,0.018226349555719307,-21.17635240421762,8.059369197627273,-146.3549041748047,5356.25390625,True
1599563496.765765,0.0,10,0.5,0.5,10.851266985702516,-0.2,-0.00825,-0.2505,0.06646356248503538,10,1,100,-0.05243736558142763,-10,-1,-100,15029.8500864472,0.004494324987056538,0.006323648559251202,0.9999699058030745,23.173685323098557,0.017998600438878347,-20.19451061204272,7.6880646338474365,-144.30154418945312,5356.25390625,True
1599563496.8405647,0.0,10,0.5,0.5,10.84979598121643,-0.2,-0.00825,-0.2505,0.06859973517804512,10,1,100,-0.049457655136267445,-10,-1,-100,15030.01707771956,0.004499957177696225,0.0063129202537066656,0.9999699482600811,23.164933377153694,0.017897153267780144,-19.699717340612466,7.502412830946413,-143.17138671875,5356.25390625,True
1599563496.910379,0.0,10,0.5,0.5,10.013679583358767,-0.2,-0.00825,-0.2505,0.06687211342427161,10,1,100,-0.04782137300917554,-10,-1,-100,15030.293444251176,0.004488688048828472,0.006287976499548879,0.9999701560702405,23.130594833665526,0.017716568344258686,-18.69756694623353,7.131110344765267,-140.7043914794922,5356.25390625,True
1599563496.9762027,0.0,10,0.5,0.5,10.01925993423462,-0.2,-0.00825,-0.2505,0.06790241927070885,10,1,100,-0.04718017329566742,-10,-1,-100,15030.458483808208,0.004471527737670259,0.006275072736735855,0.9999703140102909,23.102052287043705,0.017636056943360852,-18.18859142265095,6.9454595205320295,-139.36753845214844,5356.25390625,True
1599563497.0545034,0.0,10,0.5,0.5,7.623574969100952,-0.2,-0.00825,-0.2505,0.06265483131801755,10,1,100,-0.03305105623873651,-10,-1,-100,15031.005356231704,0.00432665061265489,0.006215976849667162,0.9999713204518821,22.872835937184682,0.017351826346956346,-16.083612744841822,6.20285854106845,-133.3311004638672,5356.25390625,True
1599563497.1043723,0.0,10,0.5,0.5,7.573801337432862,-0.2,-0.00825,-0.2505,0.06439893796390364,10,1,100,-0.034706440239392004,-10,-1,-100,15031.214339070604,0.004209402798151244,0.006178472822550462,0.9999720533103232,22.6618162149109,0.01720705307459199,-14.981740313493152,5.831557816621903,-129.89956665039062,5356.25390625,True
1599563497.1728425,0.0,10,0.5,0.5,7.595822691345216,-0.2,-0.00825,-0.2505,0.06571531203584002,10,1,100,-0.038830107062232604,-10,-1,-100,15031.319806012325,0.004140099823216387,0.00615665854638115,0.9999724771857459,22.52527195136937,0.017126754319854266,-14.417571522838617,5.645906892295762,-128.08047485351562,5356.25390625,True
1599563497.2326832,0.0,10,0.5,0.5,5.387693201446534,-0.2,-0.00825,-0.2505,0.05862602937282717,10,1,100,-0.01922531348310149,-10,-1,-100,15031.635232194676,0.003898812098479629,0.006072685845300914,0.9999739605363956,21.96358848833979,0.01682043286359097,-12.67169882919817,5.088948177191128,-122.21011352539062,5356.25390625,True
1599563497.307004,0.0,10,0.5,0.5,5.8920223472595215,-0.2,-0.00825,-0.2505,0.0632367744693324,10,1,100,-0.032962808477195696,-10,-1,-100,15031.739722157712,0.0038046981531798412,0.006038586026266163,0.9999745295510114,21.717465132006563,0.01668532519991683,-12.072719074130399,4.9032921125993205,-120.11561584472656,5356.25390625,True
1599563497.35687,0.0,10,0.5,0.5,3.3755595600128174,-0.2,-0.00825,-0.2505,0.05269603825775551,10,1,100,-0.00867357362131975,-10,-1,-100,15031.992647761595,0.003498766566864206,0.00591211545158023,0.9999764024832776,20.788451956318927,0.016145995285031602,-10.243862790174582,4.346309055650946,-113.41909790039062,5356.25390625,True
1599563497.4226952,0.0,10,0.5,0.5,3.9582443313598636,-0.2,-0.00825,-0.2505,0.059741270613328325,10,1,100,-0.02696671413025432,-10,-1,-100,15032.098113990505,0.0033878188910572288,0.005861594585565931,0.9999770819334189,20.438232163079157,0.015931976697536147,-9.64114084663397,4.160641232748,-111.04924011230469,5356.25390625,True
1599563497.4875548,0.0,10,0.5,0.5,1.1355850299835206,-0.2,-0.00825,-0.2505,0.04499689595882207,10,1,100,0.0007144071358643825,-10,-1,-100,15032.349085476133,0.0030363167252643515,0.005682046805033499,0.9999792473470884,19.307349173651655,0.015195163208565446,-7.888515895760105,3.6036089818949324,-103.52676391601562,5356.25390625,True
1599563497.5443687,0.0,10,0.5,0.5,0.572997547531128,-0.2,-0.00825,-0.2505,0.0468531455375057,10,1,100,-0.006386499919317418,-10,-1,-100,15032.433065966587,0.0027826535845474174,0.005536270067490841,0.9999808030921236,18.332254924175917,0.014494274302889744,-6.7182793404610575,3.2322246736056996,-98.16769409179688,5356.25390625,True
1599563497.6177313,0.0,10,0.5,0.5,1.8803517631530762,-0.2,-0.00825,-0.2505,0.06135564864856564,10,1,100,-0.03158221054458272,-10,-1,-100,15032.433065966587,0.0027826535845474174,0.005536270067490841,0.9999808030921236,18.332254924175917,0.014494274302889744,-6.7182793404610575,3.2322246736056996,-98.16769409179688,5356.25390625,True
1599563497.6736183,0.0,10,0.5,0.5,-0.6919384815216063,-0.2,-0.00825,-0.2505,0.04340334566442966,10,1,100,-0.004107309582753363,-10,-1,-100,15032.579546110006,0.0025344170977608985,0.005373738951879828,0.9999823496740587,17.183194476552345,0.013617427995257229,-5.573632243885829,2.860810426369853,-92.53328704833984,5356.25390625,True
1599563497.7225132,0.0,10,0.5,0.5,-1.9494370477676393,-0.2,-0.00825,-0.2505,0.039405812776569335,10,1,100,-0.00046410844365564474,-10,-1,-100,15032.665479275165,0.002277256857158533,0.005190407854978165,0.9999839367547388,16.102498622478812,0.012757663826562677,-4.5449856338302315,2.4893725765487567,-86.68365478515625,5356.25390625,True
1599563497.7714045,0.0,10,0.5,0.5,-6.0078888544082645,-0.2,-0.00825,-0.2505,0.009990411781691723,10,1,100,0.031382881265929696,-10,-1,-100,15032.832463441184,0.0017557132282883274,0.0047572287259937404,0.9999871430403036,18.350750911744115,0.014493406284386563,-3.633904627370717,1.7464698709758162,-74.5013427734375,5356.25390625,True
1599563497.8182867,0.0,10,0.5,0.5,-5.661518060493469,-0.2,-0.00825,-0.2505,0.02654119959763312,10,1,100,0.007618853376265562,-10,-1,-100,15032.915466908831,0.0014997868979441126,0.004515163434171356,0.9999886819051621,19.201245365239345,0.015160630653780266,-2.9936739399467,1.3750259849666926,-68.5943603515625,5356.25390625,True
1599563497.866652,0.0,10,0.5,0.5,-6.768514591407776,-0.2,-0.00825,-0.2505,0.023930619206370598,10,1,100,0.008977883616134623,-10,-1,-100,15032.938900197973,0.001256952709269231,0.004272787458422374,0.9999900816294238,19.83492350499727,0.01565419748166052,-2.257124795616407,1.0035862350745823,-62.950714111328125,5356.25390625,True
1599563497.9135292,0.0,10,0.5,0.5,-6.626917853355409,-0.2,-0.00825,-0.2505,0.033523827012230875,10,1,100,-0.0016500996791558586,-10,-1,-100,15032.980890319217,0.0011351285181073526,0.0041412619137655236,0.9999907806740065,20.061318394301612,0.015830858633086177,-1.86043575288025,0.8178649953127453,-60.2315673828125,5356.25390625,True
1599563497.9625509,0.0,10,0.5,0.5,-7.183652287101745,-0.2,-0.00825,-0.2505,0.03192959278037031,10,1,100,-0.0005859631264587863,-10,-1,-100,15032.95940488868,0.0010168540466163596,0.00400881006518585,0.9999914476882834,20.23311989383472,0.015967202889524728,-1.4502872875958337,0.6321414438236199,-57.5811767578125,5356.25390625,True
1599563498.0094604,0.0,10,0.5,0.5,-8.8587261926651,-0.2,-0.00825,-0.2505,0.015696895271924714,10,1,100,0.012873305738822415,-10,-1,-100,15032.980885887635,0.0007891302327078468,0.003742513665964259,0.9999926854057162,20.42937839167024,0.01612925296978007,-0.6038866280097193,0.26068520891259217,-52.487091064453125,5356.25390625,True
1599563498.056878,0.0,10,0.5,0.5,-9.795381362342834,-0.2,-0.00825,-0.2505,0.011406536442478181,10,1,100,0.014385594611564797,-10,-1,-100,15033.001390677295,0.0005704033998502285,0.003463185980166998,0.9999938404724442,20.451826084591623,0.01615897693881335,0.2569277627259604,-0.11078672921792654,-47.668853759765625,5356.25390625,True
1599563498.0997324,0.0,10,0.5,0.5,-12.598593412208558,-0.2,-0.00825,-0.2505,-0.023743735985566818,10,1,100,0.037666398774372015,-10,-1,-100,15032.918377507012,0.00016192828684932545,0.002891588411084828,0.9999958062390516,20.35665913914833,0.01611856275128736,1.9708588342290096,-0.8537716817330037,-38.859710693359375,5356.25390625,True
1599563498.1461885,0.0,10,0.5,0.5,-10.440832160377502,-0.2,-0.00825,-0.2505,0.033151552757009574,10,1,100,-0.002919039995948476,-10,-1,-100,15032.918377507012,0.00016192828684932545,0.002891588411084828,0.9999958062390516,20.35665913914833,0.01611856275128736,1.9708588342290096,-0.8537716817330037,-38.859710693359375,5356.25390625,True
1599563498.1950908,0.0,10,0.5,0.5,-12.283015906524659,-0.2,-0.00825,-0.2505,0.0009437717794269565,10,1,100,0.018443332763817873,-10,-1,-100,15032.87735989422,-3.0118293865903568e-05,0.0026010469026893452,0.9999966168182262,20.180544372935508,0.016000030577657087,2.8040414459342053,-1.2252803436293414,-34.868804931640625,5356.25390625,True
1599563498.2445052,0.0,10,0.5,0.5,-12.99985333709717,-0.2,-0.00825,-0.2505,-0.000456896472499347,10,1,100,0.02047348624594262,-10,-1,-100,15032.833412663196,-0.0002210644214890418,0.002326538875450748,0.9999972691699625,19.942629709685214,0.015835495213981993,3.611248941127488,-1.5967964117863493,-31.153350830078125,5356.25390625,True
1599563498.29138,0.0,10,0.5,0.5,-15.079709226226806,-0.2,-0.00825,-0.2505,-0.03627504887033743,10,1,100,0.03992631180543499,-10,-1,-100,15032.688878659392,-0.0005696986083693005,0.001753576274208534,0.9999983002054285,19.350079327301913,0.015437250181294692,5.13469658300454,-2.339840060673387,-24.54998779296875,5356.25390625,True
1599563498.3402789,0.0,10,0.5,0.5,-13.461903392791749,-0.2,-0.00825,-0.2505,0.02074505253788767,10,1,100,0.005269841668040463,-10,-1,-100,15032.688878659392,-0.0005696986083693005,0.001753576274208534,0.9999983002054285,19.350079327301913,0.015437250181294692,5.13469658300454,-2.339840060673387,-24.54998779296875,5356.25390625,True
1599563498.3891184,0.0,10,0.5,0.5,-14.79476569366455,-0.2,-0.00825,-0.2505,-0.009853608632622,10,1,100,0.024048807269371524,-10,-1,-100,15032.583408952807,-0.000738755885365366,0.0014776968191895497,0.999998635324995,19.017476158727497,0.01522582342324139,5.847870287058017,-2.71136470096229,-21.66168212890625,5356.25390625,True
1599563498.436994,0.0,10,0.5,0.5,-15.280156008911135,-0.2,-0.00825,-0.2505,-0.010882324848575379,10,1,100,0.02673037440234024,-10,-1,-100,15032.41543981561,-0.0009151186707492568,0.0012199667718405113,0.9999988371187708,18.72028336988185,0.015053540697112879,6.545445368591382,-3.082891338252736,-19.048828125,5356.25390625,True
1599563498.4878893,0.0,10,0.5,0.5,-15.710205053710938,-0.2,-0.00825,-0.2505,-0.015233398082859055,10,1,100,0.02663124560036187,-10,-1,-100,15032.310947330086,-0.0010727909658826583,0.0009486468296600296,0.9999989745938422,18.470865204858818,0.014929108415713892,7.2367479285525445,-3.4544213616737767,-16.7119140625,5356.25390625,True
1599563498.5387561,0.0,10,0.5,0.5,-16.083052658843997,-0.2,-0.00825,-0.2505,-0.015701760260830307,10,1,100,0.029701276827293698,-10,-1,-100,15032.143955047126,-0.0012423461351591394,0.0007002743777292206,0.999998983095421,18.242132689716694,0.014829396960094684,7.916069328963373,-3.825956257140332,-14.650360107421875,5356.25390625,True
1599563498.592575,0.0,10,0.5,0.5,-16.39843024520874,-0.2,-0.00825,-0.2505,-0.017894666068782983,10,1,100,0.03127244856641871,-10,-1,-100,15031.97598645289,-0.0014091226234616138,0.00045705747008567695,0.9999989027353485,18.0412961084992,0.014758095063709923,8.58946401630533,-4.197497391076089,-12.86444091796875,5356.25390625,True
1599563498.6424415,0.0,10,0.5,0.5,-17.20917887878418,-0.2,-0.00825,-0.2505,-0.044311440017345785,10,1,100,0.05220953601223721,-10,-1,-100,15031.64200310933,-0.001749646543325567,-1.988090085388988e-06,0.999998469365339,17.77893216916382,0.014736448797643648,9.963782880725871,-4.940603364865575,-10.11932373046875,5356.25390625,True
1599563498.6962967,0.0,10,0.5,0.5,-16.977356540679935,-0.2,-0.00825,-0.2505,-0.022152181139753143,10,1,100,0.037674443517263664,-10,-1,-100,15031.411534909043,-0.0019253387434019695,-0.00021522390362536107,0.9999981233729365,17.720717590480803,0.014786168890953284,10.67846259893715,-5.312168910633093,-9.160125732421875,5356.25390625,True
1599563498.746168,0.0,10,0.5,0.5,-16.758287102508547,-0.2,-0.00825,-0.2505,-0.0011102268663874051,10,1,100,0.020294745554577016,-10,-1,-100,15031.411534909043,-0.0019253387434019695,-0.00021522390362536107,0.9999981233729365,17.720717590480803,0.014786168890953284,10.67846259893715,-5.312168910633093,-9.160125732421875,5356.25390625,True
1599563498.7977452,0.0,10,0.5,0.5,-17.26840973892212,-0.2,-0.00825,-0.2505,-0.04259189101863077,10,1,100,0.06225379940109542,-10,-1,-100,15030.94962357392,-0.0023052353471685796,-0.0005900192479375043,0.999997168879633,17.73018264468105,0.014990776321004123,12.17989955730317,-6.055324889009518,-8.06805419921875,5356.25390625,True
1599563498.8506029,0.0,10,0.5,0.5,-17.068192957305907,-0.2,-0.00825,-0.2505,-0.024596731417426354,10,1,100,0.04554191764807289,-10,-1,-100,15030.718179942342,-0.00249709193762093,-0.0007650193868265525,0.9999965896327812,17.80321485317537,0.015153478882304795,12.981192559258181,-6.426913675466733,-7.9354248046875,5356.25390625,True
1599563498.902464,0.0,10,0.5,0.5,-16.984472359466555,-0.2,-0.00825,-0.2505,-0.022930164943840595,10,1,100,0.04996344245325195,-10,-1,-100,15030.426189491176,-0.0027099505241435567,-0.0009066701854557848,0.9999959170503306,17.923143808202102,0.01536145557066371,13.824946563266389,-6.798508128431864,-8.07794189453125,5356.25390625,True
1599563498.9583187,0.0,10,0.5,0.5,-17.03137947616577,-0.2,-0.00825,-0.2505,-0.009003521781381899,10,1,100,0.02887470326486709,-10,-1,-100,15030.426189491176,-0.0027099505241435567,-0.0009066701854557848,0.9999959170503306,17.923143808202102,0.01536145557066371,13.824946563266389,-6.798508128431864,-8.07794189453125,5356.25390625,True
1599563499.0082195,0.0,10,0.5,0.5,-16.852039298248293,-0.2,-0.00825,-0.2505,-0.02427989746638487,10,1,100,0.05221685387911357,-10,-1,-100,15030.132245924906,-0.0029205202280427117,-0.001043613021721906,0.9999951907051646,18.089157976481534,0.015617865802023425,14.716445295563323,-7.1701068056237425,-8.496124267578125,5356.25390625,True
1599563499.0680213,0.0,10,0.5,0.5,-16.214558016967775,-0.2,-0.00825,-0.2505,-0.03501793840124528,10,1,100,0.07995189025087011,-10,-1,-100,15029.544359350693,-0.003362404172001403,-0.0012639139178704,0.9999935483590842,18.55410461077176,0.016289130349361372,16.66125597518713,-7.9133100702284125,-10.15875244140625,5356.25390625,True
1599563499.1288612,0.0,10,0.5,0.5,-16.074170362091067,-0.2,-0.00825,-0.2505,-0.021714385610506065,10,1,100,0.06150949759565895,-10,-1,-100,15029.190846111393,-0.0035945314077920733,-0.001341460445093584,0.9999926398868307,18.846935235697696,0.016707996677986336,17.720071290618677,-8.284911404825099,-11.403106689453125,5356.25390625,True
1599563499.1797237,0.0,10,0.5,0.5,-16.0603064743042,-0.2,-0.00825,-0.2505,-0.017106486276612896,10,1,100,0.05153208551893757,-10,-1,-100,15029.043386045378,-0.003712865686191279,-0.0013684322777927412,0.9999921709801017,19.006379402568292,0.016938419892839365,18.271334861935138,-8.47071127262809,-12.12847900390625,5356.25390625,True
1599563499.617389,0.0,10,0.5,0.5,-15.493705378723144,-0.2,-0.00825,-0.2505,-0.019401205044168635,10,1,100,0.06604400700587312,-10,-1,-100,15028.685966678546,-0.003950584117214638,-0.0014125709834172933,0.9999911987254436,19.363929224640188,0.017455183012903795,19.432979906209017,-8.842308211989899,-13.785858154296875,5356.25390625,True
1599563499.661274,0.0,10,0.5,0.5,-14.552517765808105,-0.2,-0.00825,-0.2505,-0.01800523883282157,10,1,100,0.08250398448948686,-10,-1,-100,15028.120542056742,-0.00431448680856526,-0.001438917980173011,0.9999896573058269,19.99907497859935,0.018377915672900962,21.337820003940784,-9.399692151962167,-16.788177490234375,5356.25390625,True
1599563499.7041562,0.0,10,0.5,0.5,-14.241607603454591,-0.2,-0.00825,-0.2505,-0.013535953741516376,10,1,100,0.07326123291775932,-10,-1,-100,15027.766052462975,-0.004559110469990881,-0.0014211274817785729,0.9999885973891918,20.446837132568717,0.01905483446599187,22.67963041500884,-9.7712707162061,-19.1337890625,5356.25390625,True
1599563499.749544,0.0,10,0.5,0.5,-13.639388818359375,-0.2,-0.00825,-0.2505,-0.010244765079835088,10,1,100,0.07558685995420174,-10,-1,-100,15027.344180242624,-0.00480058870332472,-0.001374278851555762,0.999987532775154,20.927107679888472,0.019790791812745807,24.09687964810796,-10.142837786460998,-21.75457763671875,5356.25390625,True
1599563499.8063931,0.0,10,0.5,0.5,-14.284495555114747,-0.2,-0.00825,-0.2505,-0.014990554048589105,10,1,100,0.05166938629738821,-10,-1,-100,15027.344180242624,-0.00480058870332472,-0.001374278851555762,0.999987532775154,20.927107679888472,0.019790791812745807,24.09687964810796,-10.142837786460998,-21.75457763671875,5356.25390625,True
1599563499.8502748,0.0,10,0.5,0.5,-12.968524845886233,-0.2,-0.00825,-0.2505,-0.0073679823953752555,10,1,100,0.07819085448751756,-10,-1,-100,15026.925237966236,-0.0050397923794357315,-0.0013045576468300906,0.9999864492192473,21.428370000852414,0.020569336599704228,25.57994803217874,-10.514391020084602,-24.650665283203125,5356.25390625,True
1599563499.8941581,0.0,10,0.5,0.5,-12.251653832244873,-0.2,-0.00825,-0.2505,-0.003528990094301434,10,1,100,0.07999195394491034,-10,-1,-100,15026.506295512547,-0.005271505860189956,-0.001205913087559378,0.9999853783928999,21.917614185444272,0.021349123530349713,27.090703008886653,-10.885928716296888,-27.82196044921875,5356.25390625,True
1599563499.9360452,0.0,10,0.5,0.5,-9.800770808410645,-0.2,-0.00825,-0.2505,0.016223876107854873,10,1,100,0.1059214030349434,-10,-1,-100,15025.603957597748,-0.00571573948384669,-0.0009365171590520025,0.9999832264882066,22.797537679744714,0.022786880198831978,30.10663839068151,-11.628951505073942,-34.990325927734375,5356.25390625,True
1599563499.976936,0.0,10,0.5,0.5,-11.575960312652589,-0.2,-0.00825,-0.2505,-0.010682977067000844,10,1,100,0.061733374200454494,-10,-1,-100,15025.603957597748,-0.00571573948384669,-0.0009365171590520025,0.9999832264882066,22.797537679744714,0.022786880198831978,30.10663839068151,-11.628951505073942,-34.990325927734375,5356.25390625,True
1599563500.019968,0.0,10,0.5,0.5,-9.755861925506593,-0.2,-0.00825,-0.2505,0.008297556216933472,10,1,100,0.08413276589738211,-10,-1,-100,15025.12056171964,-0.0059174419464768915,-0.0007643349867308192,0.9999821996779934,23.15195028358874,0.023364403380251544,31.554064308606538,-12.000435529474238,-38.9873046875,5356.25390625,True
1599563500.0674226,0.0,10,0.5,0.5,-6.761739496612548,-0.2,-0.00825,-0.2505,0.03696709653590643,10,1,100,0.10205094852684321,-10,-1,-100,15024.095176046016,-0.00626169623071737,-0.00034772273380368206,0.9999803349312498,23.587172507253683,0.0240100215033802,34.14333575214573,-12.743356024929746,-47.806854248046875,5356.25390625,True
1599563500.1122687,0.0,10,0.5,0.5,-8.942969339752198,-0.2,-0.00825,-0.2505,-0.004587643931845929,10,1,100,0.0678566313141456,-10,-1,-100,15024.095176046016,-0.00626169623071737,-0.00034772273380368206,0.9999803349312498,23.587172507253683,0.0240100215033802,34.14333575214573,-12.743356024929746,-47.806854248046875,5356.25390625,True
1599563500.1581807,0.0,10,0.5,0.5,-4.44816541519165,-0.2,-0.00825,-0.2505,0.04931515678102738,10,1,100,0.09355534027561277,-10,-1,-100,15023.06783634401,-0.006493550667256025,0.00014131073154392127,0.9999789066930406,23.56806403066558,0.023780381879631402,36.11100899047892,-13.486238781028293,-57.7274169921875,5356.25390625,True
1599563500.211005,0.0,10,0.5,0.5,-5.706628269195557,-0.2,-0.00825,-0.2505,0.015286976857750855,10,1,100,0.07607934456268473,-10,-1,-100,15022.79635217844,-0.006543696157448851,0.00027511912054529916,0.9999785519450247,23.474996318761008,0.023569874797546353,36.465445602641324,-13.671958756063415,-60.37957763671875,5356.25390625,True
1599563500.2548873,0.0,10,0.5,0.5,-5.113342142486573,-0.2,-0.00825,-0.2505,0.017071968721892514,10,1,100,0.07569838508160216,-10,-1,-100,15022.521939152502,-0.006584235055565102,0.0004114908566095659,0.9999782390252341,23.336472687542006,0.02329268324872025,36.74444960590661,-13.85768012243315,-63.10052490234375,5356.25390625,True
1599563500.2987726,0.0,10,0.5,0.5,-3.2161116950988764,-0.2,-0.00825,-0.2505,0.032482342067284266,10,1,100,0.07583986605081368,-10,-1,-100,15021.91451873025,-0.006620753293252489,0.0006739360382550377,0.9999778554728331,22.91175725830493,0.02254606321551725,37.046354099019126,-14.229129924485528,-68.74917602539062,5356.25390625,True
1599563500.3446474,0.0,10,0.5,0.5,0.8667425834655762,-0.2,-0.00825,-0.2505,0.0671756711835575,10,1,100,0.072903321352809,-10,-1,-100,15020.761199807632,-0.006625818593064783,0.001226117837457873,0.9999772973238045,21.596321291656178,0.020603614207365374,36.75036018185833,-14.972074760608733,-80.87228393554688,5356.25390625,True
1599563500.3895268,0.0,10,0.5,0.5,0.7905508331298827,-0.2,-0.00825,-0.2505,0.041278419062623514,10,1,100,0.06754306090021822,-10,-1,-100,15020.153778295964,-0.0065804625772043395,0.001490460789338308,0.9999772377603929,20.610515884667965,0.019456308528818685,35.947072274482856,-15.343574894131116,-87.3470458984375,5356.25390625,True
1599563500.4334095,0.0,10,0.5,0.5,2.134636728668213,-0.2,-0.00825,-0.2505,0.0416821897397585,10,1,100,0.06432867913723467,-10,-1,-100,15019.546356102685,-0.006509222071219215,0.00173223686270503,0.9999773144344221,19.620041582156908,0.01848385890814672,35.05212531658949,-15.715089671041566,-93.83499145507812,5356.25390625,True
1599563500.479211,0.0,10,0.5,0.5,3.3961114646911623,-0.2,-0.00825,-0.2505,0.043866805437324005,10,1,100,0.0609882514896473,-10,-1,-100,15018.876433707075,-0.006413369102993423,0.0019694672957237757,0.9999774946944157,21.005449045875196,0.01994036805953041,38.418801965237236,-16.08658380802714,-100.135009765625,5356.25390625,True
1599563500.5260868,0.0,10,0.5,0.5,4.597360277557373,-0.2,-0.00825,-0.2505,0.04383469136641523,10,1,100,0.05762906419287829,-10,-1,-100,15018.268034614855,-0.006295241131766152,0.002182354104839415,0.9999778033884822,22.232289069430117,0.02140245428562158,41.606500545679864,-16.45804206981331,-106.192626953125,5356.25390625,True
1599563500.5709662,0.0,10,0.5,0.5,5.735322252655029,-0.2,-0.00825,-0.2505,0.043745186272891826,10,1,100,0.05447885471823098,-10,-1,-100,15017.597134818905,-0.006159183303698158,0.002372773815150108,0.9999782169654766,23.226747730859692,0.022738889276540237,44.45372312671332,-16.829462685104982,-111.98003387451172,5356.25390625,True
1599563500.6148493,0.0,10,0.5,0.5,6.82201642665863,-0.2,-0.00825,-0.2505,0.04346972526425254,10,1,100,0.05153929439838419,-10,-1,-100,15016.864711627364,-0.006008864287025938,0.0025409052730367863,0.9999787184487345,24.004996069181683,0.02389584656294306,46.96250171562236,-17.200847665680097,-117.49279022216797,5356.25390625,True
1599563500.6577368,0.0,10,0.5,0.5,5.490377394485473,-0.2,-0.00825,-0.2505,0.026896538929733985,10,1,100,0.06652272742758322,-10,-1,-100,15016.864711627364,-0.006008864287025938,0.0025409052730367863,0.9999787184487345,24.004996069181683,0.02389584656294306,46.96250171562236,-17.200847665680097,-117.49279022216797,5356.25390625,True
1599563500.7016165,0.0,10,0.5,0.5,9.03012531528473,-0.2,-0.00825,-0.2505,0.04996383163053479,10,1,100,0.03947313040627516,-10,-1,-100,15015.856896127574,-0.0057634450703507945,0.002748548128359983,0.9999796138842569,25.00075366740501,0.02539422300206801,50.50313824853067,-17.757864619851908,-125.24557495117188,5356.25390625,True
1599563500.7454996,0.0,10,0.5,0.5,9.312612331581118,-0.2,-0.00825,-0.2505,0.04140567257466794,10,1,100,0.044419883570648314,-10,-1,-100,15015.122519132798,-0.005586053347581524,0.0028573883169897814,0.9999803154762616,25.448796146144204,0.026066184626221612,52.489166130628,-18.12917699007643,-130.0697479248047,5356.25390625,True
1599563500.7903829,0.0,10,0.5,0.5,10.203938551139832,-0.2,-0.00825,-0.2505,0.0399619470828433,10,1,100,0.042389382250282555,-10,-1,-100,15014.39009542577,-0.005407269678465836,0.002941224209201433,0.999981055137934,25.747709693690535,0.026469671584513646,54.1995778307618,-18.50047106324609,-134.6184539794922,5356.25390625,True
1599563500.8332653,0.0,10,0.5,0.5,10.086879887580873,-0.2,-0.00825,-0.2505,0.035401928060811036,10,1,100,0.05044025307065618,-10,-1,-100,15013.990680972347,-0.00531903657665006,0.002974424750673784,0.9999814301512298,25.847838992923204,0.026575218518362725,54.95953558877362,-18.686113104831218,-136.78948974609375,5356.25390625,True
1599563500.8751528,0.0,10,0.5,0.5,12.331802578926087,-0.2,-0.00825,-0.2505,0.03943130165119507,10,1,100,0.029208031651685888,-10,-1,-100,15012.859817433637,-0.005046951222100129,0.003039888671960016,0.9999826435294884,26.022569221671827,0.02658727950419657,56.990280022883596,-19.2430260535198,-142.8893280029297,5356.25390625,True
1599563500.9182827,0.0,10,0.5,0.5,11.698189192771911,-0.2,-0.00825,-0.2505,0.03421070542370585,10,1,100,0.04648032849932357,-10,-1,-100,15012.460403389763,-0.004957951117350643,0.003050752587598275,0.9999830556711284,26.048843561210433,0.026504241365004632,57.60165334955647,-19.42866077716363,-144.7848358154297,5356.25390625,True
1599563500.9601705,0.0,10,0.5,0.5,14.36561637134552,-0.2,-0.00825,-0.2505,0.03199042586073142,10,1,100,0.017310312527187156,-10,-1,-100,15010.866648676572,-0.004613183075091363,0.0030394615282497662,0.9999847399913331,25.987650832300357,0.02578882204956478,59.67759523442244,-20.171194505480578,-151.6781005859375,5356.25390625,True
1599563501.0020587,0.0,10,0.5,0.5,14.042919558906556,-0.2,-0.00825,-0.2505,0.02884209269984592,10,1,100,0.03329947015277997,-10,-1,-100,15010.069771527313,-0.004446642704230747,0.0029997965297217898,0.9999856141912448,25.887625677099916,0.025269916848576764,60.55000291686762,-20.542461512385223,-154.71148681640625,5356.25390625,True
1599563501.043986,0.0,10,0.5,0.5,13.318309756851196,-0.2,-0.00825,-0.2505,0.03287129482410074,10,1,100,0.04978225317889477,-10,-1,-100,15010.069771527313,-0.004446642704230747,0.0029997965297217898,0.9999856141912448,25.887625677099916,0.025269916848576764,60.55000291686762,-20.542461512385223,-154.71148681640625,5356.25390625,True
1599563501.0870144,0.0,10,0.5,0.5,15.709541419029236,-0.2,-0.00825,-0.2505,0.020109448810655243,10,1,100,0.016290910809279396,-10,-1,-100,15008.351017254172,-0.004143596156854967,0.0028833625739116625,0.999987258334403,25.624791221374586,0.024089776835437518,62.11860325660467,-21.284998825763257,-159.95127868652344,5356.25390625,True
1599563501.1339016,0.0,10,0.5,0.5,15.426097534561158,-0.2,-0.00825,-0.2505,0.021788612181757885,10,1,100,0.031034623865653237,-10,-1,-100,15007.492616636911,-0.004003828748962357,0.0027924673199116847,0.9999880856698325,25.487365271745247,0.02348608015642533,62.87205561398405,-21.65626846297382,-162.15792846679688,5356.25390625,True
1599563501.175789,0.0,10,0.5,0.5,15.773637979507447,-0.2,-0.00825,-0.2505,0.0207627381021371,10,1,100,0.03029943721642138,-10,-1,-100,15006.632263088948,-0.003871683605268229,0.002700469216286469,0.9999888587039721,25.360109648024917,0.022901990645105126,63.639821031868806,-22.027537858867696,-164.0887908935547,5356.25390625,True
1599563501.217677,0.0,10,0.5,0.5,16.063792076492312,-0.2,-0.00825,-0.2505,0.01726347834500553,10,1,100,0.02961346290259144,-10,-1,-100,15005.772885788232,-0.0037468740442772167,0.002585165778017534,0.9999896388727216,25.252126839742886,0.02235231493177536,64.44641755035654,-22.398805784177156,-165.7442169189453,5356.25390625,True
1599563501.2625546,0.0,10,0.5,0.5,16.29637569999695,-0.2,-0.00825,-0.2505,0.01493398918133089,10,1,100,0.029080866373426377,-10,-1,-100,15004.84905573714,-0.003630078470960422,0.002459490985767991,0.9999903866709846,25.170842894064936,0.02184636110526898,65.31356724922242,-22.77007092554735,-167.12399291992188,5356.25390625,True
1599563501.3044426,0.0,10,0.5,0.5,15.975767776870729,-0.2,-0.00825,-0.2505,0.02744997502979461,10,1,100,0.0405915278945369,-10,-1,-100,15004.84905573714,-0.003630078470960422,0.002459490985767991,0.9999903866709846,25.170842894064936,0.02184636110526898,65.31356724922242,-22.77007092554735,-167.12399291992188,5356.25390625,True
1599563501.3463953,0.0,10,0.5,0.5,16.493211372375487,-0.2,-0.00825,-0.2505,0.01221049758167063,10,1,100,0.02829924194125754,-10,-1,-100,15003.927178891376,-0.0035196184829771,0.0023214779159543113,0.9999911114735069,25.12245446348868,0.021389041033737538,66.26101998781604,-23.14133186028267,-168.22821044921875,5356.25390625,True
1599563501.3863227,0.0,10,0.5,0.5,16.858449007034302,-0.2,-0.00825,-0.2505,-0.00906929966295715,10,1,100,0.01768515343862964,-10,-1,-100,15002.01897208253,-0.0033240161735450754,0.002003221763601299,0.9999924689811638,25.14336363220407,0.020621877845508292,68.46538989201562,-23.8838354051085,-169.61001586914062,5356.25390625,True
1599563501.427215,0.0,10,0.5,0.5,16.527100579452515,-0.2,-0.00825,-0.2505,0.02265269159587924,10,1,100,0.03711646769167748,-10,-1,-100,15002.01897208253,-0.0033240161735450754,0.002003221763601299,0.9999924689811638,25.14336363220407,0.020621877845508292,68.46538989201562,-23.8838354051085,-169.61001586914062,5356.25390625,True
1599563501.4688148,0.0,10,0.5,0.5,16.66533884162903,-0.2,-0.00825,-0.2505,-0.016769362939056936,10,1,100,0.017030089096151835,-10,-1,-100,15000.109789177077,-0.00314243330134092,0.0016457454267074431,0.9999937082976759,25.341000808522764,0.02002575189024305,71.17151556794862,-24.626304222082503,-169.88958740234375,5356.25390625,True
1599563501.5086708,0.0,10,0.5,0.5,16.484685756301882,-0.2,-0.00825,-0.2505,-0.0035966708925260667,10,1,100,0.02684612444898995,-10,-1,-100,14999.062913063564,-0.0030677802929110253,0.001441749640047868,0.9999942550245224,25.509559883987546,0.01977488384630132,72.7367885941142,-24.99752172615623,-169.61624145507812,5356.25390625,True
1599563501.5485642,0.0,10,0.5,0.5,16.313802951049805,-0.2,-0.00825,-0.2505,-0.005469368220949941,10,1,100,0.02456837330146952,-10,-1,-100,14998.077559959609,-0.002980185107419066,0.0012405849609479133,0.9999947897092665,25.724197765880483,0.0195437904243192,74.45029283707512,-25.36872586665274,-169.06723022460938,5356.25390625,True
1599563501.5904517,0.0,10,0.5,0.5,16.457030438232422,-0.2,-0.00825,-0.2505,0.014491911453149146,10,1,100,0.033225527486511114,-10,-1,-100,14998.077559959609,-0.002980185107419066,0.0012405849609479133,0.9999947897092665,25.724197765880483,0.0195437904243192,74.45029283707512,-25.36872586665274,-169.06723022460938,5356.25390625,True
1599563501.630345,0.0,10,0.5,0.5,15.594233109664918,-0.2,-0.00825,-0.2505,-0.03424417926236199,10,1,100,0.015386748198917034,-10,-1,-100,14995.981854460435,-0.002818824839802619,0.0007988567583117562,0.9999957080179905,26.284534751573393,0.019103273811188464,78.3242903369795,-26.111087374377636,-167.14291381835938,5356.25390625,True
1599563501.6712363,0.0,10,0.5,0.5,15.783169360351563,-0.2,-0.00825,-0.2505,-0.0032515069487804946,10,1,100,0.027292480701265154,-10,-1,-100,14995.457439330523,-0.0027812113003585362,0.000680661148783905,0.9999959007736497,26.44957269719522,0.018990911430723133,79.38295035716168,-26.296666837013124,-166.48973083496094,5356.25390625,True
1599563501.7131555,0.0,10,0.5,0.5,14.877286429214477,-0.2,-0.00825,-0.2505,-0.030706194986429534,10,1,100,0.01648124093828652,-10,-1,-100,14993.884196236031,-0.0026495048731737477,0.00032523963963176174,0.9999964371652049,26.996151662811684,0.018633019959806558,82.75975134868273,-26.853375600964668,-164.11685180664062,5356.25390625,True
1599563501.7556305,0.0,10,0.5,0.5,14.601537295913698,-0.2,-0.00825,-0.2505,-0.023222908343159265,10,1,100,0.020481198251429168,-10,-1,-100,14992.772867748863,-0.002567026436395952,7.209928383784873e-05,0.9999967025830474,27.395556988337912,0.018370185778609802,85.15935063933824,-27.224488137698785,-162.19082641601562,5356.25390625,True
1599563501.7984798,0.0,10,0.5,0.5,14.087219158554078,-0.2,-0.00825,-0.2505,-0.025635065623034043,10,1,100,0.017703858419597426,-10,-1,-100,14991.725015691249,-0.0024676634881691047,-0.00017791212521719156,0.9999969394874091,27.81437034630679,0.01808533641859762,87.65473461322523,-27.59557757647691,-159.9892578125,5356.25390625,True
1599563501.8403678,0.0,10,0.5,0.5,14.630774968338013,-0.2,-0.00825,-0.2505,-0.0008520381064118639,10,1,100,0.027554517973744558,-10,-1,-100,14991.725015691249,-0.0024676634881691047,-0.00017791212521719156,0.9999969394874091,27.81437034630679,0.01808533641859762,87.65473461322523,-27.59557757647691,-159.9892578125,5356.25390625,True
1599563501.8812604,0.0,10,0.5,0.5,13.507008955001831,-0.2,-0.00825,-0.2505,-0.029495876053813087,10,1,100,0.016205513519070427,-10,-1,-100,14990.55118700408,-0.0023652692228405907,-0.00043632780302191315,0.9999971075555929,28.24380070510625,0.017780787583894092,90.22030615514943,-27.966642693373622,-157.51239013671875,5356.25390625,True
1599563501.9221492,0.0,10,0.5,0.5,12.877374503707887,-0.2,-0.00825,-0.2505,-0.0324914768226855,10,1,100,0.014110821021439277,-10,-1,-100,14989.43888221099,-0.002253847380816659,-0.0006965910868980189,0.9999972174625497,28.673506804473018,0.01746354902949383,92.82393963492206,-28.33768235780949,-154.76016235351562,5356.25390625,True
1599563501.962042,0.0,10,0.5,0.5,12.19070544242859,-0.2,-0.00825,-0.2505,-0.036507858122605596,10,1,100,0.012812218686010738,-10,-1,-100,14988.327553707175,-0.0021414892603929107,-0.0009677626833965288,0.9999972387257559,29.091896614447325,0.01714615155835827,95.42763788176057,-28.70869642548373,-151.73275756835938,5356.25390625,True
1599563502.0039303,0.0,10,0.5,0.5,10.656388473129274,-0.2,-0.00825,-0.2505,-0.05339593470284104,10,1,100,0.002476544333573364,-10,-1,-100,14986.566811192664,-0.0019461472893919146,-0.0013658026967206377,0.9999971735428664,29.66918547013501,0.016708961329761556,99.23286359001752,-29.265169792509504,-146.67530822753906,5356.25390625,True
1599563502.0448208,0.0,10,0.5,0.5,9.347419928741454,-0.2,-0.00825,-0.2505,-0.057566526524781496,10,1,100,-0.0016588041641386018,-10,-1,-100,14984.806070195278,-0.0017319096365191067,-0.001763202282071406,0.9999969457986976,30.141175313559494,0.016386124890184785,102.75418392657136,-29.821590198210973,-140.99853515625,5356.25390625,True
1599563502.0857477,0.0,10,0.5,0.5,8.887906442260743,-0.2,-0.00825,-0.2505,-0.04575453840095492,10,1,100,0.002160370797281534,-10,-1,-100,14983.56974278693,-0.0015728560110142677,-0.0020147637775915143,0.9999967334201092,30.369254610375368,0.0162725811563106,104.83710042037659,-30.192511762675654,-136.86984252929688,5356.25390625,True
1599563502.1256049,0.0,10,0.5,0.5,7.913695528793335,-0.2,-0.00825,-0.2505,-0.04730381660746369,10,1,100,-0.0007667381990319709,-10,-1,-100,14982.331462282804,-0.0014027502290336951,-0.0022550900072813513,0.9999964734242086,30.50703688915898,0.016260774692002787,106.62448976423771,-30.56341784290896,-132.4658203125,5356.25390625,True
1599563502.167304,0.0,10,0.5,0.5,6.882784248733521,-0.2,-0.00825,-0.2505,-0.04891453669058524,10,1,100,-0.0036437786046867177,-10,-1,-100,14981.094158589025,-0.0012230871095855315,-0.002485865553530569,0.999996162257822,30.53544523569955,0.016355522188601965,108.03733322072357,-30.934313524996305,-127.78656005859375,5356.25390625,True
1599563502.2081938,0.0,10,0.5,0.5,5.794505823898316,-0.2,-0.00825,-0.2505,-0.04954209484276116,10,1,100,-0.006622620402515185,-10,-1,-100,14979.857831494417,-0.0010338983840404061,-0.0026990411561974856,0.999995823106761,30.435215847608376,0.016544330014290717,108.99267788019105,-31.305205175432295,-122.83195495605469,5356.25390625,True
1599563502.249085,0.0,10,0.5,0.5,4.648921544647217,-0.2,-0.00825,-0.2505,-0.050090295187560814,10,1,100,-0.009421238692515323,-10,-1,-100,14978.621504245908,-0.0008377700719122261,-0.0028955288626374247,0.9999954570166368,30.187097174681654,0.016791082993034428,109.40429549812708,-31.676099498298598,-117.60208129882812,5356.25390625,True
1599563502.2889779,0.0,10,0.5,0.5,4.699496378326416,-0.2,-0.00825,-0.2505,-0.04077836007707987,10,1,100,-0.0009577762777131446,-10,-1,-100,14977.970136722783,-0.0007378938950359521,-0.0029870295340898878,0.9999952665723784,30.001627169171663,0.01691761958313011,109.3785789211932,-31.861550037928417,-114.88390350341797,5356.25390625,True
1599563502.3298686,0.0,10,0.5,0.5,4.0896970708847045,-0.2,-0.00825,-0.2505,-0.0414215234881817,10,1,100,-0.002228146454471447,-10,-1,-100,14977.321700674249,-0.00063702798293045,-0.0030737400830284454,0.9999950731464886,29.77242795578545,0.017033369334302155,109.18477292801266,-32.04700393591381,-112.096923828125,5356.25390625,True
1599563502.3707595,0.0,10,0.5,0.5,-0.5794549730300904,-0.2,-0.00825,-0.2505,-0.06639597427966672,10,1,100,-0.037230235460336186,-10,-1,-100,14974.72111713665,-0.00022860072587021062,-0.0033774472719896066,0.9999942702794018,28.624003308524617,0.01730016464910146,107.44410815144317,-32.78886187862892,-100.26097869873047,5356.25390625,True
1599563502.4136443,0.0,10,0.5,0.5,-0.5090004055023192,-0.2,-0.00825,-0.2505,-0.050004810235035974,10,1,100,-0.01897443029464217,-10,-1,-100,14973.420336608891,-2.5004074171322892e-05,-0.003502343511922571,0.9999938664635502,27.7518437032941,0.017060914144827976,105.36977576844257,-33.15982425222847,-93.93026733398438,5356.25390625,True
1599563502.4555328,0.0,10,0.5,0.5,-1.8425825881958007,-0.2,-0.00825,-0.2505,-0.04839414495338984,10,1,100,-0.019260459857673082,-10,-1,-100,14972.059009431861,0.0001609375659322919,-0.0035993008267419355,0.9999935095452661,26.717096961646206,0.016476339324020987,102.59653589394166,-33.53081211064787,-87.54644775390625,5356.25390625,True
1599563502.4974203,0.0,10,0.5,0.5,-3.1110914489746095,-0.2,-0.00825,-0.2505,-0.04845903655195743,10,1,100,-0.021253121187342325,-10,-1,-100,14970.69670555275,0.00034636975338488813,-0.0036863645833422718,0.9999931453485833,27.602434142354227,0.016790908549020322,107.1907000285988,-33.901782335001286,-81.27883911132812,5356.25390625,True
1599563502.5383117,0.0,10,0.5,0.5,-1.5869180618286132,-0.2,-0.00825,-0.2505,-0.039919820972498875,10,1,100,-0.00290182501852262,-10,-1,-100,14970.69670555275,0.00034636975338488813,-0.0036863645833422718,0.9999931453485833,27.602434142354227,0.016790908549020322,107.1907000285988,-33.901782335001286,-81.27883911132812,5356.25390625,True
1599563502.5797102,0.0,10,0.5,0.5,-4.359932370758057,-0.2,-0.00825,-0.2505,-0.047320680002185866,10,1,100,-0.021779391055872364,-10,-1,-100,14969.334401575732,0.0005163938810131416,-0.00375234396127028,0.9999928266003492,28.894034087227045,0.01711157264695276,113.45698036586603,-34.272697683652346,-75.2171630859375,5356.25390625,True
1599563502.619604,0.0,10,0.5,0.5,-5.4962894737243655,-0.2,-0.00825,-0.2505,-0.04635567049467941,10,1,100,-0.0219475106704946,-10,-1,-100,14967.970144696417,0.0006709082835439391,-0.0038024010562204653,0.9999925457863587,29.976555079102738,0.017148425623967827,119.00508646056339,-34.643560098744715,-69.42041015625,5356.25390625,True
1599563502.6594975,0.0,10,0.5,0.5,-7.773367837905884,-0.2,-0.00825,-0.2505,-0.04681341171494507,10,1,100,-0.029826163026781725,-10,-1,-100,14965.89494958357,0.0008814502102949249,-0.00385106573554121,0.9999921961386636,31.227506402968963,0.0169061384597255,125.99862051667323,-35.19976534767369,-61.240386962890625,5356.25390625,True
1599563502.6993906,0.0,10,0.5,0.5,-6.936972604751587,-0.2,-0.00825,-0.2505,-0.04315337292733997,10,1,100,-0.015539646204088164,-10,-1,-100,14965.18205971527,0.0009414116086966004,-0.003861164603333746,0.9999921025448596,31.552978964732443,0.016797364741952446,127.9947033677397,-35.385146743605894,-58.651702880859375,5356.25390625,True
1599563502.7402816,0.0,10,0.5,0.5,-8.5739668466568,-0.2,-0.00825,-0.2505,-0.043578275519267316,10,1,100,-0.021665084151325936,-10,-1,-100,14963.757255793083,0.0010500811290332555,-0.0038734134748269877,0.999991946966412,32.080220526082215,0.016600685190528965,131.5221072666926,-35.75588424355041,-53.6815185546875,5356.25390625,True
1599563502.784164,0.0,10,0.5,0.5,-11.48187793979645,-0.2,-0.00825,-0.2505,-0.04225135225261442,10,1,100,-0.028423569501660594,-10,-1,-100,14960.841240661917,0.001208778642422381,-0.003871758897949637,0.9999917741347824,32.70953205858798,0.016473104727600805,136.93510105844354,-36.49728333828989,-44.569976806640625,5356.25390625,True
1599563502.8250544,0.0,10,0.5,0.5,-9.24538180847168,-0.2,-0.00825,-0.2505,-0.04246624110294551,10,1,100,-0.012697556099577307,-10,-1,-100,14960.841240661917,0.001208778642422381,-0.003871758897949637,0.9999917741347824,32.70953205858798,0.016473104727600805,136.93510105844354,-36.49728333828989,-44.569976806640625,5356.25390625,True
1599563502.8659453,0.0,10,0.5,0.5,-12.892991163635255,-0.2,-0.00825,-0.2505,-0.03987324205642231,10,1,100,-0.020985395993254972,-10,-1,-100,14957.864678056096,0.0012830010208043654,-0.003847850347175765,0.9999917739442092,32.90426784076294,0.016830437070860422,140.60292588643648,-37.238621878764704,-36.563568115234375,5356.25390625,True
1599563502.908831,0.0,10,0.5,0.5,-12.546245078277588,-0.2,-0.00825,-0.2505,-0.039828507292351094,10,1,100,-0.014612911638605716,-10,-1,-100,14956.374443826964,0.0012915241766049289,-0.0038254826672348397,0.9999918487906109,32.886587635148715,0.01717373798186494,141.95431160579525,-37.60928043103944,-32.97467041015625,5356.25390625,True
1599563502.9537163,0.0,10,0.5,0.5,-12.448780694580078,-0.2,-0.00825,-0.2505,-0.040981023664670116,10,1,100,-0.013375518626446755,-10,-1,-100,14955.60393492307,0.001287164241382887,-0.003815499363324269,0.9999918925535467,32.856688585121724,0.017377260202246544,142.538469442814,-37.79460838068117,-31.28387451171875,5356.25390625,True
1599563503.3151178,0.0,10,0.5,0.5,-13.496580449676513,-0.2,-0.00825,-0.2505,-0.039410539126314946,10,1,100,-0.01133068925242383,-10,-1,-100,14954.110770196537,0.0012637560382462785,-0.0037920291050750833,0.9999920116860643,32.765406721231784,0.01783290078505056,143.56577514128037,-38.16526288002922,-28.109405517578125,5356.25390625,True
1599563503.3524346,0.0,10,0.5,0.5,-13.408634596252442,-0.2,-0.00825,-0.2505,-0.04030096475617262,10,1,100,-0.011632182989734407,-10,-1,-100,14953.335380397271,0.0012445372855910642,-0.0037787512077165253,0.9999920860518121,32.707828819788894,0.018078871199615938,144.02431871368356,-38.350589910600725,-26.625732421875,5356.25390625,True
1599563503.3913314,0.0,10,0.5,0.5,-14.890832890319825,-0.2,-0.00825,-0.2505,-0.036990923881669885,10,1,100,-0.003971179790452639,-10,-1,-100,14951.007253857562,0.001156898727727356,-0.0037366106111209967,0.9999923496339734,32.508030749732285,0.01885690018698001,145.2657165170813,-38.90657069931647,-22.5889892578125,5356.25390625,True
1599563503.4431927,0.0,10,0.5,0.5,-15.450156206512451,-0.2,-0.00825,-0.2505,-0.03612195976680629,10,1,100,0.001825390816107617,-10,-1,-100,14948.682058622944,0.0010242808073212257,-0.0036905053541939565,0.9999926654826317,32.30086598034543,0.019652541228628098,146.4501961701505,-39.46255132699125,-19.173583984375,5356.25390625,True
