Timestamp,Input Throttle,horizon,dT,dt,Input Roll,Roll P,Roll I,Roll D,Input Pitch,Pitch P,Pitch I,Pitch D,Input Yaw,Yaw P,Yaw I,Yaw D,Altitude,Direction X,Direction Y,Direction Z,Drag X,Drag Y,Drag Z,Vertical Velocity,Roll,Mass,Has Fuel
1599563547.3934562,0.0,10,0.5,0.5,-11.642098518371583,-0.2,-0.00825,-0.37525,-0.0003013442777323445,10,1,100,0.17495763033450656,-10,-1,-100,14994.00076684251,-0.016811193870786473,-7.452517126257818e-05,0.9998586791175229,28.644526103476622,0.027275138752798102,-87.50370868252999,27.00897921121964,-31.7916259765625,5356.25390625,True
1599563547.4363623,0.0,10,0.5,0.5,-11.690767582702637,-0.2,-0.00825,-0.37525,8.302202018029654e-05,10,1,100,0.18192895706742204,-10,-1,-100,14995.574014603393,-0.016921520225081733,-6.692765989955695e-05,0.9998568185865218,28.426631501091194,0.0277638226628781,-85.04908421395751,26.451088267590592,-31.789764404296875,5356.25390625,True
1599563547.4802468,0.0,10,0.5,0.5,-11.738092472076417,-0.2,-0.00825,-0.37525,-0.000683421882111783,10,1,100,0.17258847366040414,-10,-1,-100,14995.574014603393,-0.016921520225081733,-6.692765989955695e-05,0.9998568185865218,28.426631501091194,0.0277638226628781,-85.04908421395751,26.451088267590592,-31.789764404296875,5356.25390625,True
1599563547.5260925,0.0,10,0.5,0.5,-11.480988345336915,-0.2,-0.00825,-0.37525,0.016917325708087988,10,1,100,0.1817214088279665,-10,-1,-100,14997.694135842728,-0.01698916370821859,9.313997970216785e-05,0.9998556694050594,28.16092294905119,0.02841192982160633,-81.89106552692716,25.707287925807016,-32.3201904296875,5356.25390625,True
1599563547.569974,0.0,10,0.5,0.5,-11.727616554260255,-0.2,-0.00825,-0.37525,0.0009198757458857261,10,1,100,0.17665597688510276,-10,-1,-100,14997.694135842728,-0.01698916370821859,9.313997970216785e-05,0.9998556694050594,28.16092294905119,0.02841192982160633,-81.89106552692716,25.707287925807016,-32.3201904296875,5356.25390625,True
1599563547.6138887,0.0,10,0.5,0.5,-11.393481327819826,-0.2,-0.00825,-0.37525,0.015558473492919897,10,1,100,0.17894698193801972,-10,-1,-100,14998.658979808097,-0.016994546332601272,0.000226133468330022,0.999855556697368,28.057154287315306,0.02874189813875815,-80.41209814895487,25.335409074020543,-32.9837646484375,5356.25390625,True
1599563547.655264,0.0,10,0.5,0.5,-10.452548851013184,-0.2,-0.00825,-0.37525,0.048728499818714716,10,1,100,0.16983029692768556,-10,-1,-100,15000.653117398731,-0.016901111085280127,0.0006483767578004514,0.9998569557950092,27.901277729169365,0.029373387151915075,-77.62385593079655,24.591688809655952,-35.13409423828125,5356.25390625,True
1599563548.026273,0.0,10,0.5,0.5,-11.30472440185547,-0.2,-0.00825,-0.37525,0.0065690085474518255,10,1,100,0.18086393276832813,-10,-1,-100,15000.653117398731,-0.016901111085280127,0.0006483767578004514,0.9998569557950092,27.901277729169365,0.029373387151915075,-77.62385593079655,24.591688809655952,-35.13409423828125,5356.25390625,True
1599563548.0661678,0.0,10,0.5,0.5,-9.48056671600342,-0.2,-0.00825,-0.37525,0.07314236499788257,10,1,100,0.1549709851669251,-10,-1,-100,15002.58181895886,-0.016650356006098935,0.0012529996557518214,0.9998605881005277,27.78325055688839,0.02987684281247661,-74.96363476653026,23.848014704170698,-38.38385009765625,5356.25390625,True
1599563548.1055732,0.0,10,0.5,0.5,-9.57082642364502,-0.2,-0.00825,-0.37525,0.054464385309214394,10,1,100,0.16192138840405643,-10,-1,-100,15003.54665605945,-0.016470445639902593,0.0016317179297599454,0.999863021576966,27.72204504325486,0.030036914384594205,-73.63502849939995,23.47619447685768,-40.420867919921875,5356.25390625,True
1599563548.1484592,0.0,10,0.5,0.5,-9.045959851837157,-0.2,-0.00825,-0.37525,0.05962948179135585,10,1,100,0.15501691114116736,-10,-1,-100,15004.449968271074,-0.016229149654025197,0.0020214793123961078,0.999866255217615,27.64792847859538,0.03010771839893663,-72.27774872270481,23.104385915287324,-42.733184814453125,5356.25390625,True
1599563548.1903472,0.0,10,0.5,0.5,-9.90462998046875,-0.2,-0.00825,-0.37525,0.020862943976105483,10,1,100,0.17908830530723086,-10,-1,-100,15004.449968271074,-0.016229149654025197,0.0020214793123961078,0.999866255217615,27.64792847859538,0.03010771839893663,-72.27774872270481,23.104385915287324,-42.733184814453125,5356.25390625,True
1599563548.2345924,0.0,10,0.5,0.5,-8.407356457519532,-0.2,-0.00825,-0.37525,0.06878924025681471,10,1,100,0.14772062790117274,-10,-1,-100,15005.415779338218,-0.01594461837812563,0.002455274363155014,0.9998698619183287,27.550900220282735,0.030066950707619455,-70.86771416007029,22.732590275976037,-45.3203125,5356.25390625,True
1599563548.2734885,0.0,10,0.5,0.5,-7.720472647857666,-0.2,-0.00825,-0.37525,0.07547594074441383,10,1,100,0.13888077049876285,-10,-1,-100,15006.257565333042,-0.015606479334419528,0.002908128775529416,0.9998739823546812,27.41960476046038,0.029892435619085594,-69.37909966932263,22.360808807926407,-48.1826171875,5356.25390625,True
1599563548.3123853,0.0,10,0.5,0.5,-5.01374349899292,-0.2,-0.00825,-0.37525,0.13839747799158578,10,1,100,0.0804600245510152,-10,-1,-100,15008.059298404143,-0.014769239499137912,0.0038892694992115023,0.9998833647718015,27.002761553609915,0.0290668034916077,-66.05764767442338,21.617298078454816,-54.732330322265625,5356.25390625,True
1599563548.3532753,0.0,10,0.5,0.5,-7.453033337402344,-0.2,-0.00825,-0.37525,0.04066301857532811,10,1,100,0.16396201565826876,-10,-1,-100,15008.059298404143,-0.014769239499137912,0.0038892694992115023,0.9998833647718015,27.002761553609915,0.0290668034916077,-66.05764767442338,21.617298078454816,-54.732330322265625,5356.25390625,True
1599563548.3942027,0.0,10,0.5,0.5,-3.0336242408752443,-0.2,-0.00825,-0.37525,0.14818383949588365,10,1,100,0.04835295777984039,-10,-1,-100,15009.737981588929,-0.013720271070091711,0.0048634013839157515,0.999894045131154,26.284384902850455,0.02753867670253416,-62.094152411222986,20.87387778262968,-62.38372802734375,5356.25390625,True
1599563548.434059,0.0,10,0.5,0.5,-5.882330281829834,-0.2,-0.00825,-0.37525,0.051192153488070276,10,1,100,0.1529317166829416,-10,-1,-100,15009.737981588929,-0.013720271070091711,0.0048634013839157515,0.999894045131154,26.284384902850455,0.02753867670253416,-62.094152411222986,20.87387778262968,-62.38372802734375,5356.25390625,True
1599563548.4779725,0.0,10,0.5,0.5,-2.1428965980529786,-0.2,-0.00825,-0.37525,0.13143809967195005,10,1,100,0.05049223834246039,-10,-1,-100,15010.935223951354,-0.012791894757919326,0.00558907814501819,0.9999025600697256,25.472712450822648,0.025951969769995305,-58.57354461235765,20.316390323979743,-68.84518432617188,5356.25390625,True
1599563548.5228226,0.0,10,0.5,0.5,-0.46868210449218806,-0.2,-0.00825,-0.37525,0.13369433521936663,10,1,100,0.028216198413238566,-10,-1,-100,15012.130514132441,-0.01174891453044985,0.006265353634188497,0.999911350246208,24.364814961168474,0.02407726248182726,-54.492983996798564,19.75898519870168,-75.9268798828125,5356.25390625,True
1599563548.5627153,0.0,10,0.5,0.5,-0.18238081741333034,-0.2,-0.00825,-0.37525,0.10847950255616443,10,1,100,0.052313530864243424,-10,-1,-100,15012.910772300791,-0.011024109646949873,0.0066467113858556396,0.9999171416843722,23.434526970806026,0.02273505713307833,-51.42958687004749,19.38743234807416,-80.99322509765625,5356.25390625,True
1599563548.603607,0.0,10,0.5,0.5,-2.0519623260498046,-0.2,-0.00825,-0.37525,0.07080625059679614,10,1,100,0.1242735152135336,-10,-1,-100,15012.910772300791,-0.011024109646949873,0.0066467113858556396,0.9999171416843722,23.434526970806026,0.02273505713307833,-51.42958687004749,19.38743234807416,-80.99322509765625,5356.25390625,True
1599563548.6444943,0.0,10,0.5,0.5,4.097663681030273,-0.2,-0.00825,-0.37525,0.1446674416251757,10,1,100,-0.04609799551613396,-10,-1,-100,15014.461524157552,-0.00948000958577751,0.00731397200241049,0.9999283150465345,21.166944262621445,0.02014082524166219,-44.67802853241921,18.644445532370952,-91.62870788574219,5356.25390625,True
1599563548.6874163,0.0,10,0.5,0.5,0.14490319099426271,-0.2,-0.00825,-0.37525,0.07842724973361614,10,1,100,0.1076655497218676,-10,-1,-100,15014.461524157552,-0.00948000958577751,0.00731397200241049,0.9999283150465345,21.166944262621445,0.02014082524166219,-44.67802853241921,18.644445532370952,-91.62870788574219,5356.25390625,True
1599563548.728273,0.0,10,0.5,0.5,6.54416845703125,-0.2,-0.00825,-0.37525,0.1321116148276799,10,1,100,-0.07010737512973143,-10,-1,-100,15015.889231056091,-0.00786946160507992,0.00779800637305936,0.9999386294521538,22.97152204906931,0.022175318853539988,-46.5602751314313,17.901496347219858,-102.69071960449219,5356.25390625,True
1599563548.7686808,0.0,10,0.5,0.5,5.542418158721924,-0.2,-0.00825,-0.37525,0.10367230915759082,10,1,100,-0.004613820156935192,-10,-1,-100,15016.602108763997,-0.007006995556829402,0.007975945079490388,0.9999436415685413,23.706406670122746,0.02323011368315853,-47.055236810896965,17.5300031611838,-108.09654998779297,5356.25390625,True
1599563548.8105676,0.0,10,0.5,0.5,6.5688088438034065,-0.2,-0.00825,-0.37525,0.10053439129845881,10,1,100,-0.004153381198827813,-10,-1,-100,15017.316941111814,-0.006234177907077461,0.008105465854271687,0.9999477168577907,24.273299428430988,0.024171787196811866,-47.16185012841513,17.15849714005481,-113.33062744140625,5356.25390625,True
1599563548.8555179,0.0,10,0.5,0.5,6.0972012475967405,-0.2,-0.00825,-0.37525,0.09337582084858745,10,1,100,0.027819229213540887,-10,-1,-100,15017.608927226393,-0.005829082041199971,0.008155186768646442,0.9999497561034382,24.499703594633242,0.0245857188754614,-47.08757754700034,16.97274011504536,-115.85205078125,5356.25390625,True
1599563548.895381,0.0,10,0.5,0.5,6.6067958196640015,-0.2,-0.00825,-0.37525,0.09301801025896889,10,1,100,0.023789441373617236,-10,-1,-100,15017.966345066554,-0.00543135244552012,0.008194142244186294,0.9999516770541936,24.735052641811116,0.024999515634852202,-47.020741962725936,16.786980574658486,-118.30602264404297,5356.25390625,True
1599563548.9352734,0.0,10,0.5,0.5,8.432005674362182,-0.2,-0.00825,-0.37525,0.09484776352067917,10,1,100,-0.02202350225962929,-10,-1,-100,15018.61770315608,-0.00465999018215656,0.008243822193329737,0.9999551609383028,25.08760701506455,0.025657635694574153,-46.63763410005912,16.41545733837815,-123.00877380371094,5356.25390625,True
1599563548.9791546,0.0,10,0.5,0.5,11.64206780128479,-0.2,-0.00825,-0.37525,0.0880365180383318,10,1,100,-0.11012040695473446,-10,-1,-100,15019.919445338426,-0.003164315285823543,0.008225266762203217,0.999961165293664,25.385097552791894,0.0262592353599353,-45.058568079178606,15.672411682627578,-131.58926391601562,5356.25390625,True
1599563549.0207658,0.0,10,0.5,0.5,8.463980618667604,-0.2,-0.00825,-0.37525,0.09004991668861856,10,1,100,0.038661103242454614,-10,-1,-100,15019.919445338426,-0.003164315285823543,0.008225266762203217,0.999961165293664,25.385097552791894,0.0262592353599353,-45.058568079178606,15.672411682627578,-131.58926391601562,5356.25390625,True
1599563549.0616562,0.0,10,0.5,0.5,10.736001079177857,-0.2,-0.00825,-0.37525,0.08487455359322685,10,1,100,-0.0393569148969994,-10,-1,-100,15020.506352897035,-0.002462205843065894,0.008176782956448431,0.9999635382167038,25.367607649466002,0.026219939072997345,-43.96204885050032,15.300899382970812,-135.46632385253906,5356.25390625,True
1599563549.1015508,0.0,10,0.5,0.5,13.302330350875854,-0.2,-0.00825,-0.37525,0.07220087268663852,10,1,100,-0.1145364382702076,-10,-1,-100,15021.683101197472,-0.0011468541405686035,0.008016707114835061,0.9999672080286508,25.087531586401553,0.0255776918004399,-41.369123633503165,14.557917573566224,-142.393798828125,5356.25390625,True
1599563549.1420224,0.0,10,0.5,0.5,12.499261042785646,-0.2,-0.00825,-0.37525,0.07816562027368075,10,1,100,-0.049743580356895835,-10,-1,-100,15022.271964915562,-0.0005476814424604547,0.007924769750421086,0.9999684485369726,24.857824460947008,0.025042004952590544,-39.94618572016938,14.186454009288381,-145.4439239501953,5356.25390625,True
1599563549.184908,0.0,10,0.5,0.5,12.985796676635742,-0.2,-0.00825,-0.37525,0.07833078897472806,10,1,100,-0.052048810079950665,-10,-1,-100,15022.856923599262,1.132148042688865e-05,0.007842576622438483,0.9999692464589826,24.61740115884167,0.02443888322127637,-38.52576672695263,13.815010463762162,-148.2180633544922,5356.25390625,True
1599563549.2248008,0.0,10,0.5,0.5,11.977901113700867,-0.2,-0.00825,-0.37525,0.08653676492728318,10,1,100,0.0031496505050580396,-10,-1,-100,15022.856923599262,1.132148042688865e-05,0.007842576622438483,0.9999692464589826,24.61740115884167,0.02443888322127637,-38.52576672695263,13.815010463762162,-148.2180633544922,5356.25390625,True
1599563549.2673268,0.0,10,0.5,0.5,13.44408848361969,-0.2,-0.00825,-0.37525,0.07452855402319185,10,1,100,-0.05634486733924927,-10,-1,-100,15023.384266017005,0.000546503006841042,0.007733650058975683,0.9999699455439791,24.371219031020203,0.023790134015955273,-37.11676378621534,13.443586866379567,-150.71681213378906,5356.25390625,True
1599563549.309213,0.0,10,0.5,0.5,14.934005434226991,-0.2,-0.00825,-0.37525,0.06173324988803411,10,1,100,-0.10864031971540403,-10,-1,-100,15024.432115711272,0.0015026488842298238,0.0075186881788804946,0.9999706052551741,23.836316683553466,0.022390840466518257,-34.299529343316536,12.70079888659687,-154.8868408203125,5356.25390625,True
1599563549.3506532,0.0,10,0.5,0.5,14.360688557434083,-0.2,-0.00825,-0.37525,0.07282553670010472,10,1,100,-0.06029865586924201,-10,-1,-100,15024.895982905058,0.0019260991002274708,0.007424721308053971,0.9999705813951498,23.569141932475894,0.021685080390327058,-32.924948309105524,12.329432391070647,-156.55795288085938,5356.25390625,True
1599563549.3925436,0.0,10,0.5,0.5,13.761281829452514,-0.2,-0.00825,-0.37525,0.08214031369422951,10,1,100,-0.018612243197715712,-10,-1,-100,15024.895982905058,0.0019260991002274708,0.007424721308053971,0.9999705813951498,23.569141932475894,0.021685080390327058,-32.924948309105524,12.329432391070647,-156.55795288085938,5356.25390625,True
1599563549.4354262,0.0,10,0.5,0.5,14.584401093673705,-0.2,-0.00825,-0.37525,0.07362535076765024,10,1,100,-0.061896167304463956,-10,-1,-100,15025.419420949067,0.002314961669937863,0.007348040322770658,0.9999703231875842,23.314009270085602,0.020997243166910998,-31.589078904188376,11.958082342892885,-157.95303344726562,5356.25390625,True
1599563549.4748302,0.0,10,0.5,0.5,15.211975605392457,-0.2,-0.00825,-0.37525,0.062142670514556755,10,1,100,-0.09864265920425486,-10,-1,-100,15026.343250847305,0.0029975509533492627,0.007174739812429918,0.9999697684414793,22.86687406351341,0.019715423494119977,-29.06168331385208,11.215424269642774,-159.91622924804688,5356.25390625,True
1599563549.5167186,0.0,10,0.5,0.5,14.82194984741211,-0.2,-0.00825,-0.37525,0.07283561918686246,10,1,100,-0.06265724715359547,-10,-1,-100,15026.741689600167,0.003285983140720527,0.007115313466544768,0.9999692868428869,22.685329432025274,0.0191332146705266,-27.877687012906197,10.844112237134695,-160.48379516601562,5356.25390625,True
1599563549.5571187,0.0,10,0.5,0.5,14.791582605743407,-0.2,-0.00825,-0.37525,0.07428535162562401,10,1,100,-0.062381261798903,-10,-1,-100,15027.204581111786,0.0035416554103051183,0.007075288350318182,0.9999686979959497,22.536643375953982,0.018593327483435958,-26.747856071527316,10.4728088371136,-160.77529907226562,5356.25390625,True
1599563549.598009,0.0,10,0.5,0.5,14.694844149398804,-0.2,-0.00825,-0.37525,0.07820291510827228,10,1,100,-0.03722296852572042,-10,-1,-100,15027.204581111786,0.0035416554103051183,0.007075288350318182,0.9999686979959497,22.536643375953982,0.018593327483435958,-26.747856071527316,10.4728088371136,-160.77529907226562,5356.25390625,True
1599563549.6389,0.0,10,0.5,0.5,14.564630310058593,-0.2,-0.00825,-0.37525,0.07100241439913602,10,1,100,-0.08282635674235087,-10,-1,-100,15028.00341254624,0.003953022272338233,0.007010526787755235,0.9999676125400625,22.344086542709295,0.01763830833552244,-24.64098641981717,9.73022097899638,-160.5309295654297,5356.25390625,True
1599563549.679303,0.0,10,0.5,0.5,14.666488082122802,-0.2,-0.00825,-0.37525,0.07739536567196245,10,1,100,-0.04208384061823052,-10,-1,-100,15028.00341254624,0.003953022272338233,0.007010526787755235,0.9999676125400625,22.344086542709295,0.01763830833552244,-24.64098641981717,9.73022097899638,-160.5309295654297,5356.25390625,True
1599563549.7201936,0.0,10,0.5,0.5,13.8991260307312,-0.2,-0.00825,-0.37525,0.07605760665205624,10,1,100,-0.07286635947003449,-10,-1,-100,15028.735837386688,0.004229766517113272,0.006999022726911742,0.9999665608189501,22.288961082300915,0.016837459021069395,-22.706087128522594,8.98764660983649,-159.18289184570312,5356.25390625,True
1599563549.76159,0.0,10,0.5,0.5,14.408521427154541,-0.2,-0.00825,-0.37525,0.07715604619120861,10,1,100,-0.045464646755818974,-10,-1,-100,15028.735837386688,0.004229766517113272,0.006999022726911742,0.9999665608189501,22.288961082300915,0.016837459021069395,-22.706087128522594,8.98764660983649,-159.18289184570312,5356.25390625,True
1599563549.8034785,0.0,10,0.5,0.5,13.000553826904298,-0.2,-0.00825,-0.37525,0.07958848441588129,10,1,100,-0.06128553194836657,-10,-1,-100,15029.410644205287,0.004371498503030172,0.007021522800391623,0.9999657935241593,22.350339604883295,0.01617268493818037,-20.88892698164681,8.24507360245385,-156.73155212402344,5356.25390625,True
1599563549.846364,0.0,10,0.5,0.5,13.920562276840212,-0.2,-0.00825,-0.37525,0.07729815721712696,10,1,100,-0.04735687329695683,-10,-1,-100,15029.410644205287,0.004371498503030172,0.007021522800391623,0.9999657935241593,22.350339604883295,0.01617268493818037,-20.88892698164681,8.24507360245385,-156.73155212402344,5356.25390625,True
1599563549.8892493,0.0,10,0.5,0.5,11.874799568939212,-0.2,-0.00825,-0.37525,0.08304831333770671,10,1,100,-0.048064260106198076,-10,-1,-100,15030.019043594366,0.0043760597132659175,0.007074093781053602,0.999965403050807,22.486567620558823,0.015628653659238947,-19.124695532920978,7.502493814670314,-153.177001953125,5356.25390625,True
1599563549.9311383,0.0,10,0.5,0.5,11.942794207000734,-0.2,-0.00825,-0.37525,0.08132499664900648,10,1,100,-0.042520524031571416,-10,-1,-100,15030.29150460416,0.00432855547756552,0.007106310562695741,0.9999653813796076,22.56404916393754,0.01539936469565766,-18.241414927336074,7.131200052208952,-150.98614501953125,5356.25390625,True
1599563549.9720273,0.0,10,0.5,0.5,11.338193249511718,-0.2,-0.00825,-0.37525,0.08191182908271125,10,1,100,-0.03803477991104003,-10,-1,-100,15030.566894804128,0.00424364252370865,0.007140941570771228,0.9999654986306346,22.635013294689468,0.015198779262845612,-17.346532727367215,6.75990366337641,-148.51959228515625,5356.25390625,True
1599563550.0149138,0.0,10,0.5,0.5,10.676212845611575,-0.2,-0.00825,-0.37525,0.08201558301547655,10,1,100,-0.03369552535762918,-10,-1,-100,15030.838378379121,0.004126362990522848,0.007173307838210034,0.9999657578053004,22.68766207827699,0.01502618268473186,-16.432332574541075,6.388605270758503,-145.77740478515625,5356.25390625,True
1599563550.055804,0.0,10,0.5,0.5,9.956904627227784,-0.2,-0.00825,-0.37525,0.08175899686148284,10,1,100,-0.028961511802435336,-10,-1,-100,15031.109861975885,0.0039761771938701595,0.007200310007674559,0.9999661722031982,22.708325574461938,0.014878676081733336,-15.49180530327379,6.017304975393354,-142.7596893310547,5356.25390625,True
1599563550.0956974,0.0,10,0.5,0.5,9.180202807617189,-0.2,-0.00825,-0.37525,0.0811678222913691,10,1,100,-0.02394799892159074,-10,-1,-100,15031.319821227458,0.003794046211704099,0.007219310589986802,0.9999667428309545,22.681412021784364,0.014749683811615595,-14.519011945313064,5.64600296989192,-139.46644592285156,5356.25390625,True
1599563550.1345937,0.0,10,0.5,0.5,10.398614197540285,-0.2,-0.00825,-0.37525,0.07928864244036789,10,1,100,-0.042145199532133394,-10,-1,-100,15031.319821227458,0.003794046211704099,0.007219310589986802,0.9999667428309545,22.681412021784364,0.014749683811615595,-14.519011945313064,5.64600296989192,-139.46644592285156,5356.25390625,True
1599563550.1764817,0.0,10,0.5,0.5,8.329482624435425,-0.2,-0.00825,-0.37525,0.08006487337400135,10,1,100,-0.018790722376978392,-10,-1,-100,15031.529780663783,0.0035821288923894253,0.007226166973144311,0.9999674749027962,22.589583835027327,0.014627901582124469,-13.509592382127513,5.274698876180201,-135.89779663085938,5356.25390625,True
1599563550.2183697,0.0,10,0.5,0.5,7.438115327835083,-0.2,-0.00825,-0.37525,0.07860709040952979,10,1,100,-0.013595464895716829,-10,-1,-100,15031.73973905365,0.003342835931932548,0.007218940981568457,0.9999683556688365,22.414574936972873,0.014497374632917571,-12.461586665965728,4.903391355840235,-132.05374145507812,5356.25390625,True
1599563550.2592607,0.0,10,0.5,0.5,3.96244087600708,-0.2,-0.00825,-0.37525,0.07264999663371237,10,1,100,0.024447174845440574,-10,-1,-100,15032.096179010929,0.0027803898452985897,0.007158037029281907,0.999970515534431,21.741736215477605,0.014134421286934236,-10.257249599679625,4.160757178192883,-123.53953552246094,5356.25390625,True
1599563550.2991529,0.0,10,0.5,0.5,4.4436011806488045,-0.2,-0.00825,-0.37525,0.07186430052212783,10,1,100,0.0028000597289454983,-10,-1,-100,15032.245589583297,0.002467313639106521,0.007095403004162556,0.9999717834117194,21.201414270092883,0.01385506372674736,-9.10983181935133,3.789424005973821,-118.86954498291016,5356.25390625,True
1599563550.3410413,0.0,10,0.5,0.5,3.3230301832199105,-0.2,-0.00825,-0.37525,0.06805027001098155,10,1,100,0.006477785281563647,-10,-1,-100,15032.391093440587,0.0021510002612482562,0.00700377060465899,0.9999731598373996,20.506455250019208,0.013479455498842571,-7.947887363109491,3.4180747708112587,-113.92442321777344,5356.25390625,True
1599563550.3819325,0.0,10,0.5,0.5,2.145094840049744,-0.2,-0.00825,-0.37525,0.06471753564331403,10,1,100,0.01200325823191991,-10,-1,-100,15032.538550748373,0.0018151906683887018,0.006890264056275168,0.9999746143498205,19.73441667166162,0.013041851961646755,-6.8177426207616545,3.0467043955596194,-108.70405578613281,5356.25390625,True
1599563550.4220626,0.0,10,0.5,0.5,2.5103274629592898,-0.2,-0.00825,-0.37525,0.068614740716104,10,1,100,-0.0028588513832777107,-10,-1,-100,15032.579563638428,0.001647226991250285,0.006822733310692053,0.9999753681733418,19.34174558415041,0.01281146683894371,-6.2748595818653,2.8610102298346622,-105.99069213867188,5356.25390625,True
1599563550.4629157,0.0,10,0.5,0.5,1.8952611917495727,-0.2,-0.00825,-0.37525,0.06713436081455137,10,1,100,-0.000828872624623625,-10,-1,-100,15032.621554718935,0.0014783321469542079,0.006748202428809214,0.9999761378643207,18.892766734144548,0.012536199069602145,-5.7314053983103985,2.6753085615637073,-103.20854187011719,5356.25390625,True
1599563550.5058017,0.0,10,0.5,0.5,-3.890802588844299,-0.2,-0.00825,-0.37525,0.034127108335879376,10,1,100,0.05724297613984343,-10,-1,-100,15032.79146775417,0.0007991362497779971,0.006380792156908583,0.9999793232225878,16.642165333566314,0.01106795712790643,-3.6468087996302767,1.932423107483583,-91.39205169677734,5356.25390625,True
1599563550.5486872,0.0,10,0.5,0.5,0.5036739734649658,-0.2,-0.00825,-0.37525,0.07078428368263463,10,1,100,-0.010377122581585034,-10,-1,-100,15032.79146775417,0.0007991362497779971,0.006380792156908583,0.9999793232225878,16.642165333566314,0.01106795712790643,-3.6468087996302767,1.932423107483583,-91.39205169677734,5356.25390625,True
1599563550.5895798,0.0,10,0.5,0.5,-3.1721114385604854,-0.2,-0.00825,-0.37525,0.046006207566905856,10,1,100,0.027040316859639653,-10,-1,-100,15032.87447161635,0.00046170035482316,0.006156299208977483,0.9999809432248354,16.058103348652168,0.010671084231788211,-2.842424678013252,1.560952413196821,-85.07110595703125,5356.25390625,True
1599563550.6324642,0.0,10,0.5,0.5,-6.278842524909973,-0.2,-0.00825,-0.37525,0.027727283366678596,10,1,100,0.04600599001119795,-10,-1,-100,15032.938917691004,-1.4638006933979738e-05,0.005787015279732751,0.9999832549797426,17.84459072860598,0.011858963803246168,-2.031153480967262,1.0037455690388803,-75.62002563476562,5356.25390625,True
1599563550.6763458,0.0,10,0.5,0.5,-8.159000766181947,-0.2,-0.00825,-0.37525,0.018356095436268087,10,1,100,0.04851584425509454,-10,-1,-100,15032.99945951975,-0.00046743748898601527,0.005367411749871841,0.9999854860913238,19.173170411917344,0.012774019738618228,-0.9709289587061761,0.44655186420552084,-66.26736450195312,5356.25390625,True
1599563550.718233,0.0,10,0.5,0.5,-4.696664217185974,-0.2,-0.00825,-0.37525,0.06013738589441813,10,1,100,0.00356067878331944,-10,-1,-100,15032.99945951975,-0.00046743748898601527,0.005367411749871841,0.9999854860913238,19.173170411917344,0.012774019738618228,-0.9709289587061761,0.44655186420552084,-66.26736450195312,5356.25390625,True
1599563550.7601213,0.0,10,0.5,0.5,-11.426903385162355,-0.2,-0.00825,-0.37525,-0.0041934307552138755,10,1,100,0.0632302533368859,-10,-1,-100,15032.980897767586,-0.0010072202111747171,0.0047841570451063594,0.9999880486029891,20.112965752562634,0.01340992253325119,0.6760492856244033,-0.29639195429578824,-54.64312744140625,5356.25390625,True
1599563551.1221807,0.0,10,0.5,0.5,-7.113815497207642,-0.2,-0.00825,-0.37525,0.053910078365378984,10,1,100,0.009567803165258008,-10,-1,-100,15032.980897767586,-0.0010072202111747171,0.0047841570451063594,0.9999880486029891,20.112965752562634,0.01340992253325119,0.6760492856244033,-0.29639195429578824,-54.64312744140625,5356.25390625,True
1599563551.1598394,0.0,10,0.5,0.5,-13.21412981338501,-0.2,-0.00825,-0.37525,-0.013383087003789242,10,1,100,0.06149723314508979,-10,-1,-100,15032.895931394538,-0.0014767401101917666,0.004174315639033165,0.9999901971157481,20.452976860665473,0.013658144995222304,2.4109357955871613,-1.0393856422447596,-44.11602783203125,5356.25390625,True
1599563551.1977384,0.0,10,0.5,0.5,-10.729588597106934,-0.2,-0.00825,-0.37525,0.029209179442016227,10,1,100,0.026479008479556424,-10,-1,-100,15032.877374350908,-0.0015823889149738336,0.004009524435448183,0.9999907098364081,20.438331039066696,0.013656526566093107,2.8398054814891465,-1.2251414423172913,-41.65673828125,5356.25390625,True
1599563551.2535887,0.0,10,0.5,0.5,-13.864187240219117,-0.2,-0.00825,-0.37525,-0.003664115669261149,10,1,100,0.048883958674414155,-10,-1,-100,15032.812918710173,-0.0018793321746726666,0.0035633558202623696,0.9999918852700133,20.222675788664514,0.013545456802676544,4.088092582690916,-1.782422459540268,-34.691650390625,5356.25390625,True
1599563551.3124356,0.0,10,0.5,0.5,-11.297315840339662,-0.2,-0.00825,-0.37525,0.04067100221565559,10,1,100,0.01945747954697592,-10,-1,-100,15032.812918710173,-0.0018793321746726666,0.0035633558202623696,0.9999918852700133,20.222675788664514,0.013545456802676544,4.088092582690916,-1.782422459540268,-34.691650390625,5356.25390625,True
1599563551.3523273,0.0,10,0.5,0.5,-14.993915181732179,-0.2,-0.00825,-0.37525,-0.008727037943619148,10,1,100,0.04856445753613518,-10,-1,-100,15032.686939080479,-0.00214150609418825,0.003116844033665914,0.9999928495918949,19.803671577685797,0.01331813503053793,5.255282652546426,-2.3397152834421053,-28.346893310546875,5356.25390625,True
1599563551.391229,0.0,10,0.5,0.5,-15.952959216308592,-0.2,-0.00825,-0.37525,-0.01162261029768541,10,1,100,0.04793427195568088,-10,-1,-100,15032.50041434716,-0.002371750509881004,0.002687363983700635,0.9999935764165377,19.22997140939503,0.01301611923672324,6.318780862675068,-2.8970109349208806,-22.622222900390625,5356.25390625,True
1599563551.4311228,0.0,10,0.5,0.5,-13.84849983215332,-0.2,-0.00825,-0.37525,0.031015429569239254,10,1,100,0.025145541636700207,-10,-1,-100,15032.50041434716,-0.002371750509881004,0.002687363983700635,0.9999935764165377,19.22997140939503,0.01301611923672324,6.318780862675068,-2.8970109349208806,-22.622222900390625,5356.25390625,True
1599563551.469573,0.0,10,0.5,0.5,-15.881889253234863,-0.2,-0.00825,-0.37525,0.0020692983915975953,10,1,100,0.041922665044370006,-10,-1,-100,15032.393968545599,-0.002522538619931734,0.002426653743691321,0.9999938740564961,18.844086935476042,0.012827710241307138,6.986277472374844,-3.268541906233054,-19.1500244140625,5356.25390625,True
1599563551.5100162,0.0,10,0.5,0.5,-18.136871128082277,-0.2,-0.00825,-0.37525,-0.027992184591230245,10,1,100,0.055991796337475454,-10,-1,-100,15032.060959222727,-0.002785651639796133,0.0019190316420264013,0.9999942787148828,18.16276562192816,0.012535511857921292,8.265019205551082,-4.011611989612192,-13.0325927734375,5356.25390625,True
1599563551.551903,0.0,10,0.5,0.5,-16.65638519821167,-0.2,-0.00825,-0.37525,0.009760614056950334,10,1,100,0.03699817366605386,-10,-1,-100,15031.97599764436,-0.0028505592413611888,0.001803368924044552,0.9999943110700859,17.988368019828243,0.012461374870760806,8.564861693212986,-4.197382829104326,-11.67535400390625,5356.25390625,True
1599563551.5908377,0.0,10,0.5,0.5,-18.287016442108154,-0.2,-0.00825,-0.37525,-0.014782844451070441,10,1,100,0.05206914484250777,-10,-1,-100,15031.725021628896,-0.0030448992179970148,0.0014778084559163747,0.9999942723190568,17.51612019654359,0.012265284315304098,9.447874901147332,-4.754707203675853,-8.0169677734375,5356.25390625,True
1599563551.629695,0.0,10,0.5,0.5,-16.943988733673095,-0.2,-0.00825,-0.37525,0.017503551643435623,10,1,100,0.032791963089705695,-10,-1,-100,15031.725021628896,-0.0030448992179970148,0.0014778084559163747,0.9999942723190568,17.51612019654359,0.012265284315304098,9.447874901147332,-4.754707203675853,-8.0169677734375,5356.25390625,True
1599563551.6715834,0.0,10,0.5,0.5,-18.176557447052,-0.2,-0.00825,-0.37525,-0.005579390837307541,10,1,100,0.04557525506328483,-10,-1,-100,15031.494552816264,-0.0031597814083904403,0.0012702650842546476,0.9999942010872198,17.266929856655015,0.012165540363063096,10.041650179997394,-5.126268396906259,-5.92254638671875,5356.25390625,True
1599563551.7134717,0.0,10,0.5,0.5,-18.924496913909913,-0.2,-0.00825,-0.37525,-0.015017649613344909,10,1,100,0.05460291811384027,-10,-1,-100,15031.179123491747,-0.003345125382631588,0.0009978715672672902,0.9999939071756937,16.951678553296876,0.012024160030668769,10.930836813994132,-5.6836292538025965,-3.29736328125,5356.25390625,True
1599563551.7543623,0.0,10,0.5,0.5,-19.118851851654053,-0.2,-0.00825,-0.37525,-0.014496969349089834,10,1,100,0.05621011638622069,-10,-1,-100,15030.803148498992,-0.0035268982587743085,0.0007573068126383707,0.999993493716366,16.727574124357982,0.01190199724044011,11.844915557713978,-6.241012150101339,-1.29205322265625,5356.25390625,True
1599563551.7942557,0.0,10,0.5,0.5,-18.95964601745606,-0.2,-0.00825,-0.37525,-0.0058089335333798685,10,1,100,0.052088751837472816,-10,-1,-100,15030.573657533503,-0.0036534199301294502,0.000619738758774014,0.9999931341997729,16.637249246810033,0.011838002829543538,12.483012979667636,-6.61261155097257,-0.29949951171875,5356.25390625,True
1599563551.8381383,0.0,10,0.5,0.5,-18.605606484222413,-0.2,-0.00825,-0.37525,0.007741109330563138,10,1,100,0.03956475164398349,-10,-1,-100,15030.573657533503,-0.0036534199301294502,0.000619738758774014,0.9999931341997729,16.637249246810033,0.011838002829543538,12.483012979667636,-6.61261155097257,-0.29949951171875,5356.25390625,True
1599563551.8830194,0.0,10,0.5,0.5,-19.290577517700196,-0.2,-0.00825,-0.37525,-0.017173953889367505,10,1,100,0.06826814807105637,-10,-1,-100,15029.986745728529,-0.003913194743629887,0.0003951178433427596,0.9999922653644818,16.881065554668687,0.01196454371443576,14.091011015503947,-7.3558289061687825,0.859222412109375,5356.25390625,True
1599563551.924907,0.0,10,0.5,0.5,-18.872274744415282,-0.2,-0.00825,-0.37525,0.005084984063723076,10,1,100,0.04242973233338252,-10,-1,-100,15029.986745728529,-0.003913194743629887,0.0003951178433427596,0.9999922653644818,16.881065554668687,0.01196454371443576,14.091011015503947,-7.3558289061687825,0.859222412109375,5356.25390625,True
1599563551.9687893,0.0,10,0.5,0.5,-18.91651111907959,-0.2,-0.00825,-0.37525,-0.011645688398388794,10,1,100,0.07266890990772377,-10,-1,-100,15029.399834161275,-0.004187071318756777,0.00024440619714054593,0.9999912043110092,17.209807158168918,0.012117139050505004,15.818765156792862,-8.09905961709313,0.91619873046875,5356.25390625,True
1599563552.009679,0.0,10,0.5,0.5,-18.905518786621094,-0.2,-0.00825,-0.37525,0.0032695799491421745,10,1,100,0.04541490360277435,-10,-1,-100,15029.399834161275,-0.004187071318756777,0.00024440619714054593,0.9999912043110092,17.209807158168918,0.012117139050505004,15.818765156792862,-8.09905961709313,0.91619873046875,5356.25390625,True
1599563552.0506048,0.0,10,0.5,0.5,-18.521564865112307,-0.2,-0.00825,-0.37525,-0.00423649485629686,10,1,100,0.0684698908001185,-10,-1,-100,15028.833429619553,-0.0043956237731864875,0.00017729042823544182,0.9999903234830569,17.312141450265045,0.012134023129974539,17.009694247156066,-8.656488198193093,0.235931396484375,5356.25390625,True
1599563552.091462,0.0,10,0.5,0.5,-18.57403429641724,-0.2,-0.00825,-0.37525,0.0014500488285546067,10,1,100,0.055849209323812,-10,-1,-100,15028.685970480903,-0.004469255514196902,0.00016915423366370682,0.9999899985209821,17.318019897984883,0.012125010742754067,17.38129141075044,-8.842298614363026,-0.128448486328125,5356.25390625,True
1599563552.1363413,0.0,10,0.5,0.5,-17.480958393859865,-0.2,-0.00825,-0.37525,0.002677902492447673,10,1,100,0.08050579463973098,-10,-1,-100,15027.91058339458,-0.004759153805163991,0.00017392100904351282,0.9999886600389734,17.85034730642139,0.012494403494583738,19.424231715128833,-9.585538086684181,-2.274627685546875,5356.25390625,True
1599563552.1772318,0.0,10,0.5,0.5,-18.287155895233155,-0.2,-0.00825,-0.37525,0.0021188298986446956,10,1,100,0.05165736838527531,-10,-1,-100,15027.91058339458,-0.004759153805163991,0.00017392100904351282,0.9999886600389734,17.85034730642139,0.012494403494583738,19.424231715128833,-9.585538086684181,-2.274627685546875,5356.25390625,True
1599563552.2211142,0.0,10,0.5,0.5,-16.944633631896973,-0.2,-0.00825,-0.37525,0.008928307357922242,10,1,100,0.07581689929829401,-10,-1,-100,15027.344179004547,-0.004977665672058353,0.0002363557003129404,0.9999875834131342,18.438799882499634,0.012980948949282298,21.233820752450086,-10.142958458702438,-4.607025146484375,5356.25390625,True
1599563552.262164,0.0,10,0.5,0.5,-16.723867238616943,-0.2,-0.00825,-0.37525,0.010350322352039204,10,1,100,0.070014365717561,-10,-1,-100,15026.92523561744,-0.005122358658735718,0.0003063904496484479,0.9999868336966561,18.87954751081955,0.013389601363119528,22.539734855422072,-10.514564129949518,-6.506103515625,5356.25390625,True
1599563552.30205,0.0,10,0.5,0.5,-16.825755388641358,-0.2,-0.00825,-0.37525,0.007895185375087129,10,1,100,0.06360137148204059,-10,-1,-100,15026.71625315037,-0.005194262391093496,0.00034802383862582274,0.9999864491669975,19.112084531641823,0.013620024396830148,23.221516249337313,-10.700363857660545,-7.55889892578125,5356.25390625,True
1599563552.3449383,0.0,10,0.5,0.5,-14.395624418640137,-0.2,-0.00825,-0.37525,0.030261178661173636,10,1,100,0.08614408337827936,-10,-1,-100,15025.813913185964,-0.005463398558068679,0.0005892423984830563,0.9999849019208197,20.110637472549264,0.014720912250920268,26.136353510400678,-11.44353544192689,-12.45806884765625,5356.25390625,True
1599563552.3868241,0.0,10,0.5,0.5,-16.223051166534425,-0.2,-0.00825,-0.37525,0.006158735130964316,10,1,100,0.05938548706220491,-10,-1,-100,15025.813913185964,-0.005463398558068679,0.0005892423984830563,0.9999849019208197,20.110637472549264,0.014720912250920268,26.136353510400678,-11.44353544192689,-12.45806884765625,5356.25390625,True
1599563552.4287124,0.0,10,0.5,0.5,-14.56531862716675,-0.2,-0.00825,-0.37525,0.02299748224742196,10,1,100,0.07338721520319241,-10,-1,-100,15025.333446692093,-0.005589526698223737,0.0007420084302678144,0.9999841031810351,20.691720824704607,0.015412923740070507,27.76719291669911,-11.815100098117068,-15.320648193359375,5356.25390625,True
1599563552.4706013,0.0,10,0.5,0.5,-12.859207698059082,-0.2,-0.00825,-0.37525,0.03838289310333495,10,1,100,0.07844299904238261,-10,-1,-100,15024.640090149594,-0.00574887535564873,0.0010203016467321424,0.9999829545630741,21.557660756028586,0.01654053862361593,30.298009430184916,-12.37241378190021,-20.13055419921875,5356.25390625,True
1599563552.513499,0.0,10,0.5,0.5,-13.645831426239015,-0.2,-0.00825,-0.37525,0.02191175542765315,10,1,100,0.06816752933085113,-10,-1,-100,15024.366654128302,-0.005799094181764381,0.0011227914908130635,0.9999825547708017,21.83728989588516,0.01692950313270718,31.15327001696686,-12.55817495037003,-21.87152099609375,5356.25390625,True
1599563552.5553734,0.0,10,0.5,0.5,-11.039230488586426,-0.2,-0.00825,-0.37525,0.049526838767185215,10,1,100,0.07546136889834174,-10,-1,-100,15023.61372667225,-0.005909846348239826,0.001466143345557693,0.9999814618980846,22.71231325554654,0.01815606012427502,33.84416598410819,-13.115424443475082,-27.50726318359375,5356.25390625,True
1599563552.599229,0.0,10,0.5,0.5,-11.9734039894104,-0.2,-0.00825,-0.37525,0.02897150788786869,10,1,100,0.0674140235384919,-10,-1,-100,15023.339314327692,-0.005936326366725163,0.0015902400033894657,0.9999811154046858,22.985276176785423,0.018551061158886627,34.73762864197779,-13.301162412553596,-29.523468017578125,5356.25390625,True
1599563552.639149,0.0,10,0.5,0.5,-7.672241315460205,-0.2,-0.00825,-0.37525,0.07552679361071286,10,1,100,0.07073068230628932,-10,-1,-100,15022.250450785505,-0.005989480397272208,0.002124997454358437,0.9999798050512769,23.89310091469309,0.019890800489836748,38.133743084675594,-14.044055153370255,-38.276641845703125,5356.25390625,True
1599563552.681333,0.0,10,0.5,0.5,-8.173903273773195,-0.2,-0.00825,-0.37525,0.054065196547107744,10,1,100,0.06461750329708559,-10,-1,-100,15021.643030626117,-0.005981308057026567,0.0024143182167028687,0.9999791972943614,24.197366719770113,0.02032700923380757,39.644542597993464,-14.41546957552169,-43.066192626953125,5356.25390625,True
1599563552.7252533,0.0,10,0.5,0.5,-9.94102013092041,-0.2,-0.00825,-0.37525,0.02534391308937003,10,1,100,0.06552063226147882,-10,-1,-100,15021.643030626117,-0.005981308057026567,0.0024143182167028687,0.9999791972943614,24.197366719770113,0.02032700923380757,39.644542597993464,-14.41546957552169,-43.066192626953125,5356.25390625,True
1599563552.7681348,0.0,10,0.5,0.5,-3.925952626800538,-0.2,-0.00825,-0.37525,0.08919792518334632,10,1,100,0.051656295237010146,-10,-1,-100,15020.491665711626,-0.005854553133471458,0.0029929307863044013,0.9999783830528116,24.38690362194992,0.020497359455132164,42.02214911574041,-15.158257309408832,-53.471710205078125,5356.25390625,True
1599563552.8090665,0.0,10,0.5,0.5,-7.796786843872071,-0.2,-0.00825,-0.37525,0.03157703706197519,10,1,100,0.06437090305006131,-10,-1,-100,15020.491665711626,-0.005854553133471458,0.0029929307863044013,0.9999783830528116,24.38690362194992,0.020497359455132164,42.02214911574041,-15.158257309408832,-53.471710205078125,5356.25390625,True
1599563552.8509545,0.0,10,0.5,0.5,-4.5324885765075695,-0.2,-0.00825,-0.37525,0.0648347803590533,10,1,100,0.05307592827469345,-10,-1,-100,15019.82076823921,-0.0057515159495359295,0.003293088735925274,0.9999780375742559,24.224114730971984,0.02017868331432448,42.76870736993926,-15.529644398500206,-59.08746337890625,5356.25390625,True
1599563552.890851,0.0,10,0.5,0.5,-3.214530978393555,-0.2,-0.00825,-0.37525,0.06463972457447671,10,1,100,0.04788005440054362,-10,-1,-100,15019.212369972374,-0.0056104633023283485,0.0035618672008975003,0.9999779176579732,23.903354158093865,0.019625048194719615,43.21622862657055,-15.901036880922444,-64.97909545898438,5356.25390625,True
1599563552.9307408,0.0,10,0.5,0.5,-1.8409440559387211,-0.2,-0.00825,-0.37525,0.0695518019652182,10,1,100,0.04399649016911161,-10,-1,-100,15018.542448441498,-0.005447054322811457,0.003848555994829751,0.9999777588606453,23.45681672279806,0.018906500486088697,43.40423407238286,-16.27244056405431,-71.14584350585938,5356.25390625,True
1599563552.9716299,0.0,10,0.5,0.5,-0.4082789001464846,-0.2,-0.00825,-0.37525,0.06902698859135364,10,1,100,0.03908622145303206,-10,-1,-100,15017.931120376918,-0.005254181934794426,0.004101933172729377,0.9999777836114374,22.777848090915025,0.01800392865407773,43.11485933745178,-16.64386174969925,-77.58840942382812,5356.25390625,True
1599563553.0162373,0.0,10,0.5,0.5,3.0718219657897947,-0.2,-0.00825,-0.37525,0.08240337334419061,10,1,100,0.0220354324981933,-10,-1,-100,15016.8647127148,-0.00492443228647445,0.004451483386911944,0.999977966888427,21.300427637149937,0.016475504643430148,41.67556475248251,-17.201032574072034,-87.76895141601562,5356.25390625,True
1599563553.059119,0.0,10,0.5,0.5,5.464893612670899,-0.2,-0.00825,-0.37525,0.08000980430057106,10,1,100,0.014314053563681498,-10,-1,-100,15015.856899835868,-0.004555385428670048,0.00474489545996908,0.9999783669813412,21.144539233138932,0.01640769295487291,42.718665467215025,-17.7582260055112,-98.48649597167969,5356.25390625,True
1599563553.1012013,0.0,10,0.5,0.5,3.5539202255249025,-0.2,-0.00825,-0.37525,0.05988955489953379,10,1,100,0.03728437055532481,-10,-1,-100,15015.459437945043,-0.004430013071470623,0.004826340624551946,0.9999785404799256,21.91418498118917,0.017128172744216776,44.73942769115929,-17.943941244945997,-102.0694808959961,5356.25390625,True
1599563553.146046,0.0,10,0.5,0.5,4.289127191352844,-0.2,-0.00825,-0.37525,0.06023948688447833,10,1,100,0.03565239550718628,-10,-1,-100,15015.124477239791,-0.004302612332656755,0.004901370135483275,0.9999787318227873,22.612912154543938,0.017837287781593148,46.646646666668666,-18.129645611144777,-105.6001968383789,5356.25390625,True
1599563553.1869419,0.0,10,0.5,0.5,10.765172109603881,-0.2,-0.00825,-0.37525,0.07827606520308535,10,1,100,-0.008929095987389668,-10,-1,-100,15013.59322464373,-0.0037830332798974306,0.0051312867193002015,0.9999796790714337,24.67219832252446,0.02030047622458633,52.99273488769825,-18.87235509369214,-119.07147979736328,5356.25390625,True
1599563553.2268362,0.0,10,0.5,0.5,7.603468316841126,-0.2,-0.00825,-0.37525,0.05975923348370295,10,1,100,0.028590544985831086,-10,-1,-100,15013.256309166201,-0.003653659531557846,0.005170023001745753,0.999979960616306,25.063308950972115,0.02081154159490857,54.365675089661785,-19.0580081534261,-122.26882934570312,5356.25390625,True
1599563553.2677271,0.0,10,0.5,0.5,11.740631986045837,-0.2,-0.00825,-0.37525,0.06519993448896157,10,1,100,0.001318775513071517,-10,-1,-100,15012.061971717863,-0.0032901226684076035,0.005252719547457295,0.9999807918306145,25.934413655894613,0.021932989150460522,57.90964746286008,-19.614922434337934,-131.44781494140625,5356.25390625,True
1599563553.30813,0.0,10,0.5,0.5,11.67797139263153,-0.2,-0.00825,-0.37525,0.05940154504853144,10,1,100,0.010755781393508752,-10,-1,-100,15011.265095252544,-0.0030476632038032928,0.005273404111544303,0.9999814513070092,26.241132551191775,0.022265248469345782,59.710833985751535,-19.986173144365765,-137.22279357910156,5356.25390625,True
1599563553.35002,0.0,10,0.5,0.5,12.733974161720276,-0.2,-0.00825,-0.37525,0.058174789113691616,10,1,100,0.011144914320153458,-10,-1,-100,15010.468218436697,-0.0028331128990402576,0.005279499991387906,0.9999820500144702,26.40560562465441,0.02231544278217137,61.208758779831626,-20.35741313661779,-142.72207641601562,5356.25390625,True
1599563553.3895366,0.0,10,0.5,0.5,10.729418669319154,-0.2,-0.00825,-0.37525,0.057708295528987166,10,1,100,0.03233855065407985,-10,-1,-100,15010.468218436697,-0.0028331128990402576,0.005279499991387906,0.9999820500144702,26.40560562465441,0.02231544278217137,61.208758779831626,-20.35741313661779,-142.72207641601562,5356.25390625,True
1599563553.4303913,0.0,10,0.5,0.5,13.788083830451965,-0.2,-0.00825,-0.37525,0.05609363589175044,10,1,100,0.00965153530589771,-10,-1,-100,15009.609818518977,-0.00262906827681656,0.005263750752123337,0.999982690314195,26.404419604681124,0.022077656828373485,62.33009186107004,-20.72864937000721,-147.94577026367188,5356.25390625,True
1599563553.4732757,0.0,10,0.5,0.5,17.411677776527405,-0.2,-0.00825,-0.37525,0.04813834674807774,10,1,100,-0.00918558178815073,-10,-1,-100,15007.952588309767,-0.0022744133412215383,0.00517637402660833,0.9999840159702005,26.011053450459794,0.02096978953992755,63.61785839197955,-21.471133254271887,-157.56617736816406,5356.25390625,True
1599563553.5146737,0.0,10,0.5,0.5,13.850360747718812,-0.2,-0.00825,-0.37525,0.05691916715624233,10,1,100,0.0260518145626066,-10,-1,-100,15007.952588309767,-0.0022744133412215383,0.00517637402660833,0.9999840159702005,26.011053450459794,0.02096978953992755,63.61785839197955,-21.471133254271887,-157.56617736816406,5356.25390625,True
1599563553.5546038,0.0,10,0.5,0.5,16.42527582473755,-0.2,-0.00825,-0.37525,0.05023053758121458,10,1,100,0.009624857862120372,-10,-1,-100,15007.094187960494,-0.0021270370073355263,0.0051152500910152995,0.999984654847301,25.669876311267032,0.020235264795122197,63.87796633510301,-21.842387887842513,-161.96275329589844,5356.25390625,True
1599563553.596455,0.0,10,0.5,0.5,19.40435939502716,-0.2,-0.00825,-0.37525,0.038783360377417954,10,1,100,-0.0020461309590082723,-10,-1,-100,15005.312934727524,-0.0018889364193610016,0.004955423193209364,0.9999859377512165,24.813671375704033,0.018723510381032066,63.865296246287954,-22.58492799293745,-169.92868041992188,5356.25390625,True
1599563553.63934,0.0,10,0.5,0.5,17.503534988403324,-0.2,-0.00825,-0.37525,0.04992294786191004,10,1,100,0.01641621713033163,-10,-1,-100,15004.852972075576,-0.0018420427737059204,0.004911554866450342,0.9999862416589609,24.57791032111249,0.018373655626435843,63.78332051865099,-22.770569006188055,-171.74777221679688,5356.25390625,True
1599563553.682226,0.0,10,0.5,0.5,17.86852497329712,-0.2,-0.00825,-0.37525,0.04923225318558899,10,1,100,0.016315983841551744,-10,-1,-100,15004.388128291233,-0.0018001478993558949,0.0048656304979167635,0.9999865424631466,24.338098752934165,0.01804480480656121,63.68081627695959,-22.95621194548508,-173.49794006347656,5356.25390625,True
1599563553.7310946,0.0,10,0.5,0.5,19.140991888809207,-0.2,-0.00825,-0.37525,0.04346942016990736,10,1,100,0.012440540918215642,-10,-1,-100,15003.466251797741,-0.001728184873161045,0.004771843580061441,0.9999871213600161,23.853882858124056,0.01746323190487221,63.433250203921766,-23.327502925968933,-176.7913360595703,5356.25390625,True
1599563553.7729828,0.0,10,0.5,0.5,19.673738681411745,-0.2,-0.00825,-0.37525,0.04105209548539311,10,1,100,0.014228861274959318,-10,-1,-100,15002.481875024387,-0.0016802209238003442,0.004665063030816912,0.9999877069467232,23.375769979215818,0.016998639783698376,63.16126222417906,-23.69879880924217,-179.80906677246094,5356.25390625,True
1599563553.814873,0.0,10,0.5,0.5,-186.94080897216796,-0.2,-0.00825,-0.37525,0.03976876435650331,10,1,100,0.0157492551645817,-10,-1,-100,15001.558045870392,-0.0016514871797192196,0.00455688173665977,0.9999882536404782,23.15199879338132,0.0168323637743325,63.54692483096362,-24.07009509005936,177.44906616210938,5356.25390625,True
1599563553.8577564,0.0,10,0.5,0.5,-51.075407558441164,-0.2,-0.00825,-0.37525,0.03189437099800422,10,1,100,0.017530208525269857,-10,-1,-100,15000.051207189797,-0.0016426302844874724,0.004387606637125766,0.9999890252766509,24.04449232764966,0.01766883172865576,67.54007326301337,-24.62700408821558,173.85336303710938,5356.25390625,True
1599563553.8996449,0.0,10,0.5,0.5,-50.816842565155035,-0.2,-0.00825,-0.37525,0.029130453820236504,10,1,100,0.02214108082938366,-10,-1,-100,14998.60296366678,-0.0016773923443072177,0.004209390157856053,0.999989733642012,24.795147807281204,0.01859612701411807,71.24115413159531,-25.183864939070002,170.5968017578125,5356.25390625,True
1599563553.9395375,0.0,10,0.5,0.5,-52.30960164299012,-0.2,-0.00825,-0.37525,0.04685540336033254,10,1,100,0.018605172747717693,-10,-1,-100,14998.60296366678,-0.0016773923443072177,0.004209390157856053,0.999989733642012,24.795147807281204,0.01859612701411807,71.24115413159531,-25.183864939070002,170.5968017578125,5356.25390625,True
1599563554.2682526,0.0,10,0.5,0.5,-51.18351857299805,-0.2,-0.00825,-0.37525,0.0332393071382871,10,1,100,0.02336381645568813,-10,-1,-100,14997.554134562495,-0.0017211954880132347,0.004086486541172688,0.9999901690085963,25.287902790152017,0.019308330721100758,73.7401749304717,-25.55507827148471,168.16860961914062,5356.25390625,True
1599563554.3012078,0.0,10,0.5,0.5,-50.81569099235535,-0.2,-0.00825,-0.37525,0.03139268106950288,10,1,100,0.025676438335296238,-10,-1,-100,14996.506282163551,-0.0017824093098508895,0.003958903710425992,0.9999905750048166,25.83627334650275,0.02014393371994394,76.44631506640806,-25.92626748782257,165.4717559814453,5356.25390625,True
1599563554.340105,0.0,10,0.5,0.5,-52.10439067993165,-0.2,-0.00825,-0.37525,0.0440513121958941,10,1,100,0.01954440344057974,-10,-1,-100,14996.506282163551,-0.0017824093098508895,0.003958903710425992,0.9999905750048166,25.83627334650275,0.02014393371994394,76.44631506640806,-25.92626748782257,165.4717559814453,5356.25390625,True
1599563554.3740141,0.0,10,0.5,0.5,-49.75932653083802,-0.2,-0.00825,-0.37525,0.022490165922749127,10,1,100,0.03361521754008589,-10,-1,-100,14994.934014168452,-0.00191038001390445,0.0037637593362665144,0.9999910922422565,26.704332777137672,0.02157417294939297,80.73178456207705,-26.48299988117426,160.91152954101562,5356.25390625,True
1599563554.4304814,0.0,10,0.5,0.5,-49.7995635520935,-0.2,-0.00825,-0.37525,0.027362014853171683,10,1,100,0.03272221777385368,-10,-1,-100,14993.88518527546,-0.002018498626883259,0.0036316465965450582,0.9999913683658931,27.27274516924858,0.022593850047506598,83.6195514719078,-26.854118942611123,157.52713012695312,5356.25390625,True
1599563554.4892857,0.0,10,0.5,0.5,-49.239955060195925,-0.2,-0.00825,-0.37525,0.024966273603071958,10,1,100,0.03545301566379981,-10,-1,-100,14992.772879914846,-0.0021413497888146662,0.003490801182691479,0.9999916144289336,27.870950332605887,0.023671803669389382,86.6489115609758,-27.225207452806288,153.86712646484375,5356.25390625,True
1599563554.529798,0.0,10,0.5,0.5,-48.62480117492676,-0.2,-0.00825,-0.37525,0.02343551561527552,10,1,100,0.03894815087062285,-10,-1,-100,14991.663504449767,-0.002284387411664324,0.0033499114264338263,0.9999917798000083,28.44589055384701,0.02473098438636254,89.65645729054603,-27.59626479951854,149.93170166015625,5356.25390625,True
1599563554.5686603,0.0,10,0.5,0.5,-48.887534026336674,-0.2,-0.00825,-0.37525,0.029483560590854968,10,1,100,0.03331400650656783,-10,-1,-100,14991.138114673202,-0.002362626756189017,0.0032779093026232514,0.9999918366193871,28.714201364604634,0.025231708666154574,91.11800283505914,-27.781782039482724,147.8607177734375,5356.25390625,True
1599563554.6115935,0.0,10,0.5,0.5,-45.83153722610474,-0.2,-0.00825,-0.37525,0.012076111858581661,10,1,100,0.05442275491278504,-10,-1,-100,14989.439871705254,-0.0026249966035664382,0.003055212108260701,0.9999918875029962,29.411728677486792,0.026520699458405256,95.2243028910401,-28.338291540196877,141.2345733642578,5356.25390625,True
1599563554.6504855,0.0,10,0.5,0.5,-48.29377407722474,-0.2,-0.00825,-0.37525,0.03423041348987717,10,1,100,0.028280530600968818,-10,-1,-100,14989.439871705254,-0.0026249966035664382,0.003055212108260701,0.9999918875029962,29.411728677486792,0.026520699458405256,95.2243028910401,-28.338291540196877,141.2345733642578,5356.25390625,True
1599563554.6913757,0.0,10,0.5,0.5,-44.10148058242798,-0.2,-0.00825,-0.37525,0.009037987798472532,10,1,100,0.062133442507464165,-10,-1,-100,14987.740654408582,-0.002931888889753433,0.0028272393092930183,0.9999917053383124,29.89226642366932,0.027318518355753107,98.7045785549658,-28.89474775638138,133.98890686035156,5356.25390625,True
1599563554.7302723,0.0,10,0.5,0.5,-42.267935716629026,-0.2,-0.00825,-0.37525,0.006801117252732674,10,1,100,0.07015199427377641,-10,-1,-100,14985.979912591632,-0.0032826771719792302,0.002600800893662835,0.9999912298941908,30.07870239780585,0.02743873197539335,101.25775792422601,-29.451170266641476,126.12400817871094,5356.25390625,True
1599563554.7701647,0.0,10,0.5,0.5,-41.97259752388001,-0.2,-0.00825,-0.37525,0.011217210465390651,10,1,100,0.06437888206355674,-10,-1,-100,14984.80608568166,-0.0035477288922169323,0.002436328729402071,0.999990738918131,30.00094268752598,0.027095314445640815,102.28523865134143,-29.822112377394433,120.53656005859375,5356.25390625,True
1599563554.8110561,0.0,10,0.5,0.5,-40.65980223617554,-0.2,-0.00825,-0.37525,0.009572234393210637,10,1,100,0.07003555898470057,-10,-1,-100,14983.569759237696,-0.003838504501186727,0.0022732384112188527,0.9999900490856498,29.734990030230033,0.02642487998650496,102.65724272949281,-30.19305968999106,114.67404174804688,5356.25390625,True
1599563554.8519475,0.0,10,0.5,0.5,-39.290936074829105,-0.2,-0.00825,-0.37525,0.007879209731876682,10,1,100,0.07579557232565415,-10,-1,-100,14982.331480526598,-0.004153456881088589,0.0021109383713356616,0.9999891463086634,29.2597199623069,0.025479244945700474,102.27579614406292,-30.564020577320424,108.53648376464844,5356.25390625,True
1599563554.892838,0.0,10,0.5,0.5,-37.86479062309266,-0.2,-0.00825,-0.37525,0.005826128312582047,10,1,100,0.08252891808201972,-10,-1,-100,14981.09613191185,-0.0044990485894625095,0.001946110966016636,0.9999879855347751,28.55640736392242,0.02434467494381679,101.04767101937058,-30.935003130809058,102.12388610839844,5356.25390625,True
1599563554.9337351,0.0,10,0.5,0.5,-36.38143656768799,-0.2,-0.00825,-0.37525,0.004251784333428897,10,1,100,0.08964384631727265,-10,-1,-100,14979.858830762445,-0.00487576067303142,0.0017833599161131068,0.9999865232018224,27.60974812096953,0.023130552820404493,98.88850304204998,-31.306013649033783,95.43637084960938,5356.25390625,True
1599563554.9736285,0.0,10,0.5,0.5,-38.84596802062988,-0.2,-0.00825,-0.37525,0.020370234172749753,10,1,100,0.05223177528651828,-10,-1,-100,14979.858830762445,-0.00487576067303142,0.0017833599161131068,0.9999865232018224,27.60974812096953,0.023130552820404493,98.88850304204998,-31.306013649033783,95.43637084960938,5356.25390625,True
1599563555.015028,0.0,10,0.5,0.5,-30.634468128967292,-0.2,-0.00825,-0.37525,-0.013562598351720571,10,1,100,0.14663723360027608,-10,-1,-100,14977.320755109307,-0.005731707445050271,0.0014762383016965676,0.9999824839717147,27.021729680342986,0.02259325477531813,99.11553255592106,-32.04809290516122,81.23689270019531,5356.25390625,True
1599563555.0549214,0.0,10,0.5,0.5,-31.59220800704956,-0.2,-0.00825,-0.37525,0.0023718405057996696,10,1,100,0.11221384612681237,-10,-1,-100,14976.02291049657,-0.006194076705452752,0.0013433307998467743,0.9999799142363456,28.54788430373891,0.024291810823586238,105.94651912712546,-32.4190721661514,73.72517395019531,5356.25390625,True
1599563555.0958123,0.0,10,0.5,0.5,-34.35528521347046,-0.2,-0.00825,-0.37525,0.015491402559937606,10,1,100,0.06633382809675285,-10,-1,-100,14976.02291049657,-0.006194076705452752,0.0013433307998467743,0.9999799142363456,28.54788430373891,0.024291810823586238,105.94651912712546,-32.4190721661514,73.72517395019531,5356.25390625,True
1599563555.1362197,0.0,10,0.5,0.5,-25.189624701690676,-0.2,-0.00825,-0.37525,-0.007234338479013969,10,1,100,0.18611493718105038,-10,-1,-100,14973.41941331036,-0.007280030253659367,0.0011380821617739839,0.9999728525957587,30.90150331048071,0.027495344200624827,117.35039693473163,-33.16085429436144,57.87825012207031,5356.25390625,True
1599563555.1781082,0.0,10,0.5,0.5,-28.70224273147583,-0.2,-0.00825,-0.37525,0.009009190059854906,10,1,100,0.10888940523811666,-10,-1,-100,14972.770982212503,-0.007561576504291728,0.0011004906763628813,0.9999708053143557,31.371664891980373,0.028154218323361558,119.81321106667959,-33.3462669100307,53.745025634765625,5356.25390625,True
1599563555.219995,0.0,10,0.5,0.5,-22.828935335540773,-0.2,-0.00825,-0.37525,0.008548736335722989,10,1,100,0.18456465786390613,-10,-1,-100,14970.693852786673,-0.008501835530908256,0.0010633450539998062,0.9999632933712624,32.30049896846575,0.02927755480876683,125.4530963292024,-33.90244992178663,40.934600830078125,5356.25390625,True
1599563555.2608867,0.0,10,0.5,0.5,-27.57521220474243,-0.2,-0.00825,-0.37525,0.012142309236308593,10,1,100,0.09100508830522547,-10,-1,-100,14970.693852786673,-0.008501835530908256,0.0010633450539998062,0.9999632933712624,32.30049896846575,0.02927755480876683,125.4530963292024,-33.90244992178663,40.934600830078125,5356.25390625,True
1599563555.3017774,0.0,10,0.5,0.5,-22.409576427841188,-0.2,-0.00825,-0.37525,0.013644533511833968,10,1,100,0.16233239818375506,-10,-1,-100,14969.33156310243,-0.009146312549213234,0.0010779539958839786,0.9999575905916885,32.412886543159004,0.029119045082099476,127.29044500404264,-34.27321871604062,32.05174255371094,5356.25390625,True
1599563555.3436654,0.0,10,0.5,0.5,-20.418040774154665,-0.2,-0.00825,-0.37525,0.02267457499287449,10,1,100,0.1745874050464207,-10,-1,-100,14967.96829895326,-0.00983938511555131,0.001174115371942806,0.9999509027715517,32.07250554161164,0.02825247319090331,127.34134296531604,-34.64399816884986,22.89569091796875,5356.25390625,True
1599563555.3835588,0.0,10,0.5,0.5,-15.598112563705449,-0.2,-0.00825,-0.37525,0.03632032797958885,10,1,100,0.2214498419000438,-10,-1,-100,14965.890204512398,-0.010890960852307481,0.0013861409632792982,0.9999397309762941,30.65629676204111,0.02605702164193063,123.71150827273406,-35.20023199957849,8.648162841796875,5356.25390625,True
1599563555.4244492,0.0,10,0.5,0.5,-12.32340909690857,-0.2,-0.00825,-0.37525,0.056437568788343544,10,1,100,0.23362183412760254,-10,-1,-100,14963.755472052959,-0.011952124905809738,0.0017621366163491827,0.9999270181292139,28.553264171495883,0.02399159658811764,117.0848889493378,-35.75657423603882,-6.21405029296875,5356.25390625,True
1599563555.464342,0.0,10,0.5,0.5,-17.82830754776001,-0.2,-0.00825,-0.37525,0.018866593312820357,10,1,100,0.12812747052345286,-10,-1,-100,14963.755472052959,-0.011952124905809738,0.0017621366163491827,0.9999270181292139,28.553264171495883,0.02399159658811764,117.0848889493378,-35.75657423603882,-6.21405029296875,5356.25390625,True
1599563555.5057764,0.0,10,0.5,0.5,-8.859412443923953,-0.2,-0.00825,-0.37525,0.07969150988077384,10,1,100,0.23941206786528724,-10,-1,-100,14961.55043126538,-0.012958568474189726,0.002314709670770121,0.9999133550574469,31.56048766655198,0.02732902798346688,131.4732981677278,-36.31282034637933,-21.690704345703125,5356.25390625,True
1599563555.5466678,0.0,10,0.5,0.5,-5.331643067169191,-0.2,-0.00825,-0.37525,0.09967300576004573,10,1,100,0.24324896190510487,-10,-1,-100,14959.348320638528,-0.013902248489652842,0.0029978157019907884,0.9998988651798485,33.445148866866475,0.030071492231719066,141.50281026315676,-36.86889282031333,-37.782257080078125,5356.25390625,True
1599563555.5865605,0.0,10,0.5,0.5,-8.127045315170289,-0.2,-0.00825,-0.37525,0.06105270364311267,10,1,100,0.17887104148687533,-10,-1,-100,14958.63641996344,-0.014168865392420866,0.003266036862455443,0.9998942825402617,33.86346857390539,0.030683493569006442,144.00763961498444,-37.054221335411555,-43.28253173828125,5356.25390625,True
1599563555.629446,0.0,10,0.5,0.5,-6.907601362991333,-0.2,-0.00825,-0.37525,0.06463172607413567,10,1,100,0.18079117582917814,-10,-1,-100,14957.85908758617,-0.014422693535423524,0.0035404421702634357,0.9998897195093178,34.13880747229981,0.031050200390863723,145.91951507951146,-37.23954092105563,-48.8511962890625,5356.25390625,True
1599563555.6713345,0.0,10,0.5,0.5,0.9229659992218009,-0.2,-0.00825,-0.37525,0.13198152399817756,10,1,100,0.22908570593490388,-10,-1,-100,14955.596428539953,-0.015087104977292069,0.0043999205247472065,0.9998765023555558,33.89506927512469,0.03042415619653928,147.08645040419952,-37.79549386310982,-65.96746826171875,5356.25390625,True
1599563555.7112272,0.0,10,0.5,0.5,-2.051034091567993,-0.2,-0.00825,-0.37525,0.07928460032538104,10,1,100,0.18387671556187113,-10,-1,-100,14954.88257113623,-0.0152741379488301,0.004699168290460896,0.9998723011101458,33.44106747476469,0.029705435987291546,145.84375161858352,-37.98082570748144,-71.80960083007812,5356.25390625,True
1599563555.7561078,0.0,10,0.5,0.5,2.681841313171386,-0.2,-0.00825,-0.37525,0.11569972134949473,10,1,100,0.19959864673990416,-10,-1,-100,14953.33181046159,-0.015581523819665322,0.005298966255606577,0.9998645593639567,31.96688672489995,0.02781178675792815,140.80718059183437,-38.35153522159516,-83.69912719726562,5356.25390625,True
