Timestamp,Input Throttle,horizon,dT,dt,Input Roll,Roll P,Roll I,Roll D,Input Pitch,Pitch P,Pitch I,Pitch D,Input Yaw,Yaw P,Yaw I,Yaw D,Altitude,Direction X,Direction Y,Direction Z,Drag X,Drag Y,Drag Z,Vertical Velocity,Roll,Mass,Has Fuel
1599563716.2558894,0.0,10,0.5,0.5,-11.641786277770997,-0.2,-0.0155,-0.12575,-0.0002792735826927488,10,1,100,0.17486950646246818,-10,-1,-100,14995.089634111617,-0.01680682886970992,-7.485220840448846e-05,0.9998587524748138,28.508600535441065,0.02712406102633188,-85.88486982143677,26.637680835559983,-31.791778564453125,5356.25390625,True
1599563716.3027647,0.0,10,0.5,0.5,-11.732055911254884,-0.2,-0.0155,-0.12575,-0.000500382234255339,10,1,100,0.1736742425130543,-10,-1,-100,14995.574011569028,-0.016842513150882504,-7.252834412603396e-05,0.9998581521847996,28.436047105872554,0.027286983089574137,-85.06983515121607,26.451721308866038,-31.79119873046875,5356.25390625,True
1599563716.3506367,0.0,10,0.5,0.5,-11.822604283142091,-0.2,-0.0155,-0.12575,-0.00018289926683980452,10,1,100,0.17992630312715446,-10,-1,-100,14996.664834758616,-0.01691647894557587,-6.74635965835468e-05,0.9998569038561204,28.29119871313953,0.027608442169015545,-83.44965795575985,26.07981368542357,-31.78997802734375,5356.25390625,True
1599563716.3945189,0.0,10,0.5,0.5,-11.867603361511232,-0.2,-0.0155,-0.12575,0.007137224519811205,10,1,100,0.1783402939903745,-10,-1,-100,14997.694134492194,-0.016953923695012224,3.7486297851630042e-06,0.9998562718997624,28.149913027614335,0.02792658731050918,-81.85198820605041,25.707921664133732,-31.9283447265625,5356.25390625,True
1599563716.4412632,0.0,10,0.5,0.5,-11.847270890808106,-0.2,-0.0155,-0.12575,0.009433144821313058,10,1,100,0.17971546874078337,-10,-1,-100,14998.658980076434,-0.016985053307053525,8.935561228874773e-05,0.9998557395843317,28.026114475429676,0.028250683149723427,-80.3162687247016,25.336044407843968,-32.32049560546875,5356.25390625,True
1599563716.4891346,0.0,10,0.5,0.5,-11.464317875671387,-0.2,-0.0155,-0.12575,0.03599992858991206,10,1,100,0.17551470455866564,-10,-1,-100,15000.65018981509,-0.016959723231519952,0.0004086151255408258,0.9998560900557587,27.837419746461187,0.028899029371266836,-77.43973061058806,24.592330174688875,-33.92193603515625,5356.25390625,True
1599563716.5360465,0.0,10,0.5,0.5,-11.35762029876709,-0.2,-0.0155,-0.12575,0.030080544431028665,10,1,100,0.17281224170830134,-10,-1,-100,15001.679484452354,-0.0168967101158211,0.0006446669951205562,0.9998570325760214,27.76705503275327,0.02920341995101203,-76.078960340552,24.22049144435346,-35.134521484375,5356.25390625,True
1599563716.922495,0.0,10,0.5,0.5,-11.595144410705567,-0.2,-0.0155,-0.12575,0.006539824172567684,10,1,100,0.18080322428976853,-10,-1,-100,15001.679484452354,-0.0168967101158211,0.0006446669951205562,0.9998570325760214,27.76705503275327,0.02920341995101203,-76.078960340552,24.22049144435346,-35.134521484375,5356.25390625,True
1599563716.9693677,0.0,10,0.5,0.5,-11.449095066833497,-0.2,-0.0155,-0.12575,0.02123368547580051,10,1,100,0.1771380696484992,-10,-1,-100,15002.103310219012,-0.01684802988261336,0.0007776614915180177,0.9998577594496525,27.73595387964496,0.02934501500016705,-75.411859981633,24.034576270847232,-35.84393310546875,5356.25390625,True
1599563717.0172386,0.0,10,0.5,0.5,-10.794728346252443,-0.2,-0.0155,-0.12575,0.060217293682928455,10,1,100,0.16179467602337305,-10,-1,-100,15003.546662287903,-0.016648973337757347,0.0012522550524064022,0.9998606120575418,27.64951876430156,0.029702364231450843,-73.43652423576387,23.476847699966537,-38.38427734375,5356.25390625,True
1599563717.063666,0.0,10,0.5,0.5,-10.530572743225097,-0.2,-0.0155,-0.12575,0.05360789221275358,10,1,100,0.16279034547196253,-10,-1,-100,15004.451929266565,-0.01646192895256837,0.001622479862528429,0.9998631768668432,27.588522118505818,0.029860835882868385,-72.11677428400124,23.10504270638327,-40.42144775390625,5356.25390625,True
1599563717.1085417,0.0,10,0.5,0.5,-10.773370935058594,-0.2,-0.0155,-0.12575,0.0167551444076442,10,1,100,0.18146029399914623,-10,-1,-100,15004.451929266565,-0.01646192895256837,0.001622479862528429,0.9998631768668432,27.588522118505818,0.029860835882868385,-72.11677428400124,23.10504270638327,-40.42144775390625,5356.25390625,True
1599563717.1573806,0.0,10,0.5,0.5,-9.163999977111816,-0.2,-0.0155,-0.12575,0.10838786308699075,10,1,100,0.1237495239694932,-10,-1,-100,15006.318122848053,-0.015937631574297263,0.0024539636612437117,0.9998699765280241,27.417693096106483,0.029889768641862432,-69.36890952372033,22.36146840861738,-45.320892333984375,5356.25390625,True
1599563717.20525,0.0,10,0.5,0.5,-9.759132215881348,-0.2,-0.0155,-0.12575,0.025491625941245204,10,1,100,0.17608137705947588,-10,-1,-100,15006.318122848053,-0.015937631574297263,0.0024539636612437117,0.9998699765280241,27.417693096106483,0.029889768641862432,-69.36890952372033,22.36146840861738,-45.320892333984375,5356.25390625,True
1599563717.2500944,0.0,10,0.5,0.5,-8.806087367248534,-0.2,-0.0155,-0.12575,0.07826090962775446,10,1,100,0.1392879716533843,-10,-1,-100,15007.156979419524,-0.015604069972533444,0.0029314569538197426,0.9998739518361404,27.286495675623073,0.029716069739018875,-67.89177476674871,21.989701944272696,-48.182861328125,5356.25390625,True
1599563717.2950017,0.0,10,0.5,0.5,-7.574735418701171,-0.2,-0.0155,-0.12575,0.10962130912664123,10,1,100,0.10548419018586182,-10,-1,-100,15008.478249804699,-0.014994780487892968,0.0036480525776591676,0.9998809170448802,26.997584061469144,0.029164349200703602,-65.47334774418773,21.432083614128388,-52.99224853515625,5356.25390625,True
1599563717.3408508,0.0,10,0.5,0.5,-7.58297611694336,-0.2,-0.0155,-0.12575,0.06692751704222044,10,1,100,0.14095256745711351,-10,-1,-100,15008.898165910272,-0.014765107061361757,0.003908432819061985,0.9998833510796975,26.869715581909418,0.028895437236374336,-64.5994240472847,21.24622057233703,-54.7327880859375,5356.25390625,True
1599563717.390718,0.0,10,0.5,0.5,-6.57012935180664,-0.2,-0.0155,-0.12575,0.09582166948229558,10,1,100,0.10842900575946791,-10,-1,-100,15009.737995948992,-0.014262582115495205,0.004404849182679828,0.9998885818205329,26.556011122408442,0.02822484913080146,-62.73080297258224,20.874511755385754,-58.42071533203125,5356.25390625,True
1599563717.4366348,0.0,10,0.5,0.5,-5.706711982727052,-0.2,-0.0155,-0.12575,0.10030462668321485,10,1,100,0.09768159714151572,-10,-1,-100,15010.575872056535,-0.013710432202726342,0.004893472594897533,0.9998940333729257,26.151794171675665,0.027377364261859785,-60.67860877909908,20.50282886880797,-62.384124755859375,5356.25390625,True
1599563717.4964755,0.0,10,0.5,0.5,-4.7832638336181645,-0.2,-0.0155,-0.12575,0.10730976857647986,10,1,100,0.08520400178511829,-10,-1,-100,15011.35417809023,-0.013097897413041843,0.005397617158576603,0.9998996503711595,25.64088808680133,0.026362713434316225,-58.41741328364245,20.131176399583705,-66.6226806640625,5356.25390625,True
1599563717.5418675,0.0,10,0.5,0.5,-2.24153052520752,-0.2,-0.0155,-0.12575,0.15812725556444784,10,1,100,-0.0038137158123879578,-10,-1,-100,15012.973288051668,-0.011735023876919255,0.006314139041715311,0.9999112064892413,24.23261926870745,0.023932512436921162,-53.176100435547504,19.387978960490102,-75.92724609375,5356.25390625,True
1599563717.5897398,0.0,10,0.5,0.5,-1.706312921142578,-0.2,-0.0155,-0.12575,0.11262609863117425,10,1,100,0.04965370084708981,-10,-1,-100,15013.68421029672,-0.010986412545599109,0.006729428727739661,0.9999170033199637,23.30200034258187,0.02259464205100364,-50.15678794430319,19.01643975330626,-80.99319458007812,5356.25390625,True
1599563717.6351655,0.0,10,0.5,0.5,-2.2804697357177734,-0.2,-0.0155,-0.12575,0.07160782491526034,10,1,100,0.12396728233840754,-10,-1,-100,15013.68421029672,-0.010986412545599109,0.006729428727739661,0.9999170033199637,23.30200034258187,0.02259464205100364,-50.15678794430319,19.01643975330626,-80.99319458007812,5356.25390625,True
1599563717.68603,0.0,10,0.5,0.5,-0.4849382186889649,-0.2,-0.0155,-0.12575,0.1107531121835853,10,1,100,0.0410478530229728,-10,-1,-100,15014.461539351614,-0.010237100660030337,0.007081408189209437,0.9999225247128569,22.23814799118157,0.021272249532127783,-46.934437336000855,18.6449409235867,-86.33544921875,5356.25390625,True
1599563717.732035,0.0,10,0.5,0.5,0.736888208770752,-0.2,-0.0155,-0.12575,0.11190619116754252,10,1,100,0.027852974232192212,-10,-1,-100,15015.174415394315,-0.0094411368940646,0.007407665286283421,0.9999279931220817,21.05650123103559,0.02003141420793202,-43.557657155544966,18.27347921684482,-91.95338439941406,5356.25390625,True
1599563717.7848954,0.0,10,0.5,0.5,2.018234329605103,-0.2,-0.0155,-0.12575,0.11071468791605794,10,1,100,0.01465251925992439,-10,-1,-100,15015.88924535038,-0.00860313200078283,0.007689361519216762,0.9999334277036666,22.037774493590383,0.021053039972793744,-44.663428757398144,17.902021410417568,-97.84734344482422,5356.25390625,True
1599563717.8342752,0.0,10,0.5,0.5,5.310610915374756,-0.2,-0.0155,-0.12575,0.12685778093263356,10,1,100,-0.08394981338424505,-10,-1,-100,15017.316954060923,-0.00695073511784069,0.008088530477541798,0.9999431298609114,23.816473412597837,0.02337567697158473,-46.270200477108354,17.159063873556068,-110.0162353515625,5356.25390625,True
1599563717.8861358,0.0,10,0.5,0.5,4.830806196212769,-0.2,-0.0155,-0.12575,0.09530499927827835,10,1,100,0.03474338277750738,-10,-1,-100,15017.671439640108,-0.006534689163857877,0.008160767790380892,0.9999453483599006,24.13570474123496,0.02387981306238697,-46.38399451551869,16.973314214010994,-112.97784423828125,5356.25390625,True
1599563717.9345546,0.0,10,0.5,0.5,7.309371947097779,-0.2,-0.0155,-0.12575,0.10615163891215186,10,1,100,-0.05582866592733807,-10,-1,-100,15018.619666643208,-0.005340108665603667,0.008321629418171918,0.9999511156667941,24.879443662342617,0.025137135288691312,-46.246855148908274,16.416046662076692,-121.47032165527344,5356.25390625,True
1599563717.9873776,0.0,10,0.5,0.5,6.333026517105103,-0.2,-0.0155,-0.12575,0.09040829181537673,10,1,100,0.0627923515443706,-10,-1,-100,15018.619666643208,-0.005340108665603667,0.008321629418171918,0.9999511156667941,24.879443662342617,0.025137135288691312,-46.246855148908274,16.416046662076692,-121.47032165527344,5356.25390625,True
1599563718.0322576,0.0,10,0.5,0.5,9.794942925643923,-0.2,-0.0155,-0.12575,0.09911735798554444,10,1,100,-0.1072118858139495,-10,-1,-100,15019.918478178442,-0.003801668133934792,0.008398144554028356,0.999957508340954,25.33587150838228,0.0259291060869682,-44.96759863839904,15.67300597627981,-131.8368682861328,5356.25390625,True
1599563718.0781355,0.0,10,0.5,0.5,8.57800960121155,-0.2,-0.0155,-0.12575,0.09167424495113194,10,1,100,0.04583883177863959,-10,-1,-100,15019.918478178442,-0.003801668133934792,0.008398144554028356,0.999957508340954,25.33587150838228,0.0259291060869682,-44.96759863839904,15.67300597627981,-131.8368682861328,5356.25390625,True
1599563718.137974,0.0,10,0.5,0.5,10.954081489944459,-0.2,-0.0155,-0.12575,0.08851940139706829,10,1,100,-0.07399844743424938,-10,-1,-100,15020.86182694789,-0.0027187699087373144,0.008367947143694788,0.9999612921262422,25.275514355224733,0.02575920702864755,-43.268226461260454,15.115742727236318,-138.88909912109375,5356.25390625,True
1599563718.1898358,0.0,10,0.5,0.5,12.252367516708375,-0.2,-0.0155,-0.12575,0.08181628112827533,10,1,100,-0.07795218389678797,-10,-1,-100,15021.744632510352,-0.00170588995675004,0.008278067933297103,0.9999642811274546,24.948063602595113,0.025041539630290342,-41.13601259426516,14.558518241084808,-145.321533203125,5356.25390625,True
1599563718.2387056,0.0,10,0.5,0.5,12.81944182472229,-0.2,-0.0155,-0.12575,0.08535775917175009,10,1,100,-0.04485846353182991,-10,-1,-100,15022.271972762886,-0.0010936976498096642,0.008227466942654353,0.9999655557133749,24.629719893131625,0.024351061553137373,-39.57672185047241,14.187063551042332,-149.2648162841797,5356.25390625,True
1599563718.2900786,0.0,10,0.5,0.5,13.607153076553347,-0.2,-0.0155,-0.12575,0.08322241584388837,10,1,100,-0.04887746684576958,-10,-1,-100,15022.856930390466,-0.00050821137632283,0.0081613085557655,0.9999665668230386,24.290011457658114,0.023583612150357442,-38.01076275787295,13.81563376417472,-152.9324951171875,5356.25390625,True
1599563718.3389468,0.0,10,0.5,0.5,13.231324448394776,-0.2,-0.0155,-0.12575,0.08988544923642851,10,1,100,0.008861668440467835,-10,-1,-100,15022.856930390466,-0.00050821137632283,0.0081613085557655,0.9999665668230386,24.290011457658114,0.023583612150357442,-38.01076275787295,13.81563376417472,-152.9324951171875,5356.25390625,True
1599563718.391806,0.0,10,0.5,0.5,14.402798035430909,-0.2,-0.0155,-0.12575,0.08132673434477886,10,1,100,-0.05224177504092537,-10,-1,-100,15023.384272520547,4.1417633743001064e-05,0.00808343589486121,0.9999673276406151,23.893802548467473,0.02273325739666802,-36.38731465167631,13.444229780915563,-156.32452392578125,5356.25390625,True
1599563718.4406762,0.0,10,0.5,0.5,15.983821402740478,-0.2,-0.0155,-0.12575,0.07138756552363121,10,1,100,-0.106760946340006,-10,-1,-100,15024.434075908153,0.001030730921251216,0.007922356788297348,0.9999680864191051,23.046549162535552,0.020994880397791776,-33.16136092896444,12.70149694958056,-162.28118896484375,5356.25390625,True
1599563718.4895456,0.0,10,0.5,0.5,16.133378341674803,-0.2,-0.0155,-0.12575,0.08020406998654675,10,1,100,-0.056815872387834185,-10,-1,-100,15024.895012802794,0.0014702688379781633,0.007856434252565683,0.9999680568650078,22.60025391445535,0.02014869682327514,-31.570059986815004,12.330165253678352,-164.8455810546875,5356.25390625,True
1599563718.9144094,0.0,10,0.5,0.5,16.262082894134522,-0.2,-0.0155,-0.12575,0.08414363377068448,10,1,100,-0.03631227386805609,-10,-1,-100,15025.187004597508,0.0016772611598196037,0.007832741795543245,0.9999679169608222,22.376736324546382,0.019741720493599398,-30.787942148774725,12.14450714295638,-166.02423095703125,5356.25390625,True
1599563718.9633152,0.0,10,0.5,0.5,17.18396195526123,-0.2,-0.0155,-0.12575,0.07788367759695251,10,1,100,-0.07896433128817569,-10,-1,-100,15025.882319367956,0.0022482011295913147,0.007754808508269361,0.9999674037370823,21.72049713645401,0.018607782336372107,-28.516618813695946,11.587560309696041,-169.14657592773438,5356.25390625,True
1599563719.005237,0.0,10,0.5,0.5,17.414885301971434,-0.2,-0.0155,-0.12575,0.08110828140507531,10,1,100,-0.05959313538093361,-10,-1,-100,15026.343258259702,0.0025856358036238274,0.007713859496317636,0.9999669048819377,21.307479145157824,0.01793659007435678,-27.079357097947153,11.216281997214999,-170.88327026367188,5356.25390625,True
1599563719.0471656,0.0,10,0.5,0.5,17.721818346405026,-0.2,-0.0155,-0.12575,0.08419688996970184,10,1,100,-0.05982179595883824,-10,-1,-100,15026.741697397549,0.0028896511437140073,0.007705306006628471,0.9999661385145058,20.92396033746232,0.017338570711294424,-25.712961176215224,10.845016535125918,-172.34368896484375,5356.25390625,True
1599563719.097997,0.0,10,0.5,0.5,17.58005503616333,-0.2,-0.0155,-0.12575,0.08499496274595154,10,1,100,-0.029879816059866653,-10,-1,-100,15026.741697397549,0.0028896511437140073,0.007705306006628471,0.9999661385145058,20.92396033746232,0.017338570711294424,-25.712961176215224,10.845016535125918,-172.34368896484375,5356.25390625,True
1599563719.1448717,0.0,10,0.5,0.5,18.297672499847415,-0.2,-0.0155,-0.12575,0.08631607629509569,10,1,100,-0.08608748190994502,-10,-1,-100,15027.604983408703,0.0033970086979933345,0.007717790821562532,0.9999644473863759,20.2718640879177,0.016360301850039026,-23.208155864866733,10.102514560965828,-174.4368438720703,5356.25390625,True
1599563719.1907492,0.0,10,0.5,0.5,18.273903829956055,-0.2,-0.0155,-0.12575,0.0873801751709537,10,1,100,-0.0582432350065417,-10,-1,-100,15028.001470610267,0.0036015631208760417,0.007739217477405118,0.9999635659642425,20.013258836368188,0.015972976550859688,-22.071083313111693,9.731273541385363,-175.069580078125,5356.25390625,True
1599563719.2335465,0.0,10,0.5,0.5,18.344741912078856,-0.2,-0.0155,-0.12575,0.0919122991867445,10,1,100,-0.056787068356174183,-10,-1,-100,15028.338387208874,0.0037705476498595264,0.007800281102022258,0.9999624685882713,19.80411747299063,0.015646000699511255,-21.008116252546102,9.360036214327367,-175.42596435546875,5356.25390625,True
1599563719.2784228,0.0,10,0.5,0.5,18.329533821868896,-0.2,-0.0155,-0.12575,0.08577762124574659,10,1,100,-0.04026152845943737,-10,-1,-100,15028.338387208874,0.0037705476498595264,0.007800281102022258,0.9999624685882713,19.80411747299063,0.015646000699511255,-21.008116252546102,9.360036214327367,-175.42596435546875,5356.25390625,True
1599563719.326296,0.0,10,0.5,0.5,18.355584592437747,-0.2,-0.0155,-0.12575,0.0971243382078823,10,1,100,-0.06152654194899259,-10,-1,-100,15028.903819909436,0.0039613752118294755,0.007903544052301923,0.9999609199852985,19.587264520311532,0.015253652064531407,-19.54307951371062,8.80318312406577,-175.44338989257812,5356.25390625,True
1599563719.377162,0.0,10,0.5,0.5,18.326745143890385,-0.2,-0.0155,-0.12575,0.09181517278355661,10,1,100,-0.047719094292313295,-10,-1,-100,15029.071791002993,0.004007067920037934,0.007949111494335262,0.9999603767315658,19.54089758574109,0.01514515525470861,-19.086074097706692,8.61756516642715,-175.3111572265625,5356.25390625,True
1599563719.4330103,0.0,10,0.5,0.5,18.09373249282837,-0.2,-0.0155,-0.12575,0.1043922477349769,10,1,100,-0.05299965139180418,-10,-1,-100,15029.57667722879,0.004094493804077161,0.008104767696015943,0.9999587730807116,19.479679496723307,0.014874196862225077,-17.797760943616986,8.060707562744474,-174.5006103515625,5356.25390625,True
1599563719.4774015,0.0,10,0.5,0.5,17.7376801109314,-0.2,-0.0155,-0.12575,0.10980287921655549,10,1,100,-0.0450998321487074,-10,-1,-100,15030.01711156813,0.004100476894016955,0.00829514274811478,0.9999571874315571,19.534725867619088,0.014669366718243872,-16.61583750006135,7.50383952346892,-173.0692138671875,5356.25390625,True
1599563719.528265,0.0,10,0.5,0.5,17.49786381759644,-0.2,-0.0155,-0.12575,0.10682782617432772,10,1,100,-0.039517214039592394,-10,-1,-100,15030.29055205686,0.004053787864706273,0.0084406366012282,0.9999561602678958,19.657722998530097,0.014578522352752444,-15.893681702770621,7.132585255498393,-171.77005004882812,5356.25390625,True
1599563719.5766468,0.0,10,0.5,0.5,17.660344527435306,-0.2,-0.0155,-0.12575,0.09235197392244568,10,1,100,-0.04430253064275976,-10,-1,-100,15030.29055205686,0.004053787864706273,0.0084406366012282,0.9999561602678958,19.657722998530097,0.014578522352752444,-15.893681702770621,7.132585255498393,-171.77005004882812,5356.25390625,True
1599563719.6235223,0.0,10,0.5,0.5,16.54350714492798,-0.2,-0.0155,-0.12575,0.12714856283012518,10,1,100,-0.02107853850429524,-10,-1,-100,15030.838408775977,0.003841602357337512,0.008756300745302923,0.9999542835992984,20.024343265354045,0.014435622484669423,-14.50542062099331,6.390049062936999,-168.34426879882812,5356.25390625,True
1599563719.6753838,0.0,10,0.5,0.5,16.964855645751953,-0.2,-0.0155,-0.12575,0.09568599941502692,10,1,100,-0.04234154860710579,-10,-1,-100,15030.838408775977,0.003841602357337512,0.008756300745302923,0.9999542835992984,20.024343265354045,0.014435622484669423,-14.50542062099331,6.390049062936999,-168.34426879882812,5356.25390625,True
1599563719.7332294,0.0,10,0.5,0.5,15.479181954956056,-0.2,-0.0155,-0.12575,0.1326940744932177,10,1,100,-0.0009174775532283866,-10,-1,-100,15031.317905387376,0.0034648016757236615,0.00909181317031566,0.9999526659210545,20.503945370233133,0.014327391168467091,-13.127434572338082,5.647469606115944,-163.81549072265625,5356.25390625,True
1599563719.7960613,0.0,10,0.5,0.5,15.158308180236816,-0.2,-0.0155,-0.12575,0.11874806050103487,10,1,100,-0.011624774221538708,-10,-1,-100,15031.528844782617,0.003219872613035833,0.009268868400336219,0.9999518590906931,20.763791328303732,0.014285303117088552,-12.420037567676523,5.276163898580207,-161.137451171875,5356.25390625,True
1599563719.8369513,0.0,10,0.5,0.5,15.00314281539917,-0.2,-0.0155,-0.12575,0.10942118830692055,10,1,100,-0.020222566384605508,-10,-1,-100,15031.635290192324,0.0030758721893809813,0.009343702873773584,0.9999516159429321,20.89416391417523,0.014267494963737725,-12.058369667514555,5.090507442892881,-159.69529724121094,5356.25390625,True
1599563719.8838282,0.0,10,0.5,0.5,13.616067103576661,-0.2,-0.0155,-0.12575,0.12632754138772567,10,1,100,0.019259273401898196,-10,-1,-100,15031.948769398266,0.002586841899837854,0.00956411909688626,0.9999509167328593,21.26574749350824,0.014223350139379018,-10.930304875472086,4.533525489442653,-154.95541381835938,5356.25390625,True
1599563719.9446628,0.0,10,0.5,0.5,13.039034317016602,-0.2,-0.0155,-0.12575,0.1193111400203036,10,1,100,0.011799888086469996,-10,-1,-100,15032.09525502252,0.00221137261768454,0.009699243825827993,0.9999505160258447,21.47763061347325,0.014199357462276243,-10.135209326392047,4.162195648903735,-151.4511260986328,5356.25390625,True
1599563719.9996758,0.0,10,0.5,0.5,12.83963735122681,-0.2,-0.0155,-0.12575,0.11147218064867973,10,1,100,-0.003291676219405279,-10,-1,-100,15032.201699636993,0.0020089448741316593,0.009749371697733157,0.9999504557186782,21.565939674541386,0.014187466670743266,-9.723003050140164,3.9765286580772266,-149.59591674804688,5356.25390625,True
1599563720.0473893,0.0,10,0.5,0.5,11.760586111450195,-0.2,-0.0155,-0.12575,0.11642644077028692,10,1,100,0.024164915594294366,-10,-1,-100,15032.34916072106,0.0015772156653407578,0.009838659192434629,0.9999503553557249,21.69410176549315,0.014158326647352656,-8.867593284684746,3.605190610179652,-145.67892456054688,5356.25390625,True
1599563720.102242,0.0,10,0.5,0.5,11.541105728149414,-0.2,-0.0155,-0.12575,0.1115714237021751,10,1,100,0.006428697502829685,-10,-1,-100,15032.39017733396,0.0013482243419981313,0.009874422193733853,0.999950337805565,21.728289335161254,0.014137852371543028,-8.424232889428207,3.419519474086373,-143.61721801757812,5356.25390625,True
1599563720.159093,0.0,10,0.5,0.5,10.346285015869142,-0.2,-0.0155,-0.12575,0.11395747698123898,10,1,100,0.03703354939166723,-10,-1,-100,15032.537638087873,0.000864284088626955,0.009927321965095087,0.9999503494132174,21.722782822877328,0.014074382249251826,-7.507619710568457,3.048171997833766,-139.28738403320312,5356.25390625,True
1599563720.2139435,0.0,10,0.5,0.5,9.34573060913086,-0.2,-0.0155,-0.12575,0.10977793100998504,10,1,100,0.0448079024416362,-10,-1,-100,15032.623575044563,0.00035636911989772287,0.009936352229121361,0.9999505697310387,21.605376335158574,0.01396665641788195,-6.557448078677402,2.676815042869104,-134.68264770507812,5356.25390625,True
1599563720.2618153,0.0,10,0.5,0.5,8.282973892974853,-0.2,-0.0155,-0.12575,0.10706215852221988,10,1,100,0.05359363300218056,-10,-1,-100,15032.706582203973,-0.00018207364473612797,0.009918799945180275,0.9999507909176507,21.364521093087998,0.013799567490588874,-5.584827307545973,2.3054456283679077,-129.80274963378906,5356.25390625,True
1599563720.3126798,0.0,10,0.5,0.5,7.164749944305421,-0.2,-0.0155,-0.12575,0.1015782911113643,10,1,100,0.060611376912717715,-10,-1,-100,15032.788612719509,-0.0007320493978440941,0.009852238177157996,0.9999511975624509,20.969701978363116,0.013546134608024358,-4.598653687505597,1.9340602642129356,-124.64802551269531,5356.25390625,True
1599563720.3665361,0.0,10,0.5,0.5,5.069755680847168,-0.2,-0.0155,-0.12575,0.08863726820088452,10,1,100,0.0989720905945702,-10,-1,-100,15032.915562903858,-0.0015771684595855585,0.009673551479972634,0.9999519663170897,20.047501797199356,0.0129579967551876,-3.1300762223438117,1.3769451435154507,-116.40046691894531,5356.25390625,True
1599563720.4164033,0.0,10,0.5,0.5,5.099467833328248,-0.2,-0.0155,-0.12575,0.09743777076438248,10,1,100,0.04607400763151315,-10,-1,-100,15032.895054979133,-0.001860336815460038,0.009590813734375741,0.9999522765806604,19.64580807038753,0.012698414922439056,-2.6536662624212735,1.1912292005735852,-113.51386260986328,5356.25390625,True
1599563720.4637837,0.0,10,0.5,0.5,1.4131198215484624,-0.2,-0.0155,-0.12575,0.05682584948623744,10,1,100,0.1385846551734876,-10,-1,-100,15032.999543651356,-0.002954725590531789,0.009146374049815893,0.999953805652254,17.76269246161096,0.011423532054421643,-0.9029905465937915,0.4483131503310198,-101.28023529052734,5356.25390625,True
1599563720.5146487,0.0,10,0.5,0.5,2.873733576202393,-0.2,-0.0155,-0.12575,0.10121453096462099,10,1,100,0.029662387487134127,-10,-1,-100,15032.999543651356,-0.002954725590531789,0.009146374049815893,0.999953805652254,17.76269246161096,0.011423532054421643,-0.9029905465937915,0.4483131503310198,-101.28023529052734,5356.25390625,True
1599563720.9136205,0.0,10,0.5,0.5,0.6719804889678955,-0.2,-0.0155,-0.12575,0.06941432547549284,10,1,100,0.08921406013906971,-10,-1,-100,15033.022002044483,-0.003491592005126964,0.008857829452321926,0.9999546727940539,16.674576482887158,0.010687504288287207,-0.14528557568863956,0.07683673862440621,-94.75110626220703,5356.25390625,True
1599563720.958501,0.0,10,0.5,0.5,-0.8024297992706299,-0.2,-0.0155,-0.12575,0.06361397962110305,10,1,100,0.08747668761339147,-10,-1,-100,15032.97903079621,-0.003959250079370532,0.008543677428414878,0.9999556639745625,15.438313248855705,0.009883839460934594,0.5158149095932824,-0.29463848877270826,-87.94677734375,5356.25390625,True
1599563721.0023828,0.0,10,0.5,0.5,-2.3346781059265136,-0.2,-0.0155,-0.12575,0.055280772819179765,10,1,100,0.09298004947254726,-10,-1,-100,15032.937035556417,-0.004429599368837584,0.008183538021904913,0.9999567032401331,16.41297057998043,0.01050544623568062,1.2397759321185482,-0.6661087429983523,-80.8812255859375,5356.25390625,True
1599563721.045784,0.0,10,0.5,0.5,-3.836777132415772,-0.2,-0.0155,-0.12575,0.049860553062719346,10,1,100,0.09230881504129076,-10,-1,-100,15032.896017163876,-0.004846274879471241,0.0078084490945127495,0.9999577699795781,17.790968676809193,0.011401401887398665,2.0933384812714566,-1.0375802227458908,-73.82040405273438,5356.25390625,True
1599563721.097644,0.0,10,0.5,0.5,-4.16872688369751,-0.2,-0.0155,-0.12575,0.06572855964579057,10,1,100,0.07255231426996869,-10,-1,-100,15032.874530568952,-0.005040736569399484,0.00761364822321562,0.9999583107987908,18.362575012964246,0.01177371872151282,2.547392977560373,-1.2233202455415377,-70.36526489257812,5356.25390625,True
1599563721.1465137,0.0,10,0.5,0.5,-6.0139005859375,-0.2,-0.0155,-0.12575,0.041024039312542865,10,1,100,0.09314315475832696,-10,-1,-100,15032.833512039739,-0.005400292416569631,0.007214065566026855,0.9999593962255792,19.29043305598639,0.012358970726964933,3.488858465919667,-1.594815116874345,-63.64990234375,5356.25390625,True
1599563721.1943853,0.0,10,0.5,0.5,-8.378816153717041,-0.2,-0.0155,-0.12575,0.012332972308942154,10,1,100,0.10894407712356216,-10,-1,-100,15032.707531838678,-0.005866562260027608,0.006592379061832636,0.9999610612346634,20.188905182001506,0.012903205162589583,4.927420658945241,-2.1520911108797707,-54.087890625,5356.25390625,True
1599563721.2402625,0.0,10,0.5,0.5,-7.272977673339844,-0.2,-0.0155,-0.12575,0.07419350548655007,10,1,100,0.06274603215780875,-10,-1,-100,15032.707531838678,-0.005866562260027608,0.006592379061832636,0.9999610612346634,20.188905182001506,0.012903205162589583,4.927420658945241,-2.1520911108797707,-54.087890625,5356.25390625,True
1599563721.289641,0.0,10,0.5,0.5,-11.204351105880736,-0.2,-0.0155,-0.12575,-0.013837062792809732,10,1,100,0.11694120399280092,-10,-1,-100,15032.498541688197,-0.006355603617214293,0.005794827018086222,0.9999630124572064,20.61365468081482,0.013173112191388205,6.768608020947343,-2.895172454529568,-42.301971435546875,5356.25390625,True
1599563721.3375103,0.0,10,0.5,0.5,-9.813688076782226,-0.2,-0.0155,-0.12575,0.06558298687865866,10,1,100,0.0683771560768006,-10,-1,-100,15032.498541688197,-0.006355603617214293,0.005794827018086222,0.9999630124572064,20.61365468081482,0.013173112191388205,6.768608020947343,-2.895172454529568,-42.301971435546875,5356.25390625,True
1599563721.385385,0.0,10,0.5,0.5,-13.385334755325317,-0.2,-0.0155,-0.12575,-0.018390846465032057,10,1,100,0.1078016674731592,-10,-1,-100,15032.226075815735,-0.006710916558975114,0.005034475394081516,0.9999648082089914,20.312417102267464,0.013067605056972798,8.382136121285942,-3.638278880955487,-31.61822509765625,5356.25390625,True
1599563721.432257,0.0,10,0.5,0.5,-13.745147737121584,-0.2,-0.0155,-0.12575,0.016403614036597486,10,1,100,0.08596557523596383,-10,-1,-100,15032.059081300045,-0.006832491736097859,0.004663035698690451,0.9999657859920752,19.953964286994445,0.012925018259770356,9.075432475690764,-4.009833522485825,-26.689788818359375,5356.25390625,True
1599563721.4801297,0.0,10,0.5,0.5,-14.736273651123048,-0.2,-0.0155,-0.12575,0.018813316628953088,10,1,100,0.08758100470992344,-10,-1,-100,15031.890133976704,-0.006955088309012054,0.004350797491656102,0.9999663480876746,19.523994244239862,0.012759354342546297,9.703034134867078,-4.381388320733064,-22.0361328125,5356.25390625,True
1599563721.5300322,0.0,10,0.5,0.5,-15.668426721191409,-0.2,-0.0155,-0.12575,0.016012542901870926,10,1,100,0.08532923552072082,-10,-1,-100,15031.72509319929,-0.007043773210904775,0.004044967306406173,0.9999670112050915,19.12577448841816,0.012627313873403484,10.311574092100203,-4.752944339910056,-17.658111572265625,5356.25390625,True
1599563721.5768702,0.0,10,0.5,0.5,-15.204942103576661,-0.2,-0.0155,-0.12575,0.04621921324805318,10,1,100,0.07668049516459202,-10,-1,-100,15031.72509319929,-0.007043773210904775,0.004044967306406173,0.9999670112050915,19.12577448841816,0.012627313873403484,10.311574092100203,-4.752944339910056,-17.658111572265625,5356.25390625,True
1599563721.632721,0.0,10,0.5,0.5,-16.623129760742188,-0.2,-0.0155,-0.12575,0.01594181096360109,10,1,100,0.08515356462722946,-10,-1,-100,15031.554193704156,-0.0071189801727092016,0.0037729624501082536,0.9999675419110615,18.673457249899055,0.012461925511765589,10.855170573143427,-5.124504205836975,-13.5552978515625,5356.25390625,True
1599563721.6805935,0.0,10,0.5,0.5,-17.431680351257324,-0.2,-0.0155,-0.12575,0.015939521980270707,10,1,100,0.08474048987346815,-10,-1,-100,15031.324700432131,-0.007182032469537087,0.003528792774639795,0.9999679825030201,18.169146036567607,0.012251215314281418,11.328297548596856,-5.496070931215289,-9.72772216796875,5356.25390625,True
1599563721.7424283,0.0,10,0.5,0.5,-18.7211766494751,-0.2,-0.0155,-0.12575,0.005094253888650771,10,1,100,0.08511341245081794,-10,-1,-100,15030.948721465305,-0.0072415470626206084,0.00321101207455119,0.9999686242065783,17.432143120861355,0.011894895048341448,11.971794456438856,-6.053439213310924,-4.502685546875,5356.25390625,True
1599563721.7906394,0.0,10,0.5,0.5,-18.66350951690674,-0.2,-0.0155,-0.12575,0.026545343728466824,10,1,100,0.08116895195696602,-10,-1,-100,15030.801260734559,-0.007258542520204617,0.0031202044066392237,0.9999687884553914,17.20685419634115,0.01176932474250747,12.180050252891725,-6.2392339802573,-2.89862060546875,5356.25390625,True
1599563721.8375146,0.0,10,0.5,0.5,-19.500640481567384,-0.2,-0.0155,-0.12575,0.017649596765687003,10,1,100,0.08230568000340754,-10,-1,-100,15030.570790758007,-0.007283505973973193,0.0029592130294316624,0.9999690963219682,16.763536671814673,0.011485440886571717,12.573581944054734,-6.61083143225701,0.10296630859375,5356.25390625,True
1599563721.890374,0.0,10,0.5,0.5,-20.077016786193848,-0.2,-0.0155,-0.12575,0.018981902958973864,10,1,100,0.08241057987109712,-10,-1,-100,15030.276845117682,-0.007306310110417477,0.002827546937353446,0.9999693109345344,16.96712361890935,0.01159048796207631,13.442335757520114,-6.982436439342391,2.82928466796875,5356.25390625,True
1599563721.9392416,0.0,10,0.5,0.5,-20.95156947631836,-0.2,-0.0155,-0.12575,0.016162792243808306,10,1,100,0.08219023615628576,-10,-1,-100,15029.837390795466,-0.007324496752003594,0.0026842285093778605,0.9999695728694145,17.91554768244502,0.012090627898691688,15.32809650695217,-7.539844882142758,6.402557373046875,5356.25390625,True
1599563721.9970882,0.0,10,0.5,0.5,-21.51574262542725,-0.2,-0.0155,-0.12575,0.02186842571566756,10,1,100,0.08214792591701928,-10,-1,-100,15029.396961272229,-0.007340198146710454,0.002607607340225424,0.9999696604773198,18.716844261213623,0.01239009683400825,17.199082362259105,-8.097249325189898,9.356414794921875,5356.25390625,True
1599563722.043962,0.0,10,0.5,0.5,-21.722327076721193,-0.2,-0.0155,-0.12575,0.027704014557037054,10,1,100,0.08172439032270987,-10,-1,-100,15029.040516056237,-0.007350271718461424,0.002592587257873323,0.9999696255371836,19.165968705811064,0.012486680589432848,18.421211728175596,-8.468847790724768,10.98150634765625,5356.25390625,True
1599563722.092345,0.0,10,0.5,0.5,-22.002068063354496,-0.2,-0.0155,-0.12575,0.03068026690968289,10,1,100,0.08157845718759342,-10,-1,-100,15028.68602382089,-0.007357824211090742,0.002607309822621405,0.9999695317150256,19.554264582315703,0.012512703364727082,19.620396786467214,-8.840441667822061,12.331329345703125,5356.25390625,True
1599563722.1422114,0.0,10,0.5,0.5,-21.87881145477295,-0.2,-0.0155,-0.12575,0.02906424468649621,10,1,100,0.08085461302468026,-10,-1,-100,15028.68602382089,-0.007357824211090742,0.002607309822621405,0.9999695317150256,19.554264582315703,0.012512703364727082,19.620396786467214,-8.840441667822061,12.331329345703125,5356.25390625,True
1599563722.202052,0.0,10,0.5,0.5,-22.529334244537353,-0.2,-0.0155,-0.12575,0.04203449589685508,10,1,100,0.08197163058908134,-10,-1,-100,15027.972157924087,-0.0073677617852776775,0.0027262808814678373,0.9999691412632844,20.17005483856222,0.012388750207206164,21.94274367627101,-9.583614048476962,14.205154418945312,5356.25390625,True
1599563722.256938,0.0,10,0.5,0.5,-22.427344673919677,-0.2,-0.0155,-0.12575,0.03533185928366645,10,1,100,0.08120419524542978,-10,-1,-100,15027.763173248735,-0.007369650413854659,0.002774232885656672,0.9999689954616963,20.293591535005877,0.012326622834230352,22.505973506149623,-9.769403692428988,14.501541137695312,5356.25390625,True
1599563722.3127882,0.0,10,0.5,0.5,-22.574696271514892,-0.2,-0.0155,-0.12575,0.05159838558374307,10,1,100,0.08074521558802537,-10,-1,-100,15027.135245936108,-0.007367078348992571,0.002966100200546213,0.9999684637058311,20.59695814661199,0.012077702568415222,24.148425397557194,-10.326764177032796,14.977874755859375,5356.25390625,True
1599563722.382602,0.0,10,0.5,0.5,-22.549395069885257,-0.2,-0.0155,-0.12575,0.041011494064712856,10,1,100,0.08088757477013767,-10,-1,-100,15026.923331257305,-0.007365935613656432,0.0030444206586419695,0.9999682367432421,20.676310794762244,0.01197592813596515,24.67856989704482,-10.512548374996955,14.9990234375,5356.25390625,True
1599563722.4354613,0.0,10,0.5,0.5,-22.55429651184082,-0.2,-0.0155,-0.12575,0.04266864259629875,10,1,100,0.08068236422365943,-10,-1,-100,15026.716301461798,-0.007362956276892246,0.0031306086002623377,0.9999679925700904,20.74508337850459,0.011865763108754646,25.199266921111093,-10.698331335241662,14.95135498046875,5356.25390625,True
1599563722.4934688,0.0,10,0.5,0.5,-22.480792362976075,-0.2,-0.0155,-0.12575,0.055811687323303674,10,1,100,0.07925277209075077,-10,-1,-100,15026.294427976245,-0.007347200000292475,0.0033281679886509818,0.9999674704459117,20.850336760129263,0.011622003640527477,26.208946084597972,-11.069893492818226,14.649627685546875,5356.25390625,True
1599563722.549319,0.0,10,0.5,0.5,-22.3435710723877,-0.2,-0.0155,-0.12575,0.06109710226781005,10,1,100,0.07893956974269209,-10,-1,-100,15025.813960953266,-0.007330008179084615,0.003555231259882286,0.999966815104773,20.928099470404977,0.011359156206281324,27.192021229973008,-11.441451380526505,14.072662353515625,5356.25390625,True
1599563723.0788748,0.0,10,0.5,0.5,-22.145839340209964,-0.2,-0.0155,-0.12575,0.06690467523612172,10,1,100,0.07775762396182785,-10,-1,-100,15025.332517522853,-0.0073036435526765454,0.0038135870571502535,0.9999660560962121,20.96991335932271,0.011077023150525752,28.133668005677745,-11.813005491937556,13.220489501953125,5356.25390625,True
1599563723.1356175,0.0,10,0.5,0.5,-21.432343280029297,-0.2,-0.0155,-0.12575,0.10831656552638098,10,1,100,0.07035621497873587,-10,-1,-100,15024.366702485597,-0.007212432563519087,0.00442381769385142,0.9999642046861119,20.916186940627153,0.010463739612526368,29.832383198839427,-12.556105838075368,10.6905517578125,5356.25390625,True
1599563723.190471,0.0,10,0.5,0.5,-21.201417773437502,-0.2,-0.0155,-0.12575,0.08605354333005649,10,1,100,0.07191585319104392,-10,-1,-100,15023.88428332808,-0.007143824185894717,0.004774530336457503,0.9999630841366431,20.811942078146604,0.010144660856416335,30.56505906919062,-12.927653936782978,9.0128173828125,5356.25390625,True
1599563723.243331,0.0,10,0.5,0.5,-20.77107835540772,-0.2,-0.0155,-0.12575,0.09297692236338789,10,1,100,0.06726876707887051,-10,-1,-100,15023.339364757529,-0.007039401241602983,0.005154329620480741,0.9999619391338469,20.648811572297124,0.009827914238456904,31.200190065045646,-13.299201499947502,7.05987548828125,5356.25390625,True
1599563723.306162,0.0,10,0.5,0.5,-20.279765944671635,-0.2,-0.0155,-0.12575,0.10014848955050545,10,1,100,0.06468516945168815,-10,-1,-100,15022.7944463694,-0.0069212825506758165,0.005562590445167468,0.9999605759405684,20.42042075759985,0.009523581675401085,31.720391878003333,-13.670749235102168,4.83172607421875,5356.25390625,True
1599563723.3739808,0.0,10,0.5,0.5,-20.14844682159424,-0.2,-0.0155,-0.12575,0.08308002911843941,10,1,100,0.06836816290060956,-10,-1,-100,15022.522962980787,-0.006847791288335113,0.005776033956809792,0.9999598717879639,20.27937567736707,0.009379573447254931,31.93105813390227,-13.856523378372309,3.614471435546875,5356.25390625,True
1599563723.4308283,0.0,10,0.5,0.5,-18.95984806518555,-0.2,-0.0155,-0.12575,0.13650820464469432,10,1,100,0.04597433825308679,-10,-1,-100,15021.643086943077,-0.0065778729049212285,0.006453229714217619,0.9999575428058445,19.738693557158737,0.00899942237531307,32.33501765518018,-14.413846576166728,-0.450164794921875,5356.25390625,True
1599563723.4846857,0.0,10,0.5,0.5,-18.452263609313967,-0.2,-0.0155,-0.12575,0.12207637530020697,10,1,100,0.04917251544323149,-10,-1,-100,15021.09914622805,-0.0063622833150996806,0.006934564855042507,0.9999557156000907,19.83573799594039,0.009061439423026733,33.33528308835864,-14.785391846883236,-3.503936767578125,5356.25390625,True
1599563723.5435266,0.0,10,0.5,0.5,-17.723175134277344,-0.2,-0.0155,-0.12575,0.12810269971329039,10,1,100,0.040465565916781465,-10,-1,-100,15020.489776379778,-0.006088048394986721,0.007423468881134273,0.9999539128262419,20.532799940239137,0.009494020288870291,35.37783915653136,-15.156920334203678,-6.833160400390625,5356.25390625,True
1599563723.616367,0.0,10,0.5,0.5,-16.93435341339111,-0.2,-0.0155,-0.12575,0.13527664867744718,10,1,100,0.034060407554198445,-10,-1,-100,15019.882359904586,-0.00578165989304719,0.007929421803716865,0.9999518471800228,21.22880404253396,0.0100276451181195,37.47789655769784,-15.528428196079462,-10.43768310546875,5356.25390625,True
1599563723.6618001,0.0,10,0.5,0.5,-16.08571951751709,-0.2,-0.0155,-0.12575,0.14106505179112402,10,1,100,0.02527037721675099,-10,-1,-100,15019.212443672819,-0.005424623113930855,0.008438024315694615,0.9999496853390772,21.98120874879462,0.010687758983276733,39.73919060678674,-15.899911687156209,-14.31768798828125,5356.25390625,True
1599563723.713683,0.0,10,0.5,0.5,-15.177276164245606,-0.2,-0.0155,-0.12575,0.1466365935993676,10,1,100,0.016024674466269657,-10,-1,-100,15018.60405175772,-0.005017700581037762,0.008946836581877926,0.999947387013965,22.71959476430088,0.011429309874198624,42.038591011622316,-16.271367210822294,-18.473236083984375,5356.25390625,True
1599563723.7695057,0.0,10,0.5,0.5,-14.211164707946779,-0.2,-0.0155,-0.12575,0.15109519911898756,10,1,100,0.006165310811888293,-10,-1,-100,15017.931206565117,-0.004560135637897375,0.009445814129597456,0.9999449893661118,23.40475674910937,0.012209016812889741,44.30008926817671,-16.642792628484738,-22.904449462890625,5356.25390625,True
1599563723.828349,0.0,10,0.5,0.5,-14.718918026733398,-0.2,-0.0155,-0.12575,0.10166457272634849,10,1,100,0.051663436271127225,-10,-1,-100,15017.931206565117,-0.004560135637897375,0.009445814129597456,0.9999449893661118,23.40475674910937,0.012209016812889741,44.30008926817671,-16.642792628484738,-22.904449462890625,5356.25390625,True
1599563723.8720078,0.0,10,0.5,0.5,-11.516044497680667,-0.2,-0.0155,-0.12575,0.2055989817358344,10,1,100,-0.06585934840631053,-10,-1,-100,15016.52692323085,-0.0034940005641058555,0.010386771043766313,0.9999399516707702,24.654544253007707,0.013758115216674834,48.75961654562922,-17.385549732272175,-32.59417724609375,5356.25390625,True
1599563723.9308522,0.0,10,0.5,0.5,-10.963586372375488,-0.2,-0.0155,-0.12575,0.16085253963690918,10,1,100,-0.025958642388790858,-10,-1,-100,15015.85896152351,-0.0028906362626242616,0.0108310149642945,0.9999371646942824,25.141921000232642,0.014393284074673243,50.791364422641706,-17.756883514326084,-37.85260009765625,5356.25390625,True
1599563723.98474,0.0,10,0.5,0.5,-9.75746205444336,-0.2,-0.0155,-0.12575,0.15601275040186752,10,1,100,-0.03740012966459599,-10,-1,-100,15015.124593337998,-0.0022417071542479576,0.011186279552631124,0.9999349188316232,25.48414157751636,0.014841705290546625,52.56526895184044,-18.128193406912814,-43.3878173828125,5356.25390625,True
1599563724.037603,0.0,10,0.5,0.5,-10.386962266540529,-0.2,-0.0155,-0.12575,0.12095959655204654,10,1,100,0.02705916459796708,-10,-1,-100,15015.124593337998,-0.0022417071542479576,0.011186279552631124,0.9999349188316232,25.48414157751636,0.014841705290546625,52.56526895184044,-18.128193406912814,-43.3878173828125,5356.25390625,True
1599563724.0894358,0.0,10,0.5,0.5,-8.432257196044922,-0.2,-0.0155,-0.12575,0.15878510649352587,10,1,100,-0.048545977200033154,-10,-1,-100,15014.393154725432,-0.0015581336616850934,0.011526282629646764,0.9999323562262769,25.654208666429117,0.015052595294372336,54.00606952929444,-18.499486299248016,-49.19866943359375,5356.25390625,True
1599563724.1422935,0.0,10,0.5,0.5,-5.0416442382812505,-0.2,-0.0155,-0.12575,0.18152170214693852,10,1,100,-0.14184312666187496,-10,-1,-100,15012.861916861846,-9.266541400511113e-05,0.012038342829466087,0.9999275322317318,25.47525391659449,0.014712226184381137,55.795199859042086,-19.24205410784989,-61.648895263671875,5356.25390625,True
1599563724.1961582,0.0,10,0.5,0.5,-6.52788275756836,-0.2,-0.0155,-0.12575,0.1307265742675812,10,1,100,0.004134798658219072,-10,-1,-100,15012.861916861846,-9.266541400511113e-05,0.012038342829466087,0.9999275322317318,25.47525391659449,0.014712226184381137,55.795199859042086,-19.24205410784989,-61.648895263671875,5356.25390625,True
1599563724.244029,0.0,10,0.5,0.5,-2.0387319946289066,-0.2,-0.0155,-0.12575,0.1566021369514201,10,1,100,-0.15926174246399716,-10,-1,-100,15011.268178187893,0.001387910452833286,0.012270302200670285,0.9999237537874972,24.39602800187311,0.013428810348160238,55.507608796192976,-19.98465679146495,-75.20465087890625,5356.25390625,True
1599563724.3048663,0.0,10,0.5,0.5,-2.495347839355469,-0.2,-0.0155,-0.12575,0.13753380638802348,10,1,100,-0.0548729224183631,-10,-1,-100,15010.869742128183,0.0017790759576952727,0.012304804564262502,0.999922710349841,23.96356770010234,0.01301903594176035,55.03384828236365,-20.170320457527172,-78.76593017578125,5356.25390625,True
1599563724.3527393,0.0,10,0.5,0.5,0.7588558105468748,-0.2,-0.0155,-0.12575,0.13080298030540186,10,1,100,-0.13389894192717625,-10,-1,-100,15009.673459496815,0.002847336401653932,0.012272381939109171,0.9999206375092757,22.27333926335361,0.01178631847615469,52.5756282634998,-20.727349637257255,-89.86477661132812,5356.25390625,True
1599563724.4066327,0.0,10,0.5,0.5,1.989655466079712,-0.2,-0.0155,-0.12575,0.12422201967373261,10,1,100,-0.10540702311369678,-10,-1,-100,15008.816039897269,0.0035527307505487625,0.012180510303400503,0.9999195033966297,21.735653156895317,0.011556638473483514,52.233060518339585,-21.098722150477315,-97.6090316772461,5356.25390625,True
1599563724.456462,0.0,10,0.5,0.5,3.6486042564392096,-0.2,-0.0155,-0.12575,0.11813762324207991,10,1,100,-0.10406884760841673,-10,-1,-100,15007.95373739244,0.004175426989210013,0.012040047267687022,0.9999187982387618,23.33891651348823,0.012708517333625984,57.081062800130596,-21.470055875974566,-105.38191223144531,5356.25390625,True
1599563724.5033693,0.0,10,0.5,0.5,2.7758349605560304,-0.2,-0.0155,-0.12575,0.13230483004376728,10,1,100,-0.04250583006747513,-10,-1,-100,15007.95373739244,0.004175426989210013,0.012040047267687022,0.9999187982387618,23.33891651348823,0.012708517333625984,57.081062800130596,-21.470055875974566,-105.38191223144531,5356.25390625,True
1599563724.5611825,0.0,10,0.5,0.5,7.716577270126343,-0.2,-0.0155,-0.12575,0.08835411696914479,10,1,100,-0.16677289971869413,-10,-1,-100,15006.174442027346,0.005299293864090678,0.011639719178176767,0.9999182138665119,25.58704559779712,0.01487486329055118,64.76163281262627,-22.212578376902883,-120.25421142578125,5356.25390625,True
1599563724.6120443,0.0,10,0.5,0.5,5.9655285572052,-0.2,-0.0155,-0.12575,0.12843226988272488,10,1,100,-0.055140312332461444,-10,-1,-100,15006.174442027346,0.005299293864090678,0.011639719178176767,0.9999182138665119,25.58704559779712,0.01487486329055118,64.76163281262627,-22.212578376902883,-120.25421142578125,5356.25390625,True
1599563724.659917,0.0,10,0.5,0.5,10.566164384078979,-0.2,-0.0155,-0.12575,0.07399348654042413,10,1,100,-0.15491779864809693,-10,-1,-100,15004.391237073112,0.006200127896482114,0.011144718023657187,0.9999186735301228,26.92218304794709,0.016311318839121094,70.43726489731029,-22.954947365424076,-134.03932189941406,5356.25390625,True
1599563724.7127786,0.0,10,0.5,0.5,8.944891903305054,-0.2,-0.0155,-0.12575,0.1234042395118012,10,1,100,-0.0654636747400021,-10,-1,-100,15004.391237073112,0.006200127896482114,0.011144718023657187,0.9999186735301228,26.92218304794709,0.016311318839121094,70.43726489731029,-22.954947365424076,-134.03932189941406,5356.25390625,True
1599563724.763673,0.0,10,0.5,0.5,11.167781703567504,-0.2,-0.0155,-0.12575,0.09107833592627734,10,1,100,-0.10761969198115709,-10,-1,-100,15003.46838383004,0.006577643695664898,0.010851658559066796,0.9999194848136174,27.220643303480443,0.016548637658025334,72.3794531090485,-23.326098457449746,-140.51878356933594,5356.25390625,True
1599563724.8115456,0.0,10,0.5,0.5,14.405510777664185,-0.2,-0.0155,-0.12575,0.06298641145342246,10,1,100,-0.13228547709408284,-10,-1,-100,15001.560175876599,0.0071403563475459985,0.010331149408451036,0.9999211382219753,27.15745459652788,0.01608037474016723,74.53027529832013,-24.068386652031787,-152.64859008789062,5356.25390625,True
1599563725.2544582,0.0,10,0.5,0.5,13.926286312484741,-0.2,-0.0155,-0.12575,0.1015565654346387,10,1,100,-0.08844239525680263,-10,-1,-100,15001.09923628124,0.0072484659412900415,0.01021039126695305,0.9999216007526158,27.026713199183888,0.01581279932292415,74.74881559842268,-24.253961815223445,-155.50839233398438,5356.25390625,True
1599563725.3164973,0.0,10,0.5,0.5,14.577487713241577,-0.2,-0.0155,-0.12575,0.1004214670825368,10,1,100,-0.0886364040591796,-10,-1,-100,15000.575797871337,0.007344510079679293,0.010092166599365003,0.9999221001383158,26.85799820944833,0.015506001187976471,74.85612454725455,-24.439539716387813,-158.29910278320312,5356.25390625,True
1599563725.3643699,0.0,10,0.5,0.5,17.731904376983646,-0.2,-0.0155,-0.12575,0.06543171982837925,10,1,100,-0.10907343506709827,-10,-1,-100,14998.605088971322,0.007614167051624118,0.00966849951170538,0.9999242694210907,25.876520634942803,0.014106110342769006,74.33438186945978,-25.18188665372586,-168.77117919921875,5356.25390625,True
1599563725.413748,0.0,10,0.5,0.5,16.513294131469728,-0.2,-0.0155,-0.12575,0.10756127381874342,10,1,100,-0.08245161187885718,-10,-1,-100,14998.605088971322,0.007614167051624118,0.00966849951170538,0.9999242694210907,25.876520634942803,0.014106110342769006,74.33438186945978,-25.18188665372586,-168.77117919921875,5356.25390625,True
1599563725.4636154,0.0,10,0.5,0.5,18.182122171783448,-0.2,-0.0155,-0.12575,0.08804161183247439,10,1,100,-0.09008866649842444,-10,-1,-100,14997.55625764362,0.007680468693563444,0.009493203991608372,0.9999254419598598,25.250703989854014,0.013440121739175291,73.61781965585324,-25.553082688557275,-173.59259033203125,5356.25390625,True
1599563725.5096498,0.0,10,0.5,0.5,-96.74057041778565,-0.2,-0.0155,-0.12575,0.07727872367133526,10,1,100,-0.08613622881277894,-10,-1,-100,14995.459572126623,0.0077026469574301695,0.009237951367497617,0.9999276621258064,23.853939544807407,0.01245459691573171,71.59013017072422,-26.295513536684965,177.59413146972656,5356.25390625,True
1599563725.558363,0.0,10,0.5,0.5,-51.74015438613892,-0.2,-0.0155,-0.12575,0.09398811031747992,10,1,100,-0.0797930952721055,-10,-1,-100,14994.412694274331,0.00766295929867258,0.009159990467644317,0.9999286842717433,24.277701343708582,0.012790408689114808,73.90306792090723,-26.6667259062655,173.60226440429688,5356.25390625,True
1599563725.6102324,0.0,10,0.5,0.5,-52.07559800796509,-0.2,-0.0155,-0.12575,0.09852068736116476,10,1,100,-0.08052414397372956,-10,-1,-100,14993.887301376555,0.007632195659451181,0.00913212646595301,0.9999291744196814,24.67273961503428,0.013111708568759857,75.63478096043657,-26.852321246229568,171.627197265625,5356.25390625,True
1599563725.6561117,0.0,10,0.5,0.5,-52.13919756469726,-0.2,-0.0155,-0.12575,0.09911614159907,10,1,100,-0.07946350588164215,-10,-1,-100,14993.362886853982,0.007593284670446415,0.009114038404357963,0.9999296356903706,25.05380776788696,0.013462170191294372,77.34039804255053,-27.037909028066196,169.60556030273438,5356.25390625,True
1599563725.7039812,0.0,10,0.5,0.5,-50.03220881729126,-0.2,-0.0155,-0.12575,0.10286914981144481,10,1,100,-0.05733733427810673,-10,-1,-100,14991.14413250063,0.007355840719523777,0.009133292623161064,0.9999312349222664,26.64985027853179,0.015232738481978472,84.55474674205709,-27.780175697739978,160.88137817382812,5356.25390625,True
1599563725.7518532,0.0,10,0.5,0.5,-50.84957262496948,-0.2,-0.0155,-0.12575,0.10404654630541832,10,1,100,-0.0728315202474886,-10,-1,-100,14990.616787151666,0.007280642923523053,0.009162589023641178,0.9999315172555588,27.025622894885252,0.015728045877567785,86.32703692830958,-27.965720028201343,158.5308837890625,5356.25390625,True
1599563725.802718,0.0,10,0.5,0.5,-49.200772139739996,-0.2,-0.0155,-0.12575,0.11673814294347068,10,1,100,-0.051045874665625046,-10,-1,-100,14988.917568156496,0.007014200715521605,0.009305552813735678,0.9999321015324756,28.061897126775822,0.017232040118704554,91.44418307623374,-28.522298472732686,151.06768798828125,5356.25390625,True
1599563725.8466024,0.0,10,0.5,0.5,-50.61878753738404,-0.2,-0.0155,-0.12575,0.10236310255545777,10,1,100,-0.07765706452935409,-10,-1,-100,14988.917568156496,0.007014200715521605,0.009305552813735678,0.9999321015324756,28.061897126775822,0.017232040118704554,91.44418307623374,-28.522298472732686,151.06768798828125,5356.25390625,True
1599563725.8980472,0.0,10,0.5,0.5,-49.382012627410894,-0.2,-0.0155,-0.12575,0.11902793377914328,10,1,100,-0.055351480165728245,-10,-1,-100,14987.743739722413,0.00681196809979419,0.009457381230949155,0.9999320752085414,28.715912849120517,0.01820053274917653,94.80827259935091,-28.89330568136237,145.74911499023438,5356.25390625,True
1599563725.9519,0.0,10,0.5,0.5,-46.80501374664307,-0.2,-0.0155,-0.12575,0.1510152813054563,10,1,100,-0.024462501188656186,-10,-1,-100,14985.396086133784,0.006348040639297549,0.009886393058910394,0.9999309784241742,29.632093970730136,0.019567512088971898,100.37808708087992,-29.63522927164133,134.28843688964844,5356.25390625,True
1599563726.0012777,0.0,10,0.5,0.5,-48.72340960998536,-0.2,-0.0155,-0.12575,0.10815341741606255,10,1,100,-0.0707220044328937,-10,-1,-100,14985.396086133784,0.006348040639297549,0.009886393058910394,0.9999309784241742,29.632093970730136,0.019567512088971898,100.37808708087992,-29.63522927164133,134.28843688964844,5356.25390625,True
1599563726.0451596,0.0,10,0.5,0.5,-44.56553760299683,-0.2,-0.0155,-0.12575,0.17643786668198583,10,1,100,-0.011515874737418046,-10,-1,-100,14982.983984888066,0.005811034556900618,0.010506571287062958,0.999927919320772,29.84955218267592,0.01972491369099035,103.68008764383138,-30.377082872386676,121.73049926757812,5356.25390625,True
1599563726.0965893,0.0,10,0.5,0.5,-46.064297023010255,-0.2,-0.0155,-0.12575,0.11455470194867132,10,1,100,-0.06503129050293394,-10,-1,-100,14982.983984888066,0.005811034556900618,0.010506571287062958,0.999927919320772,29.84955218267592,0.01972491369099035,103.68008764383138,-30.377082872386676,121.73049926757812,5356.25390625,True
1599563726.14446,0.0,10,0.5,0.5,-43.80757452316284,-0.2,-0.0155,-0.12575,0.15661926282769892,10,1,100,-0.0362121553699509,-10,-1,-100,14981.745709932642,0.005550698020330364,0.01088772689067129,0.9999253207888282,29.633237259063176,0.019296381089811413,104.20331450722689,-30.748008417240744,115.04014587402344,5356.25390625,True
1599563726.195325,0.0,10,0.5,0.5,-42.295730922698986,-0.2,-0.0155,-0.12575,0.1681806971026912,10,1,100,-0.028933585970820193,-10,-1,-100,14980.512320347247,0.0052497165258654135,0.011337723488736693,0.9999219452049699,29.16986027060151,0.018590087591667113,103.82961022626885,-31.118947521452128,108.07597351074219,5356.25390625,True
1599563726.2402024,0.0,10,0.5,0.5,-40.73169248580933,-0.2,-0.0155,-0.12575,0.1767392673606346,10,1,100,-0.029770647048510526,-10,-1,-100,14979.27209704183,0.004985621289961424,0.011822612461263293,0.9999176813192894,28.442259128983938,0.017708876676958463,102.46532631092892,-31.489909631707437,100.83749389648438,5356.25390625,True
1599563726.292065,0.0,10,0.5,0.5,-36.569097191619875,-0.2,-0.0155,-0.12575,0.25722411244029647,10,1,100,0.0027796778807088196,-10,-1,-100,14976.672518684412,0.004451709050359041,0.012992682824795654,0.9999056817918103,26.147033009268952,0.015934598360273926,96.45311600530067,-32.231927889217516,85.53923034667969,5356.25390625,True
1599563726.3519042,0.0,10,0.5,0.5,-35.76578525390625,-0.2,-0.0155,-0.12575,0.21478709827058534,10,1,100,-0.02471382607839139,-10,-1,-100,14975.371758100227,0.0042186047700442965,0.013667240180999463,0.9998976997271416,27.02916121837772,0.01674510162949612,100.87452308897335,-32.6029418979748,77.4793701171875,5356.25390625,True
1599563726.397782,0.0,10,0.5,0.5,-35.31914617080688,-0.2,-0.0155,-0.12575,0.18933690135126297,10,1,100,-0.035875721612781644,-10,-1,-100,14974.723331938963,0.0041107050163848744,0.014045143544311573,0.9998929122896552,27.82369934194813,0.01748359262726429,104.44068605818914,-32.78842538226207,73.3470458984375,5356.25390625,True
1599563726.446651,0.0,10,0.5,0.5,-34.3581701713562,-0.2,-0.0155,-0.12575,0.19515679399548277,10,1,100,-0.035716146866697836,-10,-1,-100,14974.071978688124,0.004013619345442283,0.014437429478348796,0.999887719441442,28.55856433742093,0.018245133881372843,107.8158697646542,-32.97389313676091,69.14630126953125,5356.25390625,True
1599563726.5012047,0.0,10,0.5,0.5,-30.54644864807129,-0.2,-0.0155,-0.12575,0.2943272794107649,10,1,100,-0.020819279114553186,-10,-1,-100,14972.060306839063,0.003792055775287571,0.015691465616322075,0.9998696906196372,30.331994567139834,0.020406207671251356,116.47583017573234,-33.53020657279456,56.133270263671875,5356.25390625,True
1599563726.5440845,0.0,10,0.5,0.5,-27.622130283355716,-0.2,-0.0155,-0.12575,0.3217710842858135,10,1,100,-0.03202394141087406,-10,-1,-100,14970.045718332054,0.003694818536808032,0.017075710265564214,0.9998473725698872,31.4955146246732,0.021909033384571255,122.98371610507864,-34.08641174019681,42.5045166015625,5356.25390625,True
1599563726.5969164,0.0,10,0.5,0.5,-29.213145783233646,-0.2,-0.0155,-0.12575,0.18400353325944974,10,1,100,-0.04153604365681871,-10,-1,-100,14970.045718332054,0.003694818536808032,0.017075710265564214,0.9998473725698872,31.4955146246732,0.021909033384571255,122.98371610507864,-34.08641174019681,42.5045166015625,5356.25390625,True
1599563726.6427917,0.0,10,0.5,0.5,-26.019226243591312,-0.2,-0.0155,-0.12575,0.29335287915769004,10,1,100,-0.045471334671867175,-10,-1,-100,14968.685412627063,0.0037325177424176476,0.01806382328374958,0.9998298688275301,31.80662259442814,0.02221598883441789,125.5724923570297,-34.45718219773785,33.07667541503906,5356.25390625,True
1599563726.7026322,0.0,10,0.5,0.5,-22.30374874801636,-0.2,-0.0155,-0.12575,0.36358576508185825,10,1,100,-0.06702983885456677,-10,-1,-100,14966.607365518343,0.0039644290403399425,0.01959406490287137,0.9998001579930693,31.393513748002217,0.021517891403189767,125.97810203229393,-35.01334661867534,18.421310424804688,5356.25390625,True
1599563726.7425253,0.0,10,0.5,0.5,-20.713458828735355,-0.2,-0.0155,-0.12575,0.3254992972211152,10,1,100,-0.07394864770112099,-10,-1,-100,14965.182618841063,0.004239324198406636,0.020631447265689756,0.9997781611507945,30.49608131816741,0.020515461426709902,123.69791460198299,-35.38416016737175,8.30853271484375,5356.25390625,True
1599563726.7974088,0.0,10,0.5,0.5,-18.458137751007083,-0.2,-0.0155,-0.12575,0.3356427463795419,10,1,100,-0.0897265618046311,-10,-1,-100,14963.757876656367,0.004633342922218771,0.021658727283506325,0.9997546857433698,29.093655550000246,0.019390654523741755,119.27141684959507,-35.75502094183626,-2.078521728515625,5356.25390625,True
1599563726.844289,0.0,10,0.5,0.5,-14.385267391967773,-0.2,-0.0155,-0.12575,0.3940288298929282,10,1,100,-0.1394034829504929,-10,-1,-100,14961.555827049771,0.005442985014399584,0.023115522563953345,0.9997179834987107,29.284032486284445,0.020084264840606894,121.95886161736827,-36.31134107736555,-18.174407958984375,5356.25390625,True
1599563727.3180265,0.0,10,0.5,0.5,-16.26106172943115,-0.2,-0.0155,-0.12575,0.24929413008652157,10,1,100,-0.05856171175684718,-10,-1,-100,14961.555827049771,0.005442985014399584,0.023115522563953345,0.9997179834987107,29.284032486284445,0.020084264840606894,121.95886161736827,-36.31134107736555,-18.174407958984375,5356.25390625,True
1599563727.3648994,0.0,10,0.5,0.5,-12.511677307128908,-0.2,-0.0155,-0.12575,0.34759380861057143,10,1,100,-0.13266949500133993,-10,-1,-100,14960.130112352548,0.006115480971169505,0.024000910205972305,0.9996932315474464,30.9687241751954,0.022091201266659782,130.31919457434893,-36.682129384623856,-29.248931884765625,5356.25390625,True
1599563727.4167945,0.0,10,0.5,0.5,-10.054531532287598,-0.2,-0.0155,-0.12575,0.34736923516725626,10,1,100,-0.14930207765889794,-10,-1,-100,14958.64189577743,0.006876135445460208,0.02479507241220702,0.9996689067613381,32.10688658378886,0.023782474376459316,136.50141236716502,-37.05284652029676,-40.598907470703125,5356.25390625,True
1599563727.4666286,0.0,10,0.5,0.5,-7.544694221496582,-0.2,-0.0155,-0.12575,0.34144406198836036,10,1,100,-0.1654848078865166,-10,-1,-100,14957.152699510334,0.007711951533548133,0.025454896837343265,0.9996462244366976,32.71421121954292,0.024836976048557932,140.5020955691193,-37.423515792193925,-52.224884033203125,5356.25390625,True
1599563727.5220609,0.0,10,0.5,0.5,-4.9828206665039065,-0.2,-0.0155,-0.12575,0.33480619058905264,10,1,100,-0.17796494134415178,-10,-1,-100,14955.6683806933,0.00858158816051862,0.02598677549604453,0.9996254517787957,32.751440947396134,0.02504246359983287,142.08281884935604,-37.79416690948158,-64.12667846679688,5356.25390625,True
1599563727.5699377,0.0,10,0.5,0.5,-6.3141929641723635,-0.2,-0.0155,-0.12575,0.28250943124197436,10,1,100,-0.09148995560947407,-10,-1,-100,14955.6683806933,0.00858158816051862,0.02598677549604453,0.9996254517787957,32.751440947396134,0.02504246359983287,142.08281884935604,-37.79416690948158,-64.12667846679688,5356.25390625,True
1599563727.618307,0.0,10,0.5,0.5,-0.17948197402954102,-0.2,-0.0155,-0.12575,0.3422195339838104,10,1,100,-0.2354488187617872,-10,-1,-100,14953.338371342048,0.009885896852432284,0.026522391928050042,0.9995993356189459,31.43916010030676,0.023765874044807636,138.43885797101555,-38.35019052411649,-82.49673461914062,5356.25390625,True
1599563727.666186,0.0,10,0.5,0.5,-0.2934778579711913,-0.2,-0.0155,-0.12575,0.30133751334818937,10,1,100,-0.15176051707030946,-10,-1,-100,14952.56300009403,0.010305446131693007,0.026631362744981065,0.9995922009991733,30.63626725637892,0.023085035391493387,135.5699968514625,-38.53555909366602,-88.75802612304688,5356.25390625,True
