Timestamp,Input Throttle,horizon,dT,dt,Input Roll,Roll P,Roll I,Roll D,Input Pitch,Pitch P,Pitch I,Pitch D,Input Yaw,Yaw P,Yaw I,Yaw D,Altitude,Direction X,Direction Y,Direction Z,Drag X,Drag Y,Drag Z,Vertical Velocity,Roll,Mass,Has Fuel
1599560409.4128683,0.0,10,0.5,0.5,-2.954123115539551,-0.05075,-0.03,-0.12575,-0.0005326937135302443,10,1,100,0.1711543618947565,-10,-1,-100,14993.44998448703,-0.01677776044365089,-7.576134302201067e-05,0.9998592406007529,28.71709568994343,0.02710907488794311,-88.32781922438974,27.194950431467085,-31.7921142578125,5356.25390625,True
1599560409.4442754,0.0,10,0.5,0.5,-3.1288785400390626,-0.05075,-0.03,-0.12575,-0.00024490921355447784,10,1,100,0.17724074599996878,-10,-1,-100,14994.519323597196,-0.01684853649382448,-7.103152164957585e-05,0.9998580508114837,28.57175486825664,0.027439374876028322,-86.6820264488394,26.82301153626213,-31.79095458984375,5356.25390625,True
1599560409.4770935,0.0,10,0.5,0.5,-3.29635758972168,-0.05075,-0.03,-0.12575,0.0034079638250806695,10,1,100,0.17782990484088512,-10,-1,-100,14995.586709155119,-0.016902917495723504,-3.345917321281597e-05,0.9998571349250933,28.42657590975981,0.027763696419968478,-85.04891673510562,26.45108841367961,-31.83062744140625,5356.25390625,True
1599560409.5104606,0.0,10,0.5,0.5,-3.475854568481446,-0.05075,-0.03,-0.12575,-0.00035261693591659996,10,1,100,0.17408209640055494,-10,-1,-100,14995.586709155119,-0.016902917495723504,-3.345917321281597e-05,0.9998571349250933,28.42657590975981,0.027763696419968478,-85.04891673510562,26.45108841367961,-31.83062744140625,5356.25390625,True
1599560409.546489,0.0,10,0.5,0.5,-3.563836318969727,-0.05075,-0.03,-0.12575,0.013093867736047884,10,1,100,0.18096208892169285,-10,-1,-100,14997.183391479775,-0.016950096593646827,8.881201396250917e-05,0.999856332848821,28.233288951852824,0.028256220040223542,-82.69378070958037,25.893231985841723,-32.32086181640625,5356.25390625,True
1599560409.5714233,0.0,10,0.5,0.5,-3.798520706176758,-0.05075,-0.03,-0.12575,0.0008756302199116208,10,1,100,0.1779391887887252,-10,-1,-100,14997.183391479775,-0.016950096593646827,8.881201396250917e-05,0.999856332848821,28.233288951852824,0.028256220040223542,-82.69378070958037,25.893231985841723,-32.32086181640625,5356.25390625,True
1599560409.5923674,0.0,10,0.5,0.5,-3.854431884765625,-0.05075,-0.03,-0.12575,0.015539195042443051,10,1,100,0.1799392830805432,-10,-1,-100,14998.188274538377,-0.016952870090305494,0.00022203641051828354,0.9998562651179085,28.129415265467507,0.028588810766972134,-81.20929990267568,25.52134525907568,-32.984466552734375,5356.25390625,True
1599560409.6153047,0.0,10,0.5,0.5,-4.032219734191894,-0.05075,-0.03,-0.12575,0.011638625898478961,10,1,100,0.1799161175547389,-10,-1,-100,14998.658977329032,-0.016939769155133056,0.00030748792752338823,0.9998564645348578,28.08453036972602,0.028753512701111893,-80.49052246423365,25.335406757093697,-33.4190673828125,5356.25390625,True
1599560409.6435525,0.0,10,0.5,0.5,-4.066836227416992,-0.05075,-0.03,-0.12575,0.02629024617292356,10,1,100,0.17769859575128424,-10,-1,-100,14999.665811396553,-0.016892300134803858,0.0005180881382706858,0.9998571806917409,28.00708806631462,0.029073261974541794,-79.09338974123736,24.963539056683043,-34.494293212890625,5356.25390625,True
1599560409.67931,0.0,10,0.5,0.5,-4.255487297058105,-0.05075,-0.03,-0.12575,0.01881729897626669,10,1,100,0.17992299737204803,-10,-1,-100,15000.193153841305,-0.01685401167638898,0.0006411360024911023,0.9998577555007704,27.97339595960786,0.02922505844739286,-78.4113336046428,24.77760964810499,-35.13494873046875,5356.25390625,True
1599560409.711321,0.0,10,0.5,0.5,-4.238114059448243,-0.05075,-0.03,-0.12575,0.0376212754100712,10,1,100,0.17386274236186494,-10,-1,-100,15001.191196447355,-0.016748788930758894,0.0009233600866328937,0.9998593028399062,27.912632437152542,0.029503050761003617,-77.069692273581,24.40575949321201,-36.62237548828125,5356.25390625,True
1599560409.7443974,0.0,10,0.5,0.5,-4.2612120666503905,-0.05075,-0.03,-0.12575,0.026893434928174684,10,1,100,0.1769063327399883,-10,-1,-100,15001.664826930151,-0.016680827230453475,0.0010814933210812313,0.9998602804267724,27.88400629561941,0.029625051435530885,-76.4055677471558,24.21983855876357,-37.469146728515625,5356.25390625,True
1599560409.7773082,0.0,10,0.5,0.5,-4.189079170227052,-0.05075,-0.03,-0.12575,0.030054616765211886,10,1,100,0.1752230806312594,-10,-1,-100,15002.12869104871,-0.016603894037608622,0.0012529410737866665,0.9998613608103143,27.855452841572014,0.02973267913880763,-75.74282519718317,24.033920457242026,-38.384613037109375,5356.25390625,True
1599560409.813308,0.0,10,0.5,0.5,-3.9249819107055663,-0.05075,-0.03,-0.12575,0.05390745557445287,10,1,100,0.16209688789336751,-10,-1,-100,15003.06911406538,-0.01641489758600348,0.0016244772015601625,0.9998639468503016,27.794239707645318,0.0298943594984909,-74.40989162046439,23.662092723548778,-40.4217529296875,5356.25390625,True
1599560409.84439,0.0,10,0.5,0.5,-3.747314193725586,-0.05075,-0.03,-0.12575,0.06244874868344828,10,1,100,0.15523008454757103,-10,-1,-100,15004.005629614345,-0.0161811007995004,0.0020383782220044144,0.9998669996510238,27.7201463850191,0.029966510490779148,-73.04809632202804,23.29027680103742,-42.733734130859375,5356.25390625,True
1599560409.8781703,0.0,10,0.5,0.5,-3.7845824661254883,-0.05075,-0.03,-0.12575,0.04554708478855743,10,1,100,0.16369097396494928,-10,-1,-100,15004.47437535692,-0.01604617452992299,0.0022592280540837794,0.9998686994658623,27.675072790371264,0.0299618718248732,-72.34853012785074,23.104373532364022,-43.9927978515625,5356.25390625,True
1599560409.91124,0.0,10,0.5,0.5,-2.8976080932617188,-0.05075,-0.03,-0.12575,0.12794622249110138,10,1,100,0.10328839440262097,-10,-1,-100,15006.278065841878,-0.015375221672525747,0.0032071105932334914,0.9998766508925807,27.40865677209366,0.02960772596555021,-69.35122936429305,22.360796532168024,-49.716796875,5356.25390625,True
1599560409.9472861,0.0,10,0.5,0.5,-3.5672039794921875,-0.05075,-0.03,-0.12575,0.03345647599440169,10,1,100,0.1702259153005674,-10,-1,-100,15006.278065841878,-0.015375221672525747,0.0032071105932334914,0.9998766508925807,27.40865677209366,0.02960772596555021,-69.35122936429305,22.360796532168024,-49.716796875,5356.25390625,True
1599560409.978295,0.0,10,0.5,0.5,-3.2354087829589844,-0.05075,-0.03,-0.12575,0.06190694814858991,10,1,100,0.14806325271354384,-10,-1,-100,15006.744856892736,-0.015175165237627903,0.003463115228575466,0.9998788532581957,27.31266951940648,0.029422914187114426,-68.53516925182115,22.174912649747824,-51.31964111328125,5356.25390625,True
1599560410.0113215,0.0,10,0.5,0.5,-2.7841992340087893,-0.05075,-0.03,-0.12575,0.09162139025330485,10,1,100,0.11918865554837571,-10,-1,-100,15007.613007832668,-0.014732360445216676,0.003963300709756211,0.9998836181292282,27.07338540609713,0.028924261655649448,-66.79844792030202,21.803159642725277,-54.7320556640625,5356.25390625,True
1599560410.0454195,0.0,10,0.5,0.5,-2.1600906372070314,-0.05075,-0.03,-0.12575,0.13052227644444203,10,1,100,0.07850932693420738,-10,-1,-100,15008.890332491486,-0.013961927329469642,0.004768639053742439,0.9998911564099473,26.568477331507907,0.02784247660848583,-63.88019778356899,21.245573440285348,-60.3662109375,5356.25390625,True
1599560410.0823848,0.0,10,0.5,0.5,-2.7973541564941407,-0.05075,-0.03,-0.12575,0.05037296994253013,10,1,100,0.15527395234878189,-10,-1,-100,15008.890332491486,-0.013961927329469642,0.004768639053742439,0.9998911564099473,26.568477331507907,0.02784247660848583,-63.88019778356899,21.245573440285348,-60.3662109375,5356.25390625,True
1599560410.3107677,0.0,10,0.5,0.5,-1.232501205444336,-0.05075,-0.03,-0.12575,0.16245504770880254,10,1,100,0.02224910679130257,-10,-1,-100,15010.561202481156,-0.012755082278857088,0.005784215082769769,0.9999019205561793,25.540121073389955,0.025805859438806523,-59.264479953553355,20.50222709954847,-68.84304809570312,5356.25390625,True
1599560410.3426852,0.0,10,0.5,0.5,-1.3861380233764646,-0.05075,-0.03,-0.12575,0.1182028634882078,10,1,100,0.06603063175201623,-10,-1,-100,15011.364899056964,-0.012059463197723755,0.006301054094417405,0.9999074287476225,24.836398606327915,0.024580673705597213,-56.58973552464939,20.130606960484663,-73.49432373046875,5356.25390625,True
1599560410.3685806,0.0,10,0.5,0.5,-1.8718182220458983,-0.05075,-0.03,-0.12575,0.06698662001272994,10,1,100,0.13515699642652151,-10,-1,-100,15011.364899056964,-0.012059463197723755,0.006301054094417405,0.9999074287476225,24.836398606327915,0.024580673705597213,-56.58973552464939,20.130606960484663,-73.49432373046875,5356.25390625,True
1599560410.4085088,0.0,10,0.5,0.5,-0.4566321105957033,-0.05075,-0.03,-0.12575,0.13779538112004108,10,1,100,0.01649077901870112,-10,-1,-100,15012.56897893676,-0.010984426346381549,0.006940894944599858,0.9999155796142037,23.49788729561979,0.022593254013559723,-52.0617876485227,19.573252072065024,-80.98953247070312,5356.25390625,True
1599560410.497237,0.0,10,0.5,0.5,-0.3454611434936523,-0.05075,-0.03,-0.12575,0.12004630086028313,10,1,100,0.03570204456045241,-10,-1,-100,15013.308222468942,-0.010186369575707774,0.007356957108867456,0.9999210534122008,22.40682199406873,0.02124862161030193,-48.70490559293023,19.201733507346734,-86.33062744140625,5356.25390625,True
1599560410.5321434,0.0,10,0.5,0.5,0.0707605781555175,-0.05075,-0.03,-0.12575,0.11584227241203503,10,1,100,0.02942870657137972,-10,-1,-100,15014.109966777265,-0.009408550213464425,0.007693204411839713,0.9999261441670372,21.245170114180688,0.020033947452998753,-45.289080576158106,18.830252482986218,-91.87183380126953,5356.25390625,True
1599560410.5780222,0.0,10,0.5,0.5,-0.0020934505462646413,-0.05075,-0.03,-0.12575,0.10013115982110855,10,1,100,0.061899202676512534,-10,-1,-100,15014.446874405025,-0.009002052277343553,0.007851977214789155,0.9999286522090536,21.72588040302375,0.02050584643835903,-45.85833507040066,18.644514993693168,-94.69046020507812,5356.25390625,True
1599560410.6169162,0.0,10,0.5,0.5,0.779106414794922,-0.05075,-0.03,-0.12575,0.11535448566480366,10,1,100,0.011788358159405862,-10,-1,-100,15015.191002316424,-0.00818256748795114,0.008130720123334772,0.9999334662764223,22.67675022511217,0.02157658721429611,-46.914424336420126,18.27303300155332,-100.38751220703125,5356.25390625,True
1599560410.6508265,0.0,10,0.5,0.5,1.2079169349670411,-0.05075,-0.03,-0.12575,0.11318630951331082,10,1,100,0.0009785901185132562,-10,-1,-100,15015.927318295115,-0.007345265054456527,0.0083606235120776,0.9999380716103219,23.520890065293088,0.022689608149086427,-47.67418911638777,17.901537156200533,-106.09996795654297,5356.25390625,True
1599560410.6847353,0.0,10,0.5,0.5,1.6162269649505614,-0.05075,-0.03,-0.12575,0.11028703001236538,10,1,100,-0.0057833456783703,-10,-1,-100,15016.597229084582,-0.006528624027921586,0.008540004065963998,0.999942221030223,24.190258385940723,0.02371348794112579,-48.01593050705451,17.530026724986797,-111.70591735839844,5356.25390625,True
1599560410.7176464,0.0,10,0.5,0.5,1.0652979469299317,-0.05075,-0.03,-0.12575,0.0927261111249477,10,1,100,0.07513742664496899,-10,-1,-100,15016.597229084582,-0.006528624027921586,0.008540004065963998,0.999942221030223,24.190258385940723,0.02371348794112579,-48.01593050705451,17.530026724986797,-111.70591735839844,5356.25390625,True
1599560410.7525563,0.0,10,0.5,0.5,2.1430682525634768,-0.05075,-0.03,-0.12575,0.10793334191534247,10,1,100,-0.014868576919097404,-10,-1,-100,15017.333547196002,-0.005716048048476379,0.008675746355891956,0.9999460276534307,24.692065965416127,0.024582048950184978,-47.97563727026676,17.15850339634339,-117.0837173461914,5356.25390625,True
1599560410.7874608,0.0,10,0.5,0.5,2.4995053119659425,-0.05075,-0.03,-0.12575,0.10480908349238513,10,1,100,-0.021748661218784368,-10,-1,-100,15018.00541309407,-0.004920563132755624,0.008768587277198238,0.999949448690092,25.114361385010447,0.02531998972440085,-47.74180744479985,16.786970833261275,-122.19378662109375,5356.25390625,True
1599560410.8243616,0.0,10,0.5,0.5,2.4358705520629886,-0.05075,-0.03,-0.12575,0.09848976905984859,10,1,100,0.012320753052024555,-10,-1,-100,15018.339393191738,-0.004513606884621354,0.008793296589741997,0.9999511514508976,25.262662240724097,0.02559174989511447,-47.49336397753196,16.60120289743328,-124.646240234375,5356.25390625,True
1599560410.85863,0.0,10,0.5,0.5,3.4841280059814457,-0.05075,-0.03,-0.12575,0.10070601488538575,10,1,100,-0.07207335198479618,-10,-1,-100,15019.28371771623,-0.0033823100854934295,0.008834223288972896,0.9999552572377257,25.48567916864197,0.026006258176146737,-46.307269589699764,16.04390146178119,-131.5906219482422,5356.25390625,True
1599560410.8905447,0.0,10,0.5,0.5,3.503038623809815,-0.05075,-0.03,-0.12575,0.09463395619945274,10,1,100,-0.04005221933363161,-10,-1,-100,15019.89503973967,-0.0026511451644697344,0.008814885876419681,0.9999576337107001,25.474124742886428,0.025963017487548687,-45.21638890548949,15.672376391644317,-135.8760986328125,5356.25390625,True
1599560410.9265914,0.0,10,0.5,0.5,3.096152725219727,-0.05075,-0.03,-0.12575,0.09667986560123225,10,1,100,0.032388532263838435,-10,-1,-100,15019.89503973967,-0.0026511451644697344,0.008814885876419681,0.9999576337107001,25.474124742886428,0.025963017487548687,-45.21638890548949,15.672376391644317,-135.8760986328125,5356.25390625,True
1599560410.9633505,0.0,10,0.5,0.5,4.263086524963379,-0.05075,-0.03,-0.12575,0.08970225538824367,10,1,100,-0.08099557326190458,-10,-1,-100,15020.832532400033,-0.001626154120701956,0.00875057768479103,0.9999603907220316,25.265332220792267,0.025482270189560396,-43.25403249162533,15.115116019692762,-141.78758239746094,5356.25390625,True
1599560410.9992533,0.0,10,0.5,0.5,4.57793542098999,-0.05075,-0.03,-0.12575,0.08141707249445942,10,1,100,-0.0853348976386483,-10,-1,-100,15021.711433205171,-0.0006608560532765319,0.008616232341038348,0.9999626612076684,24.88073229382577,0.024614831718662508,-41.028073898593625,14.557899776537969,-147.0794677734375,5356.25390625,True
1599560411.031171,0.0,10,0.5,0.5,4.322379959106446,-0.05075,-0.03,-0.12575,0.09116311178492378,10,1,100,-0.021681464341923657,-10,-1,-100,15021.980962598696,-0.0003680566664974431,0.00858246819587744,0.9999631022062548,24.73054461828667,0.024270674467767518,-40.261066254595946,14.372172203653443,-148.70530700683594,5356.25390625,True
1599560411.067102,0.0,10,0.5,0.5,4.503740550994873,-0.05075,-0.03,-0.12575,0.0900821617269357,10,1,100,-0.024561816532585642,-10,-1,-100,15022.308109988342,-8.129090165718441e-05,0.008541908095994984,0.999963513933318,24.59078652286345,0.023924825596181053,-39.51712949806396,14.186450290490882,-150.26231384277344,5356.25390625,True
1599560411.100019,0.0,10,0.5,0.5,5.175120037078857,-0.05075,-0.03,-0.12575,0.07693768993215944,10,1,100,-0.08668226231203495,-10,-1,-100,15023.120607559453,0.0007382753615323496,0.008385538348849302,0.9999645682203397,24.117303064706235,0.022788596866657705,-37.23684883359221,13.629318786692478,-154.52012634277344,5356.25390625,True
1599560411.1309018,0.0,10,0.5,0.5,4.752009342193603,-0.05075,-0.03,-0.12575,0.09254564384602337,10,1,100,-0.0053710683340824315,-10,-1,-100,15023.120607559453,0.0007382753615323496,0.008385538348849302,0.9999645682203397,24.117303064706235,0.022788596866657705,-37.23684883359221,13.629318786692478,-154.52012634277344,5356.25390625,True
1599560411.1683817,0.0,10,0.5,0.5,5.075153224945069,-0.05075,-0.03,-0.12575,0.08657692371807568,10,1,100,-0.03381205568068557,-10,-1,-100,15023.389161700383,0.0009916853933248436,0.008331625483075549,0.9999647996689135,23.947203542524733,0.022390847218832798,-36.47132212576465,13.44361978441123,-155.801513671875,5356.25390625,True
1599560411.207278,0.0,10,0.5,0.5,5.790466339111328,-0.05075,-0.03,-0.12575,0.0676697478238984,10,1,100,-0.11056148717961822,-10,-1,-100,15024.408691972145,0.0019147754428738202,0.008111150070703859,0.9999652708367095,23.268848542534382,0.020815881603031,-33.48354687265399,12.700877403876605,-160.2376708984375,5356.25390625,True
1599560411.2438035,0.0,10,0.5,0.5,5.63703419494629,-0.05075,-0.03,-0.12575,0.07763999987113555,10,1,100,-0.06359746401491827,-10,-1,-100,15024.940918447683,0.00232218701775892,0.008002013871902905,0.9999652870082283,22.938095206170054,0.020062435863485214,-32.04410866574472,12.329535515120869,-162.04205322265625,5356.25390625,True
1599560411.280705,0.0,10,0.5,0.5,5.7583471984863275,-0.05075,-0.03,-0.12575,0.07980141061573348,10,1,100,-0.0641749524564946,-10,-1,-100,15025.415527912206,0.0026932898605940424,0.007923187308857034,0.9999649840332389,22.62230421371443,0.019347940346762297,-30.652672695366462,11.958210568887178,-163.5701904296875,5356.25390625,True
1599560411.319602,0.0,10,0.5,0.5,5.649266220092773,-0.05075,-0.03,-0.12575,0.08759489706356431,10,1,100,-0.027599111675488744,-10,-1,-100,15025.415527912206,0.0026932898605940424,0.007923187308857034,0.9999649840332389,22.62230421371443,0.019347940346762297,-30.652672695366462,11.958210568887178,-163.5701904296875,5356.25390625,True
1599560411.3538587,0.0,10,0.5,0.5,5.831244735717774,-0.05075,-0.03,-0.12575,0.0822013679566653,10,1,100,-0.04710870460942605,-10,-1,-100,15025.619629788678,0.002866723029101385,0.007874907399136074,0.9999648832496716,22.472436704401247,0.01900800624786104,-29.97758710559495,11.772553820880379,-164.23098754882812,5356.25390625,True
1599560411.3907607,0.0,10,0.5,0.5,6.076419486999512,-0.05075,-0.03,-0.12575,0.07386506052726297,10,1,100,-0.0813275804306973,-10,-1,-100,15026.299319087644,0.0033322633451356373,0.007755905890887818,0.9999643703376688,22.063824007439532,0.018063952207565168,-28.04208302862568,11.21560312984101,-165.79934692382812,5356.25390625,True
1599560411.4247096,0.0,10,0.5,0.5,5.998413093566895,-0.05075,-0.03,-0.12575,0.08170612490026055,10,1,100,-0.05030990414338346,-10,-1,-100,15026.561038259882,0.003470139011635165,0.007719756525239372,0.9999641811057188,21.94363813904062,0.01777535434779729,-27.428338416603413,11.029958561115532,-166.18423461914062,5356.25390625,True
1599560411.459612,0.0,10,0.5,0.5,6.147681419372558,-0.05075,-0.03,-0.12575,0.0751416563592456,10,1,100,-0.08815342343693966,-10,-1,-100,15027.377446705359,0.003936283947564072,0.0076279638893413364,0.9999631592391728,21.55549198712597,0.01674723761083281,-25.13158116238586,10.287401349724874,-167.03353881835938,5356.25390625,True
1599560411.4914906,0.0,10,0.5,0.5,6.078421653747558,-0.05075,-0.03,-0.12575,0.0842451625030984,10,1,100,-0.04185873070265215,-10,-1,-100,15027.377446705359,0.003936283947564072,0.0076279638893413364,0.9999631592391728,21.55549198712597,0.01674723761083281,-25.13158116238586,10.287401349724874,-167.03353881835938,5356.25390625,True
1599560411.5234084,0.0,10,0.5,0.5,6.123018013000489,-0.05075,-0.03,-0.12575,0.08183523224017776,10,1,100,-0.05260938971695344,-10,-1,-100,15027.583502341644,0.004031109930797691,0.007606744136459793,0.9999629431115776,21.48314449099655,0.016519810929805742,-24.595789735094332,10.101766077431876,-167.07351684570312,5356.25390625,True
1599560411.5573523,0.0,10,0.5,0.5,6.129356468200684,-0.05075,-0.03,-0.12575,0.08178986681093466,10,1,100,-0.061555672125712516,-10,-1,-100,15027.988777279737,0.004195882096964725,0.007587700022071284,0.9999624099843971,21.377219240437647,0.016102812049112344,-23.57600794396401,9.730498682563905,-166.94631958007812,5356.25390625,True
1599560411.5878813,0.0,10,0.5,0.5,6.040527557373046,-0.05075,-0.03,-0.12575,0.08178963090746388,10,1,100,-0.06546931137537518,-10,-1,-100,15028.533701120177,0.004379179780609788,0.007570860909912572,0.9999617516932994,21.315349126512572,0.015562332587810684,-22.16371027496791,9.173601455963476,-166.23838806152344,5356.25390625,True
1599560411.6197965,0.0,10,0.5,0.5,6.142138950347901,-0.05075,-0.03,-0.12575,0.08343042682713608,10,1,100,-0.04734524228715394,-10,-1,-100,15028.533701120177,0.004379179780609788,0.007570860909912572,0.9999617516932994,21.315349126512572,0.015562332587810684,-22.16371027496791,9.173601455963476,-166.23838806152344,5356.25390625,True
1599560411.647722,0.0,10,0.5,0.5,6.0059616584777835,-0.05075,-0.03,-0.12575,0.08440820416599748,10,1,100,-0.05619558891904747,-10,-1,-100,15028.932139100623,0.004458104850063351,0.007580070091537625,0.9999613331717147,21.32716266714045,0.01524427119071524,-21.279319146572725,8.802336799972139,-165.42149353027344,5356.25390625,True
1599560411.6806324,0.0,10,0.5,0.5,6.023886684417724,-0.05075,-0.03,-0.12575,0.0845610362203513,10,1,100,-0.05134295248795722,-10,-1,-100,15029.072764872923,0.004484135659293525,0.007590143381888453,0.9999611403703803,21.347897889116414,0.015096185452103351,-20.851193568623046,8.61670382083766,-164.90957641601562,5356.25390625,True
1599560411.714541,0.0,10,0.5,0.5,5.873083282470703,-0.05075,-0.03,-0.12575,0.08619689847939221,10,1,100,-0.051868862711266596,-10,-1,-100,15029.414562975988,0.004511110658232685,0.00761443127003253,0.9999608343915593,21.41646943116163,0.014819460853984882,-20.017576137527353,8.24543569444594,-163.6789093017578,5356.25390625,True
1599560411.7505133,0.0,10,0.5,0.5,5.755572986602783,-0.05075,-0.03,-0.12575,0.08779938132480541,10,1,100,-0.048281787611242244,-10,-1,-100,15029.749524408253,0.004501951931528884,0.007651207807504406,0.9999605949475673,21.51684053446969,0.014566175635359259,-19.20646926155454,7.874163706303738,-162.17236328125,5356.25390625,True
1599560411.7814238,0.0,10,0.5,0.5,5.7817771530151365,-0.05075,-0.03,-0.12575,0.0864392187065254,10,1,100,-0.04734718680932674,-10,-1,-100,15029.889172877884,0.004484191433671748,0.007672338225692417,0.9999605128470507,21.577094546256404,0.01444764451955875,-18.806486036756688,7.688525925302012,-161.31565856933594,5356.25390625,True
1599560411.8163378,0.0,10,0.5,0.5,5.5334313621521,-0.05075,-0.03,-0.12575,0.08963151798264256,10,1,100,-0.04232242576394829,-10,-1,-100,15030.161634163815,0.004421867782947177,0.007720528258976809,0.9999604194810474,21.713090705377933,0.014225914771199468,-18.011688291077323,7.317246520772638,-159.39541625976562,5356.25390625,True
1599560411.8482466,0.0,10,0.5,0.5,5.364399002075196,-0.05075,-0.03,-0.12575,0.09061779185969583,10,1,100,-0.03773956686416957,-10,-1,-100,15030.438001185772,0.004323106125167412,0.007773219356872526,0.999960443124757,21.862552085041166,0.01402386089831216,-17.21595446639973,6.9459616297909905,-157.19944763183594,5356.25390625,True
1599560411.8832047,0.0,10,0.5,0.5,5.398875308990478,-0.05075,-0.03,-0.12575,0.08847322159158799,10,1,100,-0.040765306006023225,-10,-1,-100,15030.574719935772,0.004260564068298687,0.007801472920503641,0.9999604915265855,21.939254785693517,0.013929952252959343,-16.814848201531696,6.7603170354388435,-155.99806213378906,5356.25390625,True
1599560411.9141192,0.0,10,0.5,0.5,5.05652583694458,-0.05075,-0.03,-0.12575,0.09188813865695257,10,1,100,-0.030188789578341747,-10,-1,-100,15030.846204178408,0.004107498701828801,0.007858008339945757,0.9999606893070068,22.090040185990315,0.013756328182923556,-16.000990123492006,6.389023754855661,-153.3885498046875,5356.25390625,True
1599560411.9472008,0.0,10,0.5,0.5,4.564048347473145,-0.05075,-0.03,-0.12575,0.0950197694183976,10,1,100,-0.012874999750418677,-10,-1,-100,15031.192882281379,0.003811197262128496,0.007937612503242606,0.9999612337901793,22.286331518147872,0.013534011253211992,-14.736495786372695,5.832074763409205,-148.95753479003906,5356.25390625,True
1599560411.98111,0.0,10,0.5,0.5,4.784395160675049,-0.05075,-0.03,-0.12575,0.08984653763226591,10,1,100,-0.02965222162647687,-10,-1,-100,15031.329600432888,0.003694868863563731,0.007962617134008244,0.9999614715940102,22.336578831013632,0.013470133812207808,-14.299733607570676,5.646423095717694,-147.34274291992188,5356.25390625,True
1599560412.0171263,0.0,10,0.5,0.5,4.3267480087280275,-0.05075,-0.03,-0.12575,0.09132821773250134,10,1,100,-0.012990135365106986,-10,-1,-100,15031.537606500206,0.003438336113389218,0.0079984706655769,0.9999621004377033,22.402163504815846,0.013355485738440618,-13.398934458386226,5.2751172782925355,-143.90664672851562,5356.25390625,True
1599560412.0480351,0.0,10,0.5,0.5,4.374365409851075,-0.05075,-0.03,-0.12575,0.08922620353941144,10,1,100,-0.023137073937030815,-10,-1,-100,15031.666511488263,0.00329832014528979,0.008011584358626053,0.9999624670957826,22.412953840767514,0.01330290972505149,-12.933743428907178,5.089463167273602,-142.0853271484375,5356.25390625,True
1599560412.080914,0.0,10,0.5,0.5,4.204984924316407,-0.05075,-0.03,-0.12575,0.08944620442229216,10,1,100,-0.020558022153875522,-10,-1,-100,15031.743659423082,0.003148689513091574,0.008025144857525477,0.9999628407117767,22.40552220561179,0.0132515422593851,-12.45795063813617,4.9038083478358585,-140.195068359375,5356.25390625,True
1599560412.114987,0.0,10,0.5,0.5,3.673069213867188,-0.05075,-0.03,-0.12575,0.08911784006847676,10,1,100,-0.00017489696883939837,-10,-1,-100,15031.945805837866,0.002828590766155083,0.008034147510535704,0.9999637251160945,22.32585753425913,0.013144966690903606,-11.473951196413045,4.532495582331195,-136.20819091796875,5356.25390625,True
1599560412.150857,0.0,10,0.5,0.5,3.3468144149780272,-0.05075,-0.03,-0.12575,0.08729665583088375,10,1,100,0.006463212395427707,-10,-1,-100,15032.095217131195,0.0024787505480535874,0.008025446602671571,0.9999647233790542,22.143827673981793,0.013019279405735619,-10.448291316674926,4.161177088230726,-131.9459686279297,5356.25390625,True
1599560412.1818087,0.0,10,0.5,0.5,3.4060814170837403,-0.05075,-0.03,-0.12575,0.08680740771797651,10,1,100,-0.008021678090397395,-10,-1,-100,15032.16455135739,0.0022941612789550863,0.008012811777819843,0.9999652652324676,22.0085707447042,0.012943668317073699,-9.921237783960795,3.97551481717401,-129.71163940429688,5356.25390625,True
1599560412.2147236,0.0,10,0.5,0.5,2.7794414672851566,-0.05075,-0.03,-0.12575,0.08310064888846265,10,1,100,0.016159091846889347,-10,-1,-100,15032.303219822468,0.0019083721665685807,0.007967409954576376,0.9999664386839637,21.635904702445348,0.012752333133253739,-8.842407637450417,3.6041822898542724,-125.03660583496094,5356.25390625,True
1599560412.2476327,0.0,10,0.5,0.5,1.9456657562255855,-0.05075,-0.03,-0.12575,0.07461363808949914,10,1,100,0.04522587723468986,-10,-1,-100,15032.513176169829,0.0012955496444205983,0.00784883007433349,0.9999683582081901,20.79054755100242,0.012328281863638183,-7.183899456333807,3.0471557560613145,-117.50812530517578,5356.25390625,True
1599560412.2835011,0.0,10,0.5,0.5,2.784730909347534,-0.05075,-0.03,-0.12575,0.08647070828722653,10,1,100,-0.015775180074367557,-10,-1,-100,15032.513176169829,0.0012955496444205983,0.00784883007433349,0.9999683582081901,20.79054755100242,0.012328281863638183,-7.183899456333807,3.0471557560613145,-117.50812530517578,5356.25390625,True
1599560412.3164437,0.0,10,0.5,0.5,1.7438362560272216,-0.05075,-0.03,-0.12575,0.07354411871053343,10,1,100,0.031257450601645975,-10,-1,-100,15032.65184465074,0.0008702672270183916,0.0077313963349352885,0.9999697336148058,20.0189472100507,0.011922277975280407,-6.07431984439383,2.6757794202339036,-112.14525604248047,5356.25390625,True
1599560412.3484666,0.0,10,0.5,0.5,1.3175282917022701,-0.05075,-0.03,-0.12575,0.0687463990279052,10,1,100,0.034978641229540634,-10,-1,-100,15032.729965736973,0.00045238566152329336,0.007581232957275824,0.9999711597111491,19.191525973217075,0.01146735012421174,-5.015048976233284,2.3043781793100653,-106.50731658935547,5356.25390625,True
1599560412.3813453,0.0,10,0.5,0.5,0.3306246662139891,-0.05075,-0.03,-0.12575,0.052303428655538234,10,1,100,0.06563153552688415,-10,-1,-100,15032.811014454579,-0.00020345484576458618,0.0072956185539350665,0.9999733659233336,17.637198973123358,0.010543961043595536,-3.494588879132605,1.747217511621662,-97.5346450805664,5356.25390625,True
1599560412.4172826,0.0,10,0.5,0.5,1.3252860622406004,-0.05075,-0.03,-0.12575,0.08079327240914488,10,1,100,0.00039766229720164135,-10,-1,-100,15032.811014454579,-0.00020345484576458618,0.0072956185539350665,0.9999733659233336,17.637198973123358,0.010543961043595536,-3.494588879132605,1.747217511621662,-97.5346450805664,5356.25390625,True
1599560412.448196,0.0,10,0.5,0.5,-0.4907417354583741,-0.05075,-0.03,-0.12575,0.04219652483042754,10,1,100,0.06892898090086112,-10,-1,-100,15032.952610383974,-0.000823419429107985,0.006945402236222718,0.9999755413849986,15.81234149637886,0.00944353465859195,-2.1338900513987853,1.1900073323573994,-87.97064208984375,5356.25390625,True
1599560412.4810786,0.0,10,0.5,0.5,-0.5959099731445314,-0.05075,-0.03,-0.12575,0.04724579085410012,10,1,100,0.05178599028197766,-10,-1,-100,15032.965302137658,-0.0012278582172528041,0.006673915952403346,0.999976975339962,16.594000695039263,0.009904926212287309,-1.540338022791987,0.8185286987616895,-81.38067626953125,5356.25390625,True
1599560412.5141766,0.0,10,0.5,0.5,0.08108235168457023,-0.05075,-0.03,-0.12575,0.07425926617101052,10,1,100,0.011712772344026384,-10,-1,-100,15032.965302137658,-0.0012278582172528041,0.006673915952403346,0.999976975339962,16.594000695039263,0.009904926212287309,-1.540338022791987,0.8185286987616895,-81.38067626953125,5356.25390625,True
1599560412.5510774,0.0,10,0.5,0.5,-1.8104461212158203,-0.05075,-0.03,-0.12575,0.02664303569140576,10,1,100,0.07214465285176655,-10,-1,-100,15032.97799189447,-0.0017740371132357075,0.006242258307884591,0.9999789432800765,18.297973753568684,0.010958197582590657,-0.5422695134767138,0.26131984552540155,-71.48529052734375,5356.25390625,True
1599560412.5819952,0.0,10,0.5,0.5,-1.8656456909179688,-0.05075,-0.03,-0.12575,0.03434225906412418,10,1,100,0.05573814813266066,-10,-1,-100,15032.989707054105,-0.0021180656946102896,0.005921403526843791,0.9999802251934712,19.11747265438353,0.011472204755917365,0.23882019756077946,-0.11015241258114417,-65.03265380859375,5356.25390625,True
1599560412.6150303,0.0,10,0.5,0.5,-1.2116530380249024,-0.05075,-0.03,-0.12575,0.06623499451345516,10,1,100,0.021676651529105546,-10,-1,-100,15032.989707054105,-0.0021180656946102896,0.005921403526843791,0.9999802251934712,19.11747265438353,0.011472204755917365,0.23882019756077946,-0.11015241258114417,-65.03265380859375,5356.25390625,True
1599560412.6490204,0.0,10,0.5,0.5,-3.0173194885253904,-0.05075,-0.03,-0.12575,0.013903968724701524,10,1,100,0.0719913911724552,-10,-1,-100,15032.937945001526,-0.0025723691319688947,0.005447419134716476,0.999981854106273,20.026556944190027,0.012021406872805458,1.5157828893912346,-0.667379239484774,-55.694183349609375,5356.25390625,True
1599560412.6840224,0.0,10,0.5,0.5,-3.052857925415039,-0.05075,-0.03,-0.12575,0.023929113925136095,10,1,100,0.0572001460536483,-10,-1,-100,15032.94087191578,-0.0028477767227066664,0.005109738259332157,0.9999828902249571,20.34978729973342,0.012220112007377127,2.3976822712355292,-1.0388796094388495,-49.79901123046875,5356.25390625,True
1599560412.7149088,0.0,10,0.5,0.5,-2.4816649475097656,-0.05075,-0.03,-0.12575,0.05745005199377361,10,1,100,0.029989403218294127,-10,-1,-100,15032.94087191578,-0.0028477767227066664,0.005109738259332157,0.9999828902249571,20.34978729973342,0.012220112007377127,2.3976822712355292,-1.0388796094388495,-49.79901123046875,5356.25390625,True
1599560412.7489471,0.0,10,0.5,0.5,-4.09478052520752,-0.05075,-0.03,-0.12575,0.0047230650127104215,10,1,100,0.0703322927656447,-10,-1,-100,15032.823681091773,-0.003212126335067179,0.004632389177953949,0.9999841114812332,20.458714987330357,0.012303688236804215,3.703680098420468,-1.5961529285112825,-41.470916748046875,5356.25390625,True
1599560412.7818573,0.0,10,0.5,0.5,-4.134830253601074,-0.05075,-0.03,-0.12575,0.016213724472656246,10,1,100,0.05755455062398096,-10,-1,-100,15032.764108700329,-0.0034244568072986084,0.004305317125769614,0.9999848685555303,20.33753745122723,0.012252647947805924,4.53882863284128,-1.967680375023985,-36.263458251953125,5356.25390625,True
1599560412.817798,0.0,10,0.5,0.5,-4.5056508102417,-0.05075,-0.03,-0.12575,0.015893328006592985,10,1,100,0.0582040176532462,-10,-1,-100,15032.644966341555,-0.003621024175613055,0.004007466278738237,0.999985414092598,20.087666859323825,0.012135768503153989,5.329678936626597,-2.339213096538299,-31.33123779296875,5356.25390625,True
1599560412.8487146,0.0,10,0.5,0.5,-4.452583816528321,-0.05075,-0.03,-0.12575,0.02882957427433759,10,1,100,0.04869582548563735,-10,-1,-100,15032.643012789078,-0.0037111080671403257,0.0038567190653925405,0.9999856765949023,19.91737994124947,0.01205550359561233,5.704237790322976,-2.5249802092577527,-28.96856689453125,5356.25390625,True
1599560412.8816333,0.0,10,0.5,0.5,-5.110282272338868,-0.05075,-0.03,-0.12575,0.011817023865047824,10,1,100,0.05834297383331161,-10,-1,-100,15032.51898832072,-0.0038784463627349855,0.0035675776830729196,0.9999861149252457,19.503038866696894,0.01186228192989208,6.407625744500946,-2.896514205860626,-24.44976806640625,5356.25390625,True
1599560412.9147024,0.0,10,0.5,0.5,-5.432084503173828,-0.05075,-0.03,-0.12575,0.009844842222782112,10,1,100,0.05807133626708109,-10,-1,-100,15032.394963907427,-0.004026189554264854,0.0032892244847843137,0.9999864853086573,19.037085868426363,0.011651666053970326,7.057003442651506,-3.2680476725038257,-20.206512451171875,5356.25390625,True
1599560412.9506316,0.0,10,0.5,0.5,-5.032973533630371,-0.05075,-0.03,-0.12575,0.03741694414743675,10,1,100,0.043487829500059694,-10,-1,-100,15032.394963907427,-0.004026189554264854,0.0032892244847843137,0.9999864853086573,19.037085868426363,0.011651666053970326,7.057003442651506,-3.2680476725038257,-20.206512451171875,5356.25390625,True
1599560412.9815493,0.0,10,0.5,0.5,-5.523699928283691,-0.05075,-0.03,-0.12575,0.022872040819480723,10,1,100,0.051580386812643646,-10,-1,-100,15032.332463498926,-0.004098023599052295,0.0031593909809320402,0.9999866121359882,18.84659479348223,0.011576281837389617,7.3836265355908735,-3.4538143732255335,-18.1881103515625,5356.25390625,True
1599560413.0155602,0.0,10,0.5,0.5,-6.058418258666992,-0.05075,-0.03,-0.12575,0.008105670847093745,10,1,100,0.059065473392430304,-10,-1,-100,15032.15082206938,-0.004229986559159771,0.0029092008214571686,0.9999868217953124,18.418684475177646,0.011401687045942327,7.992464055972318,-3.825349013248126,-14.358001708984375,5356.25390625,True
1599560413.0495164,0.0,10,0.5,0.5,-6.310480537414551,-0.05075,-0.03,-0.12575,0.006281955374438673,10,1,100,0.05817295492463634,-10,-1,-100,15032.020939047681,-0.004340582527880756,0.002667176478944853,0.9999870226722689,17.95691999768717,0.011207115637946331,8.549172693012345,-4.19688785875259,-10.803466796875,5356.25390625,True
1599560413.0842123,0.0,10,0.5,0.5,-6.830407745361328,-0.05075,-0.03,-0.12575,-0.005345301847980637,10,1,100,0.06432109397499723,-10,-1,-100,15031.709415354184,-0.004495659394625684,0.002343672521712015,0.9999871480402728,17.27247959125587,0.010898916525958334,9.315802322129386,-4.754210737617474,-5.988037109375,5356.25390625,True
1599560413.1151624,0.0,10,0.5,0.5,-6.3313161010742185,-0.05075,-0.03,-0.12575,0.02677622220967895,10,1,100,0.048941760606460355,-10,-1,-100,15031.709415354184,-0.004495659394625684,0.002343672521712015,0.9999871480402728,17.27247959125587,0.010898916525958334,9.315802322129386,-4.754210737617474,-5.988037109375,5356.25390625,True
1599560413.1482077,0.0,10,0.5,0.5,-6.927985504150391,-0.05075,-0.03,-0.12575,0.005176333217188637,10,1,100,0.05932846659628721,-10,-1,-100,15031.519962012768,-0.004589110173999267,0.0021490932077839735,0.9999871606506732,16.873102987928096,0.010699395403318537,9.811997251135098,-5.1257721313890805,-3.1220703125,5356.25390625,True
1599560413.1810856,0.0,10,0.5,0.5,-6.8869118347167975,-0.05075,-0.03,-0.12575,0.014698898932779038,10,1,100,0.05526026965004923,-10,-1,-100,15031.392032156815,-0.004636201741192737,0.002060461131691989,0.9999871299838511,16.679488664604406,0.010591296308711418,10.051159141583659,-5.311557125249218,-1.7923583984375,5356.25390625,True
1599560413.2170112,0.0,10,0.5,0.5,-7.2341464996337885,-0.05075,-0.03,-0.12575,0.0051422718388034645,10,1,100,0.05996287028032582,-10,-1,-100,15031.199649311136,-0.004720922177394722,0.0018946410506937709,0.9999870615308398,16.31100687053418,0.010358897062978928,10.51714788753331,-5.683135913043808,0.660430908203125,5356.25390625,True
1599560413.248068,0.0,10,0.5,0.5,-7.385349708557129,-0.05075,-0.03,-0.12575,0.005736114464892302,10,1,100,0.06111423538042151,-10,-1,-100,15030.941837184597,-0.004807641824111342,0.001750814943325634,0.9999869105278955,16.718451562833124,0.010579256245487601,11.485196554254697,-6.054723106384955,2.83782958984375,5356.25390625,True
1599560413.2819405,0.0,10,0.5,0.5,-7.354594787597657,-0.05075,-0.03,-0.12575,0.012792056048272243,10,1,100,0.05700583538086722,-10,-1,-100,15030.818790731835,-0.004848418364521552,0.0016856074142411988,0.9999868256967226,16.996974862056025,0.010722269071605315,12.035120551948978,-6.2405188448409366,3.823211669921875,5356.25390625,True
1599560413.3158846,0.0,10,0.5,0.5,-7.87693041229248,-0.05075,-0.03,-0.12575,-0.00373965288081533,10,1,100,0.07114079112618338,-10,-1,-100,15030.302190614166,-0.005013240063660747,0.0014774974130550463,0.9999863421194602,17.93796092141469,0.011097732988287522,14.2154670081059,-6.983710648711455,7.07623291015625,5356.25390625,True
1599560413.3517542,0.0,10,0.5,0.5,-7.656812515258789,-0.05075,-0.03,-0.12575,0.012562733353161666,10,1,100,0.059126661322442514,-10,-1,-100,15030.170354747563,-0.005053026595149091,0.0014380390082564048,0.9999861993877913,18.13346769776094,0.011147489905034993,14.753123171406376,-7.1695099809669385,7.71734619140625,5356.25390625,True
1599560413.3856623,0.0,10,0.5,0.5,-7.642418563842774,-0.05075,-0.03,-0.12575,0.016361457651705737,10,1,100,0.05523031217720707,-10,-1,-100,15030.170354747563,-0.005053026595149091,0.0014380390082564048,0.9999861993877913,18.13346769776094,0.011147489905034993,14.753123171406376,-7.1695099809669385,7.71734619140625,5356.25390625,True
1599560413.4156191,0.0,10,0.5,0.5,-7.887844543457032,-0.05075,-0.03,-0.12575,0.009455801170746791,10,1,100,0.06456690336141477,-10,-1,-100,15029.853949281038,-0.005137257020398917,0.0013763777106755857,0.9999858569873394,18.481089380446768,0.01120088648472246,15.816160732926601,-7.541109147836279,8.793060302734375,5356.25390625,True
1599560413.4485283,0.0,10,0.5,0.5,-7.990561546325684,-0.05075,-0.03,-0.12575,0.009384971398673723,10,1,100,0.06959683591875572,-10,-1,-100,15029.40082608303,-0.005258973523305701,0.0013205574375023917,0.9999852995547162,18.901141795073777,0.011178696965366011,17.372838596817097,-8.098507589456162,9.89019775390625,5356.25390625,True
1599560413.484708,0.0,10,0.5,0.5,-7.900231216430664,-0.05075,-0.03,-0.12575,0.014864687207572157,10,1,100,0.057501517040945326,-10,-1,-100,15029.40082608303,-0.005258973523305701,0.0013205574375023917,0.9999852995547162,18.901141795073777,0.011178696965366011,17.372838596817097,-8.098507589456162,9.89019775390625,5356.25390625,True
1599560413.515857,0.0,10,0.5,0.5,-8.007604675292969,-0.05075,-0.03,-0.12575,0.013755692865551363,10,1,100,0.06682959121751557,-10,-1,-100,15029.019967833767,-0.00534316523095697,0.0013112288850933677,0.9999848655175365,19.117810686819865,0.011104749490434822,18.379456833929478,-8.470105474736652,10.277374267578125,5356.25390625,True
1599560413.548595,0.0,10,0.5,0.5,-8.006502403259278,-0.05075,-0.03,-0.12575,0.01761971297033887,10,1,100,0.07242371808060959,-10,-1,-100,15028.498484894866,-0.005469916151677375,0.0013385569586255948,0.999984144015575,19.351177870716047,0.01091834364682992,19.830101382745422,-9.027500031596073,10.341827392578125,5356.25390625,True
1599560413.582606,0.0,10,0.5,0.5,-8.027441612243653,-0.05075,-0.03,-0.12575,0.01483129720790935,10,1,100,0.05982352540599739,-10,-1,-100,15028.498484894866,-0.005469916151677375,0.0013385569586255948,0.999984144015575,19.351177870716047,0.01091834364682992,19.830101382745422,-9.027500031596073,10.341827392578125,5356.25390625,True
1599560413.617547,0.0,10,0.5,0.5,-7.951981239318847,-0.05075,-0.03,-0.12575,0.02352981378502334,10,1,100,0.07387479453380158,-10,-1,-100,15027.917432787246,-0.005597052894359625,0.0014180091620399947,0.999983330985529,19.47916045983499,0.010658747793528761,21.196038605116772,-9.584892082333747,9.7867431640625,5356.25390625,True
1599560413.648645,0.0,10,0.5,0.5,-7.982718383789064,-0.05075,-0.03,-0.12575,0.019829366641325025,10,1,100,0.06584677240968136,-10,-1,-100,15027.72602703108,-0.0056389691551879985,0.0014568412804305565,0.999983039676349,19.507633198558214,0.010564184464012924,21.639308565340702,-9.770688920690992,9.46405029296875,5356.25390625,True
1599560413.6815808,0.0,10,0.5,0.5,-7.786701080322266,-0.05075,-0.03,-0.12575,0.032263141741544946,10,1,100,0.07532726137017556,-10,-1,-100,15027.143021990196,-0.005762692265498715,0.0016051963036354524,0.9999821072012639,19.5211663793397,0.010251191884513238,22.892325417180256,-10.328077943916641,8.082977294921875,5356.25390625,True
1599560413.7156248,0.0,10,0.5,0.5,-7.961467903137207,-0.05075,-0.03,-0.12575,0.01744435515059326,10,1,100,0.06302591690613889,-10,-1,-100,15027.143021990196,-0.005762692265498715,0.0016051963036354524,0.9999821072012639,19.5211663793397,0.010251191884513238,22.892325417180256,-10.328077943916641,8.082977294921875,5356.25390625,True
1599560413.7516851,0.0,10,0.5,0.5,-7.739316642761231,-0.05075,-0.03,-0.12575,0.03161978306333793,10,1,100,0.0719226002396163,-10,-1,-100,15026.750445532613,-0.005842926054284555,0.0017339118689373321,0.9999814267098939,19.46616868656158,0.01002549227615024,23.651087572057314,-10.699670078495185,6.818115234375,5356.25390625,True
1599560413.7826338,0.0,10,0.5,0.5,-7.762610183715821,-0.05075,-0.03,-0.12575,0.0271434945037353,10,1,100,0.06797003165547087,-10,-1,-100,15026.490680777817,-0.005879291903294101,0.001809907455798779,0.9999810789018547,19.417969555499937,0.009910044935635283,24.003212762236856,-10.885466183315806,6.082489013671875,5356.25390625,True
1599560413.8157773,0.0,10,0.5,0.5,-7.202861534118653,-0.05075,-0.03,-0.12575,0.05928253738219722,10,1,100,0.079234234176601,-10,-1,-100,15025.584434584482,-0.006014189681331245,0.002170722606369479,0.9999795585339948,19.072494354313076,0.009454534865460766,25.190198040006543,-11.628651291170844,2.45172119140625,5356.25390625,True
1599560413.84971,0.0,10,0.5,0.5,-7.6371151580810555,-0.05075,-0.03,-0.12575,0.02328603884201395,10,1,100,0.06581997798868912,-10,-1,-100,15025.584434584482,-0.006014189681331245,0.002170722606369479,0.9999795585339948,19.072494354313076,0.009454534865460766,25.190198040006543,-11.628651291170844,2.45172119140625,5356.25390625,True
1599560413.8856137,0.0,10,0.5,0.5,-7.005486679077149,-0.05075,-0.03,-0.12575,0.06050793534793343,10,1,100,0.07400593795192892,-10,-1,-100,15024.86666463199,-0.006087997476951267,0.0025083221257675868,0.9999783220684507,18.6329430000195,0.009151987895126551,25.792834816263312,-12.186041362070881,-0.993896484375,5356.25390625,True
1599560413.9165297,0.0,10,0.5,0.5,-6.938604049682618,-0.05075,-0.03,-0.12575,0.054733317704810575,10,1,100,0.0714037040677303,-10,-1,-100,15024.352018737118,-0.00613087690918105,0.002761670832858257,0.9999773925057184,19.088096904055035,0.009401005940699968,27.23120643010931,-12.557628455247578,-3.635040283203125,5356.25390625,True
1599560413.9494486,0.0,10,0.5,0.5,-6.977502388000488,-0.05075,-0.03,-0.12575,0.04466986562001898,10,1,100,0.06799293975265397,-10,-1,-100,15024.150848100195,-0.006138250389473338,0.002899208171375095,0.9999769579716,19.39983408910978,0.009594843610786025,28.08677223967906,-12.743417267188082,-5.058807373046875,5356.25390625,True
1599560413.9818797,0.0,10,0.5,0.5,-6.57297599029541,-0.05075,-0.03,-0.12575,0.0630304290596852,10,1,100,0.06794172371074897,-10,-1,-100,15023.566866076319,-0.006143995955271632,0.003189809784015245,0.9999760379265312,20.034261852244942,0.01004785393696964,29.85399381305718,-13.114983934944824,-8.11279296875,5356.25390625,True
1599560414.178433,0.0,10,0.5,0.5,-6.904284149169922,-0.05075,-0.03,-0.12575,0.03414356464602866,10,1,100,0.06741766981092791,-10,-1,-100,15023.566866076319,-0.006143995955271632,0.003189809784015245,0.9999760379265312,20.034261852244942,0.01004785393696964,29.85399381305718,-13.114983934944824,-8.11279296875,5356.25390625,True
1599560414.2033489,0.0,10,0.5,0.5,-6.268083480834961,-0.05075,-0.03,-0.12575,0.06863181605067449,10,1,100,0.06642684134609642,-10,-1,-100,15023.049290262163,-0.0061346417840551885,0.003501898784529862,0.999975051126319,20.677452612942442,0.010587532119246665,31.688599138581832,-13.486533113764985,-11.442047119140625,5356.25390625,True
1599560414.2312753,0.0,10,0.5,0.5,-6.628162117004395,-0.05075,-0.03,-0.12575,0.03761258624730225,10,1,100,0.06739945341959641,-10,-1,-100,15023.049290262163,-0.0061346417840551885,0.003501898784529862,0.999975051126319,20.677452612942442,0.010587532119246665,31.688599138581832,-13.486533113764985,-11.442047119140625,5356.25390625,True
1599560414.2655394,0.0,10,0.5,0.5,-5.6008541336059565,-0.05075,-0.03,-0.12575,0.09332284212999475,10,1,100,0.060341192150348666,-10,-1,-100,15022.201638510218,-0.006070210576398599,0.004006748395358346,0.999973548905597,21.74070839197846,0.011595907565503,34.700229087523354,-14.043816167134612,-16.952117919921875,5356.25390625,True
1599560414.3643937,0.0,10,0.5,0.5,-5.515555335998535,-0.05075,-0.03,-0.12575,0.08257026169645615,10,1,100,0.058801034798706464,-10,-1,-100,15021.679180295672,-0.005997461758356676,0.004365954727679745,0.9999724840673231,22.411482149318562,0.012329460451911651,36.720934960959134,-14.415306970529535,-20.9696044921875,5356.25390625,True
1599560414.428739,0.0,10,0.5,0.5,-5.192781311035157,-0.05075,-0.03,-0.12575,0.08691461420586782,10,1,100,0.05322083790617876,-10,-1,-100,15021.090316043119,-0.005880612613771016,0.004730004387038113,0.9999715223214036,23.042528847146304,0.013080473985882989,38.73188331886732,-14.786770426844026,-25.2625732421875,5356.25390625,True
1599560414.45563,0.0,10,0.5,0.5,-4.843169204711915,-0.05075,-0.03,-0.12575,0.09204117016893618,10,1,100,0.04922413647236476,-10,-1,-100,15020.443834240083,-0.0057381739029926165,0.005105237057227552,0.9999705045224327,23.671824384451337,0.013839087749606373,40.79346079659559,-15.158205319708907,-29.830902099609375,5356.25390625,True
1599560414.4815612,0.0,10,0.5,0.5,-5.331125541687012,-0.05075,-0.03,-0.12575,0.05477759464313825,10,1,100,0.06343302519280886,-10,-1,-100,15020.443834240083,-0.0057381739029926165,0.005105237057227552,0.9999705045224327,23.671824384451337,0.013839087749606373,40.79346079659559,-15.158205319708907,-29.830902099609375,5356.25390625,True
1599560414.5045328,0.0,10,0.5,0.5,-4.8311474380493165,-0.05075,-0.03,-0.12575,0.07564278398883081,10,1,100,0.05388163451109227,-10,-1,-100,15020.176257438026,-0.005651700081346273,0.005292790081984421,0.9999700218803254,23.95357466449857,0.014190696291972752,41.78692209383822,-15.34391204128592,-32.2183837890625,5356.25390625,True
1599560414.532465,0.0,10,0.5,0.5,-4.61634701538086,-0.05075,-0.03,-0.12575,0.07774294701043764,10,1,100,0.05195214272911418,-10,-1,-100,15019.853016434237,-0.005555989000293549,0.005480209239313811,0.9999695486828196,24.209400609954958,0.014514287099245413,42.746590669964604,-15.529611948528666,-34.67474365234375,5356.25390625,True
1599560414.5564003,0.0,10,0.5,0.5,-3.4719854278564455,-0.05075,-0.03,-0.12575,0.12126804394600316,10,1,100,0.024263698156492472,-10,-1,-100,15018.877434249385,-0.0052178003459081275,0.006044190809522671,0.9999681206503577,24.789120763646206,0.01524520364205517,45.34745481045321,-16.08667550367472,-42.45697021484375,5356.25390625,True
1599560414.5833275,0.0,10,0.5,0.5,-3.865392379760742,-0.05075,-0.03,-0.12575,0.08538501341361832,10,1,100,0.0435240361078003,-10,-1,-100,15018.553216795088,-0.0050862920920326914,0.0062280970675767655,0.9999676696972115,24.90895001810993,0.015386981590172391,46.09504486524717,-16.27235340065283,-45.1888427734375,5356.25390625,True
1599560414.6152773,0.0,10,0.5,0.5,-3.6133524627685545,-0.05075,-0.03,-0.12575,0.08729135327197289,10,1,100,0.041225008063836346,-10,-1,-100,15018.223139590234,-0.004946791924193552,0.0064101365751718506,0.9999672191620816,24.9864792177131,0.01546839337864097,46.76860033068508,-16.45802758839263,-47.989593505859375,5356.25390625,True
1599560414.649575,0.0,10,0.5,0.5,-2.8307305221557617,-0.05075,-0.03,-0.12575,0.1071568196607936,10,1,100,0.0214320497705586,-10,-1,-100,15017.570798189612,-0.004641117468818957,0.00675357833307426,0.9999664240404973,25.00147508891869,0.015436341194062958,47.857686857923724,-16.829369598126387,-53.797943115234375,5356.25390625,True
1599560414.6839435,0.0,10,0.5,0.5,-3.4505930099487303,-0.05075,-0.03,-0.12575,0.07308732686432427,10,1,100,0.051856585997260174,-10,-1,-100,15017.570798189612,-0.004641117468818957,0.00675357833307426,0.9999664240404973,25.00147508891869,0.015436341194062958,47.857686857923724,-16.829369598126387,-53.797943115234375,5356.25390625,True
1599560414.7201302,0.0,10,0.5,0.5,-2.2783009109497074,-0.05075,-0.03,-0.12575,0.10985360074405655,10,1,100,0.014655677177029675,-10,-1,-100,15016.914550164132,-0.004304160428898259,0.007085646619612376,0.9999656333169576,24.812048948773413,0.015137414656193664,48.54841971851306,-17.200710401105667,-59.8818359375,5356.25390625,True
1599560414.7498085,0.0,10,0.5,0.5,-1.8169875488281249,-0.05075,-0.03,-0.12575,0.10930009909784241,10,1,100,0.008184275647020976,-10,-1,-100,15016.197755197063,-0.003940438062501976,0.007380353554015468,0.9999650010521836,24.472256561699023,0.01463217289892766,48.922904894559686,-17.57205784472553,-66.24163818359375,5356.25390625,True
1599560414.7837167,0.0,10,0.5,0.5,-1.9280258941650392,-0.05075,-0.03,-0.12575,0.0962090174620745,10,1,100,0.022898109232876433,-10,-1,-100,15015.81006090634,-0.0037451777945953957,0.0075271908281505815,0.9999646568961943,24.21368187539541,0.014299532840417144,48.92034825009239,-17.75773658325058,-69.5247802734375,5356.25390625,True
1599560414.8166814,0.0,10,0.5,0.5,-0.41026129150390633,-0.05075,-0.03,-0.12575,0.12102003034852851,10,1,100,-0.024092353343021476,-10,-1,-100,15014.758304838324,-0.003142294251361612,0.007884032145631246,0.9999639833633831,23.126098837753045,0.013131292707636848,48.19761809181646,-18.31480179629079,-79.7884521484375,5356.25390625,True
1599560414.8525014,0.0,10,0.5,0.5,-1.5582078247070312,-0.05075,-0.03,-0.12575,0.08559502280682678,10,1,100,0.035945060397358425,-10,-1,-100,15014.758304838324,-0.003142294251361612,0.007884032145631246,0.9999639833633831,23.126098837753045,0.013131292707636848,48.19761809181646,-18.31480179629079,-79.7884521484375,5356.25390625,True
1599560414.883422,0.0,10,0.5,0.5,-0.1543375854492186,-0.05075,-0.03,-0.12575,0.10730093831816157,10,1,100,-0.010823003164025409,-10,-1,-100,15013.980961751775,-0.002719324305120788,0.008079173356728546,0.9999636654564983,22.069915978270718,0.012293294635863983,46.935203235708556,-18.686207435019263,-86.9755859375,5356.25390625,True
1599560414.9165463,0.0,10,0.5,0.5,0.37804610061645505,-0.05075,-0.03,-0.12575,0.10382998691860348,10,1,100,-0.014106695922727494,-10,-1,-100,15013.255376288085,-0.0023072257616780084,0.008223170369959922,0.9999635274240511,20.74540105350881,0.01151337727705278,45.00127750018189,-19.057634407446635,-94.3558120727539,5356.25390625,True
1599560414.9504533,0.0,10,0.5,0.5,0.2616141071319581,-0.05075,-0.03,-0.12575,0.09664285161197096,10,1,100,0.002586919788668894,-10,-1,-100,15012.862798389397,-0.002086877288952135,0.008286925448925984,0.9999634852382286,21.454317176746198,0.011975813825092038,46.99569839074004,-19.243341706528373,-98.11859130859375,5356.25390625,True
1599560414.9853606,0.0,10,0.5,0.5,1.2951299934387208,-0.05075,-0.03,-0.12575,0.10019111351144462,10,1,100,-0.022177005975560295,-10,-1,-100,15012.081548289862,-0.001664033820104022,0.008375435366277842,0.9999635408723014,23.014001045950284,0.013145839407703884,51.39195636149432,-19.614722724066084,-105.8030014038086,5356.25390625,True
1599560415.0172772,0.0,10,0.5,0.5,1.842770471572876,-0.05075,-0.03,-0.12575,0.09707215955237675,10,1,100,-0.024773596096778337,-10,-1,-100,15011.295415084227,-0.0012587317415480416,0.008426070385121456,0.9999637078075722,24.29853695464933,0.014310809824349667,55.29492986052355,-19.986055478621072,-113.49671173095703,5356.25390625,True
1599560415.0502925,0.0,10,0.5,0.5,3.0627798557281496,-0.05075,-0.03,-0.12575,0.09320698931768859,10,1,100,-0.049030458637065746,-10,-1,-100,15010.05224971613,-0.0006728332704284203,0.008435443861889352,0.99996419465011,25.65121880298271,0.01574658894870779,60.01133062968918,-20.542971410010388,-124.875732421875,5356.25390625,True
1599560415.0782177,0.0,10,0.5,0.5,1.8268496932983398,-0.05075,-0.03,-0.12575,0.09240462136512669,10,1,100,0.009196255759049404,-10,-1,-100,15010.05224971613,-0.0006728332704284203,0.008435443861889352,0.99996419465011,25.65121880298271,0.01574658894870779,60.01133062968918,-20.542971410010388,-124.875732421875,5356.25390625,True
1599560415.1031518,0.0,10,0.5,0.5,3.2951749496459963,-0.05075,-0.03,-0.12575,0.08922386510272955,10,1,100,-0.030331644906338297,-10,-1,-100,15009.203615648905,-0.00031645926873587166,0.008405568722860402,0.9999646225082048,26.280929325946786,0.016399477362575323,62.603591050782946,-20.914205428363804,-132.1982421875,5356.25390625,True
1599560415.1290822,0.0,10,0.5,0.5,3.807278144836426,-0.05075,-0.03,-0.12575,0.08715902579678086,10,1,100,-0.030452801959466553,-10,-1,-100,15008.351075035054,5.5015073531934865e-06,0.008358839713784814,0.9999650642739338,26.65848514216859,0.016706967175996772,64.63835481196129,-21.28541843105093,-139.25143432617188,5356.25390625,True
1599560415.1570072,0.0,10,0.5,0.5,3.0987281799316406,-0.05075,-0.03,-0.12575,0.09187940746115504,10,1,100,0.0014284960735684775,-10,-1,-100,15008.351075035054,5.5015073531934865e-06,0.008358839713784814,0.9999650642739338,26.65848514216859,0.016706967175996772,64.63835481196129,-21.28541843105093,-139.25143432617188,5356.25390625,True
1599560415.1829376,0.0,10,0.5,0.5,5.053525421142578,-0.05075,-0.03,-0.12575,0.07915164063202446,10,1,100,-0.046479668701664006,-10,-1,-100,15007.104002816137,0.00043816864552920264,0.008242701099367124,0.9999659323631103,26.712863897492056,0.01647622817203778,66.47761613436896,-21.84222479237839,-149.31607055664062,5356.25390625,True
1599560415.216351,0.0,10,0.5,0.5,3.9749188690185546,-0.05075,-0.03,-0.12575,0.09078185484805734,10,1,100,-0.0035287041791280936,-10,-1,-100,15007.104002816137,0.00043816864552920264,0.008242701099367124,0.9999659323631103,26.712863897492056,0.01647622817203778,66.47761613436896,-21.84222479237839,-149.31607055664062,5356.25390625,True
1599560415.2523096,0.0,10,0.5,0.5,5.8066953125000005,-0.05075,-0.03,-0.12575,0.07549753657510108,10,1,100,-0.04255614890575323,-10,-1,-100,15005.731929814792,0.0007904677844919701,0.008103734996222606,0.9999668517704936,26.25408645113392,0.01561536500346886,67.01539844310294,-22.39904580092395,-158.76023864746094,5356.25390625,True
1599560415.283228,0.0,10,0.5,0.5,5.332315158843994,-0.05075,-0.03,-0.12575,0.08334728057921169,10,1,100,-0.018687978493724965,-10,-1,-100,15005.275874390267,0.0008911405933729161,0.008048930021085598,0.9999672097593794,26.008066286940654,0.015245578370022356,66.94236532172259,-22.584660215124465,-161.7704315185547,5356.25390625,True
1599560415.317292,0.0,10,0.5,0.5,5.64080888748169,-0.05075,-0.03,-0.12575,0.08257626600485354,10,1,100,-0.018939940778342976,-10,-1,-100,15004.81981835363,0.0009826290091125972,0.007992394916053419,0.999967577506259,25.722923788923424,0.014856852968844383,66.75749085448763,-22.770279226369894,-164.71163940429688,5356.25390625,True
1599560415.3461816,0.0,10,0.5,0.5,5.931517189025879,-0.05075,-0.03,-0.12575,0.08298063307682768,10,1,100,-0.019212595166213174,-10,-1,-100,15004.361809844268,0.0010662413717196177,0.007945069680741264,0.9999678689823517,25.402980699196142,0.014462146167247582,66.4695703608869,-22.9559030060483,-167.58370971679688,5356.25390625,True
1599560415.3760993,0.0,10,0.5,0.5,6.675802322387695,-0.05075,-0.03,-0.12575,0.07624281787262469,10,1,100,-0.02664632283411411,-10,-1,-100,15003.441886477172,0.0012082509759413283,0.007841239668765777,0.9999685270497448,24.67479874387579,0.013700454941239554,65.61845600228864,-23.32716461246947,-173.12095642089844,5356.25390625,True
1599560415.4010358,0.0,10,0.5,0.5,7.052839092254638,-0.05075,-0.03,-0.12575,0.07514179797367519,10,1,100,-0.02449814385245276,-10,-1,-100,15002.521962711937,0.0013161116397219896,0.007737379662609542,0.999969199928732,23.854593795680017,0.013037930548710755,64.45708031809214,-23.698443560237127,-178.3822021484375,5356.25390625,True
1599560415.4269915,0.0,10,0.5,0.5,-56.13033113861084,-0.05075,-0.03,-0.12575,0.07488231834787001,10,1,100,-0.022085769931330698,-10,-1,-100,15001.53758557199,0.001390751961231974,0.0076412100141058726,0.9999698384043904,22.970464620610908,0.012525315928734586,63.0506028622938,-24.06973631992588,176.6326446533203,5356.25390625,True
1599560415.4565012,0.0,10,0.5,0.5,-12.434866390228272,-0.05075,-0.03,-0.12575,0.08442752022826905,10,1,100,-0.01476026282572014,-10,-1,-100,15001.53758557199,0.001390751961231974,0.0076412100141058726,0.9999698384043904,22.970464620610908,0.012525315928734586,63.0506028622938,-24.06973631992588,176.6326446533203,5356.25390625,True
1599560415.4834297,0.0,10,0.5,0.5,-12.139469654083253,-0.05075,-0.03,-0.12575,0.07046920776483091,10,1,100,-0.021163643737200897,-10,-1,-100,15000.093247411423,0.0014477051963782729,0.007514968655074325,0.9999707142690618,24.346518839476015,0.013578664456602012,68.3904374414652,-24.62663526642408,169.58987426757812,5356.25390625,True
1599560415.5200844,0.0,10,0.5,0.5,-13.98181586456299,-0.05075,-0.03,-0.12575,0.08302057042355639,10,1,100,-0.015569273877655913,-10,-1,-100,15000.093247411423,0.0014477051963782729,0.007514968655074325,0.9999707142690618,24.346518839476015,0.013578664456602012,68.3904374414652,-24.62663526642408,169.58987426757812,5356.25390625,True
1599560415.5510168,0.0,10,0.5,0.5,-14.087654281616214,-0.05075,-0.03,-0.12575,0.07520465453215551,10,1,100,-0.0155175762350243,-10,-1,-100,14999.10887110827,0.0014463174573081227,0.007444576449192765,0.9999712428101646,25.282574745401103,0.014492897350054037,72.1020998710901,-24.997858257101555,164.76902770996094,5356.25390625,True
1599560415.5841334,0.0,10,0.5,0.5,-15.222219753265382,-0.05075,-0.03,-0.12575,0.07894230609048884,10,1,100,-0.014734656739914368,-10,-1,-100,14998.586409928626,0.0014373421994044267,0.007415161420328041,0.9999714743073984,25.726846687606738,0.014986481858873557,73.91979629807966,-25.183455773452163,162.26339721679688,5356.25390625,True
1599560415.6171224,0.0,10,0.5,0.5,-15.1108324508667,-0.05075,-0.03,-0.12575,0.07470191246653872,10,1,100,-0.007503538355205437,-10,-1,-100,14997.077619053074,0.0013629488872618659,0.007350447605324888,0.9999720562547396,26.93211260685335,0.016522752334894718,79.11251799735416,-25.740191156295374,154.3394775390625,5356.25390625,True
1599560415.6528304,0.0,10,0.5,0.5,-17.064418701171874,-0.05075,-0.03,-0.12575,0.08110909923578115,10,1,100,-0.014980901557276443,-10,-1,-100,14997.077619053074,0.0013629488872618659,0.007350447605324888,0.9999720562547396,26.93211260685335,0.016522752334894718,79.11251799735416,-25.740191156295374,154.3394775390625,5356.25390625,True
1599560415.6847444,0.0,10,0.5,0.5,-16.52265591430664,-0.05075,-0.03,-0.12575,0.07835580865278245,10,1,100,-0.0006314189671032255,-10,-1,-100,14995.503399404464,0.00123222931142798,0.0073259582564570965,0.9999724055925486,27.990352015512162,0.01800005499505765,84.0189137735451,-26.296842276845794,145.7982177734375,5356.25390625,True
1599560415.7177818,0.0,10,0.5,0.5,-18.026707733154296,-0.05075,-0.03,-0.12575,0.08089832002292607,10,1,100,-0.007615837279376433,-10,-1,-100,14994.97605554969,0.001176866246840125,0.0073272773894079634,0.9999724626167942,28.28871425234219,0.01842173920314437,85.52022894125193,-26.482375224955533,142.81369018554688,5356.25390625,True
