Timestamp,Input Throttle,horizon,dT,dt,Input Roll,Roll P,Roll I,Roll D,Input Pitch,Pitch P,Pitch I,Pitch D,Input Yaw,Yaw P,Yaw I,Yaw D,Altitude,Direction X,Direction Y,Direction Z,Drag X,Drag Y,Drag Z,Vertical Velocity,Roll,Mass,Has Fuel
1599564184.1585846,0.0,10,0.5,0.5,-11.642104621887208,-0.2,-0.02275,-0.37525,-0.0002946344528396935,10,1,100,0.17499297702208796,-10,-1,-100,14994.000766868587,-0.016811407394301002,-7.459961534311329e-05,0.9998586755218561,28.644526214429966,0.027275144569032857,-87.50370544205842,27.008977398507756,-31.791595458984375,5356.25390625,True
1599564184.2034657,0.0,10,0.5,0.5,-11.775175897979738,-0.2,-0.02275,-0.37525,9.535075465282104e-05,10,1,100,0.18191935279210736,-10,-1,-100,14995.574014586746,-0.016921626831661613,-6.688318925567452e-05,0.999856816785288,28.426612350291684,0.027763808628822228,-85.049023769768,26.45108658921312,-31.78973388671875,5356.25390625,True
1599564184.2523315,0.0,10,0.5,0.5,-11.82731025466919,-0.2,-0.02275,-0.37525,0.007122497853754138,10,1,100,0.17672154268859647,-10,-1,-100,14996.664837598917,-0.01695919020392874,4.07570189678695e-06,0.9998561825837832,28.28500845335951,0.028084875009201947,-83.43863821683935,26.079179010804154,-31.9281005859375,5356.25390625,True
1599564184.3022008,0.0,10,0.5,0.5,-11.785813802337646,-0.2,-0.02275,-0.37525,0.009799502467927443,10,1,100,0.17794516450060177,-10,-1,-100,14997.694136063219,-0.016989045113186243,9.291648516251216e-05,0.999855671440968,28.160910420714526,0.028411919012516103,-81.89102594906032,25.707286290088607,-32.320159912109375,5356.25390625,True
1599564184.3530657,0.0,10,0.5,0.5,-11.892974586486817,-0.2,-0.02275,-0.37525,0.00748289277266743,10,1,100,0.17716529903539052,-10,-1,-100,14998.175580776646,-0.016993651667270064,0.00015253627591520541,0.9998555858401231,28.1066354277049,0.02857708429429499,-81.14355727728193,25.521345229980422,-32.61773681640625,5356.25390625,True
1599564184.3989787,0.0,10,0.5,0.5,-11.385172586059571,-0.2,-0.02275,-0.37525,0.02993098352985117,10,1,100,0.1746387035830934,-10,-1,-100,14999.686322563095,-0.01695942161990059,0.000410670968686674,0.999856094329416,27.971896986910817,0.029066276075209927,-78.99406451923011,24.963541381695485,-33.921539306640625,5356.25390625,True
1599564184.4547932,0.0,10,0.5,0.5,-11.304480744171142,-0.2,-0.02275,-0.37525,0.03008823632219524,10,1,100,0.17271793204365332,-10,-1,-100,15000.653116814443,-0.016895424179551706,0.0006463951048014218,0.9998570531906855,27.901427125504984,0.0293735460213701,-77.62426860697413,24.59168722761438,-35.13409423828125,5356.25390625,True
1599564184.4966815,0.0,10,0.5,0.5,-11.02865212020874,-0.2,-0.02275,-0.37525,0.03722763993387512,10,1,100,0.16899908968524463,-10,-1,-100,15001.61795661773,-0.016788077553994866,0.0009250058112802811,0.999858642417162,27.840745779000923,0.029649543178162176,-76.28714099161306,24.219844571655237,-36.621551513671875,5356.25390625,True
1599564184.5445535,0.0,10,0.5,0.5,-11.708256433105468,-0.2,-0.02275,-0.37525,0.00945906986711722,10,1,100,0.18141255999632813,-10,-1,-100,15001.61795661773,-0.016788077553994866,0.0009250058112802811,0.999858642417162,27.840745779000923,0.029649543178162176,-76.28714099161306,24.219844571655237,-36.621551513671875,5356.25390625,True
1599564184.5924225,0.0,10,0.5,0.5,-9.644012754058839,-0.2,-0.02275,-0.37525,0.0851558211861913,10,1,100,0.14602662775215947,-10,-1,-100,15003.546655105893,-0.01645112537218061,0.0016123171816252453,0.999863371119922,27.72259379040632,0.03003772593827722,-73.63648386020994,23.476192903040587,-40.42108154296875,5356.25390625,True
1599564184.6572518,0.0,10,0.5,0.5,-11.182578437042237,-0.2,-0.02275,-0.37525,0.016585915869857415,10,1,100,0.1813669584708031,-10,-1,-100,15003.546655105893,-0.01645112537218061,0.0016123171816252453,0.999863371119922,27.72259379040632,0.03003772593827722,-73.63648386020994,23.476192903040587,-40.42108154296875,5356.25390625,True
1599564184.700076,0.0,10,0.5,0.5,-8.344593527221681,-0.2,-0.02275,-0.37525,0.10805801300939528,10,1,100,0.12371367049671664,-10,-1,-100,15005.415778689785,-0.015927332101527206,0.0024423481403510728,0.9998701690858113,27.55162304471106,0.03006818634986964,-70.86957167921375,22.732588633289122,-45.3204345703125,5356.25390625,True
1599564184.7519388,0.0,10,0.5,0.5,-9.34879021759033,-0.2,-0.02275,-0.37525,0.04965798999935224,10,1,100,0.15799221148503761,-10,-1,-100,15005.833741436945,-0.01576368340512715,0.0026637313197108822,0.9998721972437074,27.491095560337786,0.029999073325627425,-70.1369356409483,22.546696045763913,-46.71722412109375,5356.25390625,True
1599564184.8008075,0.0,10,0.5,0.5,-8.996357989501952,-0.2,-0.02275,-0.37525,0.054457138485002846,10,1,100,0.15521513330443243,-10,-1,-100,15006.257564564934,-0.015590752522029601,0.0029061995093458835,0.9998742333114743,27.420320642755506,0.0298937137357496,-69.38090978624555,22.3608072703723,-48.18255615234375,5356.25390625,True
1599564184.8546631,0.0,10,0.5,0.5,-5.742045742034913,-0.2,-0.02275,-0.37525,0.13370795814362585,10,1,100,0.07949035154160339,-10,-1,-100,15008.059297479573,-0.014746406696452616,0.0038445296031613817,0.9998838747983053,27.00379583102666,0.02906882814704031,-66.0601779098185,21.617296846432012,-54.73291015625,5356.25390625,True
1599564184.9055274,0.0,10,0.5,0.5,-6.028238803863526,-0.2,-0.02275,-0.37525,0.09401320012269446,10,1,100,0.10802559560550071,-10,-1,-100,15008.898150317837,-0.014240273841936985,0.004333339167051325,0.999889212249322,26.690312423201863,0.028394538133066752,-64.17314661489318,21.245573599512888,-58.4208984375,5356.25390625,True
1599564184.9563909,0.0,10,0.5,0.5,-5.076188209533692,-0.2,-0.02275,-0.37525,0.09507652160193802,10,1,100,0.09780756518366382,-10,-1,-100,15009.73797954782,-0.013689733831976952,0.004783811994764066,0.9998948476366942,26.28640555769576,0.02754284830701454,-62.098926926148955,20.87387641930711,-62.384796142578125,5356.25390625,True
1599564185.0077655,0.0,10,0.5,0.5,-6.501645476531983,-0.2,-0.02275,-0.37525,0.05044298051966022,10,1,100,0.15254099714490968,-10,-1,-100,15009.73797954782,-0.013689733831976952,0.004783811994764066,0.9998948476366942,26.28640555769576,0.02754284830701454,-62.098926926148955,20.87387641930711,-62.384796142578125,5356.25390625,True
1599564185.0576322,0.0,10,0.5,0.5,-4.004506369781495,-0.2,-0.02275,-0.37525,0.10197658291483777,10,1,100,0.08550956928271589,-10,-1,-100,15010.578784403042,-0.013083173891158843,0.005248791283644331,0.9999006354388392,25.775808782864857,0.02652365232588635,-59.81119048299044,20.502209780110203,-66.62387084960938,5356.25390625,True
1599564185.110003,0.0,10,0.5,0.5,-2.929789476776124,-0.2,-0.02275,-0.37525,0.10369149617193035,10,1,100,0.0741947375856192,-10,-1,-100,15011.354159456678,-0.01243226175104408,0.005683159134534174,0.9999065659200389,25.142162811228538,0.025359570647894458,-57.28611207656513,20.13057764233494,-71.13873291015625,5356.25390625,True
1599564185.158872,0.0,10,0.5,0.5,-0.3611282707214354,-0.2,-0.02275,-0.37525,0.129468549516004,10,1,100,0.0203779089603343,-10,-1,-100,15012.550424088491,-0.011354933057638192,0.006308675082150238,0.9999156294977912,23.924448284546735,0.02341998226462479,-53.00641073906148,19.573202184915747,-78.42770385742188,5356.25390625,True
1599564185.2057471,0.0,10,0.5,0.5,-0.016155018615723105,-0.2,-0.02275,-0.37525,0.10809417279008725,10,1,100,0.04393553018899625,-10,-1,-100,15013.325798817677,-0.010594336431452078,0.00667874401165603,0.9999215741316935,22.91098232092537,0.022063051019564964,-49.80025454383577,19.201669802201955,-83.63186645507812,5356.25390625,True
1599564185.2645917,0.0,10,0.5,0.5,1.2553676246643066,-0.2,-0.02275,-0.37525,0.10788945073810022,10,1,100,0.03295064830284221,-10,-1,-100,15014.104103990481,-0.009807870568381552,0.007009457932669318,0.9999273339470244,21.764515405008463,0.02075074587993844,-46.39565156945549,18.830177369368847,-89.08554077148438,5356.25390625,True
1599564185.3144572,0.0,10,0.5,0.5,4.12214913406372,-0.2,-0.02275,-0.37525,0.12093111143106519,10,1,100,-0.022966796008395837,-10,-1,-100,15015.174395965762,-0.008589975574430496,0.007424716842969299,0.9999355408722267,22.109983457904622,0.02113106680852199,-45.74138854736257,18.272974097895272,-97.45909118652344,5356.25390625,True
1599564185.3643236,0.0,10,0.5,0.5,1.0920784580230714,-0.2,-0.02275,-0.37525,0.07985707213442941,10,1,100,0.09812262569194984,-10,-1,-100,15015.174395965762,-0.008589975574430496,0.007424716842969299,0.9999355408722267,22.109983457904622,0.02113106680852199,-45.74138854736257,18.272974097895272,-97.45909118652344,5356.25390625,True
1599564185.4131925,0.0,10,0.5,0.5,4.333089884185791,-0.2,-0.02275,-0.37525,0.10402691537187583,10,1,100,0.007154785718171394,-10,-1,-100,15015.889226241503,-0.007768591966597985,0.007641187974909896,0.9999406288501276,23.013754885633634,0.022241553209555905,-46.64587153612985,17.90149314621351,-102.92420959472656,5356.25390625,True
1599564185.4648361,0.0,10,0.5,0.5,8.225523887634278,-0.2,-0.02275,-0.37525,0.11480778644857043,10,1,100,-0.09283987942401874,-10,-1,-100,15017.316936543793,-0.006118720532617009,0.007932980696636881,0.9999498132788017,24.2573730056274,0.024188180461585964,-47.13089814530003,17.15849345300528,-113.07975006103516,5356.25390625,True
1599564185.5179074,0.0,10,0.5,0.5,4.5299883478164675,-0.2,-0.02275,-0.37525,0.08594343114605917,10,1,100,0.07139016264414286,-10,-1,-100,15017.316936543793,-0.006118720532617009,0.007932980696636881,0.9999498132788017,24.2573730056274,0.024188180461585964,-47.13089814530003,17.15849345300528,-113.07975006103516,5356.25390625,True
1599564185.566743,0.0,10,0.5,0.5,7.330226064300538,-0.2,-0.02275,-0.37525,0.09525475227648614,10,1,100,-0.017143995410053167,-10,-1,-100,15017.966340011451,-0.00532074728966919,0.008014766189911787,0.9999537255149362,24.700591135282814,0.02500344923381023,-46.95523778157909,16.7869785758628,-117.74712371826172,5356.25390625,True
1599564185.6186059,0.0,10,0.5,0.5,10.58986818408966,-0.2,-0.02275,-0.37525,0.09314601065295866,10,1,100,-0.10996302779198155,-10,-1,-100,15019.271010171971,-0.003758564434973179,0.008067431737305755,0.9999603940849616,25.251982007748612,0.026108657904686316,-45.88286572499064,16.04393547025358,-126.25606536865234,5356.25390625,True
1599564185.6714704,0.0,10,0.5,0.5,8.646934063720703,-0.2,-0.02275,-0.37525,0.08765588567310645,10,1,100,0.004933284796211135,-10,-1,-100,15019.625497831032,-0.00339079531542953,0.008063231760026367,0.9999617426685448,25.315456652943116,0.02625147083306455,-45.466627496785975,15.858175377441658,-128.2111358642578,5356.25390625,True
1599564185.7233312,0.0,10,0.5,0.5,9.11161402282715,-0.2,-0.02275,-0.37525,0.08687642877863905,10,1,100,0.0007269609270215138,-10,-1,-100,15019.919440396014,-0.003025460569526497,0.00805073257557006,0.9999630154627415,25.35331548355797,0.02634230510534921,-45.00222530793512,15.672416693026008,-130.09738159179688,5356.25390625,True
1599564185.7727158,0.0,10,0.5,0.5,12.45341619796753,-0.2,-0.02275,-0.37525,0.07737566653848472,10,1,100,-0.11558288476419673,-10,-1,-100,15021.15771111974,-0.001642856635932597,0.007951751852459365,0.9999670347889228,25.291924405053614,0.0262317729982006,-42.76861276741949,14.929405548808342,-136.953369140625,5356.25390625,True
1599564185.8276052,0.0,10,0.5,0.5,10.876540631866456,-0.2,-0.02275,-0.37525,0.08292773644085624,10,1,100,-0.01418524960275374,-10,-1,-100,15021.45360647072,-0.001315163392253487,0.007911386108816847,0.9999678396404001,25.23349213379912,0.026100107393815877,-42.13983555389629,14.743660852226318,-138.4951934814453,5356.25390625,True
1599564185.8789754,0.0,10,0.5,0.5,12.813994749450684,-0.2,-0.02275,-0.37525,0.07511662387923952,10,1,100,-0.08247671242958017,-10,-1,-100,15022.271962248604,-0.0004030424288305801,0.0078032374374309085,0.9999694730552006,24.983925602097074,0.025511784160982702,-40.148832311320945,14.186450739424748,-142.70669555664062,5356.25390625,True
1599564185.932832,0.0,10,0.5,0.5,11.33656689567566,-0.2,-0.02275,-0.37525,0.08596934307727956,10,1,100,0.007916690598150507,-10,-1,-100,15022.271962248604,-0.0004030424288305801,0.0078032374374309085,0.9999694730552006,24.983925602097074,0.025511784160982702,-40.148832311320945,14.186450739424748,-142.70669555664062,5356.25390625,True
1599564185.9817019,0.0,10,0.5,0.5,12.844183432769775,-0.2,-0.02275,-0.37525,0.0736693592484019,10,1,100,-0.05699966556100946,-10,-1,-100,15022.85985082388,0.0001804103094001765,0.007691272084929729,0.9999704054549994,24.772414140768653,0.024996156980058155,-38.768305346038446,13.814999433843742,-145.170166015625,5356.25390625,True
1599564186.031568,0.0,10,0.5,0.5,14.35088780231476,-0.2,-0.02275,-0.37525,0.06209412732131411,10,1,100,-0.11357064533784764,-10,-1,-100,15023.909653039416,0.0012193770413611957,0.007484475754783956,0.9999712474577992,24.37909820789695,0.023874887550539764,-36.10447893707482,13.072150377848716,-149.2694549560547,5356.25390625,True
1599564186.080438,0.0,10,0.5,0.5,13.385287747955323,-0.2,-0.02275,-0.37525,0.077529580661766,10,1,100,-0.036395162735525045,-10,-1,-100,15024.140120681841,0.0014556259580555731,0.007437209125875409,0.9999712841244434,24.276415987915904,0.023574111083702484,-35.44247262589286,12.886448887277867,-150.121826171875,5356.25390625,True
1599564186.134327,0.0,10,0.5,0.5,13.589792269706727,-0.2,-0.02275,-0.37525,0.07669445480364831,10,1,100,-0.03858444142434085,-10,-1,-100,15024.434067102731,0.0016841398947235828,0.0073871724618520575,0.9999712962659647,24.173454609455973,0.023269290142315914,-34.784368039528665,12.700751628430908,-150.9053192138672,5356.25390625,True
1599564186.1901448,0.0,10,0.5,0.5,14.757941473388671,-0.2,-0.02275,-0.37525,0.060786952868928934,10,1,100,-0.1074387122536594,-10,-1,-100,15025.419419716578,0.002512879840752218,0.0071976893490383375,0.9999709389291974,23.77975858134768,0.022049920488220222,-32.219668457011934,11.958001129706831,-153.349609375,5356.25390625,True
1599564186.2400117,0.0,10,0.5,0.5,13.897911617660522,-0.2,-0.02275,-0.37525,0.07964870990920213,10,1,100,-0.025155085166414078,-10,-1,-100,15025.419419716578,0.002512879840752218,0.0071976893490383375,0.9999709389291974,23.77975858134768,0.022049920488220222,-32.219668457011934,11.958001129706831,-153.349609375,5356.25390625,True
1599564186.3008487,0.0,10,0.5,0.5,14.415883769607545,-0.2,-0.02275,-0.37525,0.0694924870667241,10,1,100,-0.06571553156628754,-10,-1,-100,15025.883287754026,0.002876576316741723,0.007106135544312657,0.999970613641381,23.6045878819398,0.021460984501600187,-30.99049614094516,11.586646534374106,-154.1580810546875,5356.25390625,True
1599564186.3566997,0.0,10,0.5,0.5,14.605588805007935,-0.2,-0.02275,-0.37525,0.06236536888758664,10,1,100,-0.0982023268060121,-10,-1,-100,15026.742665062076,0.0034984354034999746,0.0069588815713954675,0.9999696669984559,23.3199665746773,0.02036401969449949,-28.656843431263436,10.843970779946947,-154.94720458984375,5356.25390625,True
1599564186.858582,0.0,10,0.5,0.5,14.346898523712158,-0.2,-0.02275,-0.37525,0.07699551572556346,10,1,100,-0.0364977780097623,-10,-1,-100,15026.742665062076,0.0034984354034999746,0.0069588815713954675,0.9999696669984559,23.3199665746773,0.02036401969449949,-28.656843431263436,10.843970779946947,-154.94720458984375,5356.25390625,True
1599564186.909445,0.0,10,0.5,0.5,14.363633216857911,-0.2,-0.02275,-0.37525,0.07075447036751419,10,1,100,-0.06544452483009484,-10,-1,-100,15027.204580668593,0.003758040849291788,0.006902912391655052,0.9999691129877405,23.21537316074663,0.019864419761091018,-27.55259194086524,10.472646226205857,-154.92788696289062,5356.25390625,True
1599564186.9652967,0.0,10,0.5,0.5,14.228935004425049,-0.2,-0.02275,-0.37525,0.07047845616485682,10,1,100,-0.06483774943631183,-10,-1,-100,15027.603019703412,0.0039847468570880255,0.006850340576453949,0.999968596820156,23.137020408120083,0.019400225792980428,-26.487078367904942,10.101328246817607,-154.63279724121094,5356.25390625,True
1599564187.0251489,0.0,10,0.5,0.5,14.216811863327028,-0.2,-0.02275,-0.37525,0.07317649006252859,10,1,100,-0.053622881733606235,-10,-1,-100,15027.770988081815,0.004085431397289383,0.006827840081257667,0.9999683444240236,23.10763203208629,0.019181724653573443,-25.96775484223776,9.915671303384366,-154.38180541992188,5356.25390625,True
1599564187.0989528,0.0,10,0.5,0.5,14.138560483551025,-0.2,-0.02275,-0.37525,0.07322013315205074,10,1,100,-0.05392746192628872,-10,-1,-100,15028.003411381273,0.004177126204355069,0.006808378782505364,0.9999680982886539,23.08415144280993,0.018971981087042913,-25.456156901990543,9.730015472800622,-154.06182861328125,5356.25390625,True
1599564187.1617856,0.0,10,0.5,0.5,13.1347295211792,-0.2,-0.02275,-0.37525,0.06813370395062425,10,1,100,-0.07635862082587264,-10,-1,-100,15028.736811891431,0.004461930655096183,0.006745018091211547,0.9999672974181596,23.044627344358528,0.0182214182716559,-23.4748013263397,8.987400156306922,-152.0924835205078,5356.25390625,True
1599564187.2226222,0.0,10,0.5,0.5,13.87642706604004,-0.2,-0.02275,-0.37525,0.07440555764294185,10,1,100,-0.04815595482779848,-10,-1,-100,15028.736811891431,0.004461930655096183,0.006745018091211547,0.9999672974181596,23.044627344358528,0.0182214182716559,-23.4748013263397,8.987400156306922,-152.0924835205078,5356.25390625,True
1599564187.2839057,0.0,10,0.5,0.5,12.106044418716431,-0.2,-0.02275,-0.37525,0.07099031555667812,10,1,100,-0.06460104629450004,-10,-1,-100,15029.41064123169,0.004609659622234976,0.006714381955207174,0.9999668335065551,23.06387860130678,0.01760889844367055,-21.55462836494611,8.244791827814783,-149.01986694335938,5356.25390625,True
1599564187.3457384,0.0,10,0.5,0.5,12.708193892288207,-0.2,-0.02275,-0.37525,0.07307458873238139,10,1,100,-0.05194146453872772,-10,-1,-100,15029.576656571939,0.004626965412961872,0.006705918230794893,0.9999668103750988,23.07208075641568,0.01747740096279021,-21.077116334650082,8.05914031443017,-148.07940673828125,5356.25390625,True
1599564187.4065742,0.0,10,0.5,0.5,12.466633142471315,-0.2,-0.02275,-0.37525,0.07316955997219829,10,1,100,-0.05128847704683098,-10,-1,-100,15029.745602934272,0.0046351704372452444,0.006699451144703443,0.9999668157240906,23.07953514263187,0.017354437472049553,-20.598569114973234,7.873488860826787,-147.07003784179688,5356.25390625,True
1599564187.4674127,0.0,10,0.5,0.5,11.547148512649537,-0.2,-0.02275,-0.37525,0.07350845226418741,10,1,100,-0.049316759785856396,-10,-1,-100,15030.019039936247,0.004623671452372409,0.006696888660389928,0.999966886124021,23.08768563793912,0.017133868960463514,-19.634721057642015,7.5021863954698045,-144.84434509277344,5356.25390625,True
1599564187.5272524,0.0,10,0.5,0.5,10.920493391418457,-0.2,-0.02275,-0.37525,0.07300754029997912,10,1,100,-0.04588573485429874,-10,-1,-100,15030.291500316001,0.004581003752156696,0.006690243559440299,0.9999671269825515,23.07775143194099,0.016945187920250564,-18.65548509400383,7.130884693313818,-142.3430633544922,5356.25390625,True
1599564187.5801125,0.0,10,0.5,0.5,10.233038893508912,-0.2,-0.02275,-0.37525,0.07296416198683844,10,1,100,-0.041840320031778,-10,-1,-100,15030.566889608745,0.004504690287298709,0.006684001545577734,0.9999675154167531,23.037423302125184,0.016784018685441073,-17.65371525030091,6.759583668027975,-139.56613159179688,5356.25390625,True
1599564187.6369596,0.0,10,0.5,0.5,9.484852088165283,-0.2,-0.02275,-0.37525,0.07242281142906475,10,1,100,-0.03757623125288298,-10,-1,-100,15030.838372646598,0.004396077290864938,0.00667355683611462,0.9999680685619955,22.953006551600684,0.01664260477464903,-16.623333126767264,6.38828323479501,-136.5136260986328,5356.25390625,True
1599564187.713755,0.0,10,0.5,0.5,8.675194648361206,-0.2,-0.02275,-0.37525,0.0716637168502005,10,1,100,-0.03317229058411027,-10,-1,-100,15031.10985529353,0.004257019973578508,0.006657301043381335,0.9999687785744924,22.808789259428718,0.016508358921291225,-15.559188158032315,6.016982949840769,-133.18557739257812,5356.25390625,True
1599564187.7706015,0.0,10,0.5,0.5,6.707752209854126,-0.2,-0.02275,-0.37525,0.06850135299007004,10,1,100,-0.018128956655243982,-10,-1,-100,15031.428210217622,0.003993774018720038,0.006613911631021821,0.9999701525255763,22.443987530922982,0.016284168990869426,-13.893676702168126,5.460029966263319,-127.67701721191406,5356.25390625,True
1599564187.8294795,0.0,10,0.5,0.5,7.5838127368927,-0.2,-0.02275,-0.37525,0.07060795126325302,10,1,100,-0.033233630730693284,-10,-1,-100,15031.529772206559,0.0038922003301131284,0.006593736791778644,0.9999706862762083,22.274228819789176,0.016194018692715122,-13.319904400749573,5.274377408254949,-125.703125,5356.25390625,True
1599564187.879311,0.0,10,0.5,0.5,3.3265561534881605,-0.2,-0.02275,-0.37525,0.05897903368200493,10,1,100,0.007372942949453017,-10,-1,-100,15031.951640576008,0.0034312278800373197,0.00646981612472753,0.9999731837177172,21.287400760076398,0.015670143281867503,-10.937907190890511,4.531749477778657,-117.1191635131836,5356.25390625,True
1599564187.9331665,0.0,10,0.5,0.5,3.7686007970809934,-0.2,-0.02275,-0.37525,0.061504025036467534,10,1,100,-0.009677172011074833,-10,-1,-100,15032.098121292074,0.003168234363011563,0.006380337772294796,0.9999746264685583,20.60278467977126,0.015279594487776023,-9.718891398561764,4.160419282753578,-112.41423034667969,5356.25390625,True
1599564187.9860263,0.0,10,0.5,0.5,2.5881276514053346,-0.2,-0.02275,-0.37525,0.05806872430773448,10,1,100,-0.00689007810318348,-10,-1,-100,15032.245577934314,0.0029051382493254538,0.006268059791147918,0.9999761355143467,19.890105345890984,0.01485402972837674,-8.545367808885006,3.7890719836313558,-107.43402862548828,5356.25390625,True
1599564188.0428746,0.0,10,0.5,0.5,4.366776426315308,-0.2,-0.02275,-0.37525,0.06925338328706665,10,1,100,-0.03302668625300242,-10,-1,-100,15032.245577934314,0.0029051382493254538,0.006268059791147918,0.9999761355143467,19.890105345890984,0.01485402972837674,-8.545367808885006,3.7890719836313558,-107.43402862548828,5356.25390625,True
1599564188.0967307,0.0,10,0.5,0.5,-1.923050555229186,-0.2,-0.02275,-0.37525,0.037324467928389095,10,1,100,0.02960571652882675,-10,-1,-100,15032.5385382378,0.002337315072402504,0.005978186768677433,0.9999793989084031,18.003534081944714,0.01357751136651392,-6.218759703923138,3.04630689796497,-96.64790344238281,5356.25390625,True
1599564188.1525824,0.0,10,0.5,0.5,-1.3193183748245236,-0.2,-0.02275,-0.37525,0.04595408210681767,10,1,100,0.006105042431452417,-10,-1,-100,15032.621541653527,0.0020367943930666385,0.005793764201499764,0.9999811417046712,16.83746068353471,0.012718174022594054,-5.106905594654039,2.6748809246839915,-90.84207153320312,5356.25390625,True
1599564188.2080128,0.0,10,0.5,0.5,-2.587952610206604,-0.2,-0.02275,-0.37525,0.042978813067670235,10,1,100,0.006805124016162324,-10,-1,-100,15032.706497783423,0.0017594729391677906,0.005599868728567886,0.9999827727142099,16.4203509675306,0.012390430698766912,-4.288832591025121,2.30343461875219,-85.0421142578125,5356.25390625,True
1599564188.258877,0.0,10,0.5,0.5,-0.5286163320541382,-0.2,-0.02275,-0.37525,0.06226099155010337,10,1,100,-0.020663360938552745,-10,-1,-100,15032.706497783423,0.0017594729391677906,0.005599868728567886,0.9999827727142099,16.4203509675306,0.012390430698766912,-4.288832591025121,2.30343461875219,-85.0421142578125,5356.25390625,True
1599564188.3147695,0.0,10,0.5,0.5,-6.888403895378113,-0.2,-0.02275,-0.37525,0.011750563681842734,10,1,100,0.04216094631691821,-10,-1,-100,15032.87445791054,0.0011906133705129735,0.005141644322778983,0.9999860728697474,18.385491402819085,0.013837477490613549,-3.253390910306428,1.5605248997530103,-74.17681884765625,5356.25390625,True
1599564188.3756056,0.0,10,0.5,0.5,-5.860566477394103,-0.2,-0.02275,-0.37525,0.028141790590796825,10,1,100,0.016302268982961277,-10,-1,-100,15032.895938454312,0.0009110955208156637,0.004875426259696148,0.9999876999862239,19.103015902002213,0.014379703830708475,-2.575772814708637,1.1890760717175208,-69.08746337890625,5356.25390625,True
1599564188.4274693,0.0,10,0.5,0.5,-4.079586467933654,-0.2,-0.02275,-0.37525,0.05459176584587211,10,1,100,-0.011351405505839952,-10,-1,-100,15032.895938454312,0.0009110955208156637,0.004875426259696148,0.9999876999862239,19.103015902002213,0.014379703830708475,-2.575772814708637,1.1890760717175208,-69.08746337890625,5356.25390625,True
1599564188.479329,0.0,10,0.5,0.5,-8.331578480148316,-0.2,-0.02275,-0.37525,0.011201916681524225,10,1,100,0.031080374219556513,-10,-1,-100,15032.959408506285,0.0005276430981840792,0.00448242253080665,0.9999898146886379,19.852266621104288,0.014942120128694404,-1.422547933218579,0.6319044095071984,-61.8858642578125,5356.25390625,True
1599564188.5371747,0.0,10,0.5,0.5,-9.53565782470703,-0.2,-0.02275,-0.37525,0.0016762387576560595,10,1,100,0.033492235911211574,-10,-1,-100,15032.960380195407,0.00015952450883561768,0.004040274719091476,0.99999182533265,20.213734983773616,0.015220032519691054,-0.1712605141749829,0.0747127723285228,-55.294769287109375,5356.25390625,True
1599564188.5887444,0.0,10,0.5,0.5,-7.180966251945496,-0.2,-0.02275,-0.37525,0.04566824142196779,10,1,100,-0.003045061649585594,-10,-1,-100,15032.960380195407,0.00015952450883561768,0.004040274719091476,0.99999182533265,20.213734983773616,0.015220032519691054,-0.1712605141749829,0.0747127723285228,-55.294769287109375,5356.25390625,True
1599564188.6425996,0.0,10,0.5,0.5,-9.629356100082397,-0.2,-0.02275,-0.37525,0.014198172338877595,10,1,100,0.022199544268299263,-10,-1,-100,15032.98088491289,-6.747589610834477e-05,0.0037562084411288895,0.9999929431476755,20.324291397174395,0.015312353988149318,0.6839950909714245,-0.2967660810591881,-51.2447509765625,5356.25390625,True
1599564188.6974537,0.0,10,0.5,0.5,-11.409985964202882,-0.2,-0.02275,-0.37525,-0.007065477124009692,10,1,100,0.035384147262478224,-10,-1,-100,15032.91838051402,-0.00039151375421492767,0.0033066804463435157,0.9999944562753366,20.443670592418087,0.015421928006469863,1.9799594528463886,-0.8540078733454817,-45.686981201171875,5356.25390625,True
1599564188.746323,0.0,10,0.5,0.5,-10.413501667022706,-0.2,-0.02275,-0.37525,0.020418807972363694,10,1,100,0.01432803885165921,-10,-1,-100,15032.898848571815,-0.0004924669049886652,0.003150136755373985,0.9999949170444666,20.443138155493287,0.015429792622613042,2.410576790885174,-1.0397609169000386,-43.97235107421875,5356.25390625,True
1599564188.7956994,0.0,10,0.5,0.5,-11.717388541412353,-0.2,-0.02275,-0.37525,0.003272005100990856,10,1,100,0.026042680565491694,-10,-1,-100,15032.854901145794,-0.0006886920214140341,0.0028541713120011987,0.9999956896954213,20.396727879723446,0.015413736340461668,3.264534031947911,-1.4112747504178023,-40.7496337890625,5356.25390625,True
1599564188.8475618,0.0,10,0.5,0.5,-12.304120937347411,-0.2,-0.02275,-0.37525,0.00046556831795764586,10,1,100,0.027432540041276314,-10,-1,-100,15032.812907599146,-0.000877487972525519,0.002562094844922515,0.9999963328357078,20.310023672813674,0.01537226044375971,4.106497262339936,-1.7827979017502142,-37.802581787109375,5356.25390625,True
1599564188.8979385,0.0,10,0.5,0.5,-13.526463848876954,-0.2,-0.02275,-0.37525,-0.019817434772306235,10,1,100,0.03766246361564145,-10,-1,-100,15032.688880634028,-0.0011402398684456079,0.0021145248917375462,0.9999971143145987,20.145483606781486,0.015297536081046354,5.34670845987098,-2.3400961933704996,-33.89910888671875,5356.25390625,True
1599564188.9497998,0.0,10,0.5,0.5,-13.440563345336916,-0.2,-0.02275,-0.37525,-0.0067962371451903356,10,1,100,0.03003415220131904,-10,-1,-100,15032.583411459462,-0.0013078920924343383,0.0018285275503322268,0.9999974729494432,20.014941684753175,0.015244911870273799,6.155626912279837,-2.711634972890539,-31.641265869140625,5356.25390625,True
1599564189.0076447,0.0,10,0.5,0.5,-13.268459140777587,-0.2,-0.02275,-0.37525,0.005973018932899112,10,1,100,0.02239302341810713,-10,-1,-100,15032.500403673272,-0.0013888211365646668,0.001687384021318535,0.9999976119526561,19.94778234690378,0.015222073779290645,6.5553640505233375,-2.8974060324671296,-30.615692138671875,5356.25390625,True
1599564189.0595057,0.0,10,0.5,0.5,-14.918340588378907,-0.2,-0.02275,-0.37525,-0.03884498273137923,10,1,100,0.04963380156923872,-10,-1,-100,15032.226965826936,-0.0017082941923891174,0.0011541762875485466,0.9999978748017666,19.69610475945375,0.015180651521581684,8.133183017093211,-3.6404996692053,-27.202239990234375,5356.25390625,True
1599564189.1103704,0.0,10,0.5,0.5,-13.701353173828126,-0.2,-0.02275,-0.37525,0.01418718080246531,10,1,100,0.01787327785691613,-10,-1,-100,15032.226965826936,-0.0017082941923891174,0.0011541762875485466,0.9999978748017666,19.69610475945375,0.015180651521581684,8.133183017093211,-3.6404996692053,-27.202239990234375,5356.25390625,True
1599564189.1602368,0.0,10,0.5,0.5,-15.09487975921631,-0.2,-0.02275,-0.37525,-0.03946485547024611,10,1,100,0.052383872130108346,-10,-1,-100,15031.892981721903,-0.0020203288505988423,0.0006690542290980273,0.9999977353163226,19.557547520411358,0.015286727758696477,9.725127067935352,-4.3836095210084105,-24.890869140625,5356.25390625,True
1599564189.209106,0.0,10,0.5,0.5,-14.287492929077148,-0.2,-0.02275,-0.37525,0.008738634953602737,10,1,100,0.02137569160458491,-10,-1,-100,15031.892981721903,-0.0020203288505988423,0.0006690542290980273,0.9999977353163226,19.557547520411358,0.015286727758696477,9.725127067935352,-4.3836095210084105,-24.890869140625,5356.25390625,True
1599564189.260967,0.0,10,0.5,0.5,-14.761747443389893,-0.2,-0.02275,-0.37525,-0.017834807720231622,10,1,100,0.037380107070823676,-10,-1,-100,15031.725989633473,-0.0021643427956588458,0.00042987531953339267,0.9999975654107727,19.556865244644282,0.015414895267923117,10.549472353714366,-4.755170672825466,-24.148681640625,5356.25390625,True
1599564189.3148243,0.0,10,0.5,0.5,-14.7970057762146,-0.2,-0.02275,-0.37525,-0.016251617720356753,10,1,100,0.04076332018919418,-10,-1,-100,15031.495521756937,-0.0023245011596161533,0.0002293055485060787,0.9999972720529414,19.589014244076967,0.015582918109935564,11.392952751294319,-5.12673574429475,-23.681640625,5356.25390625,True
1599564189.3666854,0.0,10,0.5,0.5,-14.722197200775147,-0.2,-0.02275,-0.37525,-0.03973673728598132,10,1,100,0.057728416526193135,-10,-1,-100,15031.096109732054,-0.0026228407216062396,-0.00016414545233034365,0.9999965468754477,19.761636953220115,0.016046097348512964,13.16051213060018,-5.869876780283131,-23.57452392578125,5356.25390625,True
1599564189.4135947,0.0,10,0.5,0.5,-14.507499580383302,-0.2,-0.02275,-0.37525,-0.019524145006741517,10,1,100,0.044668552843198,-10,-1,-100,15030.80411863455,-0.0027737457874344707,-0.0003355989411910449,0.9999960968462114,19.90396006982055,0.016342954822767753,14.095054141653254,-6.241451258983293,-23.93414306640625,5356.25390625,True
1599564189.4644241,0.0,10,0.5,0.5,-14.665116960144044,-0.2,-0.02275,-0.37525,-0.0026238085039642497,10,1,100,0.029741396852273772,-10,-1,-100,15030.80411863455,-0.0027737457874344707,-0.0003355989411910449,0.9999960968462114,19.90396006982055,0.016342954822767753,14.095054141653254,-6.241451258983293,-23.93414306640625,5356.25390625,True
1599564189.5132935,0.0,10,0.5,0.5,-14.317431517791748,-0.2,-0.02275,-0.37525,-0.018900463514032857,10,1,100,0.04720149943272326,-10,-1,-100,15030.571697946987,-0.0029311413984431023,-0.000481601144472102,0.9999955882254882,20.082541208726514,0.01668269994993116,15.068936282680767,-6.613026835534323,-24.56903076171875,5356.25390625,True
1599564189.5641577,0.0,10,0.5,0.5,-13.363454731750489,-0.2,-0.02275,-0.37525,-0.03302009790148899,10,1,100,0.0652649610653438,-10,-1,-100,15029.986740082619,-0.0032370394957821555,-0.0007407189280992182,0.9999944864401865,20.537013869124564,0.01748117898581111,17.143544867389632,-7.356176776122437,-26.66546630859375,5356.25390625,True
1599564189.614042,0.0,10,0.5,0.5,-13.310801036834716,-0.2,-0.02275,-0.37525,-0.01793249671251863,10,1,100,0.05191933852641128,-10,-1,-100,15029.691819993779,-0.003392415065460642,-0.000837397906755368,0.99999389512375,20.80420360944751,0.017930812455740464,18.24486966903849,-7.7277481024406995,-28.126678466796875,5356.25390625,True
1599564190.078344,0.0,10,0.5,0.5,-13.377356066131592,-0.2,-0.02275,-0.37525,-0.012719004700754393,10,1,100,0.045091612797955434,-10,-1,-100,15029.547288621543,-0.003470064330479602,-0.0008760819834319166,0.9999935955464418,20.94513895528228,0.018164857259807432,18.810638192141358,-7.913532151832133,-28.96051025390625,5356.25390625,True
1599564190.1272147,0.0,10,0.5,0.5,-13.161709105682373,-0.2,-0.02275,-0.37525,-0.01276201654697792,10,1,100,0.0459624648370761,-10,-1,-100,15029.39982903446,-0.0035472534667798624,-0.0009102356733648748,0.9999932942094468,21.089832130875944,0.018403357966488874,19.385847814586665,-8.09931488178879,-29.86322021484375,5356.25390625,True
1599564190.1770806,0.0,10,0.5,0.5,-11.693589298248291,-0.2,-0.02275,-0.37525,-0.018737831906205087,10,1,100,0.06310084287849912,-10,-1,-100,15028.833424312063,-0.00377184073232378,-0.0009941743584764812,0.9999923923884795,21.53387041689606,0.019126746272291304,21.158141583071806,-8.656652592807845,-32.98455810546875,5356.25390625,True
1599564190.2259595,0.0,10,0.5,0.5,-10.692848793792725,-0.2,-0.02275,-0.37525,-0.014658044913773139,10,1,100,0.06477001591558149,-10,-1,-100,15028.329521662672,-0.003989723912303849,-0.001032098690757642,0.9999915084016444,21.965518584082904,0.019815914917802956,22.97407439335305,-9.213970923165716,-36.72540283203125,5356.25390625,True
1599564190.2738662,0.0,10,0.5,0.5,-10.434359415435791,-0.2,-0.02275,-0.37525,-0.010586906597467994,10,1,100,0.05815835582596444,-10,-1,-100,15027.911553968792,-0.004126179690786769,-0.0010284182770111381,0.9999909584576286,22.22704228386839,0.020220811777094838,24.186722293531442,-9.585503918656451,-39.56341552734375,5356.25390625,True
1599564190.3242106,0.0,10,0.5,0.5,-11.462948950958252,-0.2,-0.02275,-0.37525,-0.011041375254586464,10,1,100,0.04466311187459056,-10,-1,-100,15027.911553968792,-0.004126179690786769,-0.0010284182770111381,0.9999909584576286,22.22704228386839,0.020220811777094838,24.186722293531442,-9.585503918656451,-39.56341552734375,5356.25390625,True
1599564190.3690891,0.0,10,0.5,0.5,-9.63642465133667,-0.2,-0.02275,-0.37525,-0.008719241676496896,10,1,100,0.05882303402205258,-10,-1,-100,15027.554133801255,-0.004253676770397012,-0.001006678135995942,0.9999904463708957,22.453837235897733,0.020553710723017104,25.38236641531017,-9.957025855833768,-42.676788330078125,5356.25390625,True
1599564190.4184687,0.0,10,0.5,0.5,-6.704957717895509,-0.2,-0.02275,-0.37525,-0.0005658564352450848,10,1,100,0.07144491911598606,-10,-1,-100,15026.716245237156,-0.004482982224548481,-0.0009121826154300154,0.9999895353418706,22.794862791505516,0.02093884248773906,27.694892576067478,-10.7000379776536,-49.729583740234375,5356.25390625,True
1599564190.4803033,0.0,10,0.5,0.5,-7.028161193084717,-0.2,-0.02275,-0.37525,-0.0017784260366449523,10,1,100,0.058991240800626676,-10,-1,-100,15026.297300943057,-0.004576815706522817,-0.0008369095190455738,0.9999891761116445,22.844739849306283,0.02090878956584282,28.721381228163473,-11.071531306192924,-53.6689453125,5356.25390625,True
1599564190.5336776,0.0,10,0.5,0.5,-6.020455062103272,-0.2,-0.02275,-0.37525,0.00045551814815226674,10,1,100,0.05796840960574677,-10,-1,-100,15025.813903494854,-0.004651602428172632,-0.0007480834019334282,0.9999889014214478,22.789955593195188,0.020702732653151004,29.616285153049215,-11.443020309186615,-57.8836669921875,5356.25390625,True
1599564190.5775588,0.0,10,0.5,0.5,-6.2626659790039065,-0.2,-0.02275,-0.37525,-0.0030975348694125323,10,1,100,0.05434709044845723,-10,-1,-100,15025.60491850914,-0.004685524557912821,-0.0006997140633591776,0.9999887780669574,22.717423494082333,0.020530481620943508,30.00247026058539,-11.628764369351586,-60.09429931640625,5356.25390625,True
1599564190.627828,0.0,10,0.5,0.5,-2.968802635192872,-0.2,-0.02275,-0.37525,0.010089850968674492,10,1,100,0.05889741770494164,-10,-1,-100,15024.849060792942,-0.004756624505256093,-0.0005360169460545885,0.9999885435389495,22.29227349878719,0.01973928603100101,30.855724400503643,-12.186002203759116,-67.13919067382812,5356.25390625,True
1599564190.6766982,0.0,10,0.5,0.5,-5.52759528427124,-0.2,-0.02275,-0.37525,-0.006242438889053396,10,1,100,0.051908360074462034,-10,-1,-100,15024.849060792942,-0.004756624505256093,-0.0005360169460545885,0.9999885435389495,22.29227349878719,0.01973928603100101,30.855724400503643,-12.186002203759116,-67.13919067382812,5356.25390625,True
1599564190.7310724,0.0,10,0.5,0.5,-1.0409133239746096,-0.2,-0.02275,-0.37525,0.013737680220579068,10,1,100,0.055075732510197026,-10,-1,-100,15024.095153911621,-0.004784523542151018,-0.0003547960063419496,0.9999884911609074,21.524945286553212,0.01858581465220926,31.16031749025113,-12.743260108735976,-74.80364990234375,5356.25390625,True
1599564190.7790058,0.0,10,0.5,0.5,-0.6930246002197267,-0.2,-0.02275,-0.37525,0.00974496935597714,10,1,100,0.05180358825699749,-10,-1,-100,15023.613708224264,-0.004779416991908366,-0.00022696279872176422,0.9999885527650332,20.866588179938407,0.017726040619900987,31.090901543059807,-13.114782354201164,-80.25753784179688,5356.25390625,True
1599564190.835853,0.0,10,0.5,0.5,2.356067574310303,-0.2,-0.02275,-0.37525,0.018024644281247032,10,1,100,0.04743450880987735,-10,-1,-100,15022.796325466363,-0.004734461917349298,-3.6209615635768863e-05,0.9999887917167957,19.532046211810098,0.016326623892970047,30.3437146074117,-13.672094095458146,-88.95477294921875,5356.25390625,True
1599564190.8857195,0.0,10,0.5,0.5,2.7134245677948,-0.2,-0.02275,-0.37525,0.012819404595642906,10,1,100,0.046173019324479384,-10,-1,-100,15022.25042645866,-0.004681572597676925,8.898000033566637e-05,0.9999890374201971,19.232916507124827,0.01607859001832827,30.69417006420702,-14.043645674212918,-95.05408477783203,5356.25390625,True
1599564190.9346232,0.0,10,0.5,0.5,4.029149483680724,-0.2,-0.02275,-0.37525,0.013150148753647069,10,1,100,0.04396440912138638,-10,-1,-100,15021.643003943376,-0.004613024127194576,0.00020479945434943476,0.999989338975964,20.5462007700109,0.017342751114175263,33.66109864872371,-14.415173974853529,-101.11289978027344,5356.25390625,True
1599564190.9844928,0.0,10,0.5,0.5,5.220887458610535,-0.2,-0.02275,-0.37525,0.013854265742925932,10,1,100,0.041451347945272346,-10,-1,-100,15021.037534315372,-0.004527743105243545,0.0003154754923828689,0.9999896999557478,21.69810252645846,0.018603097482073852,36.46829533000483,-14.786669588377569,-106.9336929321289,5356.25390625,True
1599564191.0503113,0.0,10,0.5,0.5,6.351118483734131,-0.2,-0.02275,-0.37525,0.013934591856822085,10,1,100,0.03906330380065962,-10,-1,-100,15020.491634760401,-0.004428550022701836,0.00041577268707465733,0.9999901074899537,22.630862539773506,0.019755303266146,38.99569077789057,-15.158131084222575,-112.48485565185547,5356.25390625,True
1599564191.1051338,0.0,10,0.5,0.5,4.392262377357483,-0.2,-0.02275,-0.37525,0.0040212579965440524,10,1,100,0.04896030681428342,-10,-1,-100,15020.491634760401,-0.004428550022701836,0.00041577268707465733,0.9999901074899537,22.630862539773506,0.019755303266146,38.99569077789057,-15.158131084222575,-112.48485565185547,5356.25390625,True
1599564191.159987,0.0,10,0.5,0.5,7.5467425609588625,-0.2,-0.02275,-0.37525,0.013955440941195538,10,1,100,0.03673903720364777,-10,-1,-100,15019.822688065702,-0.0043176811849098854,0.0005050693622529128,0.9999905512224226,23.382019893236087,0.020772216333799023,41.281682525346554,-15.529559641292337,-117.7613296508789,5356.25390625,True
1599564191.2108514,0.0,10,0.5,0.5,9.937669123268128,-0.2,-0.02275,-0.37525,0.017561257555424814,10,1,100,0.027044221473470877,-10,-1,-100,15018.87932629371,-0.004129155683297728,0.0006180818668094953,0.9999912839860902,24.327499112085157,0.02207189409829389,44.49882868696064,-16.086646631827477,-125.15943145751953,5356.25390625,True
1599564191.2587578,0.0,10,0.5,0.5,11.192549953842162,-0.2,-0.02275,-0.37525,0.015653129601468727,10,1,100,0.02298327076512542,-10,-1,-100,15017.933036042494,-0.003921421556139861,0.0007024247088132749,0.9999920644947676,24.92274939406109,0.022869097414753164,47.17376879379924,-16.643680682796578,-131.93739318847656,5356.25390625,True
1599564191.311616,0.0,10,0.5,0.5,8.77909908027649,-0.2,-0.02275,-0.37525,0.0073245674726062915,10,1,100,0.043670373282311,-10,-1,-100,15017.933036042494,-0.003921421556139861,0.0007024247088132749,0.9999920644947676,24.92274939406109,0.022869097414753164,47.17376879379924,-16.643680682796578,-131.93739318847656,5356.25390625,True
1599564191.3694282,0.0,10,0.5,0.5,13.54037321624756,-0.2,-0.02275,-0.37525,0.015303666136891686,10,1,100,0.011615015489816912,-10,-1,-100,15016.52678324387,-0.003630789208422432,0.0007741170716635648,0.999993109032499,25.28562277875203,0.023163495884890382,50.007124767,-17.386340697743524,-140.0098876953125,5356.25390625,True
1599564191.4163036,0.0,10,0.5,0.5,12.711372422027589,-0.2,-0.02275,-0.37525,0.009603978772103094,10,1,100,0.023355333624156135,-10,-1,-100,15015.858812777675,-0.003474311486908695,0.0007867399466772963,0.9999936550798451,25.326891930179297,0.023028293840452126,51.16423224700178,-17.75765895873388,-143.63275146484375,5356.25390625,True
1599564191.465171,0.0,10,0.5,0.5,13.387797412300111,-0.2,-0.02275,-0.37525,0.00947376043876016,10,1,100,0.0227452917042363,-10,-1,-100,15015.124436587677,-0.0033276106872703617,0.0007963971573445331,0.9999941463622083,25.345683020557658,0.022785617202574868,52.27885573009726,-18.12897319746506,-146.97979736328125,5356.25390625,True
1599564191.5130434,0.0,10,0.5,0.5,14.003038773155213,-0.2,-0.02275,-0.37525,0.007947756442467046,10,1,100,0.020398199665012915,-10,-1,-100,15014.39298997086,-0.003174077681278868,0.0007907658600729973,0.9999946499458024,25.321798316831707,0.02243299042760776,53.305641535048245,-18.500285114897615,-150.05128479003906,5356.25390625,True
1599564191.5629094,0.0,10,0.5,0.5,13.772519455337525,-0.2,-0.02275,-0.37525,0.007856932861237724,10,1,100,0.027278036965421956,-10,-1,-100,15013.992597699165,-0.003098276801675742,0.0007843887478443435,0.9999948926945339,25.29583994721657,0.02222278243550093,53.78862817037663,-18.685940625519766,-151.483642578125,5356.25390625,True
1599564191.613774,0.0,10,0.5,0.5,15.557758651924134,-0.2,-0.02275,-0.37525,0.004994478470173444,10,1,100,0.009901680840262338,-10,-1,-100,15012.861737136147,-0.0028726093765542,0.0007522339549351924,0.9999955911200044,25.183719215234763,0.021501694870492256,55.15661839890135,-19.24290615770282,-155.3671875,5356.25390625,True
1599564191.6756086,0.0,10,0.5,0.5,15.489159504699707,-0.2,-0.02275,-0.37525,0.004319667630878508,10,1,100,0.015803213210009853,-10,-1,-100,15012.061931816512,-0.0027225219576651827,0.0007165618071443187,0.9999960371988315,25.09597257731611,0.020978268467299548,56.032196989826595,-19.614215778632193,-157.61167907714844,5356.25390625,True
1599564191.727976,0.0,10,0.5,0.5,14.73757358531952,-0.2,-0.02275,-0.37525,0.007908031654455016,10,1,100,0.030652439176187117,-10,-1,-100,15012.061931816512,-0.0027225219576651827,0.0007165618071443187,0.9999960371988315,25.09597257731611,0.020978268467299548,56.032196989826595,-19.614215778632193,-157.61167907714844,5356.25390625,True
1599564191.7798383,0.0,10,0.5,0.5,15.943899553298952,-0.2,-0.02275,-0.37525,0.0037480504148956124,10,1,100,0.014399219252724976,-10,-1,-100,15011.266032020561,-0.002576044170838829,0.0006786542686571107,0.9999964517061116,25.010714500152385,0.02044599461621897,56.90641911480352,-19.985524355831213,-159.58038330078125,5356.25390625,True
1599564191.8346915,0.0,10,0.5,0.5,16.6695270942688,-0.2,-0.02275,-0.37525,-0.0012425547545686635,10,1,100,0.004810510693541627,-10,-1,-100,15010.06974064093,-0.002356935538990751,0.0005988453416192064,0.9999970431151892,24.90754453379362,0.019665633207340983,58.26279543050417,-20.542483246746595,-162.01670837402344,5356.25390625,True
1599564191.884558,0.0,10,0.5,0.5,16.8684123626709,-0.2,-0.02275,-0.37525,-0.003647548121493477,10,1,100,0.0030341340758315537,-10,-1,-100,15008.81388039398,-0.0021430192553470876,0.0005045223585828807,0.9999975764598937,24.856327475622983,0.018937615783947696,59.731825441761075,-21.099434137782918,-163.832763671875,5356.25390625,True
1599564191.940409,0.0,10,0.5,0.5,16.24113465499878,-0.2,-0.02275,-0.37525,0.0057577907108310265,10,1,100,0.024276985444890365,-10,-1,-100,15008.81388039398,-0.0021430192553470876,0.0005045223585828807,0.9999975764598937,24.856327475622983,0.018937615783947696,59.731825441761075,-21.099434137782918,-163.832763671875,5356.25390625,True
1599564192.005235,0.0,10,0.5,0.5,17.12493091506958,-0.2,-0.02275,-0.37525,-0.00970426681412382,10,1,100,-0.006718983108292061,-10,-1,-100,15007.094152631587,-0.0018624479887104852,0.00036421476070883156,0.9999981993159275,24.900708591439276,0.01807416834702572,61.962214617223935,-21.84201531364413,-165.28924560546875,5356.25390625,True
1599564192.0570974,0.0,10,0.5,0.5,16.801174997711183,-0.2,-0.02275,-0.37525,-0.00505312800614143,10,1,100,0.006165771777297305,-10,-1,-100,15006.171300133225,-0.001725849302272168,0.00027933837216556834,0.999998471705962,24.979555946824494,0.01768815390769937,63.224279295360994,-22.213293998381708,-165.6041259765625,5356.25390625,True
1599564192.1116488,0.0,10,0.5,0.5,16.740852000045777,-0.2,-0.02275,-0.37525,-0.004710550598864506,10,1,100,0.004429528340501757,-10,-1,-100,15005.312901369063,-0.0015872012182473808,0.00020575729309048966,0.9999987192272943,25.098795045740506,0.017328134420218202,64.59744249022714,-22.58456293145335,-165.64315795898438,5356.25390625,True
1599564192.165059,0.0,10,0.5,0.5,16.758418146133423,-0.2,-0.02275,-0.37525,0.0025896941631679765,10,1,100,0.018143229184637642,-10,-1,-100,15005.312901369063,-0.0015872012182473808,0.00020575729309048966,0.9999987192272943,25.098795045740506,0.017328134420218202,64.59744249022714,-22.58456293145335,-165.64315795898438,5356.25390625,True
1599564192.2179587,0.0,10,0.5,0.5,16.645742893600463,-0.2,-0.02275,-0.37525,-0.006834142000236698,10,1,100,0.0030384429530847176,-10,-1,-100,15004.388095821254,-0.0014510535326499058,0.00012058285220666963,0.9999989399511486,25.259374463172986,0.01698908669896496,66.08935469201127,-22.95582037376607,-165.40664672851562,5356.25390625,True
1599564192.2738092,0.0,10,0.5,0.5,16.25085849838257,-0.2,-0.02275,-0.37525,-0.012698893835534221,10,1,100,-0.005792743444782519,-10,-1,-100,15003.003328600898,-0.0012481552770579676,-9.622584413200933e-06,0.9999992210076016,25.576112310829156,0.016506149320987592,68.55705012370815,-23.512681928012448,-164.5350799560547,5356.25390625,True
1599564192.3361583,0.0,10,0.5,0.5,15.735591024017335,-0.2,-0.02275,-0.37525,-0.0144571669961805,10,1,100,-0.007932361111224797,-10,-1,-100,15001.558016151306,-0.0010455915810800096,-0.00014331529699026987,0.9999994430993306,25.978299897113207,0.016035319343210414,71.30073918105077,-24.06950927147369,-163.04342651367188,5356.25390625,True
1599564192.386025,0.0,10,0.5,0.5,15.532976386260987,-0.2,-0.02275,-0.37525,-0.010831016721201254,10,1,100,-0.002727318755897705,-10,-1,-100,15000.573641391704,-0.0009101526539573476,-0.0002311418790462963,0.9999995590976919,26.28812605836711,0.01571883558571261,73.27521927465102,-24.440705877441303,-161.7044677734375,5356.25390625,True
1599564192.4423883,0.0,10,0.5,0.5,15.10595050239563,-0.2,-0.02275,-0.37525,-0.011621902070191491,10,1,100,-0.004334180334973951,-10,-1,-100,14999.588289430249,-0.0007737337812042648,-0.00031741955934199025,0.9999996502903684,26.625700968222464,0.015395948948974596,75.35508647594573,-24.81188346313277,-160.08993530273438,5356.25390625,True
1599564192.494254,0.0,10,0.5,0.5,14.616031618118287,-0.2,-0.02275,-0.37525,-0.012560270104205937,10,1,100,-0.005812700274686923,-10,-1,-100,14998.600984629942,-0.0006375203387714741,-0.00040363721272191163,0.9999997153223685,26.984658968959454,0.015065355841079795,77.52560814864182,-25.183040780067227,-158.1998748779297,5356.25390625,True
1599564192.543637,0.0,10,0.5,0.5,14.066698477935791,-0.2,-0.02275,-0.37525,-0.01302154230882661,10,1,100,-0.0074782040474074395,-10,-1,-100,14997.554109803168,-0.000499917628550183,-0.00048538468168084193,0.9999997572420082,27.357411939799857,0.014728974179917398,79.76739684189074,-25.554176524160404,-156.03427124023438,5356.25390625,True
1599564192.6024795,0.0,10,0.5,0.5,14.175949231719972,-0.2,-0.02275,-0.37525,-0.009295101655834668,10,1,100,-0.0014324820638136017,-10,-1,-100,14997.030671612592,-0.00043102402852728086,-0.0005250514662141339,0.9999997692695957,27.546152837255605,0.014560204601979519,80.90731829703797,-25.73973610472695,-154.84811401367188,5356.25390625,True
1599564192.6558518,0.0,10,0.5,0.5,13.87465202255249,-0.2,-0.02275,-0.37525,-0.009657511302985198,10,1,100,-0.00226296540052615,-10,-1,-100,14996.506258327747,-0.00036202074842156925,-0.0005636755490926954,0.9999997756054013,27.73503754012689,0.014392565111850041,82.05582055241244,-25.925290090596583,-153.59312438964844,5356.25390625,True
1599564192.7047575,0.0,10,0.5,0.5,12.755432204055786,-0.2,-0.02275,-0.37525,-0.014041433493625709,10,1,100,-0.010714131838962757,-10,-1,-100,14995.459383194568,-0.00022357550840315844,-0.0006379427054043166,0.9999997715215223,28.107202338053355,0.014066197869075845,84.3604849701122,-26.29638083729636,-150.87649536132812,5356.25390625,True
1599564193.178023,0.0,10,0.5,0.5,11.100085265731812,-0.2,-0.02275,-0.37525,-0.01862203857443629,10,1,100,-0.01990763233889044,-10,-1,-100,14993.884186923387,-1.5378581759664386e-05,-0.0007463331664236187,0.9999997213751133,28.629052109788677,0.013627597676147688,87.76621148111957,-26.852974174658772,-146.28515625,5356.25390625,True
1599564193.2308826,0.0,10,0.5,0.5,9.781830636215211,-0.2,-0.02275,-0.37525,-0.018355165797527752,10,1,100,-0.02208584581628654,-10,-1,-100,14992.252352248412,0.00019238813320993995,-0.0008416557275432426,0.9999996273011518,29.06661030484563,0.013306296440778399,90.97586248163836,-27.40951896678352,-141.07411193847656,5356.25390625,True
1599564193.2767582,0.0,10,0.5,0.5,11.683901311874392,-0.2,-0.02275,-0.37525,-0.008906112999878358,10,1,100,-0.0014532286603528982,-10,-1,-100,14992.252352248412,0.00019238813320993995,-0.0008416557275432426,0.9999996273011518,29.06661030484563,0.013306296440778399,90.97586248163836,-27.40951896678352,-141.07411193847656,5356.25390625,True
1599564193.328621,0.0,10,0.5,0.5,9.437445001220704,-0.2,-0.02275,-0.37525,-0.014783408604294388,10,1,100,-0.016564278965611513,-10,-1,-100,14991.138094715541,0.00032863588169930013,-0.000894450832646522,0.9999995459779795,29.286024546266614,0.01318998552605278,92.91795197921066,-27.78052538218013,-137.2558135986328,5356.25390625,True
1599564193.3755314,0.0,10,0.5,0.5,8.45976374320984,-0.2,-0.02275,-0.37525,-0.01453675476026378,10,1,100,-0.017760457484716413,-10,-1,-100,14990.026766900555,0.00046224565001271153,-0.0009396010669277703,0.9999994517392466,29.428257089037388,0.013170922576738896,94.63108144073493,-28.151516544007613,-133.1621551513672,5356.25390625,True
1599564193.430389,0.0,10,0.5,0.5,7.421440673065186,-0.2,-0.02275,-0.37525,-0.014878419624809052,10,1,100,-0.019324920826682447,-10,-1,-100,14988.852939102799,0.0005968078521053068,-0.000983187159126966,0.9999993385814802,29.475603506561022,0.013256317032795995,96.04772781909546,-28.522497063420342,-128.7932586669922,5356.25390625,True
1599564193.475264,0.0,10,0.5,0.5,3.4923991931915284,-0.2,-0.02275,-0.37525,-0.01628517183238641,10,1,100,-0.03369867702073385,-10,-1,-100,14986.567783729522,0.0008486855210527908,-0.0010350726721529333,0.9999991041783236,29.212239728967962,0.013695115726460283,97.69771433440134,-29.264448113614836,-119.2294692993164,5356.25390625,True
1599564193.5201428,0.0,10,0.5,0.5,5.523138775444031,-0.2,-0.02275,-0.37525,-0.012067057109652144,10,1,100,-0.015262702839310006,-10,-1,-100,14985.982821806916,0.0009088394519470114,-0.0010433951065239812,0.999999042668293,29.058353626861553,0.013836157942922356,97.80729796864458,-29.44993832135638,-116.66651153564453,5356.25390625,True
1599564193.5809462,0.0,10,0.5,0.5,3.330572668838501,-0.2,-0.02275,-0.37525,-0.012197594220760031,10,1,100,-0.02176374821694688,-10,-1,-100,14984.80606450804,0.0010214071984834797,-0.0010516764354710874,0.9999989253514274,28.629614615430675,0.014104161184174374,97.59497199363317,-29.820927402886714,-111.3341293334961,5356.25390625,True
1599564193.6338043,0.0,10,0.5,0.5,2.009674610710144,-0.2,-0.02275,-0.37525,-0.011580907804625134,10,1,100,-0.02219994989729175,-10,-1,-100,14983.569736680714,0.001126449321568036,-0.0010531550390159774,0.9999988109874879,28.153934179320785,0.014352125957240593,97.18473642743889,-30.19193054229808,-105.72659301757812,5356.25390625,True
1599564193.6806798,0.0,10,0.5,0.5,-1.1241766195297238,-0.2,-0.02275,-0.37525,-0.009982566931055085,10,1,100,-0.02728839912567917,-10,-1,-100,14981.74747218634,0.001266973494784817,-0.001039591386721048,0.9999986570130542,27.085402914631818,0.014377586531531159,95.24609295593214,-30.748471178994595,-96.79940795898438,5356.25390625,True
1599564193.73653,0.0,10,0.5,0.5,-1.5081905862808227,-0.2,-0.02275,-0.37525,-0.009603032659699348,10,1,100,-0.022151343252972373,-10,-1,-100,14980.507238118444,0.0013468564606149704,-0.0010235438837857898,0.9999985691667725,26.120302519294622,0.014029749677224635,92.97835705093257,-31.11952673784364,-90.5041275024414,5356.25390625,True
1599564194.0198398,0.0,10,0.5,0.5,-1.0833117218017578,-0.2,-0.02275,-0.37525,-0.010141393860414526,10,1,100,-0.018098700115987545,-10,-1,-100,14979.858799449517,0.0013815856116448796,-0.0010136840846181998,0.9999985318318093,25.61770697796877,0.013748845730068229,91.74174189109152,-31.305062570803738,-87.33615112304688,5356.25390625,True
1599564194.1794124,0.0,10,0.5,0.5,-8.624571493530274,-0.2,-0.02275,-0.37525,-0.004485795679825301,10,1,100,-0.028988144337038474,-10,-1,-100,14976.67325407709,0.0015110714259739554,-0.0009531497124995114,0.999998404083112,28.602999173535167,0.01440731227675117,105.51793885780245,-32.232569036004506,-72.37258911132812,5356.25390625,True
1599564194.4895182,0.0,10,0.5,0.5,-6.32752728767395,-0.2,-0.02275,-0.37525,-0.007637750504762186,10,1,100,-0.01949859186955729,-10,-1,-100,14975.372472905903,0.0015414422024375822,-0.0009267192372729909,0.9999983825723878,29.55565461555833,0.014307502100438527,110.30775539494485,-32.60348538638031,-66.8612060546875,5356.25390625,True
1599564194.6825657,0.0,10,0.5,0.5,-7.421746109771728,-0.2,-0.02275,-0.37525,-0.007481734046511376,10,1,100,-0.01848689579131065,-10,-1,-100,14974.071691573365,0.0015588736743727962,-0.0009012849118371965,0.9999983787978735,30.321829994401288,0.014110175221283897,114.47580999158524,-32.97435891560201,-61.62603759765625,5356.25390625,True
1599564195.4197617,0.0,10,0.5,0.5,-13.690870522689819,-0.2,-0.02275,-0.37525,-0.002741952121212453,10,1,100,-0.014774086739904106,-10,-1,-100,14970.045324674342,0.0015400930521899609,-0.0008351483277994748,0.9999984653191528,31.678563285256548,0.013698114658629945,123.70048513283929,-34.08678673165119,-47.57855224609375,5356.25390625,True
1599564195.7549741,0.0,10,0.5,0.5,-17.13153648471832,-0.2,-0.02275,-0.37525,-0.0038599655647713216,10,1,100,0.002330552663742309,-10,-1,-100,14964.468175410759,0.0013668944851441094,-0.0007853696684742207,0.9999987573962031,31.998953801737393,0.014663141610624262,130.48525666739772,-35.569793142273284,-32.71722412109375,5356.25390625,True
1599564195.971443,0.0,10,0.5,0.5,-15.06671432800293,-0.2,-0.02275,-0.37525,-0.008379195394622473,10,1,100,0.00028526766181839053,-10,-1,-100,14961.555088978726,0.0012276183287261008,-0.0007814348179390454,0.9999989411558716,31.841066243191616,0.015660731887133218,132.60013888975712,-36.31126626885118,-26.944244384765625,5356.25390625,True
1599564196.1764112,0.0,10,0.5,0.5,-15.777920577430725,-0.2,-0.02275,-0.37525,-0.008306296667358309,10,1,100,0.004626725599026086,-10,-1,-100,14958.640049293404,0.001061348376980348,-0.0007774406395842409,0.9999991345624628,31.626958321279773,0.016790618982006462,134.4527619127353,-37.05273392531601,-22.275787353515625,5356.25390625,True
1599564196.278139,0.0,10,0.5,0.5,-16.266191211891176,-0.2,-0.02275,-0.37525,-0.00815354147233966,10,1,100,0.009531109484839154,-10,-1,-100,14955.603915485204,0.0008656677500173517,-0.0007726715342155508,0.9999993267987968,31.44497231465623,0.017951336161556794,136.41159020674624,-37.794193317928276,-18.711669921875,5356.25390625,True
1599564196.366902,0.0,10,0.5,0.5,-15.893389460945128,-0.2,-0.02275,-0.37525,-0.00800373807031329,10,1,100,0.0019865871715776494,-10,-1,-100,14954.11075165507,0.000756727660848612,-0.0007672167891824158,0.9999994193706544,31.38761926420855,0.01853119737530785,137.52798557897367,-38.16491740140398,-17.343597412109375,5356.25390625,True
1599564196.4387124,0.0,10,0.5,0.5,-15.546460457611085,-0.2,-0.02275,-0.37525,-0.008523579864166443,10,1,100,-0.00884840886531969,-10,-1,-100,14954.11075165507,0.000756727660848612,-0.0007672167891824158,0.9999994193706544,31.38761926420855,0.01853119737530785,137.52798557897367,-38.16491740140398,-17.343597412109375,5356.25390625,True
1599564196.5125115,0.0,10,0.5,0.5,-16.8034751411438,-0.2,-0.02275,-0.37525,-0.006410582886533029,10,1,100,0.0176616135964927,-10,-1,-100,14951.008211994544,0.0005162955093328596,-0.0007482317869270537,0.9999995867939847,31.38361232509688,0.01970674181610552,140.24322259862566,-38.906346116932866,-15.43524169921875,5356.25390625,True
1599564196.575344,0.0,10,0.5,0.5,-16.527677482604982,-0.2,-0.02275,-0.37525,-0.007390275345585862,10,1,100,0.008327399308245961,-10,-1,-100,14949.45645392139,0.00038348166140863784,-0.0007400652780731798,0.9999996526225394,31.438325103255952,0.020310147413214352,141.85781008045257,-39.277046900620334,-14.894989013671875,5356.25390625,True
1599564196.635184,0.0,10,0.5,0.5,-16.59537470932007,-0.2,-0.02275,-0.37525,-0.005972110090426969,10,1,100,0.010295139952699406,-10,-1,-100,14947.842196170473,0.00024590593974706764,-0.0007199184531220315,0.9999997106238029,31.530076180109248,0.020931632659911895,143.6467458587923,-39.64773628520722,-14.630401611328125,5356.25390625,True
1599564196.7149715,0.0,10,0.5,0.5,-16.596507920837404,-0.2,-0.02275,-0.37525,-0.00602137563792131,10,1,100,0.01284252063944926,-10,-1,-100,14946.291414825944,9.887270266121034e-05,-0.0007022159049243136,0.9999997485584742,31.6624166309288,0.021581462584307792,145.6311878019865,-40.01841247115819,-14.641693115234375,5356.25390625,True
1599564196.7742448,0.0,10,0.5,0.5,-16.51056940994263,-0.2,-0.02275,-0.37525,-0.005185145853889477,10,1,100,0.015131727157474717,-10,-1,-100,14944.677157135797,-5.4294644535683396e-05,-0.0006786414380014399,0.9999997682489182,31.846090884149067,0.022275926907223142,147.86631714076583,-40.38907332529713,-14.9287109375,5356.25390625,True
1599564196.83824,0.0,10,0.5,0.5,-16.33505825881958,-0.2,-0.02275,-0.37525,-0.004355240531144619,10,1,100,0.017516438131119166,-10,-1,-100,14942.997469704831,-0.0002139248879935547,-0.0006497625362561222,0.9999997660223671,32.07493990007088,0.023019947699517842,150.32997272723594,-40.75971671327821,-15.49139404296875,5356.25390625,True
1599564196.891024,0.0,10,0.5,0.5,-16.350959013366698,-0.2,-0.02275,-0.37525,-0.0054269014163672614,10,1,100,0.01071471832522913,-10,-1,-100,14942.22207810625,-0.0002958989808865104,-0.0006333710629730237,0.999999755642415,32.203230532536594,0.023410963151847947,151.63486504836263,-40.94503130399469,-15.8760986328125,5356.25390625,True
1599564196.947386,0.0,10,0.5,0.5,-15.608171518707277,-0.2,-0.02275,-0.37525,-0.0005442225921799314,10,1,100,0.030708822895747348,-10,-1,-100,14939.707430635579,-0.0005509516092867568,-0.0005742127066563322,0.9999996833659958,32.64531252999199,0.024671505611857273,155.85737295321306,-41.50094340816921,-17.443603515625,5356.25390625,True
1599564197.0102203,0.0,10,0.5,0.5,-16.199262577056885,-0.2,-0.02275,-0.37525,-0.006440212341093155,10,1,100,0.005345221991653119,-10,-1,-100,14939.707430635579,-0.0005509516092867568,-0.0005742127066563322,0.9999996833659958,32.64531252999199,0.024671505611857273,155.85737295321306,-41.50094340816921,-17.443603515625,5356.25390625,True
