Timestamp,Input Throttle,horizon,dT,dt,Input Roll,Roll P,Roll I,Roll D,Input Pitch,Pitch P,Pitch I,Pitch D,Input Yaw,Yaw P,Yaw I,Yaw D,Altitude,Direction X,Direction Y,Direction Z,Drag X,Drag Y,Drag Z,Vertical Velocity,Roll,Mass,Has Fuel
1599562444.2234542,0.0,10,0.5,0.5,-8.74584925842285,-0.15025,-0.0155,-0.37525,-0.0005545842685634964,10,1,100,0.1711057343378537,-10,-1,-100,14993.952914956375,-0.016774938304372777,-7.765342096375497e-05,0.9998592878074548,28.649086140995284,0.027034341702324556,-87.51379784775249,27.009296394532143,-31.792724609375,5356.25390625,True
1599562444.2563667,0.0,10,0.5,0.5,-8.836473809814452,-0.15025,-0.0155,-0.37525,-0.0002861616770902001,10,1,100,0.17716524143953216,-10,-1,-100,14995.040808724123,-0.01684528707314884,-7.31248948306302e-05,0.9998581054110494,28.50392006449853,0.02736324582991829,-85.87452424186044,26.637365657847713,-31.79156494140625,5356.25390625,True
1599562444.2922323,0.0,10,0.5,0.5,-8.905381561279297,-0.15025,-0.0155,-0.37525,0.0033726996033295307,10,1,100,0.1778090269688283,-10,-1,-100,14996.065225681756,-0.016899779197690548,-3.567920043776409e-05,0.9998571878973838,28.358888638692875,0.027686131698188114,-84.24783075914178,26.265450173849583,-31.831298828125,5356.25390625,True
1599562444.326766,0.0,10,0.5,0.5,-8.873449206542968,-0.15025,-0.0155,-0.37525,0.0077660740159131245,10,1,100,0.1779435258371898,-10,-1,-100,14997.09061833215,-0.016935176774079304,3.833454294327209e-05,0.9998565888756716,28.225301724960058,0.028011532035945065,-82.66681807296601,25.893550119146308,-32.092010498046875,5356.25390625,True
1599562444.356648,0.0,10,0.5,0.5,-8.94037635192871,-0.15025,-0.0155,-0.37525,0.0056317766475725,10,1,100,0.1773269384446991,-10,-1,-100,14997.635540656862,-0.016946355433797276,8.618221126571451e-05,0.9998563964940854,28.165802097064105,0.028176446093658585,-81.90171629454231,25.707605460085325,-32.321624755859375,5356.25390625,True
1599562444.393584,0.0,10,0.5,0.5,-8.959547883605957,-0.15025,-0.0155,-0.37525,0.007454795419700656,10,1,100,0.17835263578782296,-10,-1,-100,14998.116009809775,-0.016950436595356742,0.00014617464202249477,0.9998563203441786,28.111477624187565,0.028342157835960342,-81.15404287662008,25.521664370770104,-32.619232177734375,5356.25390625,True
1599562444.430995,0.0,10,0.5,0.5,-8.96781763305664,-0.15025,-0.0155,-0.37525,0.009459323639351293,10,1,100,0.1791966021721515,-10,-1,-100,14998.658978239051,-0.016946409676090738,0.00021880331321455306,0.9998563753480797,28.06209238607436,0.028507618348668495,-80.4227936577706,25.335726529942434,-32.985260009765625,5356.25390625,True
1599562444.4668658,0.0,10,0.5,0.5,-8.063415928649903,-0.15025,-0.0155,-0.37525,0.04831434849727572,10,1,100,0.17073147468891015,-10,-1,-100,15000.647255918593,-0.016850387309023003,0.0006378579645400877,0.9998578186846132,27.90634287834575,0.029141120543755283,-77.63464453114459,24.592006501887234,-35.135833740234375,5356.25390625,True
1599562444.4997778,0.0,10,0.5,0.5,-8.582678408813475,-0.15025,-0.0155,-0.37525,0.021447920950419887,10,1,100,0.176948762469,-10,-1,-100,15001.129676213139,-0.016804296512135858,0.0007739966171695751,0.9998584982626136,27.875131958138045,0.0292843925655938,-76.96298408781894,24.406083817297965,-35.84521484375,5356.25390625,True
1599562444.5377042,0.0,10,0.5,0.5,-8.078908158874512,-0.15025,-0.0155,-0.37525,0.04120422918609978,10,1,100,0.16939268275405284,-10,-1,-100,15002.093538805959,-0.0166784275207279,0.0010766581975051358,0.9998603256768226,27.816997162130033,0.029539212092921506,-75.63519587206981,24.034246905997914,-37.47015380859375,5356.25390625,True
1599562444.575606,0.0,10,0.5,0.5,-7.771785307312012,-0.15025,-0.0155,-0.37525,0.04981329209489029,10,1,100,0.1657812367311671,-10,-1,-100,15003.054470371688,-0.01651600763058468,0.0014290905168014637,0.9998625801540136,27.758809351635158,0.02973636603157036,-74.3120744223622,23.662421020545406,-39.369873046875,5356.25390625,True
1599562444.612514,0.0,10,0.5,0.5,-7.330098619079591,-0.15025,-0.0155,-0.37525,0.05712398320292797,10,1,100,0.15871635376832305,-10,-1,-100,15003.95582994842,-0.016304362367768433,0.0018145745953823177,0.9998654284886634,27.692322189376046,0.02985528123290075,-72.97190321900071,23.29060673769737,-41.544586181640625,5356.25390625,True
1599562444.6504056,0.0,10,0.5,0.5,-8.131042539978028,-0.15025,-0.0155,-0.37525,0.018764345293863862,10,1,100,0.17982678757940979,-10,-1,-100,15003.95582994842,-0.016304362367768433,0.0018145745953823177,0.9998654284886634,27.692322189376046,0.02985528123290075,-72.97190321900071,23.29060673769737,-41.544586181640625,5356.25390625,True
1599562444.6833298,0.0,10,0.5,0.5,-6.828681936645507,-0.15025,-0.0155,-0.37525,0.06518664823830397,10,1,100,0.1511810356726214,-10,-1,-100,15004.916759177344,-0.016044487729370286,0.0022349134823355732,0.9998687811784247,27.608065206518884,0.029873869901082102,-71.59118171345555,22.918804520650006,-43.9942626953125,5356.25390625,True
1599562444.719225,0.0,10,0.5,0.5,-7.031609017944336,-0.15025,-0.0155,-0.37525,0.047516347215923155,10,1,100,0.16068547062558186,-10,-1,-100,15005.334722741856,-0.015895451729530437,0.002454403753053805,0.9998706468921523,27.55597002214309,0.029838530272329186,-70.87782397033001,22.732908286571842,-45.322265625,5356.25390625,True
1599562444.756131,0.0,10,0.5,0.5,-6.00574623260498,-0.15025,-0.0155,-0.37525,0.07751787842399452,10,1,100,0.13865349361269863,-10,-1,-100,15006.236079567927,-0.015560629123835516,0.002924528626923948,0.9998746491203689,27.4245438629801,0.029664934165323897,-69.38874561556008,22.36112697584162,-48.18438720703125,5356.25390625,True
1599562444.7920308,0.0,10,0.5,0.5,-3.6137250396728517,-0.15025,-0.0155,-0.37525,0.13917704761710958,10,1,100,0.08007148030883822,-10,-1,-100,15008.034883495071,-0.014724944640870057,0.0039099270013024864,0.9998839375028322,27.00724918510371,0.02884177641324028,-66.0659466545269,21.61761654312426,-54.734161376953125,5356.25390625,True
1599562444.8309238,0.0,10,0.5,0.5,-6.0378169998168945,-0.15025,-0.0155,-0.37525,0.041006322548064536,10,1,100,0.16341778210186203,-10,-1,-100,15008.034883495071,-0.014724944640870057,0.0039099270013024864,0.9998839375028322,27.00724918510371,0.02884177641324028,-66.0659466545269,21.61761654312426,-54.734161376953125,5356.25390625,True
1599562444.8668277,0.0,10,0.5,0.5,-3.04612970123291,-0.15025,-0.0155,-0.37525,0.12284695785782679,10,1,100,0.0787818882010326,-10,-1,-100,15009.290722069098,-0.013957459644197201,0.004650958168630541,0.999891773097666,26.503014080219348,0.02776524164704791,-63.164174660436814,21.06004098075141,-60.369384765625,5356.25390625,True
1599562444.898742,0.0,10,0.5,0.5,-2.9677004974365238,-0.15025,-0.0155,-0.37525,0.10422220680023575,10,1,100,0.09146677305970134,-10,-1,-100,15010.125668766908,-0.013377651179453356,0.005151782436994799,0.9998972435138735,26.04703384866653,0.026829903847968125,-60.98454127557504,20.688358604730624,-64.47030639648438,5356.25390625,True
1599562444.936638,0.0,10,0.5,0.5,-2.1648086425781248,-0.15025,-0.0155,-0.37525,0.10715299904860096,10,1,100,0.07973522275034711,-10,-1,-100,15010.898114722571,-0.012746902823547799,0.005630016133911544,0.999902904979648,25.476089291361045,0.025737566773391073,-58.5789934181909,20.31670875173283,-68.846923828125,5356.25390625,True
1599562444.9785323,0.0,10,0.5,0.5,-1.316638264465332,-0.15025,-0.0155,-0.37525,0.10949033232386096,10,1,100,0.0682046254559136,-10,-1,-100,15011.73501424503,-0.01207209807441793,0.006082203501231758,0.9999086314502197,24.7735851534828,0.024517266752132148,-55.924547210885656,19.945095507127142,-73.499267578125,5356.25390625,True
1599562445.0204196,0.0,10,0.5,0.5,-3.012900500488281,-0.15025,-0.0155,-0.37525,0.0646983584824245,10,1,100,0.1352618739395654,-10,-1,-100,15011.73501424503,-0.01207209807441793,0.006082203501231758,0.9999086314502197,24.7735851534828,0.024517266752132148,-55.924547210885656,19.945095507127142,-73.499267578125,5356.25390625,True
1599562445.0603118,0.0,10,0.5,0.5,0.975585966491699,-0.15025,-0.0155,-0.37525,0.13347310820470762,10,1,100,0.015290025301206267,-10,-1,-100,15012.926397708827,-0.010985292417972256,0.006703548836065378,0.9999171894629545,23.436570340260666,0.022536001634696268,-51.43207913626504,19.387750800036986,-80.99490356445312,5356.25390625,True
1599562445.0982096,0.0,10,0.5,0.5,2.4852363296508786,-0.15025,-0.0155,-0.37525,0.13263462126233871,10,1,100,-0.007381712511202301,-10,-1,-100,15014.055281810928,-0.009795779836828292,0.00725672322702556,0.9999256885716031,21.75976499644356,0.020554977158069702,-46.38375073704908,18.83049739193018,-89.11105346679688,5356.25390625,True
1599562445.1381028,0.0,10,0.5,0.5,-0.49247630004882814,-0.15025,-0.0155,-0.37525,0.07779741411371763,10,1,100,0.11095957841392395,-10,-1,-100,15014.055281810928,-0.009795779836828292,0.00725672322702556,0.9999256885716031,21.75976499644356,0.020554977158069702,-46.38375073704908,18.83049739193018,-89.11105346679688,5356.25390625,True
1599562445.1789963,0.0,10,0.5,0.5,2.449747595977783,-0.15025,-0.0155,-0.37525,0.11051936187091754,10,1,100,0.023553053794703516,-10,-1,-100,15014.76718182175,-0.009006415839641749,0.007550257120636376,0.9999309366606954,21.659799533725014,0.020447404691553046,-45.26248538536855,18.45903017790359,-94.58924102783203,5356.25390625,True
1599562445.2158966,0.0,10,0.5,0.5,5.941898009490966,-0.15025,-0.0155,-0.37525,0.13398384106409283,10,1,100,-0.08197191773776638,-10,-1,-100,15016.253484003013,-0.007334692945359918,0.008027110171021135,0.9999408821433893,23.320638053741487,0.02248554776869257,-46.77700756483863,17.716070439997097,-105.02894592285156,5356.25390625,True
1599562445.2537928,0.0,10,0.5,0.5,2.1023556636810303,-0.15025,-0.0155,-0.37525,0.08671025434258879,10,1,100,0.08446134652086565,-10,-1,-100,15016.253484003013,-0.007334692945359918,0.008027110171021135,0.9999408821433893,23.320638053741487,0.02248554776869257,-46.77700756483863,17.716070439997097,-105.02894592285156,5356.25390625,True
1599562445.2867053,0.0,10,0.5,0.5,4.844334361648559,-0.15025,-0.0155,-0.37525,0.10490219408061899,10,1,100,-0.0066342214519015535,-10,-1,-100,15016.900932783028,-0.006512572115333705,0.008189422212273782,0.9999452583858137,23.954053481505422,0.023466897414533262,-47.042514964207875,17.34457268495455,-110.11506652832031,5356.25390625,True
1599562445.3241696,0.0,10,0.5,0.5,4.295229236221314,-0.15025,-0.0155,-0.37525,0.09649547071229629,10,1,100,0.031617385400748654,-10,-1,-100,15017.255419555702,-0.006119172404028621,0.00825779236481391,0.9999471809022461,24.206860172891894,0.023908093176948527,-47.03108216225596,17.158819678518118,-112.56742095947266,5356.25390625,True
1599562445.3610702,0.0,10,0.5,0.5,5.914538878250121,-0.15025,-0.0155,-0.37525,0.10094599514586633,10,1,100,-0.020057739092612735,-10,-1,-100,15017.965371027123,-0.005297787653283914,0.008358017474491115,0.9999510372962653,24.65437840892623,0.024725316865834797,-46.86576136311919,16.787306917646298,-117.27111053466797,5356.25390625,True
1599562445.3989701,0.0,10,0.5,0.5,8.72890311050415,-0.15025,-0.0155,-0.37525,0.09980365163618704,10,1,100,-0.11107292238085872,-10,-1,-100,15019.260275718989,-0.0037298219503693383,0.008436677347770346,0.9999574545467164,25.232222001930886,0.025864708510312404,-45.84543741550583,16.04426670274552,-125.85641479492188,5356.25390625,True
1599562445.7092078,0.0,10,0.5,0.5,5.588421265029908,-0.15025,-0.0155,-0.37525,0.09217311169291788,10,1,100,0.04488942029819398,-10,-1,-100,15019.260275718989,-0.0037298219503693383,0.008436677347770346,0.9999574545467164,25.232222001930886,0.025864708510312404,-45.84543741550583,16.04426670274552,-125.85641479492188,5356.25390625,True
1599562445.7420895,0.0,10,0.5,0.5,7.69675484046936,-0.15025,-0.0155,-0.37525,0.09148320866193368,10,1,100,-0.03745989675464866,-10,-1,-100,15019.908706149436,-0.0029877876775867714,0.008428829930659848,0.9999600131759239,25.343413830212402,0.026115275371335487,-44.983183086037876,15.67274878647915,-129.73614501953125,5356.25390625,True
1599562445.7763548,0.0,10,0.5,0.5,8.197726944351196,-0.15025,-0.0155,-0.37525,0.09072669250671449,10,1,100,-0.04004264114395268,-10,-1,-100,15020.494638056261,-0.0022959206552991664,0.00841375294396319,0.999961968031656,25.35900259853143,0.026165045707409407,-43.94580840743049,15.301237880319196,-133.340087890625,5356.25390625,True
1599562445.8102276,0.0,10,0.5,0.5,9.483629138565062,-0.15025,-0.0155,-0.37525,0.08019165288463762,10,1,100,-0.08474846556686216,-10,-1,-100,15021.37060826132,-0.001267352103176284,0.008303221659750133,0.9999647245421789,25.23927921226852,0.025906712244109686,-42.14818530401368,14.743993284676296,-138.2301483154297,5356.25390625,True
1599562445.9029787,0.0,10,0.5,0.5,7.716277370452881,-0.15025,-0.0155,-0.37525,0.09132007775985482,10,1,100,0.017334483271779538,-10,-1,-100,15021.37060826132,-0.001267352103176284,0.008303221659750133,0.9999647245421789,25.23927921226852,0.025906712244109686,-42.14818530401368,14.743993284676296,-138.2301483154297,5356.25390625,True
1599562445.941247,0.0,10,0.5,0.5,10.68679968185425,-0.15025,-0.0155,-0.37525,0.07342601831418157,10,1,100,-0.11700317914936408,-10,-1,-100,15022.540523883887,-5.1616391022417965e-05,0.008140297381617895,0.999966865898209,24.89227990888063,0.025085350434389676,-39.477541333606496,14.001055038729195,-143.78497314453125,5356.25390625,True
1599562445.9771504,0.0,10,0.5,0.5,9.90491315383911,-0.15025,-0.0155,-0.37525,0.07566304451818975,10,1,100,-0.05908053445018818,-10,-1,-100,15023.060053588706,0.0005204074168028269,0.00801241810588812,0.9999677646465495,24.684806723455825,0.024553169454629754,-38.1115932601749,13.629612416545854,-146.1493682861328,5356.25390625,True
1599562446.0080683,0.0,10,0.5,0.5,9.64020200958252,-0.15025,-0.0155,-0.37525,0.0843124765760982,10,1,100,-0.03092198488307825,-10,-1,-100,15023.353997882921,0.0007780486282773807,0.007974956332211479,0.9999678968406092,24.589278619952587,0.024279963175235557,-37.447647083459245,13.443897842903546,-147.22772216796875,5356.25390625,True
1599562446.0454822,0.0,10,0.5,0.5,10.314092800521852,-0.15025,-0.0155,-0.37525,0.07734668998832953,10,1,100,-0.060904009247261526,-10,-1,-100,15023.875481603434,0.0012785615683538175,0.007877831965373547,0.9999681520147735,24.38747599640199,0.02370000626001577,-36.11585553176535,13.07248170086045,-149.1779022216797,5356.25390625,True
1599562446.080391,0.0,10,0.5,0.5,10.089911971282959,-0.15025,-0.0155,-0.37525,0.08044807541576074,10,1,100,-0.03790893095917374,-10,-1,-100,15024.10595032922,0.0015185486665119277,0.007818168031687635,0.9999682846263555,24.283763997692784,0.023398758919250792,-35.4522011099556,12.88678013499955,-150.04977416992188,5356.25390625,True
1599562446.1172934,0.0,10,0.5,0.5,10.957109901428222,-0.15025,-0.0155,-0.37525,0.0694892862474777,10,1,100,-0.08667041717051852,-10,-1,-100,15024.854973780806,0.0021752337480161793,0.007664865017094309,0.9999682585974473,23.974644847789126,0.022477751946927114,-33.49013018980923,12.329700117650367,-152.25123596191406,5356.25390625,True
1599562446.1482108,0.0,10,0.5,0.5,10.485117680358885,-0.15025,-0.0155,-0.37525,0.07881214174121673,10,1,100,-0.04390627529560326,-10,-1,-100,15025.145989741315,0.002378087027158646,0.007610953519525891,0.9999682085389588,23.875463713842887,0.022171415738430157,-32.85004685450232,12.144014468113667,-152.84722900390625,5356.25390625,True
1599562446.1861105,0.0,10,0.5,0.5,10.814887236785887,-0.15025,-0.0155,-0.37525,0.073634268502555,10,1,100,-0.06547507584447958,-10,-1,-100,15025.605951203383,0.002753701036182723,0.007515615016304163,0.9999679658176704,23.687848463026697,0.021569062481937292,-31.596669202444616,11.772653574545723,-153.83218383789062,5356.25390625,True
1599562446.2230108,0.0,10,0.5,0.5,10.84977734298706,-0.15025,-0.0155,-0.37525,0.07193222018628943,10,1,100,-0.06616125839401099,-10,-1,-100,15026.06493657839,0.003096815775117186,0.007414286972252594,0.9999677185193271,23.51873145229099,0.020987921195310264,-30.38288407327138,11.401305372727288,-154.54147338867188,5356.25390625,True
1599562446.258913,0.0,10,0.5,0.5,10.836592138671875,-0.15025,-0.0155,-0.37525,0.07263310106062933,10,1,100,-0.06593829859491743,-10,-1,-100,15026.5219687887,0.0034027439324492165,0.007329350335324711,0.9999673504456994,23.372023870487915,0.020434604927357446,-29.211240473245542,11.029968110873043,-154.97476196289062,5356.25390625,True
1599562446.294817,0.0,10,0.5,0.5,10.78270560684204,-0.15025,-0.0155,-0.37525,0.07227647135554204,10,1,100,-0.0657432471644139,-10,-1,-100,15026.917477226933,0.003674841702441371,0.00724977846018441,0.9999669675797997,23.250399301525903,0.019913449435666974,-28.08213685857604,10.658640244568009,-155.13223266601562,5356.25390625,True
1599562446.3277302,0.0,10,0.5,0.5,10.72822103652954,-0.15025,-0.0155,-0.37525,0.07612874115926635,10,1,100,-0.052426325530627774,-10,-1,-100,15027.146969920723,0.0037977526984057613,0.007213270589110206,0.9999667723488865,23.199454414920265,0.019665779693924648,-27.533095045153544,10.472979254797165,-155.10752868652344,5356.25390625,True
1599562446.364632,0.0,10,0.5,0.5,10.616673678588866,-0.15025,-0.0155,-0.37525,0.07245452523787344,10,1,100,-0.06461367894004719,-10,-1,-100,15027.542478688061,0.0040173046845666536,0.007147406150227156,0.9999663873592929,23.117434188230046,0.019197088398756584,-26.464109356928862,10.10166187817632,-154.8511962890625,5356.25390625,True
1599562446.400536,0.0,10,0.5,0.5,10.445065903472901,-0.15025,-0.0155,-0.37525,0.07225098632526766,10,1,100,-0.06347465556650797,-10,-1,-100,15027.93701094063,0.004203597863084118,0.007086431352202498,0.9999660555517352,23.06132584555941,0.01876431220720062,-25.430495724892754,9.73034988224696,-154.31910705566406,5356.25390625,True
1599562446.4374347,0.0,10,0.5,0.5,10.458509376525878,-0.15025,-0.0155,-0.37525,0.07557131342734322,10,1,100,-0.05388994311805004,-10,-1,-100,15028.166503624525,0.004283162424664259,0.00706190396457456,0.9999658914343224,23.04243173051558,0.018561335037139578,-24.92532925823986,9.544695404526971,-153.94956970214844,5356.25390625,True
1599562446.4703486,0.0,10,0.5,0.5,10.372795499420164,-0.15025,-0.0155,-0.37525,0.07541429675649057,10,1,100,-0.05401210881793575,-10,-1,-100,15028.33349628048,0.004354091156319573,0.00703886642796606,0.9999657475381903,23.0291312515565,0.01836716343793018,-24.426865195605167,9.359041697882295,-153.51107788085938,5356.25390625,True
1599562446.5062535,0.0,10,0.5,0.5,9.63064462814331,-0.15025,-0.0155,-0.37525,0.07086616304301065,10,1,100,-0.06499241203342433,-10,-1,-100,15028.894043743727,0.004516411980321297,0.006977145632371358,0.9999654601343233,23.01806502230161,0.017836590236397592,-22.963445573349336,8.802084134477198,-151.78196716308594,5356.25390625,True
1599562446.5431554,0.0,10,0.5,0.5,10.27784226913452,-0.15025,-0.0155,-0.37525,0.07697486181376535,10,1,100,-0.048974162128568186,-10,-1,-100,15028.894043743727,0.004516411980321297,0.006977145632371358,0.9999654601343233,23.01806502230161,0.017836590236397592,-22.963445573349336,8.802084134477198,-151.78196716308594,5356.25390625,True
1599562446.5820518,0.0,10,0.5,0.5,8.555884281921387,-0.15025,-0.0155,-0.37525,0.070354724686267,10,1,100,-0.059783799706629656,-10,-1,-100,15029.559083048021,0.004613078948354457,0.0069174520851976755,0.9999654335822141,23.045402586497676,0.017249236142415508,-21.052501625086048,8.059478049400363,-148.51121520996094,5356.25390625,True
1599562446.6199498,0.0,10,0.5,0.5,9.773887052154542,-0.15025,-0.0155,-0.37525,0.07627439591492975,10,1,100,-0.05026872922063737,-10,-1,-100,15029.559083048021,0.004613078948354457,0.0069174520851976755,0.9999654335822141,23.045402586497676,0.017249236142415508,-21.052501625086048,8.059478049400363,-148.51121520996094,5356.25390625,True
1599562446.6578486,0.0,10,0.5,0.5,7.4655597930908195,-0.15025,-0.0155,-0.37525,0.07081778822013132,10,1,100,-0.04619429441771582,-10,-1,-100,15030.160644212738,0.004574938327404347,0.006868221013654169,0.99996594815994,23.0660735625553,0.01679843664831808,-19.131066498883758,7.316874242515233,-144.1376495361328,5356.25390625,True
1599562446.689763,0.0,10,0.5,0.5,8.424588715362548,-0.15025,-0.0155,-0.37525,0.0742800529088856,10,1,100,-0.0467288353608361,-10,-1,-100,15030.266112442128,0.004544306229091738,0.006855287498009229,0.9999661765850962,23.06100635748258,0.01670590743324321,-18.64183820184262,7.131223543865522,-142.87197875976562,5356.25390625,True
1599562446.7276614,0.0,10,0.5,0.5,8.880566571807861,-0.15025,-0.0155,-0.37525,0.07553760616426947,10,1,100,-0.0498667005451656,-10,-1,-100,15030.266112442128,0.004544306229091738,0.006855287498009229,0.9999661765850962,23.06100635748258,0.01670590743324321,-18.64183820184262,7.131223543865522,-142.87197875976562,5356.25390625,True
1599562446.7675543,0.0,10,0.5,0.5,7.423144246673584,-0.15025,-0.0155,-0.37525,0.07266786389352159,10,1,100,-0.0406574257469966,-10,-1,-100,15030.533688973752,0.004460106456795179,0.006829464494322628,0.9999667323791901,23.027998317188725,0.016541562041537422,-17.646434621083024,6.759922727822028,-140.1339111328125,5356.25390625,True
1599562446.8044567,0.0,10,0.5,0.5,6.844940518188476,-0.15025,-0.0155,-0.37525,0.07193000486257453,10,1,100,-0.036201045990271435,-10,-1,-100,15030.802241672412,0.00434281547637925,0.006799514833287909,0.9999674527462231,22.953106103531354,0.016398636360357165,-16.62339892480968,6.388622339143956,-137.12025451660156,5356.25390625,True
1599562446.8413577,0.0,10,0.5,0.5,6.221255214691161,-0.15025,-0.0155,-0.37525,0.07109292749699796,10,1,100,-0.03148915398161184,-10,-1,-100,15031.070794416708,0.00419329770042085,0.006764916610052274,0.999968325577193,22.82094129064763,0.016265510571958644,-15.56752294475471,6.017322065065659,-133.8310546875,5356.25390625,True
1599562446.8792572,0.0,10,0.5,0.5,5.551791038513183,-0.15025,-0.0155,-0.37525,0.06952296350210121,10,1,100,-0.026972782204094468,-10,-1,-100,15031.276846131193,0.004016460700168418,0.0067194403251734655,0.9999693581131176,22.614771977886136,0.01612615603041123,-14.475326549695172,5.646020731379983,-130.26638793945312,5356.25390625,True
1599562446.9181495,0.0,10,0.5,0.5,2.675428932189942,-0.15025,-0.0155,-0.37525,0.059900453661903164,10,1,100,0.003208671520003807,-10,-1,-100,15031.690902218921,0.003581777439974544,0.006590855163379292,0.9999718653535139,21.910591870944106,0.015753133341906443,-12.180519161201241,4.903407367911694,-122.3108139038086,5356.25390625,True
1599562446.951574,0.0,10,0.5,0.5,4.479478684234619,-0.15025,-0.0155,-0.37525,0.0681055498338845,10,1,100,-0.0266203004530313,-10,-1,-100,15031.790509569691,0.003458632980044384,0.0065489025182835035,0.9999725744907783,21.659186305635227,0.015622241701613613,-11.58498052401857,4.717749837655683,-120.14982604980469,5356.25390625,True
1599562446.9895115,0.0,10,0.5,0.5,5.246429223251342,-0.15025,-0.0155,-0.37525,0.07226395938677196,10,1,100,-0.03881930184921632,-10,-1,-100,15031.790509569691,0.003458632980044384,0.0065489025182835035,0.9999725744907783,21.659186305635227,0.015622241701613613,-11.58498052401857,4.717749837655683,-120.14982604980469,5356.25390625,True
1599562447.0284057,0.0,10,0.5,0.5,2.822764579391479,-0.15025,-0.0155,-0.37525,0.06139201912990201,10,1,100,-0.010567044758355536,-10,-1,-100,15031.997537066578,0.003202843775553204,0.006450401742827335,0.9999740667182851,21.052778901823896,0.015294102409073734,-10.374533033526003,4.346426858174725,-115.62136840820312,5356.25390625,True
1599562447.0673022,0.0,10,0.5,0.5,1.9534939205169681,-0.15025,-0.0155,-0.37525,0.058289191132225276,10,1,100,-0.005110750383188804,-10,-1,-100,15032.14108745323,0.0029219528176522985,0.006333027891770872,0.9999756771789271,20.337896460183295,0.014883644952533335,-9.166158317003365,3.9750897862403027,-110.81761169433594,5356.25390625,True
1599562447.1061995,0.0,10,0.5,0.5,-0.3513393543243408,-0.15025,-0.0155,-0.37525,0.04591694991545421,10,1,100,0.01624356911437533,-10,-1,-100,15032.325651411782,0.0024739420908658372,0.006114324252118204,0.9999782470881411,19.177426688917404,0.014166587284312396,-7.4321170316135,3.4180469604973704,-103.09590148925781,5356.25390625,True
1599562447.147089,0.0,10,0.5,0.5,-0.401392653274536,-0.15025,-0.0155,-0.37525,0.0485986350268207,10,1,100,0.005548436063953596,-10,-1,-100,15032.469201120548,0.0021657702434621845,0.005940555320033556,0.9999800094210595,18.167726178019407,0.013477624354592597,-6.275858212925728,3.0466527655469497,-97.60404205322266,5356.25390625,True
1599562447.1839902,0.0,10,0.5,0.5,0.09628514976501479,-0.15025,-0.0155,-0.37525,0.05538626524891961,10,1,100,-0.007774380940185531,-10,-1,-100,15032.506307964097,0.0020088162969631586,0.0058450973921341295,0.9999808995643673,17.584074635341786,0.0130608408603141,-5.704017020116004,2.8609439699844956,-94.7549057006836,5356.25390625,True
1599562447.221889,0.0,10,0.5,0.5,-3.391669638824463,-0.15025,-0.0155,-0.37525,0.030215115055839202,10,1,100,0.027671902689715533,-10,-1,-100,15032.690871215425,0.0015460137664007763,0.005530356471780423,0.9999835123634434,16.158796760121866,0.012002931774617842,-4.220933320741747,2.3037820936924245,-86.20794677734375,5356.25390625,True
1599562447.2597885,0.0,10,0.5,0.5,-1.7335457302093502,-0.15025,-0.0155,-0.37525,0.04880901264554739,10,1,100,-0.001370596968081273,-10,-1,-100,15032.731884772424,0.0013917135390822363,0.005414386122400102,0.99998437365608,16.73032671202724,0.01241555406907114,-4.017923101229113,2.118054013277743,-83.4005126953125,5356.25390625,True
1599562447.2966883,0.0,10,0.5,0.5,-6.570532304000854,-0.15025,-0.0155,-0.37525,0.004498344234867953,10,1,100,0.0491025164245647,-10,-1,-100,15032.890079533914,0.0007949802535514057,0.004907320686687065,0.9999876430286898,18.626849588338267,0.013801130636933022,-2.9044042638634164,1.3751419508249434,-72.3294677734375,5356.25390625,True
1599562447.3296013,0.0,10,0.5,0.5,-3.880873370361328,-0.15025,-0.0155,-0.37525,0.03950029199002554,10,1,100,0.005928559484014356,-10,-1,-100,15032.868593188701,0.0006475194181524021,0.00476608211970091,0.9999884325230124,18.998023277485302,0.014078839530603288,-2.56221560188994,1.1894172882847003,-69.68954467773438,5356.25390625,True
1599562447.3684974,0.0,10,0.5,0.5,-2.968455664825439,-0.15025,-0.0155,-0.37525,0.05344586664878271,10,1,100,-0.00853641269969681,-10,-1,-100,15032.868593188701,0.0006475194181524021,0.00476608211970091,0.9999884325230124,18.998023277485302,0.014078839530603288,-2.56221560188994,1.1894172882847003,-69.68954467773438,5356.25390625,True
1599562447.4063962,0.0,10,0.5,0.5,-5.71488701171875,-0.15025,-0.0155,-0.37525,0.022615480024222114,10,1,100,0.022255225430071756,-10,-1,-100,15032.949643642758,0.0003701509929380442,0.0044874266234763436,0.9999898629438907,19.592578513643755,0.014521242205959498,-1.8172221044776344,0.817969763030705,-64.612060546875,5356.25390625,True
1599562447.4443023,0.0,10,0.5,0.5,-8.7914853515625,-0.15025,-0.0155,-0.37525,-0.017762937657687022,10,1,100,0.05312343283328047,-10,-1,-100,15032.919363228022,-0.00016004701293816472,0.0038688114435451552,0.9999925033133839,20.21150216759352,0.014984384817456203,-0.17201329315628874,0.07505344126318203,-55.28216552734375,5356.25390625,True
1599562447.4812033,0.0,10,0.5,0.5,-6.51173240737915,-0.15025,-0.0155,-0.37525,0.02693521779875643,10,1,100,0.013946234266619818,-10,-1,-100,15032.960377299343,-0.00028308703146453926,0.003715021071801039,0.9999930592159971,20.26713169758189,0.015029766316628739,0.2543750071302344,-0.11068420733240236,-53.121917724609375,5356.25390625,True
1599562447.5200996,0.0,10,0.5,0.5,-6.877509686279296,-0.15025,-0.0155,-0.37525,0.024711132218881174,10,1,100,0.015238426826642736,-10,-1,-100,15032.936938618775,-0.0004041824087411514,0.0035571738678350827,0.9999935915547932,20.330900502203715,0.015082034026337707,0.6833956699103184,-0.2964253300105002,-51.030670166015625,5356.25390625,True
1599562447.5565116,0.0,10,0.5,0.5,-9.244540438461303,-0.15025,-0.0155,-0.37525,-0.011066585428433709,10,1,100,0.041623026406180104,-10,-1,-100,15032.93009869149,-0.0007517927909409536,0.0030905911414833495,0.9999949415142038,20.447816451853022,0.01518888434137204,1.9794657344713613,-0.8536670442529504,-45.170379638671875,5356.25390625,True
1599562447.8637087,0.0,10,0.5,0.5,-8.076346771240233,-0.15025,-0.0155,-0.37525,0.017570299678462468,10,1,100,0.019140957415215983,-10,-1,-100,15032.906660284614,-0.0008609101393066417,0.00292926444236324,0.9999953391109174,20.442333928553108,0.015193196775004301,2.4095641281518607,-1.039420089351242,-43.35491943359375,5356.25390625,True
1599562447.8966196,0.0,10,0.5,0.5,-10.10643368988037,-0.15025,-0.0155,-0.37525,-0.017790379236789597,10,1,100,0.04292292210672949,-10,-1,-100,15032.776775018778,-0.0011741192951022015,0.0024635077185057733,0.9999962762798678,20.331874999154557,0.015142002071644577,3.6815451973702276,-1.5966942347340674,-38.32177734375,5356.25390625,True
1599562447.9337723,0.0,10,0.5,0.5,-9.869732106018066,-0.15025,-0.0155,-0.37525,-0.00610512978700822,10,1,100,0.0332887154065272,-10,-1,-100,15032.728922267444,-0.0013689386187016128,0.0021490046721823566,0.99999675388772,20.2148648454863,0.01508278913454711,4.512173542862351,-1.9682208081604782,-35.31109619140625,5356.25390625,True
1599562447.970674,0.0,10,0.5,0.5,-9.53417186126709,-0.15025,-0.0155,-0.37525,0.008968226003825755,10,1,100,0.02471746723066823,-10,-1,-100,15032.706460647285,-0.001466159457763948,0.0020026308790909273,0.9999969199182597,20.145513959470605,0.01504803979643559,4.921163695515109,-2.1539864985874555,-33.908966064453125,5356.25390625,True
1599562448.0574417,0.0,10,0.5,0.5,-9.764090292358397,-0.15025,-0.0155,-0.37525,0.007311731355437057,10,1,100,0.025696102825730573,-10,-1,-100,15032.621499517816,-0.0015615171997067135,0.0018570169806048306,0.9999970565716525,20.069829003473536,0.01501104174826581,5.325566002619907,-2.339753440782478,-32.57574462890625,5356.25390625,True
1599562448.0933466,0.0,10,0.5,0.5,-11.761561437988279,-0.15025,-0.0155,-0.37525,-0.04199784937440752,10,1,100,0.05571092861083814,-10,-1,-100,15032.40177229885,-0.001919059893503061,0.0012790163981998793,0.9999973406595531,19.735582831789994,0.014871515958106213,6.900420214369494,-3.082830973000113,-27.932098388671875,5356.25390625,True
1599562448.1302469,0.0,10,0.5,0.5,-10.075887127685546,-0.15025,-0.0155,-0.37525,0.015481367843559957,10,1,100,0.020185580319847508,-10,-1,-100,15032.40177229885,-0.001919059893503061,0.0012790163981998793,0.9999973406595531,19.735582831789994,0.014871515958106213,6.900420214369494,-3.082830973000113,-27.932098388671875,5356.25390625,True
1599562448.160167,0.0,10,0.5,0.5,-11.12118480682373,-0.15025,-0.0155,-0.37525,-0.01503098603234477,10,1,100,0.03906948338380216,-10,-1,-100,15032.294350348879,-0.002089132636920317,0.0010039857220965139,0.9999973137651396,19.569811892346134,0.014824670466077088,7.6673460744481075,-3.4543750921515093,-26.02362060546875,5356.25390625,True
1599562448.1940763,0.0,10,0.5,0.5,-10.894254344177247,-0.15025,-0.0155,-0.37525,-0.0014529601186822633,10,1,100,0.03207905067194155,-10,-1,-100,15032.209389587515,-0.0021785529739141297,0.0008798590115355722,0.9999972398737207,19.49170629431422,0.014810434385676446,8.047569127697766,-3.640148571785403,-25.172576904296875,5356.25390625,True
1599562448.2299807,0.0,10,0.5,0.5,-11.40071243286133,-0.15025,-0.0155,-0.37525,-0.01738304574742794,10,1,100,0.0416864413228934,-10,-1,-100,15032.035562000587,-0.0023455710402215464,0.0006246315097245732,0.999997054061647,19.374074647274544,0.014822118753138866,8.81575110605151,-4.0116987488449265,-23.6773681640625,5356.25390625,True
1599562448.2618961,0.0,10,0.5,0.5,-11.513947903442382,-0.15025,-0.0155,-0.37525,-0.01815594708703227,10,1,100,0.04362745021710176,-10,-1,-100,15031.865640967735,-0.002513602292039928,0.00038782191374704266,0.9999967656936101,19.30714531558824,0.014886528181390643,9.59930705100085,-4.383253385608719,-22.45758056640625,5356.25390625,True
1599562448.2977989,0.0,10,0.5,0.5,-11.584797869873046,-0.15025,-0.0155,-0.37525,-0.01984717536796919,10,1,100,0.04492649597934277,-10,-1,-100,15031.693766940385,-0.002676665035029072,0.00015947606260314852,0.9999964050093759,19.269554292635046,0.014986828561040154,10.393133028336571,-4.754812562207826,-21.51336669921875,5356.25390625,True
1599562448.3327057,0.0,10,0.5,0.5,-11.607969192504884,-0.15025,-0.0155,-0.37525,-0.020177728670875795,10,1,100,0.04710014988406023,-10,-1,-100,15031.45841636206,-0.0028432984316621554,-4.9021530594176516e-05,0.9999959566172845,19.26664802609264,0.01512662739688597,11.204056430318046,-5.126376519582119,-20.8446044921875,5356.25390625,True
1599562448.3686104,0.0,10,0.5,0.5,-11.500871304321288,-0.15025,-0.0155,-0.37525,-0.01047424697938389,10,1,100,0.039653500333523065,-10,-1,-100,15031.371502952767,-0.0029257461964937474,-0.00014835312157565782,0.9999957089910662,19.27933772795548,0.015212194798964494,11.617987822401787,-5.312160308112438,-20.613525390625,5356.25390625,True
1599562448.4025197,0.0,10,0.5,0.5,-11.569076573181153,-0.15025,-0.0155,-0.37525,-0.02123881002636032,10,1,100,0.0498200719470248,-10,-1,-100,15031.136152857915,-0.003091795191246365,-0.00033455879198527515,0.9999951644247637,19.334898039183166,0.015416349131917678,12.466998237651525,-5.683730990296073,-20.357940673828125,5356.25390625,True
1599562448.4384234,0.0,10,0.5,0.5,-11.50498370513916,-0.15025,-0.0155,-0.37525,-0.012364039554806406,10,1,100,0.04250171788843006,-10,-1,-100,15031.052169235307,-0.003174827169587393,-0.00042116460100480974,0.9999948715332604,19.37821345096328,0.015535463753645251,12.903648716066328,-5.86951790872842,-20.33343505859375,5356.25390625,True
1599562448.4743278,0.0,10,0.5,0.5,-11.329074232482911,-0.15025,-0.0155,-0.37525,-0.029640678847857573,10,1,100,0.061937682700809155,-10,-1,-100,15030.666429627105,-0.003425859768849879,-0.0006554118927783021,0.9999939169415457,19.571355046312295,0.01596308072787872,14.270823725192638,-6.426883014469987,-20.673095703125,5356.25390625,True
1599562448.5132241,0.0,10,0.5,0.5,-11.335927233886718,-0.15025,-0.0155,-0.37525,-0.013870764321207693,10,1,100,0.046334914534175174,-10,-1,-100,15030.517016232712,-0.0035108580576869693,-0.0007232425457019524,0.9999935753773215,19.65658835017766,0.016129308504110446,14.747689271889273,-6.612672491009025,-20.92401123046875,5356.25390625,True
1599562448.5511196,0.0,10,0.5,0.5,-11.065672982788085,-0.15025,-0.0155,-0.37525,-0.021222619701957497,10,1,100,0.05641340437395086,-10,-1,-100,15030.280690099578,-0.0036784593866088606,-0.0008501716170322705,0.9999928730469847,19.856962894403082,0.01649699905155643,15.73600996722861,-6.984252205110099,-21.63250732421875,5356.25390625,True
1599562448.5820398,0.0,10,0.5,0.5,-10.507301600646974,-0.15025,-0.0155,-0.37525,-0.0246171276892811,10,1,100,0.06797230445316954,-10,-1,-100,15029.836357052554,-0.003934541589610118,-0.000994848090282258,0.9999917647959692,20.226492390617505,0.01713356072411375,17.309480936749257,-7.54162076670013,-23.21142578125,5356.25390625,True
1599562448.6169465,0.0,10,0.5,0.5,-11.100512962341309,-0.15025,-0.0155,-0.37525,-0.01031142832428303,10,1,100,0.04252298120798263,-10,-1,-100,15029.836357052554,-0.003934541589610118,-0.000994848090282258,0.9999917647959692,20.226492390617505,0.01713356072411375,17.309480936749257,-7.54162076670013,-23.21142578125,5356.25390625,True
1599562448.6538472,0.0,10,0.5,0.5,-10.365283482360839,-0.15025,-0.0155,-0.37525,-0.01853068200654153,10,1,100,0.06136718761093811,-10,-1,-100,15029.476007425692,-0.0041045607939119225,-0.0010683116055718541,0.9999910056050516,20.51218488236611,0.017609677183774444,18.419964056190533,-7.9131967048006535,-24.608306884765625,5356.25390625,True
1599562448.6917443,0.0,10,0.5,0.5,-10.005967350769044,-0.15025,-0.0155,-0.37525,-0.016268869489890182,10,1,100,0.06312317160004216,-10,-1,-100,15029.177181167179,-0.0042737891106700695,-0.0011134185168944974,0.9999902474653659,20.822919852341787,0.018120512095450587,19.578263483171565,-8.28476810019585,-26.280426025390625,5356.25390625,True
1599562448.7246556,0.0,10,0.5,0.5,-9.601491931152344,-0.15025,-0.0155,-0.37525,-0.01581170019774853,10,1,100,0.06469340788325069,-10,-1,-100,15028.816831734614,-0.004440607464225728,-0.0011493010818171578,0.9999894800008508,21.150784386267528,0.018655986611566932,20.779784952053404,-8.656333287653142,-28.228118896484375,5356.25390625,True
1599562448.762068,0.0,10,0.5,0.5,-9.152458979797363,-0.15025,-0.0155,-0.37525,-0.012779309597688297,10,1,100,0.06615203412127027,-10,-1,-100,15028.453552475665,-0.004604143604833112,-0.0011534444554188092,0.9999887356503344,21.48651124708988,0.019202284278172915,22.01720877353905,-9.02789040224758,-30.450958251953125,5356.25390625,True
1599562448.8009632,0.0,10,0.5,0.5,-8.658131452941895,-0.15025,-0.0155,-0.37525,-0.01074555113618476,10,1,100,0.06733361034676781,-10,-1,-100,15028.093202513293,-0.004762179563422906,-0.0011379780038944297,0.9999880132540931,21.819077486585382,0.01974136336263992,23.279775547636763,-9.399437555552588,-32.94915771484375,5356.25390625,True
1599562448.8409076,0.0,10,0.5,0.5,-7.335563082885743,-0.15025,-0.0155,-0.37525,-0.00515837820725338,10,1,100,0.07624237880810052,-10,-1,-100,15027.519963218365,-0.004985394373249528,-0.001072473463697536,0.9999869977372771,22.286182513862656,0.020488861509866785,25.190722959957004,-9.95673695474362,-37.212646484375,5356.25390625,True
1599562448.8827531,0.0,10,0.5,0.5,-8.909800939941407,-0.15025,-0.0155,-0.37525,-0.011750538384034663,10,1,100,0.05407685128587822,-10,-1,-100,15027.519963218365,-0.004985394373249528,-0.001072473463697536,0.9999869977372771,22.286182513862656,0.020488861509866785,25.190722959957004,-9.95673695474362,-37.212646484375,5356.25390625,True
1599562448.9206512,0.0,10,0.5,0.5,-5.390943981933594,-0.15025,-0.0155,-0.37525,0.006540748889335087,10,1,100,0.08245079582848627,-10,-1,-100,15026.673286979785,-0.005241998836077272,-0.000905871551286906,0.9999858503223609,22.773801837250463,0.0212239176058328,27.667088906165503,-10.699760172396264,-43.860809326171875,5356.25390625,True
1599562448.9575882,0.0,10,0.5,0.5,-5.887371865844727,-0.15025,-0.0155,-0.37525,0.0020643570097198683,10,1,100,0.06956770723211864,-10,-1,-100,15026.247506859945,-0.005356735233726907,-0.0007950591026062401,0.9999853365268208,22.94778775768679,0.02143239347869493,28.84865975307152,-11.071253987398983,-47.597900390625,5356.25390625,True
1599562448.9974458,0.0,10,0.5,0.5,-7.251916252136231,-0.15025,-0.0155,-0.37525,-0.008996908959579122,10,1,100,0.05823628683156678,-10,-1,-100,15026.247506859945,-0.005356735233726907,-0.0007950591026062401,0.9999853365268208,22.94778775768679,0.02143239347869493,28.84865975307152,-11.071253987398983,-47.597900390625,5356.25390625,True
1599562449.034347,0.0,10,0.5,0.5,-5.10565431060791,-0.15025,-0.0155,-0.37525,0.0056244235828633105,10,1,100,0.06760595310058495,-10,-1,-100,15025.762156407582,-0.005440621114677875,-0.000662319524027378,0.9999849803745727,23.048151213007138,0.02149155757431607,29.94945948190302,-11.442738117309098,-51.610198974609375,5356.25390625,True
1599562449.0692523,0.0,10,0.5,0.5,-4.316251779174804,-0.15025,-0.0155,-0.37525,0.008507394504943352,10,1,100,0.06734802043780028,-10,-1,-100,15025.337352425558,-0.005513321563770926,-0.000515807437010907,0.9999846684964838,23.04306085055862,0.02136546759329074,30.91746486864481,-11.814216134233359,-55.897857666015625,5356.25390625,True
1599562449.1131372,0.0,10,0.5,0.5,-4.6984532348632815,-0.15025,-0.0155,-0.37525,0.0026656456392930867,10,1,100,0.06361127180963691,-10,-1,-100,15025.061962164007,-0.005544315591369395,-0.0004362647213017391,0.9999845349992751,22.99485134592174,0.021228243823255496,31.339157946032547,-11.999954153993606,-58.144927978515625,5356.25390625,True
1599562449.1519876,0.0,10,0.5,0.5,-0.4102071960449223,-0.15025,-0.0155,-0.37525,0.03256570141824912,10,1,100,0.06723745987822276,-10,-1,-100,15024.087353563518,-0.005604453955148653,-9.278268753972744e-05,0.9999842906202264,22.442836694701874,0.02018274782995482,32.48629892755515,-12.742914086195883,-67.82159423828125,5356.25390625,True
1599562449.189885,0.0,10,0.5,0.5,-2.6217511322021485,-0.15025,-0.0155,-0.37525,0.008415311579518319,10,1,100,0.061593146412788846,-10,-1,-100,15023.813916042447,-0.005606903881307383,-1.0395297153414772e-06,0.9999842811903521,22.20349697509796,0.019803935382095676,32.6098412710831,-12.928659125385638,-70.412841796875,5356.25390625,True
1599562449.2267864,0.0,10,0.5,0.5,-2.138168032836914,-0.15025,-0.0155,-0.37525,0.009603312851540369,10,1,100,0.06102796404627484,-10,-1,-100,15023.538525503827,-0.005603225134194388,9.212977216686524e-05,0.9999842975668171,21.925452024689005,0.01939002857208585,32.66566894281483,-13.114407422008997,-73.07293701171875,5356.25390625,True
1599562449.266192,0.0,10,0.5,0.5,2.750375531005859,-0.15025,-0.0155,-0.37525,0.04042964173573634,10,1,100,0.0528183554664952,-10,-1,-100,15022.501414984697,-0.0055246863490382644,0.0004560097607925944,0.9999846348298772,20.521449781045614,0.017599894160587,32.312580323484596,-13.857437343593997,-84.16934204101562,5356.25390625,True
1599562449.3040895,0.0,10,0.5,0.5,1.768708038330078,-0.15025,-0.0155,-0.37525,0.024015543335896106,10,1,100,0.052585581043711416,-10,-1,-100,15021.888133022236,-0.005450681056893037,0.0006362011438860823,0.999984942548697,19.54900137573551,0.01663844266036762,31.60998524318864,-14.228974790446188,-90.08651733398438,5356.25390625,True
1599562449.3409922,0.0,10,0.5,0.5,-0.38006214294433593,-0.15025,-0.0155,-0.37525,0.00615061229606462,10,1,100,0.06000697848031575,-10,-1,-100,15021.888133022236,-0.005450681056893037,0.0006362011438860823,0.999984942548697,19.54900137573551,0.01663844266036762,31.60998524318864,-14.228974790446188,-90.08651733398438,5356.25390625,True
1599562449.3774118,0.0,10,0.5,0.5,2.791446008300781,-0.15025,-0.0155,-0.37525,0.02410157017915842,10,1,100,0.049985028127811054,-10,-1,-100,15021.338327645673,-0.005359487012031025,0.0007980905244173965,0.9999853193674808,19.658812129704504,0.016766199032175147,32.62105683477357,-14.600514845727002,-95.99641418457031,5356.25390625,True
1599562449.4093235,0.0,10,0.5,0.5,3.6321075950622554,-0.15025,-0.0155,-0.37525,0.025668150791586644,10,1,100,0.04678900016748712,-10,-1,-100,15020.726998048485,-0.005247526033627793,0.0009580560126251901,0.9999857726983934,20.892956440895066,0.01800944796283047,35.55498973840004,-14.972027737603625,-101.67354583740234,5356.25390625,True
1599562449.4492195,0.0,10,0.5,0.5,4.52342825012207,-0.15025,-0.0155,-0.37525,0.02646849977218506,10,1,100,0.043162414690794945,-10,-1,-100,15020.110785537981,-0.005112949908092244,0.001109282014877122,0.9999863135246646,21.97249102355099,0.019243206874655784,38.32408840936743,-15.343508107555346,-107.27595520019531,5356.25390625,True
1599562449.4861557,0.0,10,0.5,0.5,3.956509692001343,-0.15025,-0.0155,-0.37525,0.01886080697315319,10,1,100,0.04888065333065454,-10,-1,-100,15019.838323901524,-0.005042955937654722,0.0011761220010677812,0.9999865925763451,22.45520876650771,0.019842433777134665,39.642310787604174,-15.529235287690938,-110.04617309570312,5356.25390625,True
1599562449.5250173,0.0,10,0.5,0.5,5.816554308700561,-0.15025,-0.0155,-0.37525,0.02614788342792703,10,1,100,0.03919024761625393,-10,-1,-100,15019.162541380152,-0.004891686239538528,0.0013016659683550795,0.9999871884536525,23.26985500022229,0.0209366509793803,42.06766944439647,-15.900664377834428,-115.41082000732422,5356.25390625,True
1599562449.5649107,0.0,10,0.5,0.5,9.092458117294312,-0.15025,-0.0155,-0.37525,0.03646966481429221,10,1,100,0.016804466948634675,-10,-1,-100,15017.87249865674,-0.0045513092058323676,0.0015083635433505843,0.9999885051459011,24.564763306321293,0.022760799069198905,46.49323735269068,-16.643429123826873,-125.33512878417969,5356.25390625,True
1599562449.607796,0.0,10,0.5,0.5,5.453490793609619,-0.15025,-0.0155,-0.37525,0.015950847622048323,10,1,100,0.050736610851703216,-10,-1,-100,15017.87249865674,-0.0045513092058323676,0.0015083635433505843,0.9999885051459011,24.564763306321293,0.022760799069198905,46.49323735269068,-16.643429123826873,-125.33512878417969,5356.25390625,True
1599562449.6446955,0.0,10,0.5,0.5,7.925451628112793,-0.15025,-0.0155,-0.37525,0.024662027532876742,10,1,100,0.030888430434652676,-10,-1,-100,15017.196715810685,-0.004371827489248601,0.0015862686027479484,0.9999891853796842,24.9897707079765,0.023355816878716445,48.35822278640246,-17.014773499225534,-129.88499450683594,5356.25390625,True
1599562449.6825972,0.0,10,0.5,0.5,8.535106200408935,-0.15025,-0.0155,-0.37525,0.02404937769589437,10,1,100,0.029345889498880968,-10,-1,-100,15016.51995612355,-0.004195687246447061,0.0016504943320075711,0.9999898359868414,25.280607799858586,0.023720497487158543,49.99417784555072,-17.386099961135766,-134.15927124023438,5356.25390625,True
1599562449.7155082,0.0,10,0.5,0.5,10.0972171295166,-0.15025,-0.0155,-0.37525,0.02439158258745229,10,1,100,0.015443796808397865,-10,-1,-100,15015.441828560433,-0.003910317995632583,0.0017110702274503716,0.999990890784436,25.508742572298864,0.02386755309510884,52.07011733270761,-17.943066811583613,-140.0540771484375,5356.25390625,True
1599562450.0293024,0.0,10,0.5,0.5,8.922791397094727,-0.15025,-0.0155,-0.37525,0.019862697051209136,10,1,100,0.03367217549470188,-10,-1,-100,15015.10491350491,-0.0038180042675506043,0.001723990382902012,0.9999912253117886,25.538980229783608,0.02382193889234494,52.67424554139002,-18.128718429129798,-141.88119506835938,5356.25390625,True
1599562450.0632093,0.0,10,0.5,0.5,9.232225757598876,-0.15025,-0.0155,-0.37525,0.019659954140313542,10,1,100,0.032511115543907836,-10,-1,-100,15014.703545205877,-0.0037249289540547507,0.0017330511342512848,0.9999915606834158,25.56546162984163,0.023749091972885744,53.27192433712819,-18.314368784864893,-143.639404296875,5356.25390625,True
1599562450.0971196,0.0,10,0.5,0.5,10.376740153884887,-0.15025,-0.0155,-0.37525,0.020103520472126643,10,1,100,0.02165579542525304,-10,-1,-100,15013.96526257624,-0.003543014483506725,0.0017446160611110826,0.9999922016511773,25.59370171900581,0.023516188450108808,54.41838669661221,-18.685666455415088,-146.94908142089844,5356.25390625,True
1599562450.1410017,0.0,10,0.5,0.5,10.790714529037476,-0.15025,-0.0155,-0.37525,0.01805020919025703,10,1,100,0.01944137230940623,-10,-1,-100,15013.224049682613,-0.003358933786886808,0.0017358855883791442,0.9999928521069735,25.572974520519256,0.023165881558953615,55.46146974487371,-19.05696154193926,-149.98321533203125,5356.25390625,True
1599562450.1779037,0.0,10,0.5,0.5,11.163657513809204,-0.15025,-0.0155,-0.37525,0.01673707560169804,10,1,100,0.01794770350136573,-10,-1,-100,15012.424243617337,-0.003179539820932668,0.001715502340920199,0.9999934737678268,25.51854669936656,0.022729762557832607,56.42870879510545,-19.428255344667505,-152.74172973632812,5356.25390625,True
1599562450.2141132,0.0,10,0.5,0.5,11.49111708831787,-0.15025,-0.0155,-0.37525,0.015401002328049366,10,1,100,0.01654536402220391,-10,-1,-100,15011.624437162303,-0.0030052623533625296,0.001684449780403838,0.999994065495953,25.444150711056395,0.02223735026367202,57.34676665209796,-19.799548214077,-155.2245635986328,5356.25390625,True
1599562450.2490199,0.0,10,0.5,0.5,12.291289763641357,-0.15025,-0.0155,-0.37525,0.010997219480725023,10,1,100,0.0058742291275791225,-10,-1,-100,15010.420333447983,-0.0027512234718498783,0.0016160257120159676,0.999994909602197,25.32164700611424,0.021448224304489318,58.687562313474395,-20.356485964246236,-158.43203735351562,5356.25390625,True
1599562450.2849255,0.0,10,0.5,0.5,12.081591448211668,-0.15025,-0.0155,-0.37525,0.011513666886827135,10,1,100,0.01314413825190721,-10,-1,-100,15009.617597709643,-0.0025880055586358893,0.0015584191152018631,0.9999954367681334,25.247691800348132,0.020917479097883492,59.591519037486755,-20.727775844936218,-160.22576904296875,5356.25390625,True
1599562450.3208303,0.0,10,0.5,0.5,12.253233654785156,-0.15025,-0.0155,-0.37525,0.010488964591478325,10,1,100,0.011904452999580817,-10,-1,-100,15008.751385612064,-0.00242997742790258,0.0014967593240381846,0.9999959274523201,25.189957271656088,0.020400041434078593,60.528610979646004,-21.099063078022006,-161.7437744140625,5356.25390625,True
1599562450.3557346,0.0,10,0.5,0.5,12.070912791442872,-0.15025,-0.0155,-0.37525,0.01274178946163742,10,1,100,0.019029451008951967,-10,-1,-100,15008.352947244188,-0.0023526933907925315,0.0014613249536253499,0.9999961646742396,25.16948231468647,0.020149500264524143,61.015826894065775,-21.284705310112944,-162.39944458007812,5356.25390625,True
1599562450.3856857,0.0,10,0.5,0.5,12.439950599670409,-0.15025,-0.0155,-0.37525,0.008127022418027267,10,1,100,0.010044418194621919,-10,-1,-100,15007.484782103915,-0.002202169081112069,0.0013873865031025214,0.999996612799278,25.149076729065133,0.019668918996633145,62.03865716431627,-21.65598630222534,-163.50399780273438,5356.25390625,True
1599562450.4225569,0.0,10,0.5,0.5,12.058982347106934,-0.15025,-0.0155,-0.37525,0.015487207082330158,10,1,100,0.024935265644024332,-10,-1,-100,15007.484782103915,-0.002202169081112069,0.0013873865031025214,0.999996612799278,25.149076729065133,0.019668918996633145,62.03865716431627,-21.65598630222534,-163.50399780273438,5356.25390625,True
1599562450.459458,0.0,10,0.5,0.5,12.816079603576659,-0.15025,-0.0155,-0.37525,-0.0027775217543072103,10,1,100,-0.006715701772820312,-10,-1,-100,15005.693764385418,-0.001915817340843429,0.001221657754252317,0.9999974185947921,25.206944298202743,0.018799054920891956,64.33226460198908,-22.398529693002217,-164.88612365722656,5356.25390625,True
1599562450.4913723,0.0,10,0.5,0.5,12.416313343048095,-0.15025,-0.0155,-0.37525,0.008415946686198522,10,1,100,0.014253349993865731,-10,-1,-100,15005.22989683412,-0.0018476045904260508,0.001173229475944782,0.9999976049420689,25.24453966457395,0.018600489360440595,64.96700140678726,-22.58416048527655,-165.05943298339844,5356.25390625,True
1599562450.5262794,0.0,10,0.5,0.5,12.448104576110838,-0.15025,-0.0155,-0.37525,0.002951498470600635,10,1,100,0.006128882032929096,-10,-1,-100,15004.36563796224,-0.0017131081351257928,0.0010800384719892554,0.9999979493866056,25.349409139343337,0.018223606370613002,66.31925432575406,-22.955414932525947,-165.19921875,5356.25390625,True
1599562450.562183,0.0,10,0.5,0.5,12.414959075164793,-0.15025,-0.0155,-0.37525,0.012207052479260213,10,1,100,0.01943188439437421,-10,-1,-100,15004.36563796224,-0.0017131081351257928,0.0010800384719892554,0.9999979493866056,25.349409139343337,0.018223606370613002,66.31925432575406,-22.955414932525947,-165.19921875,5356.25390625,True
1599562450.5991213,0.0,10,0.5,0.5,12.142916700744628,-0.15025,-0.0155,-0.37525,-0.010748557112244345,10,1,100,-0.008882919499878149,-10,-1,-100,15002.446690810379,-0.0014568755126491684,0.0008719005768923181,0.9999985586505236,25.68027492219282,0.017533675182094657,69.37912230852481,-23.697889422579436,-164.65211486816406,5356.25390625,True
1599562450.6300015,0.0,10,0.5,0.5,12.357858552551269,-0.15025,-0.0155,-0.37525,0.009990819883937017,10,1,100,0.01661090795186422,-10,-1,-100,15002.446690810379,-0.0014568755126491684,0.0008719005768923181,0.9999985586505236,25.68027492219282,0.017533675182094657,69.37912230852481,-23.697889422579436,-164.65211486816406,5356.25390625,True
1599562450.6678998,0.0,10,0.5,0.5,11.768953328704832,-0.15025,-0.0155,-0.37525,-0.008485138343928972,10,1,100,-0.00363303025750902,-10,-1,-100,15001.053135403316,-0.0012738680107875814,0.0007045614280374541,0.9999989404261812,26.03166098976314,0.017049143420885295,71.9977264641554,-24.254709428803555,-163.51840209960938,5356.25390625,True
1599562450.7038052,0.0,10,0.5,0.5,11.618988307189941,-0.15025,-0.0155,-0.37525,-0.005267925528194385,10,1,100,0.0018443275982805932,-10,-1,-100,15000.06094703637,-0.0011583427254361488,0.0005824024982178929,0.9999991595243771,26.310879296745014,0.016730718400241786,73.89526157072807,-24.625902512144087,-162.41822814941406,5356.25390625,True
1599562450.7417042,0.0,10,0.5,0.5,11.688449668884276,-0.15025,-0.0155,-0.37525,0.0006838419806775992,10,1,100,0.0067302447506829375,-10,-1,-100,14999.536532916827,-0.0010988229407433736,0.0005262549234220439,0.9999992578216749,26.46252617532629,0.016570928583251508,74.88719305834142,-24.811492521659126,-161.76473999023438,5356.25390625,True
1599562450.7789905,0.0,10,0.5,0.5,10.683602341461182,-0.15025,-0.0155,-0.37525,-0.013453658061819168,10,1,100,-0.006495106821407574,-10,-1,-100,14998.016024515615,-0.0009254866186767266,0.00034747179283919276,0.9999995113688166,26.95835669555519,0.016084665003696135,78.02080078402872,-25.36823400721844,-159.39105224609375,5356.25390625,True
1599562450.8108695,0.0,10,0.5,0.5,11.07978770828247,-0.15025,-0.0155,-0.37525,-0.0024128700932123555,10,1,100,0.004511781302823471,-10,-1,-100,14997.553133756155,-0.000869131383802271,0.0002862578508514476,0.9999995813334527,27.134636826821136,0.015919672088661165,79.11173889376511,-25.553804544741013,-158.46209716796875,5356.25390625,True
1599562450.848768,0.0,10,0.5,0.5,11.418420860290528,-0.15025,-0.0155,-0.37525,0.0036149841152220722,10,1,100,0.010042636194564917,-10,-1,-100,14997.553133756155,-0.000869131383802271,0.0002862578508514476,0.9999995813334527,27.134636826821136,0.015919672088661165,79.11173889376511,-25.553804544741013,-158.46209716796875,5356.25390625,True
1599562450.887666,0.0,10,0.5,0.5,9.093592649078369,-0.15025,-0.0155,-0.37525,-0.023165194453765855,10,1,100,-0.014934243773940776,-10,-1,-100,14995.444735257537,-0.0006429583597309681,4.360801988346039e-05,0.9999997923514226,27.86960235055319,0.015253479485880662,83.64134988333899,-26.296032551031114,-154.05752563476562,5356.25390625,True
1599562450.9255626,0.0,10,0.5,0.5,9.354744625091552,-0.15025,-0.0155,-0.37525,-0.012883933736498779,10,1,100,-0.004582847761911599,-10,-1,-100,14994.391024013283,-0.0005324229832076806,-8.25745195194584e-05,0.9999998548535973,28.23865837155775,0.014929200556811599,85.95862181491349,-26.66711252833388,-151.44212341308594,5356.25390625,True
1599562450.9644592,0.0,10,0.5,0.5,9.573324573516846,-0.15025,-0.0155,-0.37525,-0.006505719643983722,10,1,100,1.8576295662187624e-05,-10,-1,-100,14993.863680123817,-0.0004748407552116519,-0.00013824523359787612,0.9999998777072489,28.41893476705105,0.014774206012439369,87.11619407845362,-26.85264398619015,-150.03103637695312,5356.25390625,True
1599562451.0043528,0.0,10,0.5,0.5,7.6386131614685056,-0.15025,-0.0155,-0.37525,-0.02019776989236044,10,1,100,-0.012912813391174068,-10,-1,-100,14992.222078627325,-0.0003058279460235122,-0.000312409843372144,0.999999904434674,28.924026877415066,0.014362178823912107,90.52385879081511,-27.40920466578244,-145.38487243652344,5356.25390625,True
1599562451.0482345,0.0,10,0.5,0.5,8.466026054382324,-0.15025,-0.0155,-0.37525,-0.00930543400768541,10,1,100,-0.002264647527421522,-10,-1,-100,14991.63223469595,-0.00025002785240170434,-0.00037064342565146507,0.9999999000547569,29.07480583736587,0.0142502694697909,91.61891898798801,-27.594714024866075,-143.698486328125,5356.25390625,True
1599562451.086134,0.0,10,0.5,0.5,8.145746228790284,-0.15025,-0.0155,-0.37525,-0.009829771373109412,10,1,100,-0.0029568207263931125,-10,-1,-100,14991.103914276464,-0.00019393877471703355,-0.00042737229026953066,0.9999998898703326,29.213745004071495,0.014155158430886286,92.68296209783773,-27.780218324854946,-141.94325256347656,5356.25390625,True
1599562451.123035,0.0,10,0.5,0.5,5.788442759704589,-0.15025,-0.0155,-0.37525,-0.02146377593207803,10,1,100,-0.016128444079943426,-10,-1,-100,14989.39786003041,-2.4083404472074648e-05,-0.0005837896861052255,0.9999998293047813,29.53980760448178,0.013993856795430493,95.6176215553749,-28.336703930590463,-136.26443481445312,5356.25390625,True
1599562451.1559472,0.0,10,0.5,0.5,5.70959211807251,-0.15025,-0.0155,-0.37525,-0.017044694996122524,10,1,100,-0.011641129810149453,-10,-1,-100,14988.279696286423,8.855976644678706e-05,-0.0006848047241657824,0.9999997615998004,29.660589343412767,0.014007473847914861,97.28110654878192,-28.707675898503354,-132.13446044921875,5356.25390625,True
1599562451.198346,0.0,10,0.5,0.5,7.217117281341553,-0.15025,-0.0155,-0.37525,-0.007046418841767336,10,1,100,-0.00047821735677563255,-10,-1,-100,14988.279696286423,8.855976644678706e-05,-0.0006848047241657824,0.9999997615998004,29.660589343412767,0.014007473847914861,97.28110654878192,-28.707675898503354,-132.13446044921875,5356.25390625,True
1599562451.2352476,0.0,10,0.5,0.5,4.86133825302124,-0.15025,-0.0155,-0.37525,-0.017260217613187388,10,1,100,-0.01285328398116132,-10,-1,-100,14987.100985456957,0.00020018974380461236,-0.0007767746561104944,0.9999996782725483,29.683585578629874,0.014123852001513375,98.63058877908634,-29.078638392814828,-127.72918701171875,5356.25390625,True
1599562451.2726707,0.0,10,0.5,0.5,2.7231508850097654,-0.15025,-0.0155,-0.37525,-0.022423403792512567,10,1,100,-0.01992750106829926,-10,-1,-100,14985.330477977288,0.0003650104957151558,-0.000906355348138678,0.9999995226435465,29.49488759835227,0.01446183250609106,99.9038156496033,-29.63507634621351,-120.6052474975586,5356.25390625,True
1599562451.3105595,0.0,10,0.5,0.5,4.024377324676514,-0.15025,-0.0155,-0.37525,-0.014120361019937366,10,1,100,-0.009541873714983204,-10,-1,-100,14984.740634368965,0.00041951641346237104,-0.0009478101671699593,0.9999994628307886,29.363280909878576,0.01460132303223737,100.08902937311672,-29.820557231055727,-118.09300994873047,5356.25390625,True
1599562451.3494556,0.0,10,0.5,0.5,2.16654744682312,-0.15025,-0.0155,-0.37525,-0.017907058426850822,10,1,100,-0.015674401718041416,-10,-1,-100,14983.559971034061,0.0005239521028997595,-0.0010191343103088369,0.9999993434195101,28.98361850995218,0.014878325782310957,100.04124701193855,-30.191526172216598,-112.86207580566406,5356.25390625,True
1599562451.3889334,0.0,10,0.5,0.5,1.1783821884155272,-0.15025,-0.0155,-0.37525,-0.017758963308929364,10,1,100,-0.01620226392219589,-10,-1,-100,14982.316807289259,0.0006227843925550521,-0.0010818273129297024,0.9999992208943292,28.5254759469079,0.015136999767021632,99.68754952251832,-30.562508662290213,-107.35596466064453,5356.25390625,True
1599562451.4287899,0.0,10,0.5,0.5,-3.0350134910583497,-0.15025,-0.0155,-0.37525,-0.02334528411368455,10,1,100,-0.02666995446715959,-10,-1,-100,14979.833408987732,0.0008069485587062803,-0.0011889062158377567,0.999998967667484,27.12254772175732,0.015154299672256781,97.12226734470576,-31.304529001931513,-95.51844024658203,5356.25390625,True
1599562451.4656913,0.0,10,0.5,0.5,-1.994795143508911,-0.15025,-0.0155,-0.37525,-0.017285198843570496,10,1,100,-0.01718619151911186,-10,-1,-100,14978.58829237963,0.0008871936134877738,-0.0012304151134893272,0.9999988494824085,26.14523968138278,0.014725952440817317,94.75057489361312,-31.67557295653249,-89.18707275390625,5356.25390625,True
1599562451.4996014,0.0,10,0.5,0.5,0.2992784294128418,-0.15025,-0.0155,-0.37525,-0.013214613360735428,10,1,100,-0.009269799279782989,-10,-1,-100,14978.58829237963,0.0008871936134877738,-0.0012304151134893272,0.9999988494824085,26.14523968138278,0.014725952440817317,94.75057489361312,-31.67557295653249,-89.18707275390625,5356.25390625,True
1599562451.5355043,0.0,10,0.5,0.5,-1.4479529563903808,-0.15025,-0.0155,-0.37525,-0.015132604539495173,10,1,100,-0.013156728479239158,-10,-1,-100,14977.934972365969,0.0009217008998301391,-0.0012472635556349757,0.9999987973998139,25.856625728643557,0.014523102699706454,94.26259737280844,-31.86109981601764,-86.00103759765625,5356.25390625,True
1599562451.5734038,0.0,10,0.5,0.5,-5.203121382904053,-0.15025,-0.0155,-0.37525,-0.018482978159424034,10,1,100,-0.020175702610729367,-10,-1,-100,14975.976965097594,0.0010161226148518519,-0.0012925269370108556,0.999998648433561,27.93613870938922,0.015188728677848073,103.65266801585676,-32.41760137585523,-76.71612548828125,5356.25390625,True
