Timestamp,Input Throttle,horizon,dT,dt,Input Roll,Roll P,Roll I,Roll D,Input Pitch,Pitch P,Pitch I,Pitch D,Input Yaw,Yaw P,Yaw I,Yaw D,Altitude,Direction X,Direction Y,Direction Z,Drag X,Drag Y,Drag Z,Vertical Velocity,Roll,Mass,Has Fuel
1599560543.8516836,0.0,10,0.5,0.5,-2.954324859619141,-0.05075,-0.03,-0.5,-0.0005576332928715832,10,1,100,0.1711172581387186,-10,-1,-100,14993.982210764429,-0.01677499424934042,-7.646885524264686e-05,0.9998592869601446,28.649047100335384,0.027034365816049427,-87.51368225812553,27.00929763005506,-31.7921142578125,5356.25390625,True
1599560543.8780673,0.0,10,0.5,0.5,-3.1293293533325195,-0.05075,-0.03,-0.5,-0.00022502323013342043,10,1,100,0.177175507489845,-10,-1,-100,14995.04959692643,-0.016845431209081392,-7.149328971703492e-05,0.9998581031006798,28.503873318847607,0.027363264599970794,-85.87438678507691,26.63736659271505,-31.790924072265625,5356.25390625,True
1599560543.912079,0.0,10,0.5,0.5,-3.2815116653442384,-0.05075,-0.03,-0.5,0.0033647244657287376,10,1,100,0.17779409949502498,-10,-1,-100,14996.11698301707,-0.016899774344157473,-3.427098446798897e-05,0.9998571880286785,28.358851096349394,0.027686158272821896,-84.24772326891937,26.265451125940125,-31.830596923828125,5356.25390625,True
1599560543.9457693,0.0,10,0.5,0.5,-3.421820007324219,-0.05075,-0.03,-0.5,0.0035655605067441854,10,1,100,0.17603016767977986,-10,-1,-100,14996.652139865677,-0.01691777801922972,1.4244124808005076e-06,0.9998568841513584,28.289827062348262,0.0278480816034771,-83.44923918017557,26.079499234156746,-31.9287109375,5356.25390625,True
1599560543.9807193,0.0,10,0.5,0.5,-3.4291137847900393,-0.05075,-0.03,-0.5,0.009490807562050117,10,1,100,0.1790458884777227,-10,-1,-100,14997.658000640571,-0.01694618084198649,8.773936074386232e-05,0.9998563993177596,28.16581037809406,0.028176520995725363,-81.90174545397066,25.70760651493489,-32.32086181640625,5356.25390625,True
1599560544.0117202,0.0,10,0.5,0.5,-3.4327463302612307,-0.05075,-0.03,-0.5,0.015492456822141717,10,1,100,0.17806847650224988,-10,-1,-100,14998.659954113653,-0.01694771040758654,0.00022068818029225684,0.9998563528870872,28.062072577252728,0.028507664723122075,-80.42274183954383,25.335727652829473,-32.984466552734375,5356.25390625,True
1599560544.0450332,0.0,10,0.5,0.5,-3.6962388916015625,-0.05075,-0.03,-0.5,0.011602918292400562,10,1,100,0.17826972743115102,-10,-1,-100,14999.190227327868,-0.01693552346620606,0.00030599067672015747,0.9998565369164876,28.01727668073517,0.028671677145374674,-79.70660927832157,25.149792954990644,-33.4190673828125,5356.25390625,True
1599560544.079249,0.0,10,0.5,0.5,-3.4911014785766605,-0.05075,-0.03,-0.5,0.026047192568430008,10,1,100,0.17570021350915896,-10,-1,-100,15000.194131797878,-0.016885689280690966,0.0005145718117305892,0.9998572941742068,27.9399369974404,0.028990027374536577,-78.31428259310378,24.77793295814483,-34.494293212890625,5356.25390625,True
1599560544.1151927,0.0,10,0.5,0.5,-4.195231513977051,-0.05075,-0.03,-0.5,0.005240536248559892,10,1,100,0.18237220098873758,-10,-1,-100,15000.194131797878,-0.016885689280690966,0.0005145718117305892,0.9998572941742068,27.9399369974404,0.028990027374536577,-78.31428259310378,24.77793295814483,-34.494293212890625,5356.25390625,True
1599560544.145112,0.0,10,0.5,0.5,-3.6182159652709966,-0.05075,-0.03,-0.5,0.03372874072982816,10,1,100,0.17477494037091157,-10,-1,-100,15001.19119858346,-0.016801272648455556,0.0007730876962769094,0.999858549782321,27.875095092862363,0.02928446323810749,-76.96288722400129,24.40608467042587,-35.844329833984375,5356.25390625,True
1599560544.1792157,0.0,10,0.5,0.5,-3.05660669708252,-0.05075,-0.03,-0.5,0.06020155174142798,10,1,100,0.16269525412690994,-10,-1,-100,15002.601347122109,-0.01659944104179748,0.0012480612480642197,0.9998614408507915,27.788604387197573,0.029646641068999564,-74.97493000626511,23.848333289360436,-38.384674072265625,5356.25390625,True
1599560544.2121267,0.0,10,0.5,0.5,-3.7649574508666994,-0.05075,-0.03,-0.5,0.033020328738068726,10,1,100,0.1734031145833128,-10,-1,-100,15003.068141257856,-0.016513461542809752,0.0014315492404736842,0.9998626186905111,27.759005434502072,0.02973678245053164,-74.3126045018667,23.66242175796974,-39.368865966796875,5356.25390625,True
1599560544.2475789,0.0,10,0.5,0.5,-3.0365963134765632,-0.05075,-0.03,-0.5,0.057012010002334565,10,1,100,0.1583213895621502,-10,-1,-100,15004.005634002038,-0.01629849356141604,0.0018150962973118043,0.9998655232245283,27.692518112231195,0.029855691152764333,-72.97242474300472,23.29060735507415,-41.5435791015625,5356.25390625,True
1599560544.2785866,0.0,10,0.5,0.5,-3.4391847839355467,-0.05075,-0.03,-0.5,0.04144781775250509,10,1,100,0.1660772164919888,-10,-1,-100,15004.474379471503,-0.01617412226022278,0.0020206015400918457,0.9998671486445223,27.653302754023027,0.029878976194873196,-72.28879645651116,23.104704593559795,-42.7340087890625,5356.25390625,True
1599560544.3126085,0.0,10,0.5,0.5,-3.308537582397461,-0.05075,-0.03,-0.5,0.04532385391935588,10,1,100,0.1637307937188188,-10,-1,-100,15004.941171721555,-0.01604040237552646,0.0022408255649290624,0.9998688334938833,27.60825933801204,0.029874265404804364,-71.59169042004179,22.918805066311652,-43.99310302734375,5356.25390625,True
1599560544.346177,0.0,10,0.5,0.5,-2.4024557495117187,-0.05075,-0.03,-0.5,0.0728963254046027,10,1,100,0.14279217975389474,-10,-1,-100,15005.874755651923,-0.015729311242909095,0.0026897307044613347,0.9998726689516826,27.495509152137473,0.02977008187510723,-70.14531098397332,22.547016202371296,-46.7177734375,5356.25390625,True
1599560544.3822532,0.0,10,0.5,0.5,-1.1887258377075196,-0.05075,-0.03,-0.5,0.10864453316766894,10,1,100,0.11175525402098077,-10,-1,-100,15007.152082445915,-0.015165454887652889,0.0034205654086783945,0.9998791470524503,27.24640352588749,0.029338004892790294,-67.79448035268427,21.98936248052932,-51.320343017578125,5356.25390625,True
1599560544.4122136,0.0,10,0.5,0.5,-1.556869064331055,-0.05075,-0.03,-0.5,0.09053621966561667,10,1,100,0.11907192622614977,-10,-1,-100,15008.021210327279,-0.01472098255617474,0.003917508130918921,0.9998839661693876,27.00743979374201,0.02884182812072954,-66.0664182782496,21.617616767243792,-54.73284912109375,5356.25390625,True
1599560544.4452255,0.0,10,0.5,0.5,-3.202406448364258,-0.05075,-0.03,-0.5,0.04118224107348289,10,1,100,0.163302688701513,-10,-1,-100,15008.021210327279,-0.01472098255617474,0.003917508130918921,0.9998839661693876,27.00743979374201,0.02884182812072954,-66.0664182782496,21.617616767243792,-54.73284912109375,5356.25390625,True
1599560544.4791372,0.0,10,0.5,0.5,-1.1105480422973635,-0.05075,-0.03,-0.5,0.09547126351244054,10,1,100,0.10837113850244487,-10,-1,-100,15008.891314389766,-0.014223572742296409,0.004407951120073819,0.9998891238259209,26.693223116457823,0.02816853636785258,-64.17756512048967,21.2458934936825,-58.420806884765625,5356.25390625,True
1599560544.5150044,0.0,10,0.5,0.5,-0.7041346359252931,-0.05075,-0.03,-0.5,0.10292457587654658,10,1,100,0.09690750543691785,-10,-1,-100,15009.753604817088,-0.013669510519907824,0.0049182613467757845,0.9998944720256587,26.288485970771237,0.02731848635770512,-62.10136250185337,20.874196253471823,-62.383880615234375,5356.25390625,True
1599560544.5459228,0.0,10,0.5,0.5,-1.465482490539551,-0.05075,-0.03,-0.5,0.08039632085844414,10,1,100,0.11904310445595934,-10,-1,-100,15010.157894349424,-0.013369713882020297,0.005174040870795993,0.9998972347455414,26.047148552943725,0.026829864818185296,-60.984815368164064,20.68835880861248,-64.46865844726562,5356.25390625,True
1599560544.57987,0.0,10,0.5,0.5,1.2332231979370119,-0.05075,-0.03,-0.5,0.13305542574639223,10,1,100,0.04289861777039164,-10,-1,-100,15011.365880016587,-0.012407806830127193,0.005881884581040872,0.9999057204374028,25.142545797585534,0.0251410015950048,-57.28473245628791,20.130897513109772,-71.12466430664062,5356.25390625,True
1599560544.6129646,0.0,10,0.5,0.5,0.5958740615844724,-0.05075,-0.03,-0.5,0.11299790521398204,10,1,100,0.06101278863319426,-10,-1,-100,15012.169575676322,-0.011701557142369203,0.006339340687074552,0.9999114392385442,24.375286676061275,0.02387794548569922,-54.514279246875844,19.759303803803743,-75.84896850585938,5356.25390625,True
1599560544.6489925,0.0,10,0.5,0.5,-1.6669331588745115,-0.05075,-0.03,-0.5,0.06768416852531228,10,1,100,0.1311905008972079,-10,-1,-100,15012.169575676322,-0.011701557142369203,0.006339340687074552,0.9999114392385442,24.375286676061275,0.02387794548569922,-54.514279246875844,19.759303803803743,-75.84896850585938,5356.25390625,True
1599560544.6799076,0.0,10,0.5,0.5,2.2788589782714843,-0.05075,-0.03,-0.5,0.13393903096456844,10,1,100,0.008969385409261177,-10,-1,-100,15013.309202479199,-0.010594400497236194,0.006937931695502203,0.9999198086756221,23.00008768143234,0.021938403350028893,-49.99199897524031,19.20198790495097,-82.83984375,5356.25390625,True
1599560544.7128558,0.0,10,0.5,0.5,-1.108212432861328,-0.05075,-0.03,-0.5,0.07450475022090743,10,1,100,0.11917155884799481,-10,-1,-100,15013.309202479199,-0.010594400497236194,0.006937931695502203,0.9999198086756221,23.00008768143234,0.021938403350028893,-49.99199897524031,19.20198790495097,-82.83984375,5356.25390625,True
1599560544.746766,0.0,10,0.5,0.5,1.5577172775268555,-0.05075,-0.03,-0.5,0.11625309800476942,10,1,100,0.029438386716520756,-10,-1,-100,15014.108992509777,-0.009782799890941354,0.007314264524185654,0.9999253963975333,22.01977368276664,0.020761250928117966,-46.93796279849983,18.830490616985074,-87.50869750976562,5356.25390625,True
1599560544.781795,0.0,10,0.5,0.5,0.6099003143310547,-0.05075,-0.03,-0.5,0.09596393336180284,10,1,100,0.06729868952796461,-10,-1,-100,15014.448829071014,-0.009393654985927565,0.007468850365877034,0.9999279851670406,21.479513215736073,0.020190448159520955,-45.33602456439488,18.64475469250748,-89.84783935546875,5356.25390625,True
1599560544.8127506,0.0,10,0.5,0.5,2.0793420200347903,-0.05075,-0.03,-0.5,0.11374295030010416,10,1,100,0.014334193468447887,-10,-1,-100,15015.190026498982,-0.008563234496801466,0.007767781883003794,0.9999331640562638,21.68378099611202,0.020387657327087836,-44.857947029449406,18.27329217864994,-94.44823455810547,5356.25390625,True
1599560544.846267,0.0,10,0.5,0.5,2.3668454608917235,-0.05075,-0.03,-0.5,0.1114044633679021,10,1,100,0.005534666544276964,-10,-1,-100,15015.924388611224,-0.007733456842144817,0.008015224443950893,0.9999379729875166,22.397932725185537,0.021216319529698168,-45.39604501938286,17.901826073833373,-98.95049285888672,5356.25390625,True
1599560544.8796144,0.0,10,0.5,0.5,2.599269157409668,-0.05075,-0.03,-0.5,0.10987403963592053,10,1,100,-0.006862653574494282,-10,-1,-100,15016.59722814802,-0.006871807021993364,0.008223443862614628,0.9999425749708285,23.056912697639113,0.022114388837219515,-45.76454839033289,17.530353012258463,-103.26071166992188,5356.25390625,True
1599560544.9155185,0.0,10,0.5,0.5,1.702979118347168,-0.05075,-0.03,-0.5,0.09870546478100867,10,1,100,0.03238268241495338,-10,-1,-100,15016.934136972064,-0.006451171973450683,0.008308429559998989,0.999944674658761,23.339750817068737,0.022552486974477218,-45.83637020064785,17.344613754617562,-105.33505249023438,5356.25390625,True
1599560544.945436,0.0,10,0.5,0.5,4.971509641647339,-0.05075,-0.03,-0.5,0.11640827844776157,10,1,100,-0.11089246386137494,-10,-1,-100,15018.337437596056,-0.0047716902675876945,0.008544418004610746,0.9999521107997886,24.177344419625477,0.024127687389660615,-45.45217663286819,16.601640959024255,-112.96659088134766,5356.25390625,True
1599560544.979359,0.0,10,0.5,0.5,1.2670933132171631,-0.05075,-0.03,-0.5,0.09302994171833953,10,1,100,0.056362720037445795,-10,-1,-100,15018.337437596056,-0.0047716902675876945,0.008544418004610746,0.9999521107997886,24.177344419625477,0.024127687389660615,-45.45217663286819,16.601640959024255,-112.96659088134766,5356.25390625,True
1599560545.013368,0.0,10,0.5,0.5,4.134524026870728,-0.05075,-0.03,-0.5,0.10141433203049405,10,1,100,-0.07841349914466038,-10,-1,-100,15019.282738068723,-0.0035527517903638033,0.008618635118978027,0.9999565475976454,24.648552397908325,0.025152566797237794,-44.785970980130834,16.044400747840484,-117.97081756591797,5356.25390625,True
1599560545.0493495,0.0,10,0.5,0.5,1.7378036060333253,-0.05075,-0.03,-0.5,0.09416069093611354,10,1,100,0.0427761837070415,-10,-1,-100,15019.282738068723,-0.0035527517903638033,0.008618635118978027,0.9999565475976454,24.648552397908325,0.025152566797237794,-44.785970980130834,16.044400747840484,-117.97081756591797,5356.25390625,True
1599560545.07927,0.0,10,0.5,0.5,2.6861500930786133,-0.05075,-0.03,-0.5,0.09429620471801574,10,1,100,-0.0035406996604262497,-10,-1,-100,15019.617695327499,-0.003138090713120344,0.008618339150246705,0.9999579374238539,24.75993231940134,0.025431041197824265,-44.46856817411883,15.85865349769759,-119.50137329101562,5356.25390625,True
1599560545.113212,0.0,10,0.5,0.5,5.009498659133911,-0.05075,-0.03,-0.5,0.08628604495313781,10,1,100,-0.13496560419646944,-10,-1,-100,15020.832527913619,-0.0015723948827330077,0.008544064931150194,0.9999622625523351,25.022025446235205,0.02622714354481031,-42.83780020165008,15.115671853262642,-124.93514251708984,5356.25390625,True
1599560545.146195,0.0,10,0.5,0.5,2.3978759555816653,-0.05075,-0.03,-0.5,0.09382098831931622,10,1,100,0.020821852831944744,-10,-1,-100,15020.832527913619,-0.0015723948827330077,0.008544064931150194,0.9999622625523351,25.022025446235205,0.02622714354481031,-42.83780020165008,15.115671853262642,-124.93514251708984,5356.25390625,True
1599560545.182099,0.0,10,0.5,0.5,3.142709415435791,-0.05075,-0.03,-0.5,0.08989600795129067,10,1,100,-0.0210172364622402,-10,-1,-100,15021.159674003487,-0.0011983948342532069,0.00850767757957892,0.9999630909548728,25.04947322802257,0.02635126405199038,-42.35876589663588,14.929929620434477,-126.12147521972656,5356.25390625,True
1599560545.2130134,0.0,10,0.5,0.5,3.8239050788879396,-0.05075,-0.03,-0.5,0.08487069190914905,10,1,100,-0.06289275108531844,-10,-1,-100,15021.708498535212,-0.0004836492590689417,0.00842846579309863,0.9999643628888824,25.06847600994428,0.026519937208184883,-41.33797342700742,14.558450751176217,-128.28733825683594,5356.25390625,True
1599560545.246022,0.0,10,0.5,0.5,3.857474830627442,-0.05075,-0.03,-0.5,0.07804903438181207,10,1,100,-0.0715843874911958,-10,-1,-100,15022.306151817553,0.0002393269059129805,0.008294253626113045,0.9999655734471151,25.047912095548245,0.026593680862567897,-40.25190931091685,14.186980722766748,-130.17825317382812,5356.25390625,True
1599560545.2749453,0.0,10,0.5,0.5,4.263963260650635,-0.05075,-0.03,-0.5,0.06820339621121818,10,1,100,-0.10950570947035268,-10,-1,-100,15023.118649165612,0.0012352349839985508,0.008082749650878828,0.9999665711175626,24.963517041673327,0.026559594127545005,-38.543225409968485,13.629795023446789,-132.49766540527344,5356.25390625,True
1599560545.3048666,0.0,10,0.5,0.5,3.1628503684997558,-0.05075,-0.03,-0.5,0.08930762689926662,10,1,100,-0.01051559418695428,-10,-1,-100,15023.118649165612,0.0012352349839985508,0.008082749650878828,0.9999665711175626,24.963517041673327,0.026559594127545005,-38.543225409968485,13.629795023446789,-132.49766540527344,5356.25390625,True
1599560545.3317935,0.0,10,0.5,0.5,4.157263107299805,-0.05075,-0.03,-0.5,0.06394364234832775,10,1,100,-0.11182137792621188,-10,-1,-100,15023.928218547604,0.0021507358132176325,0.007852587671646413,0.9999668550518667,24.836867790035186,0.026397450698821205,-36.78244139225658,13.072634529639897,-134.19683837890625,5356.25390625,True
1599560545.3557289,0.0,10,0.5,0.5,3.592349578857422,-0.05075,-0.03,-0.5,0.07847441380457461,10,1,100,-0.05207022341820824,-10,-1,-100,15024.195797173656,0.002434631991886236,0.007776143837807672,0.9999668015259696,24.788719315189603,0.026323487064096856,-36.19036633784342,12.886920251263316,-134.62533569335938,5356.25390625,True
1599560545.38465,0.0,10,0.5,0.5,3.4280644760131835,-0.05075,-0.03,-0.5,0.08603454806033167,10,1,100,-0.024279343929572903,-10,-1,-100,15024.195797173656,0.002434631991886236,0.007776143837807672,0.9999668015259696,24.788719315189603,0.026323487064096856,-36.19036633784342,12.886920251263316,-134.62533569335938,5356.25390625,True
1599560545.4135742,0.0,10,0.5,0.5,3.8316558074951175,-0.05075,-0.03,-0.5,0.06735610676646789,10,1,100,-0.08513812980083758,-10,-1,-100,15024.66943073878,0.0029828275700749998,0.007607105458147492,0.9999666167858985,24.68712192222977,0.02615588437034256,-35.004718945714615,12.515500209295093,-135.2757568359375,5356.25390625,True
1599560545.4491525,0.0,10,0.5,0.5,3.6596328010559085,-0.05075,-0.03,-0.5,0.07479377079995761,10,1,100,-0.05930150112858877,-10,-1,-100,15024.937985366094,0.003242167632814516,0.007521901112827236,0.9999664541136816,24.63465941005077,0.026065398897370157,-34.41274747521019,12.329794607237378,-135.49757385253906,5356.25390625,True
1599560545.6728334,0.0,10,0.5,0.5,3.6646174430847167,-0.05075,-0.03,-0.5,0.07374436851588756,10,1,100,-0.06138401142121767,-10,-1,-100,15025.147947021644,0.0034924863629511135,0.007435831836152116,0.9999662549025887,24.58140853757473,0.025972174886581087,-33.821878631984404,12.14409183864143,-135.6504669189453,5356.25390625,True
1599560545.6976397,0.0,10,0.5,0.5,3.6415658378601075,-0.05075,-0.03,-0.5,0.05381496901002586,10,1,100,-0.11305138626867539,-10,-1,-100,15025.886230224161,0.004185487815145632,0.007177385085251833,0.9999654828218258,24.420011021522413,0.02568912794797635,-32.06043421406857,11.587000042078948,-135.6955108642578,5356.25390625,True
1599560545.7245822,0.0,10,0.5,0.5,3.324479564666748,-0.05075,-0.03,-0.5,0.05006946954097691,10,1,100,-0.11172605714295418,-10,-1,-100,15026.562014039024,0.004799196018657534,0.0069095208444491735,0.9999646124934994,24.262968799190194,0.025427531041590276,-30.324620830243873,11.029931781884333,-135.1203155517578,5356.25390625,True
1599560545.7616022,0.0,10,0.5,0.5,3.626903408050537,-0.05075,-0.03,-0.5,0.07671742034307646,10,1,100,-0.050811223703038436,-10,-1,-100,15026.562014039024,0.004799196018657534,0.0069095208444491735,0.9999646124934994,24.262968799190194,0.025427531041590276,-30.324620830243873,11.029931781884333,-135.1203155517578,5356.25390625,True
1599560545.8224704,0.0,10,0.5,0.5,2.976074829101562,-0.05075,-0.03,-0.5,0.0502656930867695,10,1,100,-0.10825880649699252,-10,-1,-100,15027.176274186117,0.005318206806752881,0.006670117168306774,0.9999636124446338,24.10410138995236,0.025203432236451002,-28.606280210014653,10.472886058614698,-133.92431640625,5356.25390625,True
1599560545.8638718,0.0,10,0.5,0.5,3.5783543548583987,-0.05075,-0.03,-0.5,0.07406479745275228,10,1,100,-0.05676602486973325,-10,-1,-100,15027.176274186117,0.005318206806752881,0.006670117168306774,0.9999636124446338,24.10410138995236,0.025203432236451002,-28.606280210014653,10.472886058614698,-133.92431640625,5356.25390625,True
1599560545.8970423,0.0,10,0.5,0.5,2.1678366317749025,-0.05075,-0.03,-0.5,0.03840688749008837,10,1,100,-0.11953319582380781,-10,-1,-100,15027.985847278731,0.005885937932704891,0.006347029323649229,0.999962534774887,23.847298364853675,0.02495159341873944,-26.29647046750104,9.730191151229612,-131.36471557617188,5356.25390625,True
1599560545.9459915,0.0,10,0.5,0.5,2.5053047409057614,-0.05075,-0.03,-0.5,0.05209161206862112,10,1,100,-0.08869219852413993,-10,-1,-100,15028.39014527388,0.006118546884536265,0.00617901888332372,0.9999621908400643,23.686965812918967,0.024841860084070015,-25.123784111185714,9.358857122814715,-129.67147827148438,5356.25390625,True
1599560545.9818594,0.0,10,0.5,0.5,3.3370618209838865,-0.05075,-0.03,-0.5,0.06873294360572356,10,1,100,-0.06579969483026749,-10,-1,-100,15028.39014527388,0.006118546884536265,0.00617901888332372,0.9999621908400643,23.686965812918967,0.024841860084070015,-25.123784111185714,9.358857122814715,-129.67147827148438,5356.25390625,True
1599560546.007791,0.0,10,0.5,0.5,2.2355817527771,-0.05075,-0.03,-0.5,0.053821556703123156,10,1,100,-0.08624940570991309,-10,-1,-100,15028.732919644448,0.006301602693156261,0.006044759081095375,0.9999618746188021,23.49829644544762,0.024738211701680016,-23.935645376430173,8.98753191779317,-127.70204162597656,5356.25390625,True
1599560546.039705,0.0,10,0.5,0.5,2.5977114963531496,-0.05075,-0.03,-0.5,0.05887630609168699,10,1,100,-0.07718858934741377,-10,-1,-100,15028.932138907723,0.00638286470218777,0.005969999838994488,0.9999618083407564,23.39591376985969,0.02469128509513151,-23.339471224762192,8.80187256110863,-126.61406707763672,5356.25390625,True
1599560546.069625,0.0,10,0.5,0.5,1.8022976055145268,-0.05075,-0.03,-0.5,0.049916031311725034,10,1,100,-0.08421195466239542,-10,-1,-100,15029.271982746199,0.006517960414771488,0.005821912422718716,0.9999618100346502,23.15963957355413,0.024589480738474185,-22.129877463170295,8.430559735619198,-124.23133087158203,5356.25390625,True
1599560546.0984647,0.0,10,0.5,0.5,1.4950787124633793,-0.05075,-0.03,-0.5,0.04942248156810222,10,1,100,-0.0814021303103068,-10,-1,-100,15029.553232031758,0.00661311041155622,0.005684032930855565,0.9999619785473473,22.872761491778586,0.024463993544344007,-20.89385910544434,8.059254342177121,-121.57278442382812,5356.25390625,True
1599560546.1234274,0.0,10,0.5,0.5,1.9947122344970705,-0.05075,-0.03,-0.5,0.05517097174724517,10,1,100,-0.07595178369189437,-10,-1,-100,15029.748544003582,0.006648412789926865,0.005612061019802721,0.9999621509729679,22.706793843087635,0.02438664885253039,-20.264766197483354,7.873604238406658,-120.14019775390625,5356.25390625,True
1599560546.1563432,0.0,10,0.5,0.5,0.07132310104370099,-0.05075,-0.03,-0.5,0.038727002559339814,10,1,100,-0.07832084986234658,-10,-1,-100,15030.165533904685,0.006700361720203135,0.00539832088970522,0.9999629809569904,22.098304684790804,0.024058733792883598,-18.327544327965214,7.316662370581214,-115.42890930175781,5356.25390625,True
1599560546.1812446,0.0,10,0.5,0.5,1.430694957733154,-0.05075,-0.03,-0.5,0.051732362629184805,10,1,100,-0.07336868484861686,-10,-1,-100,15030.301275192178,0.00670131183404452,0.005323398405050266,0.9999633762539126,21.853626768934,0.023906457872389437,-17.66500160717742,7.1310172274837464,-113.72071838378906,5356.25390625,True
1599560546.2173364,0.0,10,0.5,0.5,1.2454588203430177,-0.05075,-0.03,-0.5,0.050669811708520425,10,1,100,-0.07262164881237602,-10,-1,-100,15030.437016344862,0.006694126969000597,0.005246851791324501,0.999963828951029,21.585578436833092,0.02372673684627651,-16.994332089372815,6.94537272325266,-111.94364929199219,5356.25390625,True
1599560546.2482526,0.0,10,0.5,0.5,2.075730167388916,-0.05075,-0.03,-0.5,0.05821445532786444,10,1,100,-0.0734209542203979,-10,-1,-100,15030.437016344862,0.006694126969000597,0.005246851791324501,0.999963828951029,21.585578436833092,0.02372673684627651,-16.994332089372815,6.94537272325266,-111.94364929199219,5356.25390625,True
1599560546.281169,0.0,10,0.5,0.5,0.0020221157073976315,-0.05075,-0.03,-0.5,0.041318007036107815,10,1,100,-0.06930635138561952,-10,-1,-100,15030.713380625937,0.006656198234062189,0.0050940951405739855,0.9999648719928954,20.996343400972645,0.02329630927385799,-15.647161975758209,6.57408484938086,-108.27497100830078,5356.25390625,True
1599560546.315111,0.0,10,0.5,0.5,-0.3834771766662599,-0.05075,-0.03,-0.5,0.03828051296802211,10,1,100,-0.06559417482842925,-10,-1,-100,15030.984861679375,0.006587481732371429,0.004928598169947965,0.9999661564295588,20.3797565006334,0.022809630171813207,-14.3302567758953,6.202795674894332,-104.36094665527344,5356.25390625,True
1599560546.3515968,0.0,10,0.5,0.5,-1.9874681205749511,-0.05075,-0.03,-0.5,0.02498855821085001,10,1,100,-0.05524132186294187,-10,-1,-100,15031.327629058273,0.006430635450203385,0.004658325117869243,0.9999684729704246,19.21579474185851,0.02173580957714531,-12.299004252676104,5.645852988519371,-98.02235412597656,5356.25390625,True
1599560546.38144,0.0,10,0.5,0.5,1.0960530052185058,-0.05075,-0.03,-0.5,0.051884695946609695,10,1,100,-0.07093072715454789,-10,-1,-100,15031.327629058273,0.006430635450203385,0.004658325117869243,0.9999684729704246,19.21579474185851,0.02173580957714531,-12.299004252676104,5.645852988519371,-98.02235412597656,5356.25390625,True
1599560546.4144397,0.0,10,0.5,0.5,-2.521690601348877,-0.05075,-0.03,-0.5,0.01927851517591102,10,1,100,-0.047606483105872656,-10,-1,-100,15031.671371977194,0.006218676254274126,0.004362963099321845,0.9999711458930394,17.84280968658875,0.020294611344686003,-10.293914632266848,5.088890766834496,-91.59635925292969,5356.25390625,True
1599560546.4484503,0.0,10,0.5,0.5,0.6013775596618652,-0.05075,-0.03,-0.5,0.0486826100474974,10,1,100,-0.06876295928307029,-10,-1,-100,15031.671371977194,0.006218676254274126,0.004362963099321845,0.9999711458930394,17.84280968658875,0.020294611344686003,-10.293914632266848,5.088890766834496,-91.59635925292969,5356.25390625,True
1599560546.4845026,0.0,10,0.5,0.5,-3.9558622512817383,-0.05075,-0.03,-0.5,0.00026051395152317663,10,1,100,-0.029443050982755806,-10,-1,-100,15032.02194741799,0.005861613212030952,0.003923897769286153,0.9999751219489655,17.81187639056884,0.0201893619498249,-8.776664695275944,4.346227183339077,-83.47723388671875,5356.25390625,True
1599560546.515407,0.0,10,0.5,0.5,-2.1855070571899415,-0.05075,-0.03,-0.5,0.01630125198420132,10,1,100,-0.04181647238097276,-10,-1,-100,15032.163543593255,0.005650258594073831,0.003671912745114797,0.9999772955595603,18.492802688361383,0.020861596914060296,-8.333725818031194,3.974869559409245,-79.4947509765625,5356.25390625,True
1599560546.548757,0.0,10,0.5,0.5,-1.383720085144043,-0.05075,-0.03,-0.5,0.028289137625831025,10,1,100,-0.05135922989033558,-10,-1,-100,15032.236782391905,0.005545825876234266,0.0035533175795737755,0.9999783086395071,18.809291378117905,0.02116416951861141,-8.080439102673012,3.7891856623106728,-77.521484375,5356.25390625,True
1599560546.5816703,0.0,10,0.5,0.5,-2.5799858169555665,-0.05075,-0.03,-0.5,0.011807825582757746,10,1,100,-0.03683626817119641,-10,-1,-100,15032.378378537134,0.005319904027199547,0.0032972132597919542,0.9999804133111112,19.35656921331434,0.021671892995905915,-7.500652822042971,3.417810273539401,-73.7454833984375,5356.25390625,True
1599560546.617861,0.0,10,0.5,0.5,-2.74072615814209,-0.05075,-0.03,-0.5,0.006642506224511534,10,1,100,-0.03271514020546318,-10,-1,-100,15032.51606816845,0.0050783050219720465,0.0030192061008530897,0.9999825474540164,19.788510933780806,0.02205941738264284,-6.834909933307991,3.046427398434038,-70.233642578125,5356.25390625,True
1599560546.6488366,0.0,10,0.5,0.5,-2.0095631256103514,-0.05075,-0.03,-0.5,0.01901585300314189,10,1,100,-0.043227718011520144,-10,-1,-100,15032.58344848617,0.004955672900194919,0.0028808435534777807,0.9999835708883054,19.96470468034444,0.022214460693581576,-6.475484093465256,2.8607336141902846,-68.5802001953125,5356.25390625,True
1599560546.6817477,0.0,10,0.5,0.5,-2.9976301879882814,-0.05075,-0.03,-0.5,0.0011001339493781,10,1,100,-0.027348344733976824,-10,-1,-100,15032.663521270617,0.0047013146768127515,0.0025940508413900745,0.9999855841663627,20.245533210462426,0.02245932174543242,-5.714153271721731,2.489341770408544,-65.47998046875,5356.25390625,True
1599560546.7154148,0.0,10,0.5,0.5,-2.341892837524414,-0.05075,-0.03,-0.5,0.012924077530693778,10,1,100,-0.03813680758456218,-10,-1,-100,15032.734807603178,0.004569728973082821,0.0024426972032100106,0.9999865753136319,20.35172061681485,0.022551383162736485,-5.315665625120929,2.303643394665032,-64.0333251953125,5356.25390625,True
1599560546.7514079,0.0,10,0.5,0.5,-3.2001350708007816,-0.05075,-0.03,-0.5,-0.005710772008885822,10,1,100,-0.021564504484860327,-10,-1,-100,15032.807068032445,0.00430114003831025,0.0021377094707907373,0.999988465129768,20.510727293845957,0.02269097934931947,-4.493553960755575,1.9322411013829615,-61.3468017578125,5356.25390625,True
1599560546.7813284,0.0,10,0.5,0.5,-3.2752340774536135,-0.05075,-0.03,-0.5,-0.010492955405401561,10,1,100,-0.017648510025983805,-10,-1,-100,15032.883235317538,0.00402311154454173,0.001818996459194465,0.9999902528651875,20.60097866414624,0.0227713386175643,-3.645838708071761,1.5608300386402676,-58.936248779296875,5356.25390625,True
1599560546.8153434,0.0,10,0.5,0.5,-3.3436937026977542,-0.05075,-0.03,-0.5,-0.01396115373611553,10,1,100,-0.013972874108668994,-10,-1,-100,15032.955496591516,0.0037389394643308786,0.0015000409789551153,0.9999918850714458,20.62763084914617,0.022794188842067957,-2.781895437894105,1.1894082904572714,-56.801422119140625,5356.25390625,True
1599560546.848317,0.0,10,0.5,0.5,-2.3563078079223634,-0.05075,-0.03,-0.5,0.017692008608786332,10,1,100,-0.04217781475498409,-10,-1,-100,15032.955496591516,0.0037389394643308786,0.0015000409789551153,0.9999918850714458,20.62763084914617,0.022794188842067957,-2.781895437894105,1.1894082904572714,-56.801422119140625,5356.25390625,True
1599560546.8842323,0.0,10,0.5,0.5,-2.9553048782348634,-0.05075,-0.03,-0.5,-0.0003091483572942831,10,1,100,-0.026017402946728628,-10,-1,-100,15032.958424524288,0.0035937641925555953,0.0013383685263236185,0.9999926467872731,20.620912259704877,0.022786935644874586,-2.346780629251429,1.0036928385691084,-55.837432861328125,5356.25390625,True
1599560546.9151492,0.0,10,0.5,0.5,-3.486258148193359,-0.05075,-0.03,-0.5,-0.020225180744657678,10,1,100,-0.007875261129159903,-10,-1,-100,15032.972092550248,0.0032986327123126027,0.0010123523195491816,0.9999940470647865,20.575005273779038,0.02274117850167253,-1.4750282681977411,0.6322514594301767,-54.1163330078125,5356.25390625,True
1599560546.9481943,0.0,10,0.5,0.5,-3.4804838790893555,-0.05075,-0.03,-0.5,-0.025896781496818497,10,1,100,-0.0037747147641127576,-10,-1,-100,15032.98283165996,0.0029948911917866234,0.000666491089225725,0.9999952931971118,20.49438402437536,0.02266079973385054,-0.6060543799105252,0.2607949513720964,-52.671234130859375,5356.25390625,True
1599560546.9821002,0.0,10,0.5,0.5,-3.7198264160156254,-0.05075,-0.03,-0.5,-0.047401980787726096,10,1,100,0.01734293746037706,-10,-1,-100,15032.993569542188,0.0025286778927496307,0.00015870880902490197,0.9999967902946633,20.379581754615952,0.022550559305306743,0.684999981308237,-0.2964193935463344,-51.0203857421875,5356.25390625,True
1599560547.0181766,0.0,10,0.5,0.5,-2.9470816650390628,-0.05075,-0.03,-0.5,0.0031040337579109145,10,1,100,-0.029035692942577684,-10,-1,-100,15032.993569542188,0.0025286778927496307,0.00015870880902490197,0.9999967902946633,20.379581754615952,0.022550559305306743,0.684999981308237,-0.2964193935463344,-51.0203857421875,5356.25390625,True
1599560547.0484328,0.0,10,0.5,0.5,-3.4067836151123045,-0.05075,-0.03,-0.5,-0.03439770855062151,10,1,100,0.006384461103876582,-10,-1,-100,15032.938880024012,0.0022086516166764675,-0.0001800021737505154,0.9999975447256126,20.39222217193542,0.022576855740607117,1.5444719519769026,-0.667911290448826,-50.26446533203125,5356.25390625,True
1599560547.082347,0.0,10,0.5,0.5,-3.221397994995117,-0.05075,-0.03,-0.5,-0.018681128415284236,10,1,100,-0.007565285355330447,-10,-1,-100,15032.94180941803,0.002046680949290389,-0.00034265897560968275,0.9999978468386412,20.39619150105812,0.022587428813027926,1.9744022217194126,-0.8536614134902027,-49.98980712890625,5356.25390625,True
1599560547.1153815,0.0,10,0.5,0.5,-3.3067038497924806,-0.05075,-0.03,-0.5,-0.03968350525464164,10,1,100,0.012743338453870722,-10,-1,-100,15032.882237359532,0.001716860543482143,-0.0006792046136154473,0.9999982955340311,20.402237688418783,0.02260627874026181,2.8345482877810073,-1.2251697817107459,-49.647430419921875,5356.25390625,True
1599560547.1522837,0.0,10,0.5,0.5,-3.2002745361328127,-0.05075,-0.03,-0.5,-0.04112284880862224,10,1,100,0.016967766204858677,-10,-1,-100,15032.827549242531,0.001380716514102992,-0.0009959690431361387,0.9999985508327363,20.408244505540452,0.022624347101722894,3.6952599173881677,-1.5966878720029265,-49.5804443359375,5356.25390625,True
1599560547.1832023,0.0,10,0.5,0.5,-3.1499215087890624,-0.05075,-0.03,-0.5,-0.027378920801361846,10,1,100,0.0023914668949030285,-10,-1,-100,15032.824619351304,0.001209786683803568,-0.0011567228062506808,0.9999985992032834,20.41196935815662,0.022633705570591713,4.125976162931679,-1.7824504082326027,-49.650390625,5356.25390625,True
1599560547.2155652,0.0,10,0.5,0.5,-3.015548370361328,-0.05075,-0.03,-0.5,-0.04561426591851556,10,1,100,0.023650759001372017,-10,-1,-100,15032.705478494056,0.0008634288669093984,-0.0014662232157969294,0.9999985523389888,20.421243774201344,0.022652904857352107,4.98837632364646,-2.153981815062049,-49.996826171875,5356.25390625,True
1599560547.249557,0.0,10,0.5,0.5,-2.863766777038574,-0.05075,-0.03,-0.5,-0.04734331260107641,10,1,100,0.027965356198516346,-10,-1,-100,15032.645909278071,0.0005118166364185196,-0.0017607562018239625,0.9999983188892511,20.441866580872418,0.022681531649752867,5.854879114739223,-2.52552087155046,-50.618743896484375,5356.25390625,True
1599560547.2844567,0.0,10,0.5,0.5,-2.6908745651245116,-0.05075,-0.03,-0.5,-0.0502512504097668,10,1,100,0.03259251110832463,-10,-1,-100,15032.522863224149,0.00015263757867936716,-0.002052428252362657,0.9999978821177764,20.46407420573157,0.02270697918599052,6.723714911469747,-2.8970666701637335,-51.516326904296875,5356.25390625,True
1599560547.3153706,0.0,10,0.5,0.5,-2.839132522583008,-0.05075,-0.03,-0.5,-0.03614235580388086,10,1,100,0.016828629740098192,-10,-1,-100,15032.460364237777,-2.7996958087706245e-05,-0.0021868502388519722,0.9999976084482418,20.47515103983596,0.02271712133434293,7.158854211779348,-3.0828417950318854,-52.06829833984375,5356.25390625,True
1599560547.3494782,0.0,10,0.5,0.5,-2.390174003601074,-0.05075,-0.03,-0.5,-0.05141014907546525,10,1,100,0.039092144334957196,-10,-1,-100,15032.337319387589,-0.00039228151069209367,-0.002445717838994956,0.9999969322850287,20.503787224001435,0.022737658986149444,8.03313259601306,-3.4543956192586345,-53.378875732421875,5356.25390625,True
1599560547.3824263,0.0,10,0.5,0.5,-1.6712942276000975,-0.05075,-0.03,-0.5,-0.0650671289124393,10,1,100,0.06387218101268148,-10,-1,-100,15032.086345931166,-0.0009460669288540832,-0.0028028387225083238,0.9999956245166586,20.523896179435553,0.02271846532269937,9.338834806880405,-4.011732698192887,-55.861114501953125,5356.25390625,True
1599560547.4183314,0.0,10,0.5,0.5,-2.895623664855957,-0.05075,-0.03,-0.5,-0.029617324215978312,10,1,100,0.008809111051035582,-10,-1,-100,15032.086345931166,-0.0009460669288540832,-0.0028028387225083238,0.9999956245166586,20.523896179435553,0.02271846532269937,9.338834806880405,-4.011732698192887,-55.861114501953125,5356.25390625,True
1599560547.449309,0.0,10,0.5,0.5,-1.777081199645996,-0.05075,-0.03,-0.5,-0.0526176915002969,10,1,100,0.04973387440315347,-10,-1,-100,15031.900801741518,-0.0013153895521659327,-0.0030096964435049486,0.9999946057242729,20.509267044540746,0.022651862855814026,10.19688336001891,-4.383293257676067,-57.860076904296875,5356.25390625,True
1599560547.4832187,0.0,10,0.5,0.5,-2.1446506500244142,-0.05075,-0.03,-0.5,-0.042109852523469535,10,1,100,0.03312781033520576,-10,-1,-100,15031.832443952444,-0.001497416581744773,-0.003100104479321732,0.9999940735303375,20.489867228037035,0.02259675509162175,10.619214555230196,-4.569073906948608,-58.96270751953125,5356.25390625,True
1599560547.5157328,0.0,10,0.5,0.5,-1.3394171600341798,-0.05075,-0.03,-0.5,-0.052735918339299685,10,1,100,0.05588605259536841,-10,-1,-100,15031.643970272271,-0.0018671723263671538,-0.003276981350720731,0.9999928875050714,20.42032902192098,0.022433591832148835,11.444264100720348,-4.940635596260217,-61.37469482421875,5356.25390625,True
1599560547.5520432,0.0,10,0.5,0.5,-1.030332580566406,-0.05075,-0.03,-0.5,-0.05093612631525093,10,1,100,0.058946935293220135,-10,-1,-100,15031.39006747771,-0.002228342883267815,-0.0034194892530971326,0.999991670755933,20.298883802493307,0.0221865599030578,12.23226353483601,-5.312197546368448,-64.061767578125,5356.25390625,True
1599560547.583028,0.0,10,0.5,0.5,-1.534827896118164,-0.05075,-0.03,-0.5,-0.04420649794057453,10,1,100,0.043117194023103496,-10,-1,-100,15031.32463919418,-0.002409962312767195,-0.003486087755453803,0.9999910195965825,20.21449955285076,0.022027172709025464,12.607701445594302,-5.497978758579995,-65.50860595703125,5356.25390625,True
1599560547.616036,0.0,10,0.5,0.5,1.3527338027954103,-0.05075,-0.03,-0.5,-0.059399439015395385,10,1,100,0.10216652827255734,-10,-1,-100,15030.813904086011,-0.00310922685189877,-0.003683181011409484,0.9999883833755373,19.677766038988665,0.0211206302571117,13.933087346735444,-6.241108873020343,-71.98397827148438,5356.25390625,True
1599560547.649224,0.0,10,0.5,0.5,-0.8372147750854493,-0.05075,-0.03,-0.5,-0.04390961191150546,10,1,100,0.05140009862434168,-10,-1,-100,15030.688906315016,-0.003280443559370443,-0.0037200575860983336,0.9999876998551581,19.485413704059543,0.02082312004513739,14.20794067518418,-6.426893661490347,-73.77487182617188,5356.25390625,True
1599560547.6851861,0.0,10,0.5,0.5,0.3731980209350585,-0.05075,-0.03,-0.5,-0.04575105068381877,10,1,100,0.0699436595035346,-10,-1,-100,15030.431097280001,-0.0036017161681543694,-0.0037689282725208214,0.9999864113178342,19.018578330475265,0.020141236947494423,14.670042869062758,-6.798467561308829,-77.48025512695312,5356.25390625,True
1599560547.7161894,0.0,10,0.5,0.5,0.6833847656250001,-0.05075,-0.03,-0.5,-0.04452845975329953,10,1,100,0.07293305490868235,-10,-1,-100,15030.175241232966,-0.0039180408301343166,-0.0038010387876878846,0.999985100419095,18.47113772694932,0.01938985063545008,15.027303936036516,-7.1700494524843625,-81.276123046875,5356.25390625,True
1599560547.7498953,0.0,10,0.5,0.5,-0.07872221374511712,-0.05075,-0.03,-0.5,-0.04211961052003531,10,1,100,0.05772789258808573,-10,-1,-100,15029.984813086805,-0.004064678161836772,-0.003807424081114468,0.9999844908363866,18.15940750850144,0.01898682040657888,15.156933296790907,-7.355843848234789,-83.20001220703125,5356.25390625,True
1599560547.7848577,0.0,10,0.5,0.5,-0.9586501007080077,-0.05075,-0.03,-0.5,-0.04158153971323761,10,1,100,0.04337602054113847,-10,-1,-100,15029.984813086805,-0.004064678161836772,-0.003807424081114468,0.9999844908363866,18.15940750850144,0.01898682040657888,15.156933296790907,-7.355843848234789,-83.20001220703125,5356.25390625,True
1599560547.8187702,0.0,10,0.5,0.5,3.2560539283752443,-0.05075,-0.03,-0.5,-0.039306035238479434,10,1,100,0.10330134483997686,-10,-1,-100,15029.399857706972,-0.004606954483999238,-0.003786012469855203,0.9999822208819318,16.84026124639548,0.017440501986798376,15.477836279849509,-8.099046579164536,-90.71464538574219,5356.25390625,True
1599560547.8496795,0.0,10,0.5,0.5,0.6423308525085449,-0.05075,-0.03,-0.5,-0.03970827802911462,10,1,100,0.06323499199645045,-10,-1,-100,15029.210406217724,-0.004732866534749191,-0.003769580568633888,0.9999816949508131,16.86722915939749,0.017467335873182076,15.858764235455173,-8.284851556215692,-92.61811828613281,5356.25390625,True
1599560547.8826203,0.0,10,0.5,0.5,0.8630966548919679,-0.05075,-0.03,-0.5,-0.039133068452012656,10,1,100,0.06419591229081428,-10,-1,-100,15029.014118147548,-0.0048534624979175624,-0.0037489654811700265,0.9999811944029761,17.295369167094673,0.01792807909270874,16.626523219837168,-8.470655401091413,-94.57685089111328,5356.25390625,True
1599560547.9166853,0.0,10,0.5,0.5,1.0433915939331055,-0.05075,-0.03,-0.5,-0.038788505935810354,10,1,100,0.06366361853408004,-10,-1,-100,15028.88326039596,-0.004955869685177907,-0.0037267925822118833,0.9999807750015561,17.719609042486837,0.018403578555583545,17.408568102501437,-8.65645779115687,-96.5162353515625,5356.25390625,True
1599560547.9526474,0.0,10,0.5,0.5,2.242993278503418,-0.05075,-0.03,-0.5,-0.03482016759142126,10,1,100,0.0766298661309067,-10,-1,-100,15028.498496982153,-0.005164527645047181,-0.003670340775640254,0.9999799279249529,18.513139617013987,0.019350358721267467,18.97021788981612,-9.028056557817076,-100.2861328125,5356.25390625,True
1599560547.982699,0.0,10,0.5,0.5,1.441429096221924,-0.05075,-0.03,-0.5,-0.03688588800683383,10,1,100,0.06628575429261292,-10,-1,-100,15028.30709129211,-0.0052583108638591695,-0.0036378119009295865,0.9999795580367795,18.912267177856858,0.019850433586301588,19.778710062523178,-9.213852509907799,-102.09907531738281,5356.25390625,True
1599560548.0165708,0.0,10,0.5,0.5,2.519453220367432,-0.05075,-0.03,-0.5,-0.03219796063928074,10,1,100,0.0756083111123983,-10,-1,-100,15027.977015137556,-0.005426520790864036,-0.0035656974439286504,0.9999789191147204,19.632407788245384,0.020809278611540374,21.361401811472945,-9.585435950646172,-105.54804992675781,5356.25390625,True
1599560548.0493753,0.0,10,0.5,0.5,2.6322016086578373,-0.05075,-0.03,-0.5,-0.030879653824320154,10,1,100,0.07419660837012826,-10,-1,-100,15027.53072718985,-0.00556494633173627,-0.0034883389945450597,0.9999784311990855,20.25191735845255,0.02170440883211355,22.89135891754418,-9.957006825951082,-108.73104095458984,5356.25390625,True
1599560548.0862732,0.0,10,0.5,0.5,3.4691199588775636,-0.05075,-0.03,-0.5,-0.0244819007757259,10,1,100,0.07828054071996463,-10,-1,-100,15026.944790915586,-0.005726417203435356,-0.003360136012657432,0.9999779585730821,21.061011652223037,0.022970731479727814,25.141322438165005,-10.51433808153693,-112.99077606201172,5356.25390625,True
1599560548.1161923,0.0,10,0.5,0.5,2.8029323425292967,-0.05075,-0.03,-0.5,-0.02774882348592219,10,1,100,0.07026763444112569,-10,-1,-100,15026.490690089646,-0.005798853630589082,-0.0032736937701872432,0.9999778278670332,21.548770474997383,0.023777757631941558,26.634679082013765,-10.88587448035653,-115.48611450195312,5356.25390625,True
1599560548.1498327,0.0,10,0.5,0.5,1.6521214294433595,-0.05075,-0.03,-0.5,-0.03633967470184835,10,1,100,0.06319740927262832,-10,-1,-100,15026.490690089646,-0.005798853630589082,-0.0032736937701872432,0.9999778278670332,21.548770474997383,0.023777757631941558,26.634679082013765,-10.88587448035653,-115.48611450195312,5356.25390625,True
1599560548.1827762,0.0,10,0.5,0.5,3.503204616546631,-0.05075,-0.03,-0.5,-0.02240979612682578,10,1,100,0.06959677534776304,-10,-1,-100,15025.839322145213,-0.005855946141138862,-0.003147524254686736,0.9999779002487297,22.158402784816058,0.02485863324956078,28.793827709028953,-11.443152258730768,-118.71220397949219,5356.25390625,True
1599560548.219963,0.0,10,0.5,0.5,1.968442134857178,-0.05075,-0.03,-0.5,-0.03496454204548177,10,1,100,0.06399983225342407,-10,-1,-100,15025.839322145213,-0.005855946141138862,-0.003147524254686736,0.9999779002487297,22.158402784816058,0.02485863324956078,28.793827709028953,-11.443152258730768,-118.71220397949219,5356.25390625,True
1599560548.249866,0.0,10,0.5,0.5,3.0355109634399415,-0.05075,-0.03,-0.5,-0.02542684997994564,10,1,100,0.06476239106147424,-10,-1,-100,15025.384243592038,-0.005861967145172753,-0.0030613647279332107,0.999978132454501,22.496596347936805,0.025496011181630224,30.184904599396454,-11.814653245457626,-120.51821899414062,5356.25390625,True
1599560548.2837753,0.0,10,0.5,0.5,2.6449304065704347,-0.05075,-0.03,-0.5,-0.029727569402299057,10,1,100,0.06347432064015157,-10,-1,-100,15025.125454408932,-0.005854907329136998,-0.0030227402691371083,0.9999782913150828,22.64832158444564,0.025791274148099105,30.867564721220813,-12.000398695761806,-121.3178939819336,5356.25390625,True
1599560548.3166842,0.0,10,0.5,0.5,3.0751211853027343,-0.05075,-0.03,-0.5,-0.024873850304151797,10,1,100,0.0606630744202023,-10,-1,-100,15024.604945495725,-0.005822304912846692,-0.002944091133436134,0.9999787163199525,22.92180382787045,0.026338542290687616,32.21017073478908,-12.371879582256371,-122.71041870117188,5356.25390625,True
1599560548.3528266,0.0,10,0.5,0.5,3.055824199676514,-0.05075,-0.03,-0.5,-0.02462926631515327,10,1,100,0.05786196162555485,-10,-1,-100,15024.146936046309,-0.005766688968950539,-0.002870999083596619,0.9999792511160406,23.160953480211457,0.026833687922647426,33.52641913840054,-12.743348002294844,-123.82731628417969,5356.25390625,True
1599560548.383744,0.0,10,0.5,0.5,3.1902364425659178,-0.05075,-0.03,-0.5,-0.020440677565710046,10,1,100,0.04926371988468324,-10,-1,-100,15023.306113010854,-0.005637653942147851,-0.002767105229984242,0.9999802797988944,23.46758811248093,0.02749454743398567,35.46042342220648,-13.300528068167727,-124.98577880859375,5356.25390625,True
1599560548.416771,0.0,10,0.5,0.5,2.796549285888672,-0.05075,-0.03,-0.5,-0.027276299271884547,10,1,100,0.056295238835802855,-10,-1,-100,15023.04829969001,-0.0055842061740552125,-0.002735453954724177,0.9999806667796469,23.55815159495606,0.027696799403656637,36.096005746212825,-13.486249136910851,-125.234130859375,5356.25390625,True
1599560548.4497783,0.0,10,0.5,0.5,2.8688003196716307,-0.05075,-0.03,-0.5,-0.023651686661854018,10,1,100,0.048210633146005225,-10,-1,-100,15022.523883421673,-0.005462250161363181,-0.002674296937176507,0.9999815058085156,23.72414868720372,0.028079629735503004,37.355019476668254,-13.857683092214184,-125.52409362792969,5356.25390625,True
1599560548.4866793,0.0,10,0.5,0.5,2.7618240203857423,-0.05075,-0.03,-0.5,-0.02341789397205161,10,1,100,0.044626659395196444,-10,-1,-100,15021.939896358177,-0.005319105482516914,-0.002617119166619522,0.9999824287476924,23.871589331529524,0.028439086815591496,38.59832110918153,-14.229106641336166,-125.53842163085938,5356.25390625,True
1599560548.5165987,0.0,10,0.5,0.5,2.7848169403076173,-0.05075,-0.03,-0.5,-0.02907001356739332,10,1,100,0.05889315246501592,-10,-1,-100,15021.939896358177,-0.005319105482516914,-0.002617119166619522,0.9999824287476924,23.871589331529524,0.028439086815591496,38.59832110918153,-14.229106641336166,-125.53842163085938,5356.25390625,True
1599560548.5505047,0.0,10,0.5,0.5,2.6613934993743897,-0.05075,-0.03,-0.5,-0.023076490710591438,10,1,100,0.04121716654368356,-10,-1,-100,15021.352980070864,-0.005158902738376276,-0.002563114781637748,0.999983407944928,24.001345958419364,0.028780981350499862,39.82501228653961,-14.600520144505465,-125.27713775634766,5356.25390625,True
1599560548.5833833,0.0,10,0.5,0.5,2.6828540992736816,-0.05075,-0.03,-0.5,-0.025544959112713664,10,1,100,0.04763085049920232,-10,-1,-100,15021.089306437178,-0.005072203773664742,-0.0025369917893763817,0.9999839180814555,24.059443524511885,0.02894676760585902,40.431180469829364,-14.786223392487042,-125.04313659667969,5356.25390625,True
1599560548.6194205,0.0,10,0.5,0.5,2.199121658325195,-0.05075,-0.03,-0.5,-0.01992029308440306,10,1,100,0.024357639554037955,-10,-1,-100,15020.175240157987,-0.0047825298547632235,-0.0024625869897346403,0.9999855314320835,24.204296370211587,0.02942867348117552,42.2135035652831,-15.343319575857954,-123.927734375,5356.25390625,True
1599560548.6503634,0.0,10,0.5,0.5,2.483974506378174,-0.05075,-0.03,-0.5,-0.02463773763824617,10,1,100,0.041794048816713884,-10,-1,-100,15019.851019864553,-0.004678677628581055,-0.002438341352621997,0.9999860821366946,24.241570285889306,0.029584867760402884,42.7924041102165,-15.529014141628348,-123.41810607910156,5356.25390625,True
1599560548.6843867,0.0,10,0.5,0.5,2.422295076370239,-0.05075,-0.03,-0.5,-0.024454472868036755,10,1,100,0.03996533132829961,-10,-1,-100,15019.52679952071,-0.004568681470597378,-0.002415093593500248,0.9999866471471281,24.27258443470656,0.029738906645093467,43.36177270940157,-15.714706866509793,-122.83959197998047,5356.25390625,True
1599560548.717067,0.0,10,0.5,0.5,1.0546287841796875,-0.05075,-0.03,-0.5,-0.016136119603842355,10,1,100,-0.0014345031887596504,-10,-1,-100,15018.223082677345,-0.004093411929091999,-0.0023187523332515243,0.9999889336219655,24.320846476903217,0.030326346362924198,45.51130551945793,-16.457460729708526,-119.83648681640625,5356.25390625,True
1599560548.7524493,0.0,10,0.5,0.5,2.0323679447174072,-0.05075,-0.03,-0.5,-0.022996127497407114,10,1,100,0.03180720187828981,-10,-1,-100,15017.893979110871,-0.003964949884708518,-0.0022939406710548484,0.9999895084492683,24.31011946859954,0.030462552364104396,46.007028216785216,-16.64314575817079,-118.91344451904297,5356.25390625,True
1599560548.783367,0.0,10,0.5,0.5,1.344337356567383,-0.05075,-0.03,-0.5,-0.019561513672907503,10,1,100,0.015955060575688663,-10,-1,-100,15017.241632402642,-0.003705527883690204,-0.002240562228183937,0.9999906244280519,24.25496335527154,0.030713885876271288,46.93214613238642,-17.014512903641904,-116.86062622070312,5356.25390625,True
1599560548.8172727,0.0,10,0.5,0.5,2.344756103515625,-0.05075,-0.03,-0.5,-0.024855984489099404,10,1,100,0.04172158844975276,-10,-1,-100,15017.241632402642,-0.003705527883690204,-0.002240562228183937,0.9999906244280519,24.25496335527154,0.030713885876271288,46.93214613238642,-17.014512903641904,-116.86062622070312,5356.25390625,True
1599560548.8505123,0.0,10,0.5,0.5,0.33822954940795924,-0.05075,-0.03,-0.5,-0.015509291073404069,10,1,100,-0.004492093169729636,-10,-1,-100,15016.197683234583,-0.0032868703940574793,-0.0021559346125307388,0.9999922741846355,24.071826900434683,0.03100869929648469,48.11103980336117,-17.571560087478385,-113.26463317871094,5356.25390625,True
1599560548.8865342,0.0,10,0.5,0.5,0.5893172168731691,-0.05075,-0.03,-0.5,-0.017047830367049634,10,1,100,0.005032318083214873,-10,-1,-100,15015.480883661192,-0.0029947057194985517,-0.0020934063960192355,0.9999933246713775,23.86893717202482,0.03111889475069862,48.71956031455398,-17.942925224835548,-110.52275848388672,5356.25390625,True
1599560548.9175012,0.0,10,0.5,0.5,0.30535693550109855,-0.05075,-0.03,-0.5,-0.015497090462132677,10,1,100,0.002607223562715189,-10,-1,-100,15014.757248061826,-0.0027090226079121457,-0.0020228919349510044,0.9999942845360313,23.606707358489086,0.031149173137731714,49.187602478587095,-18.31429314372394,-107.59832000732422,5356.25390625,True
1599560548.9504285,0.0,10,0.5,0.5,1.715241724014282,-0.05075,-0.03,-0.5,-0.022497126583513254,10,1,100,0.030939216604780533,-10,-1,-100,15014.757248061826,-0.0027090226079121457,-0.0020228919349510044,0.9999942845360313,23.606707358489086,0.031149173137731714,49.187602478587095,-18.31429314372394,-107.59832000732422,5356.25390625,True
1599560548.9834495,0.0,10,0.5,0.5,0.8323423805236816,-0.05075,-0.03,-0.5,-0.01835277572736886,10,1,100,0.014418410725934062,-10,-1,-100,15014.368574833265,-0.0025607184701470424,-0.0019856157408540405,0.999994750011742,23.480264823946104,0.031164283701661428,49.42325497672417,-18.499978217721466,-106.08418273925781,5356.25390625,True
1599560549.0203876,0.0,10,0.5,0.5,-1.0888260288238527,-0.05075,-0.03,-0.5,-0.0086659743186747,10,1,100,-0.020630865714980805,-10,-1,-100,15013.254313720157,-0.0021091921583144806,-0.0018640780294248245,0.9999960382529219,23.000034302735028,0.031021809490064715,49.87976574675031,-19.057040171532712,-101.31571197509766,5356.25390625,True
1599560549.050393,0.0,10,0.5,0.5,0.296543483734131,-0.05075,-0.03,-0.5,-0.01582787550775846,10,1,100,0.007279145331454897,-10,-1,-100,15012.86271115148,-0.00195467696553637,-0.0018191983167209127,0.9999964348713672,22.803043914705565,0.030897660644715094,49.937691553284644,-19.24273014708271,-99.61930847167969,5356.25390625,True
1599560549.0843031,0.0,10,0.5,0.5,-1.870876361846924,-0.05075,-0.03,-0.5,-0.004461098766529406,10,1,100,-0.02725531469218854,-10,-1,-100,15011.681067983154,-0.0015022032763991066,-0.0016755183839030293,0.9999974680085253,22.120440124370873,0.030276561162304393,49.85526483249136,-19.799808070992405,-94.25395202636719,5356.25390625,True
1599560549.1172826,0.0,10,0.5,0.5,-0.25397369766235345,-0.05075,-0.03,-0.5,-0.013070303474757763,10,1,100,0.0007128940520910072,-10,-1,-100,15011.2894655579,-0.0013473588626844173,-0.0016237279625862585,0.9999977740633219,21.87403911236157,0.029993469693590402,49.76568765281233,-19.98550299706482,-92.45314025878906,5356.25390625,True
1599560549.1535635,0.0,10,0.5,0.5,-1.4063926391601562,-0.05075,-0.03,-0.5,-0.006474056554439419,10,1,100,-0.017194498095420677,-10,-1,-100,15010.445713885594,-0.0010459405298036896,-0.0015172406387186615,0.9999983019931845,21.333948948966725,0.029275940083857626,49.445714679024235,-20.356895734974227,-88.8587646484375,5356.25390625,True
1599560549.1844838,0.0,10,0.5,0.5,0.3067895812988281,-0.05075,-0.03,-0.5,-0.017050456782252588,10,1,100,0.012681376457263438,-10,-1,-100,15010.445713885594,-0.0010459405298036896,-0.0015172406387186615,0.9999983019931845,21.333948948966725,0.029275940083857626,49.445714679024235,-20.356895734974227,-88.8587646484375,5356.25390625,True
1599560549.2173953,0.0,10,0.5,0.5,-1.6470422897338868,-0.05075,-0.03,-0.5,-0.004629445873209927,10,1,100,-0.020265532905422916,-10,-1,-100,15009.657627203735,-0.0007484603809285898,-0.0014049029886126483,0.9999987330265226,21.85422202994951,0.029893386017059813,51.58282144036879,-20.72827733696459,-85.44412231445312,5356.25390625,True
1599560549.2505453,0.0,10,0.5,0.5,-1.7826749420166017,-0.05075,-0.03,-0.5,-0.0031563237181190373,10,1,100,-0.022429321919604218,-10,-1,-100,15008.808016809518,-0.00046039511394827817,-0.0012900117447494524,0.9999990619525787,22.677965823992384,0.030815449165289017,54.49377739300692,-21.099633302453082,-82.23446655273438,5356.25390625,True
1599560549.287614,0.0,10,0.5,0.5,-1.977318199157715,-0.05075,-0.03,-0.5,-0.0007913446975591973,10,1,100,-0.026063630677514407,-10,-1,-100,15007.953523969976,-0.00016752263479786938,-0.0011647316048598226,0.9999993076679882,23.4210239890853,0.03153173523645212,57.277908140307375,-21.47096292087607,-79.10531616210938,5356.25390625,True
1599560549.3175328,0.0,10,0.5,0.5,-1.340801612854004,-0.05075,-0.03,-0.5,-0.006639518542986315,10,1,100,-0.012131349896663951,-10,-1,-100,15007.501375679276,-3.0242479008060314e-05,-0.0011047859311277613,0.999999389266533,23.775197695719065,0.031835036507584576,58.65101546762205,-21.656617444003974,-77.575439453125,5356.25390625,True
1599560549.3504982,0.0,10,0.5,0.5,-2.248863166809082,-0.05075,-0.03,-0.5,0.0010436623538936495,10,1,100,-0.028652862397523914,-10,-1,-100,15006.64590654173,0.0002424527980894576,-0.000981243519408548,0.9999994891887677,24.427927718341955,0.032316100127161136,61.3031518396523,-22.0279063367514,-74.69305419921875,5356.25390625,True
1599560549.3844092,0.0,10,0.5,0.5,-2.3283998794555663,-0.05075,-0.03,-0.5,0.002481834789043985,10,1,100,-0.03075354284646025,-10,-1,-100,15005.732820545789,0.0005073168313898916,-0.0008566605179897294,0.999999504381072,24.999610455949735,0.03263897139566619,63.80436957940235,-22.399169339696908,-72.07687377929688,5356.25390625,True
1599560549.4203112,0.0,10,0.5,0.5,-1.766768211364746,-0.05075,-0.03,-0.5,-0.002811058645293808,10,1,100,-0.018946405989288675,-10,-1,-100,15005.27481274365,0.0006385265322369751,-0.000792395491374539,0.9999994821964923,25.256793225874635,0.032749744294603665,64.99961136451617,-22.58479149391138,-70.87155151367188,5356.25390625,True
1599560549.4514792,0.0,10,0.5,0.5,-2.4480959854125977,-0.05075,-0.03,-0.5,0.004227004540994639,10,1,100,-0.03336691565586312,-10,-1,-100,15004.354890879826,0.0008869575028771496,-0.0006707931862967696,0.9999993816712536,25.719546912200794,0.03288830938424891,67.28819255564837,-22.95601858402012,-68.66757202148438,5356.25390625,True
1599560549.484287,0.0,10,0.5,0.5,-1.9674229888916017,-0.05075,-0.03,-0.5,-0.00122726552627867,10,1,100,-0.022005745496483525,-10,-1,-100,15003.897860305035,0.0010074892780415287,-0.0006106962139069997,0.9999993060075039,25.927398134288342,0.03292261782195809,68.38535001299532,-23.141623874038093,-67.66900634765625,5356.25390625,True
1599560549.517247,0.0,10,0.5,0.5,-3.351665222167969,-0.05075,-0.03,-0.5,0.018419488768558576,10,1,100,-0.06021436174073382,-10,-1,-100,15002.060947304359,0.0014625479214951985,-0.00037827987671306274,0.9999988589283052,26.626408437621812,0.03288778056154998,72.50297490969429,-23.88399508950245,-64.364501953125,5356.25390625,True
1599560549.5564573,0.0,10,0.5,0.5,-1.7728958129882812,-0.05075,-0.03,-0.5,-0.004708248874634561,10,1,100,-0.014959346240496725,-10,-1,-100,15002.060947304359,0.0014625479214951985,-0.00037827987671306274,0.9999988589283052,26.626408437621812,0.03288778056154998,72.50297490969429,-23.88399508950245,-64.364501953125,5356.25390625,True
1599560549.586377,0.0,10,0.5,0.5,-2.802165771484375,-0.05075,-0.03,-0.5,0.012886401277343518,10,1,100,-0.049275258248185606,-10,-1,-100,15000.556065530749,0.0017725007503810758,-0.00021926180543317076,0.9999984050814035,27.037375248041464,0.03273362531343726,75.35469473159573,-24.440726477370028,-62.6104736328125,5356.25390625,True
1599560549.61829,0.0,10,0.5,0.5,-1.9840235900878906,-0.05075,-0.03,-0.5,-0.002908330856714054,10,1,100,-0.01850326494603081,-10,-1,-100,15000.556065530749,0.0017725007503810758,-0.00021926180543317076,0.9999984050814035,27.037375248041464,0.03273362531343726,75.35469473159573,-24.440726477370028,-62.6104736328125,5356.25390625,True
1599560549.6532292,0.0,10,0.5,0.5,-2.4876482849121095,-0.05075,-0.03,-0.5,0.00903621871695311,10,1,100,-0.0405732285126641,-10,-1,-100,14999.569738496211,0.001971373125182125,-0.00011153450912658442,0.9999980506221272,27.268747377549033,0.032588171937360036,77.1650040362354,-24.811860757808994,-61.785888671875,5356.25390625,True
1599560549.6871421,0.0,10,0.5,0.5,-2.2927496948242188,-0.05075,-0.03,-0.5,0.003206347176192181,10,1,100,-0.030736051402228216,-10,-1,-100,14999.106848556781,0.0020609176598116704,-6.75023914202427e-05,0.9999978740286535,27.373408764827417,0.03250455719665067,78.04628955099886,-24.997422387001105,-61.4771728515625,5356.25390625,True
1599560549.7190225,0.0,10,0.5,0.5,-2.4783400344848636,-0.05075,-0.03,-0.5,0.017661274674901303,10,1,100,-0.05917139285262457,-10,-1,-100,14997.075600554468,0.0023991717364223856,0.00010310456454834332,0.9999971166680571,27.727371363966412,0.03210063092020305,81.42726708501937,-25.739634663913147,-60.931915283203125,5356.25390625,True
1599560549.7509384,0.0,10,0.5,0.5,-2.2192627868652344,-0.05075,-0.03,-0.5,0.0050340908265576224,10,1,100,-0.03410067204396402,-10,-1,-100,14996.550210392918,0.0024770399306215467,0.00014253670309617163,0.9999969219734981,27.800893536529085,0.03198140922064626,82.23796848661117,-25.925179689673477,-60.968017578125,5356.25390625,True
1599560549.7858443,0.0,10,0.5,0.5,-2.2670245361328125,-0.05075,-0.03,-0.5,0.0011843701912218614,10,1,100,-0.026497703963886364,-10,-1,-100,14996.550210392918,0.0024770399306215467,0.00014253670309617163,0.9999969219734981,27.800893536529085,0.03198140922064626,82.23796848661117,-25.925179689673477,-60.968017578125,5356.25390625,True
1599560549.8207514,0.0,10,0.5,0.5,-1.8307054595947267,-0.05075,-0.03,-0.5,0.015432045365178605,10,1,100,-0.05688190963378885,-10,-1,-100,14994.449626242276,0.002751814452686347,0.0002713216320508757,0.9999961769435872,28.03703608825334,0.03141783792105409,85.33704897924032,-26.667331850319783,-61.80218505859375,5356.25390625,True
1599560549.8516686,0.0,10,0.5,0.5,-2.0555977478027345,-0.05075,-0.03,-0.5,0.00579268750754424,10,1,100,-0.036423029320596156,-10,-1,-100,14993.864666088368,0.002814033901557464,0.0002999664798076053,0.9999959956086384,28.08090203828299,0.03125189399357783,86.07195102458878,-26.852863555185614,-62.18310546875,5356.25390625,True
1599560549.8845801,0.0,10,0.5,0.5,-2.2526021423339846,-0.05075,-0.03,-0.5,0.002996027367523347,10,1,100,-0.030336233031490686,-10,-1,-100,14993.864666088368,0.002814033901557464,0.0002999664798076053,0.9999959956086384,28.08090203828299,0.03125189399357783,86.07195102458878,-26.852863555185614,-62.18310546875,5356.25390625,True
1599560549.9184866,0.0,10,0.5,0.5,-1.401860122680664,-0.05075,-0.03,-0.5,0.01043945944258225,10,1,100,-0.04825156037895701,-10,-1,-100,14992.22404214926,0.0029756718901889196,0.00036701745652948563,0.9999955053273933,28.17092881980959,0.0306815969282352,88.15863702514042,-27.409445607211133,-63.73968505859375,5356.25390625,True
1599560549.954457,0.0,10,0.5,0.5,-1.4154136047363282,-0.05075,-0.03,-0.5,0.007965804176807768,10,1,100,-0.04249401873204595,-10,-1,-100,14991.167402267223,0.003069180436573044,0.00040495213362237004,0.9999952080611274,28.191535040784107,0.03023400838413573,89.43186767501774,-27.780490950648847,-65.1220703125,5356.25390625,True
