Timestamp,Input Throttle,horizon,dT,dt,Input Roll,Roll P,Roll I,Roll D,Input Pitch,Pitch P,Pitch I,Pitch D,Input Yaw,Yaw P,Yaw I,Yaw D,Altitude,Direction X,Direction Y,Direction Z,Drag X,Drag Y,Drag Z,Vertical Velocity,Roll,Mass,Has Fuel
1599559754.570105,0.0,10,0.5,0.5,-2.95421403503418,-0.05075,-0.00825,-0.2505,-0.0005327537824514241,10,1,100,0.17160016433798542,-10,-1,-100,14994.050573025364,-0.01681254718802507,-7.457718261006428e-05,0.9998586563586346,28.64442863598276,0.02727497575038802,-87.50340810020799,27.00897885623548,-31.791748046875,5356.25390625,True
1599559754.5980272,0.0,10,0.5,0.5,-3.002265269470215,-0.05075,-0.00825,-0.2505,-0.0004607426862043029,10,1,100,0.1737382467947613,-10,-1,-100,14994.584754372132,-0.016848288280713324,-7.191821117227022e-05,0.999858054930689,28.571759842677665,0.027439363678505874,-86.68204009922884,26.823011585918433,-31.791168212890625,5356.25390625,True
1599559754.6299658,0.0,10,0.5,0.5,-3.0505192375183108,-0.05075,-0.00825,-0.2505,-0.00021027928240475243,10,1,100,0.1800742845060303,-10,-1,-100,14995.65799955686,-0.01692306390027717,-6.71586441841231e-05,0.9998567924447699,28.426590756518067,0.027763697405765456,-85.04895917768674,26.451088410811092,-31.7899169921875,5356.25390625,True
1599559754.6578894,0.0,10,0.5,0.5,-3.0861030036926276,-0.05075,-0.00825,-0.2505,0.003170465718658719,10,1,100,0.17635091880841036,-10,-1,-100,14996.188274530228,-0.016941808353629326,-3.203666632688132e-05,0.999856476752219,28.354054722309552,0.02792359673714264,-84.23713089839228,26.26513270998443,-31.830169677734375,5356.25390625,True
1599559754.691799,0.0,10,0.5,0.5,-3.0656370208740236,-0.05075,-0.00825,-0.2505,0.007676866901796416,10,1,100,0.18041165580021012,-10,-1,-100,14997.20390137087,-0.016980362912644348,4.088881217761471e-05,0.999855822408141,28.22036826090926,0.02824750374525006,-82.65594362589263,25.893232627247652,-32.09088134765625,5356.25390625,True
1599559754.7416651,0.0,10,0.5,0.5,-3.0199315597534184,-0.05075,-0.00825,-0.2505,0.012356544353048761,10,1,100,0.18024247695681878,-10,-1,-100,14998.270309005282,-0.016998437828706588,0.00014969005236383458,0.9998555049127208,28.106431212461302,0.02857678760475396,-81.14296759542924,25.521346937921898,-32.61798095703125,5356.25390625,True
1599559754.7745771,0.0,10,0.5,0.5,-2.958129986572266,-0.05075,-0.00825,-0.2505,0.01894902116932993,10,1,100,0.1788315820614031,-10,-1,-100,14999.273238255293,-0.016986590128051475,0.00030839579626989615,0.9998556699083395,28.012153320728437,0.028905092612148794,-79.69544269105742,25.149474473691654,-33.4185791015625,5356.25390625,True
1599559754.809484,0.0,10,0.5,0.5,-3.205359494018555,-0.05075,-0.00825,-0.2505,0.003109286358350762,10,1,100,0.1817150111397195,-10,-1,-100,14999.273238255293,-0.016986590128051475,0.00030839579626989615,0.9998556699083395,28.012153320728437,0.028905092612148794,-79.69544269105742,25.149474473691654,-33.4185791015625,5356.25390625,True
1599559754.8421206,0.0,10,0.5,0.5,-2.9281273849487306,-0.05075,-0.00825,-0.2505,0.026112746503215926,10,1,100,0.1782665122551197,-10,-1,-100,15000.217572218738,-0.016939797783529612,0.000517237801408425,0.9998563775443502,27.934694055904917,0.029222384464113817,-78.30291827064937,24.777614475326637,-34.493804931640625,5356.25390625,True
1599559754.8710442,0.0,10,0.5,0.5,-2.602197667694092,-0.05075,-0.00825,-0.2505,0.05006341530337204,10,1,100,0.16949146313626762,-10,-1,-100,15001.690223361715,-0.016802086298535145,0.0009243573062617719,0.9998584077056045,27.840283944745135,0.02964903523234323,-76.2858751697857,24.21984616307104,-36.621826171875,5356.25390625,True
1599559754.9039617,0.0,10,0.5,0.5,-2.648439113616943,-0.05075,-0.00825,-0.2505,0.045809255039438515,10,1,100,0.16936061651662432,-10,-1,-100,15002.694124467904,-0.016660429900817477,0.00125495143799609,0.9998604178446151,27.7830666208715,0.029876779657613817,-74.9631356063629,23.84801470269383,-38.384033203125,5356.25390625,True
1599559754.93488,0.0,10,0.5,0.5,-2.787927144622803,-0.05075,-0.00825,-0.2505,0.03232683162918591,10,1,100,0.17359499768885076,-10,-1,-100,15003.164824508713,-0.016570284020173662,0.0014317154098244407,0.9998616783728018,27.753466159870815,0.02996653816070366,-74.30088606922827,23.66210316493972,-39.3682861328125,5356.25390625,True
1599559754.9797592,0.0,10,0.5,0.5,-2.3731174362182617,-0.05075,-0.00825,-0.2505,0.05738681424424638,10,1,100,0.15934289118059553,-10,-1,-100,15004.095481037279,-0.01635902134611382,0.0018188610137862215,0.9998645279062609,27.68695052735604,0.03008473399565216,-72.96078971003017,23.290288721616395,-41.542938232421875,5356.25390625,True
1599559755.0131826,0.0,10,0.5,0.5,-2.9098215446472167,-0.05075,-0.00825,-0.2505,0.018860855813865346,10,1,100,0.1804127543311635,-10,-1,-100,15004.095481037279,-0.01635902134611382,0.0018188610137862215,0.9998645279062609,27.68695052735604,0.03008473399565216,-72.96078971003017,23.290288721616395,-41.542938232421875,5356.25390625,True
1599559755.0470927,0.0,10,0.5,0.5,-1.3430824668884276,-0.05075,-0.00825,-0.2505,0.11502995757508916,10,1,100,0.11758272854092959,-10,-1,-100,15005.909915435244,-0.0157883690998458,0.002691442940997244,0.999871733541889,27.49011434808953,0.02999754170914928,-70.13443114952082,22.546697806875095,-46.717132568359375,5356.25390625,True
1599559755.0839942,0.0,10,0.5,0.5,-2.6271514907836915,-0.05075,-0.00825,-0.2505,0.028036820266868847,10,1,100,0.17452875378645186,-10,-1,-100,15005.909915435244,-0.0157883690998458,0.002691442940997244,0.999871733541889,27.49011434808953,0.02999754170914928,-70.13443114952082,22.546697806875095,-46.717132568359375,5356.25390625,True
1599559755.1169057,0.0,10,0.5,0.5,-1.7119443656921387,-0.05075,-0.00825,-0.2505,0.08256835534830392,10,1,100,0.13477395527712843,-10,-1,-100,15006.779044714058,-0.015428061903150913,0.003184873484566078,0.9998759080439932,27.33692288042202,0.029748073562903377,-68.596181218669,22.174924392140134,-49.716552734375,5356.25390625,True
1599559755.1946988,0.0,10,0.5,0.5,-1.966876947784424,-0.05075,-0.00825,-0.2505,0.05878390738436061,10,1,100,0.14817918154115353,-10,-1,-100,15007.245835619513,-0.015223792443305701,0.0034146094720579915,0.9998782808851269,27.241075920143025,0.029563342425089723,-67.78398364278446,21.989044115557707,-51.319793701171875,5356.25390625,True
1599559755.2603595,0.0,10,0.5,0.5,0.979115232849121,-0.05075,-0.00825,-0.2505,0.2017615941525287,10,1,100,0.0033894056598813838,-10,-1,-100,15009.788764062338,-0.01372342478787553,0.0049204336916014516,0.99989372282477,26.283731113620686,0.02753671791497219,-62.092605336393675,20.873877913104433,-62.383148193359375,5356.25390625,True
1599559755.2972608,0.0,10,0.5,0.5,-0.49241816558837903,-0.05075,-0.00825,-0.2505,0.1072680542150161,10,1,100,0.08552004844856151,-10,-1,-100,15010.594413208659,-0.013109020374650334,0.005426329713672489,0.999899349200036,25.77255862350278,0.026515986990092704,-59.80364516419997,20.502211223058023,-66.62158203125,5356.25390625,True
1599559755.3361573,0.0,10,0.5,0.5,-0.2530642944335937,-0.05075,-0.00825,-0.2505,0.10308768731211018,10,1,100,0.07711375032579698,-10,-1,-100,15011.44986680639,-0.01247740734871492,0.005844139150613005,0.9999050756664066,25.152675818055936,0.02536489977324411,-57.31005999790853,20.130578942872457,-70.85836791992188,5356.25390625,True
1599559755.370065,0.0,10,0.5,0.5,-1.2875878334045412,-0.05075,-0.00825,-0.2505,0.06176566238932029,10,1,100,0.13985675066412823,-10,-1,-100,15011.44986680639,-0.01247740734871492,0.005844139150613005,0.9999050756664066,25.152675818055936,0.02536489977324411,-57.31005999790853,20.130578942872457,-70.85836791992188,5356.25390625,True
1599559755.4039755,0.0,10,0.5,0.5,0.6524524200439452,-0.05075,-0.00825,-0.2505,0.13301827873247174,10,1,100,0.023449856804069732,-10,-1,-100,15012.59339889302,-0.011422883656052077,0.00648787891396821,0.9999137088550082,24.069174290248085,0.02354771000625269,-53.32701595416424,19.573198771862792,-77.21209716796875,5356.25390625,True
1599559755.4348915,0.0,10,0.5,0.5,-0.2602605155944825,-0.05075,-0.00825,-0.2505,0.0898532010661673,10,1,100,0.0881106848670481,-10,-1,-100,15012.994758337387,-0.011056538861194808,0.006676442521960918,0.9999165855528459,23.657227647145262,0.022930753973610756,-51.91825786935436,19.387424110899847,-79.36801147460938,5356.25390625,True
1599559755.4987214,0.0,10,0.5,0.5,0.5773569892883301,-0.05075,-0.00825,-0.2505,0.11208890899175335,10,1,100,0.038013223654712644,-10,-1,-100,15013.787712206948,-0.010272887111653257,0.007045590799906731,0.9999224107102869,22.760450766808205,0.021715681275501945,-48.99574626808452,19.015902448976014,-83.83761596679688,5356.25390625,True
1599559755.5346262,0.0,10,0.5,0.5,1.543619634628296,-0.05075,-0.00825,-0.2505,0.12580643713362463,10,1,100,-0.016270051334291685,-10,-1,-100,15014.865815158351,-0.009072006186704711,0.0075019266285482,0.9999307074995788,21.245037851828013,0.02002053113248742,-44.39728871198907,18.458685352100083,-90.66010284423828,5356.25390625,True
1599559755.6213953,0.0,10,0.5,0.5,1.2537805727005003,-0.05075,-0.00825,-0.2505,0.1089680310493962,10,1,100,0.011121651925826814,-10,-1,-100,15015.594316814095,-0.008235417523582693,0.007759327795922413,0.9999359833161159,21.77778986423057,0.020556819690002615,-44.59736937503487,18.087226823413104,-95.25077819824219,5356.25390625,True
1599559755.6762483,0.0,10,0.5,0.5,1.4719435701370238,-0.05075,-0.00825,-0.2505,0.10689882579793472,10,1,100,0.0033013503459538573,-10,-1,-100,15016.325749293668,-0.0074103274921816205,0.007970359305511723,0.9999407784559042,22.479247570464416,0.021399008252727933,-45.09103519877902,17.715764149710928,-99.6675796508789,5356.25390625,True
1599559755.7480552,0.0,10,0.5,0.5,1.657951713180542,-0.05075,-0.00825,-0.2505,0.10481862817734977,10,1,100,-0.007128467913238415,-10,-1,-100,15016.99858912907,-0.00657253226577992,0.008139153654193548,0.9999452765013738,23.102443181699332,0.022280562173829364,-45.37196560052642,17.344294757810307,-103.82535552978516,5356.25390625,True
1599559755.8019123,0.0,10,0.5,0.5,1.246161555671692,-0.05075,-0.00825,-0.2505,0.09564003095805503,10,1,100,0.0300427631688526,-10,-1,-100,15017.386278985883,-0.00615532133572656,0.008206235160126535,0.9999473834776261,23.36351863455365,0.022703286886935937,-45.39458024348524,17.15855752658339,-105.80226135253906,5356.25390625,True
1599559755.8398113,0.0,10,0.5,0.5,2.4457904676437376,-0.05075,-0.00825,-0.2505,0.10432294290348601,10,1,100,-0.06358713826607448,-10,-1,-100,15018.388217200758,-0.004931179294486827,0.008343626723709118,0.9999530325789613,23.96592402678137,0.023859942333517528,-45.05642367902915,16.60133739449991,-111.32099914550781,5356.25390625,True
1599559755.8774118,0.0,10,0.5,0.5,2.101481834602356,-0.05075,-0.00825,-0.2505,0.09507972733570973,10,1,100,-0.0313610156601514,-10,-1,-100,15019.046411586693,-0.00411814785164476,0.008382226651283414,0.999956388616343,24.309466554746336,0.02458829866492714,-44.68187196951549,16.229852193861372,-114.65628051757812,5356.25390625,True
1599559755.9093254,0.0,10,0.5,0.5,2.223928409767151,-0.05075,-0.00825,-0.2505,0.09216913429735842,10,1,100,-0.036540646813239014,-10,-1,-100,15019.651872246293,-0.0033395401290303296,0.008388550205547152,0.9999592390178591,24.576069892472283,0.025221156453561856,-44.14010511492398,15.85836516837194,-117.71620178222656,5356.25390625,True
1599559755.939246,0.0,10,0.5,0.5,1.9206218267440798,-0.05075,-0.00825,-0.2505,0.09099276036611981,10,1,100,-0.0008975027491167215,-10,-1,-100,15019.98292384937,-0.002963092003170161,0.00838187669978331,0.9999604813335228,24.6786396346013,0.025493578029433805,-43.80621281547784,15.672621786791595,-119.14288330078125,5356.25390625,True
1599559756.018035,0.0,10,0.5,0.5,2.393429904747009,-0.05075,-0.00825,-0.2505,0.08738090757690775,10,1,100,-0.0466119868203311,-10,-1,-100,15020.577644094243,-0.00221263789433899,0.00834142445629805,0.9999627617424504,24.82987009097167,0.02594999577157245,-43.03196885845026,15.301136989418938,-121.78977966308594,5356.25390625,True
1599559756.0529423,0.0,10,0.5,0.5,3.107588963890076,-0.05075,-0.00825,-0.2505,0.07262138295504408,10,1,100,-0.12935611878083364,-10,-1,-100,15021.771971214563,-0.0007855150041400065,0.008169294162334152,0.9999663222324378,24.958365300378738,0.02653320731331996,-41.15811563327346,14.558182522475784,-126.25748443603516,5356.25390625,True
1599559756.08087,0.0,10,0.5,0.5,2.302385981941223,-0.05075,-0.00825,-0.2505,0.08405938777034891,10,1,100,-0.024108941519675926,-10,-1,-100,15022.036618078011,-0.00045245625286287756,0.008116187241111756,0.9999669608482105,24.962040583832398,0.026618350577762122,-40.639896317429255,14.372448276593843,-127.20217895507812,5356.25390625,True
1599559756.1127815,0.0,10,0.5,0.5,2.5989929349899294,-0.05075,-0.00825,-0.2505,0.07709290811056888,10,1,100,-0.06167882492425394,-10,-1,-100,15022.63134191255,0.0001847934053663853,0.008004252170870496,0.9999679483856383,24.943464306231263,0.026727126570667333,-39.56180441811551,14.000986420929737,-128.8848114013672,5356.25390625,True
1599559756.1388497,0.0,10,0.5,0.5,2.4239635795593264,-0.05075,-0.00825,-0.2505,0.08017947508365827,10,1,100,-0.03371383541043131,-10,-1,-100,15022.894036024809,0.0005029794437241022,0.007930521904165292,0.9999684264185578,24.923172551343427,0.02675398058463845,-39.00609051504883,13.81525904739743,-129.62295532226562,5356.25390625,True
1599559756.3844342,0.0,10,0.5,0.5,2.4619578535079953,-0.05075,-0.00825,-0.2505,0.07917215190050869,10,1,100,-0.036499158789049954,-10,-1,-100,15023.161613244913,0.0008111283168462834,0.007854526570722864,0.9999688237556226,24.896792151938474,0.026764785694969415,-38.441808202553304,13.629534304027388,-130.29222106933594,5356.25390625,True
1599559756.4133556,0.0,10,0.5,0.5,2.794743105888367,-0.05075,-0.00825,-0.2505,0.061300739928980774,10,1,100,-0.1009579096131843,-10,-1,-100,15023.95262682892,0.0016709191638562397,0.007623292257478951,0.9999695462584374,24.78971075313894,0.026719007617139707,-36.714118433398,13.072375940157155,-131.8863525390625,5356.25390625,True
1599559756.4492607,0.0,10,0.5,0.5,2.5309471323013306,-0.05075,-0.00825,-0.2505,0.07507140059260238,10,1,100,-0.045457240136668874,-10,-1,-100,15024.21825154149,0.0019419937582075659,0.0075389219191685265,0.9999696961991097,24.746933848875837,0.02668327510272723,-36.13084385855978,12.886662019593356,-132.27993774414062,5356.25390625,True
1599559756.4911501,0.0,10,0.5,0.5,2.6217202348709105,-0.05075,-0.00825,-0.2505,0.0652725204982442,10,1,100,-0.07522940535150817,-10,-1,-100,15024.739735440584,0.002453572035380172,0.007373907524148625,0.9999698022800951,24.654085945010767,0.02659067240207671,-34.959291712077814,12.515242644580074,-132.8602752685547,5356.25390625,True
1599559756.5360348,0.0,10,0.5,0.5,2.488839545631409,-0.05075,-0.00825,-0.2505,0.08167249573209445,10,1,100,-0.024650888850688592,-10,-1,-100,15024.739735440584,0.002453572035380172,0.007373907524148625,0.9999698022800951,24.654085945010767,0.02659067240207671,-34.959291712077814,12.515242644580074,-132.8602752685547,5356.25390625,True
1599559756.5659556,0.0,10,0.5,0.5,2.592007857322693,-0.05075,-0.00825,-0.2505,0.06113838262150993,10,1,100,-0.07866882119628586,-10,-1,-100,15025.202626012033,0.002939719907577829,0.00718815010421207,0.9999698438177745,24.55387921118114,0.026479094859948926,-33.78534740120356,12.143834499052328,-133.16517639160156,5356.25390625,True
1599559756.5918853,0.0,10,0.5,0.5,2.5070324979782104,-0.05075,-0.00825,-0.2505,0.0490487710911844,10,1,100,-0.1031361300148782,-10,-1,-100,15025.926259524887,0.0035994186371975227,0.006910422594314139,0.9999696446617978,24.393932036527605,0.02629753687405614,-32.027438845731595,11.586742830751792,-133.10548400878906,5356.25390625,True
1599559756.6254056,0.0,10,0.5,0.5,2.5276350395202636,-0.05075,-0.00825,-0.2505,0.07669563492417553,10,1,100,-0.037604750417042566,-10,-1,-100,15025.926259524887,0.0035994186371975227,0.006910422594314139,0.9999696446617978,24.393932036527605,0.02629753687405614,-32.027438845731595,11.586742830751792,-133.10548400878906,5356.25390625,True
1599559756.6593137,0.0,10,0.5,0.5,2.4167141361236575,-0.05075,-0.00825,-0.2505,0.05553525615139088,10,1,100,-0.08178379976549953,-10,-1,-100,15026.385244175326,0.003997362835919804,0.006719151664240458,0.9999694365785741,24.28137620123115,0.026178219445502655,-30.859086397317093,11.215361780299027,-132.7211151123047,5356.25390625,True
1599559756.6921916,0.0,10,0.5,0.5,2.4270884449005123,-0.05075,-0.00825,-0.2505,0.06487933579466947,10,1,100,-0.062454109663438874,-10,-1,-100,15026.58055705775,0.004179939861620823,0.0066313834523002175,0.9999692759561474,24.222956905146383,0.02612119561115231,-30.275755539894508,11.029675269296833,-132.42543029785156,5356.25390625,True
1599559756.7565312,0.0,10,0.5,0.5,1.9396324623107912,-0.05075,-0.00825,-0.2505,0.031928363410247115,10,1,100,-0.11668244436963417,-10,-1,-100,15027.432121272432,0.004835561145570892,0.006253220909270582,0.999968756800265,23.967169118671315,0.02591927952075094,-27.94103513621084,10.286954543889758,-130.55377197265625,5356.25390625,True
1599559756.811386,0.0,10,0.5,0.5,2.0022023754119873,-0.05075,-0.00825,-0.2505,0.048515161623438816,10,1,100,-0.08203859260607696,-10,-1,-100,15027.826653141063,0.005112977812376139,0.0060616815863285215,0.999968556242763,23.81886757625822,0.025834547414161312,-26.766765741867044,9.915609099617884,-129.20440673828125,5356.25390625,True
1599559756.8472903,0.0,10,0.5,0.5,2.33800576133728,-0.05075,-0.00825,-0.2505,0.0675129328505298,10,1,100,-0.05464113179040424,-10,-1,-100,15027.826653141063,0.005112977812376139,0.0060616815863285215,0.999968556242763,23.81886757625822,0.025834547414161312,-26.766765741867044,9.915609099617884,-129.20440673828125,5356.25390625,True
1599559756.907129,0.0,10,0.5,0.5,1.5698633800506596,-0.05075,-0.00825,-0.2505,0.03932964663248695,10,1,100,-0.09246937318297253,-10,-1,-100,15028.409661741112,0.005453988203168425,0.00580681283919435,0.9999682669651724,23.55462162001578,0.025718617455678015,-24.984282744395145,9.358609021065194,-126.66297912597656,5356.25390625,True
1599559756.9380465,0.0,10,0.5,0.5,1.2489720500946049,-0.05075,-0.00825,-0.2505,0.035135873897656655,10,1,100,-0.08848873572050032,-10,-1,-100,15028.985833814251,0.005725082384986402,0.005538413403014786,0.999968274201068,23.217061781409107,0.02559144243618298,-23.161837234632866,8.80162970201709,-123.50146484375,5356.25390625,True
1599559756.9639778,0.0,10,0.5,0.5,1.6742164855957031,-0.05075,-0.00825,-0.2505,0.05189526249862095,10,1,100,-0.06982978218430322,-10,-1,-100,15029.120599168236,0.0057989306905376755,0.005448440624788616,0.9999683429477177,23.08298256395556,0.025539280936677313,-22.542729206872547,8.61597431278139,-122.30978393554688,5356.25390625,True
1599559756.9939342,0.0,10,0.5,0.5,1.1834577167510987,-0.05075,-0.00825,-0.2505,0.042429262865542244,10,1,100,-0.0756116093482599,-10,-1,-100,15029.442863738397,0.005916028296363021,0.005282174201990859,0.9999685491278695,22.775086068555932,0.02540841368984769,-21.284239429989697,8.244669531584064,-119.71951293945312,5356.25390625,True
1599559757.0268333,0.0,10,0.5,0.5,1.3999886848449707,-0.05075,-0.00825,-0.2505,0.04944519062786954,10,1,100,-0.0694075325073454,-10,-1,-100,15029.632316568983,0.005963973957960326,0.005196284295825257,0.9999687143326762,22.598228487881006,0.025324397617731812,-20.64375199612394,8.05902004142544,-118.321044921875,5356.25390625,True
1599559757.062735,0.0,10,0.5,0.5,1.2960835109710696,-0.05075,-0.00825,-0.2505,0.04787890840835096,10,1,100,-0.06939850948775243,-10,-1,-100,15029.767081814003,0.006005329299851791,0.005105521941223168,0.9999689343503168,22.404034822152646,0.02522401891135575,-19.995212932841433,7.873372304367574,-116.85374450683594,5356.25390625,True
1599559757.0926592,0.0,10,0.5,0.5,1.1877503040313724,-0.05075,-0.00825,-0.2505,0.04711640105746376,10,1,100,-0.06906547106680783,-10,-1,-100,15029.95751065365,0.006038072019140962,0.005017545760870492,0.9999691824855551,22.191034422042122,0.02510406294085275,-19.338434339846692,7.687726144764014,-115.31747436523438,5356.25390625,True
1599559757.1265671,0.0,10,0.5,0.5,0.5706205009460451,-0.05075,-0.00825,-0.2505,0.03606199482504542,10,1,100,-0.0705673637402267,-10,-1,-100,15030.2143451554,0.006079802486291724,0.004838539938156464,0.9999698118108338,21.702879720735602,0.024791769551090335,-18.0001491502181,7.3164376599965095,-112.03829956054688,5356.25390625,True
1599559757.1596203,0.0,10,0.5,0.5,0.3059128269195558,-0.05075,-0.00825,-0.2505,0.03347976190408891,10,1,100,-0.0679046818138555,-10,-1,-100,15030.527819712413,0.006092401946788388,0.004653618600926938,0.9999706128044142,21.131918459989432,0.024370549377850735,-16.637660012049018,6.945152722759264,-108.48355865478516,5356.25390625,True
1599559757.1955473,0.0,10,0.5,0.5,0.6127201028823854,-0.05075,-0.00825,-0.2505,0.0413809280698471,10,1,100,-0.06624463068226583,-10,-1,-100,15030.66160763835,0.006087874242285074,0.004558617134939173,0.9999710779802721,20.848877612909828,0.024153898760720906,-15.976269934474521,6.759510751095922,-106.60285949707031,5356.25390625,True
1599559757.2264645,0.0,10,0.5,0.5,-1.3579484323501587,-0.05075,-0.00825,-0.2505,0.006939477687813722,10,1,100,-0.0574518898507139,-10,-1,-100,15031.163554623607,0.006002937870240763,0.0041605144937058,0.9999733270723145,19.416208782664793,0.022842231295974687,-13.244601574600857,6.016938727158309,-98.55924987792969,5356.25390625,True
1599559757.2593763,0.0,10,0.5,0.5,0.6337902006149292,-0.05075,-0.00825,-0.2505,0.04658511197660215,10,1,100,-0.06600042202185225,-10,-1,-100,15031.163554623607,0.006002937870240763,0.0041605144937058,0.9999733270723145,19.416208782664793,0.022842231295974687,-13.244601574600857,6.016938727158309,-98.55924987792969,5356.25390625,True
1599559757.2932847,0.0,10,0.5,0.5,-0.017975195121765042,-0.05075,-0.00825,-0.2505,0.034643296071111655,10,1,100,-0.06191171515237915,-10,-1,-100,15031.289529478061,0.005965515211895322,0.004053205166300713,0.9999739917398535,18.982651543232826,0.022393261199810336,-12.549468452321081,5.831292910133236,-96.46401977539062,5356.25390625,True
1599559757.3291893,0.0,10,0.5,0.5,-0.7929602945327759,-0.05075,-0.00825,-0.2505,0.021607413666952527,10,1,100,-0.055758758798577945,-10,-1,-100,15031.480932316626,0.0058754072060727665,0.0038384116063114484,0.999975372790002,18.097954611315252,0.021424235775096518,-11.202990993216707,5.459994994134325,-92.21997833251953,5356.25390625,True
1599559757.3601072,0.0,10,0.5,0.5,-1.0427219478607177,-0.05075,-0.00825,-0.2505,0.016748629836599832,10,1,100,-0.05205186380677525,-10,-1,-100,15031.727021580096,0.0057598287200270465,0.0036002864829504377,0.9999769308890865,17.16443202496001,0.020324850366267213,-9.902731110839527,5.088686825845464,-87.9371337890625,5356.25390625,True
1599559757.3940156,0.0,10,0.5,0.5,-1.303564351272583,-0.05075,-0.00825,-0.2505,0.01344580161011126,10,1,100,-0.048868209237345625,-10,-1,-100,15031.909634693875,0.005626000641388789,0.003355234294029509,0.9999785450296497,17.88805349973822,0.021117703524841987,-9.567294275842661,4.717362097696821,-83.5931396484375,5356.25390625,True
1599559757.4259875,0.0,10,0.5,0.5,-1.52025958404541,-0.05075,-0.00825,-0.2505,0.00962504668966891,10,1,100,-0.04548992773344679,-10,-1,-100,15032.094200436142,0.005473971945917169,0.0030993166117766376,0.9999802147381093,18.652720554623453,0.02191178536541103,-9.19110011774518,4.3460201090963295,-79.35272216796875,5356.25390625,True
1599559757.4618773,0.0,10,0.5,0.5,-1.1016701210021975,-0.05075,-0.00825,-0.2505,0.020327008753569964,10,1,100,-0.05155433148582686,-10,-1,-100,15032.158651376027,0.0053914078023948086,0.002965698582263213,0.9999810684977128,18.98667064726447,0.022242712404595907,-8.956017636358345,4.160343914162241,-77.31466674804688,5356.25390625,True
1599559757.492803,0.0,10,0.5,0.5,-1.2141204780578614,-0.05075,-0.00825,-0.2505,0.018564375744658364,10,1,100,-0.05022576222760372,-10,-1,-100,15032.221148827579,0.005304897401103268,0.002829906292948079,0.99998192468361,19.286368783164345,0.022531387949274166,-8.691428428593873,3.9746649098584816,-75.34176635742188,5356.25390625,True
1599559757.525703,0.0,10,0.5,0.5,-1.874676827430725,-0.05075,-0.00825,-0.2505,0.0011904459716797489,10,1,100,-0.03858220593481076,-10,-1,-100,15032.40180876758,0.005121116983218009,0.0025501718613690416,0.9999836352582586,19.78945801149431,0.022998967148065236,-8.08501874770338,3.60330017975101,-71.59927368164062,5356.25390625,True
1599559757.559377,0.0,10,0.5,0.5,-2.5018764104843143,-0.05075,-0.00825,-0.2505,-0.02035514488766061,10,1,100,-0.023649623887690117,-10,-1,-100,15032.577583204722,0.004819172000402192,0.00210182468418825,0.9999861788616017,20.33169246811286,0.023480085065716576,-7.022537416999969,3.0462398742452637,-66.50112915039062,5356.25390625,True
1599559757.5952802,0.0,10,0.5,0.5,-2.171289089393616,-0.05075,-0.00825,-0.2505,-0.009832394393497357,10,1,100,-0.029948979044368697,-10,-1,-100,15032.692813299247,0.004603019577330199,0.0017917692456158483,0.9999878008124604,20.565196258408424,0.023679109710555493,-6.237299543260425,2.6748585388561223,-63.447021484375,5356.25390625,True
1599559757.625242,0.0,10,0.5,0.5,-1.4352027074813842,-0.05075,-0.00825,-0.2505,0.020936274938933803,10,1,100,-0.051424229522276946,-10,-1,-100,15032.692813299247,0.004603019577330199,0.0017917692456158483,0.9999878008124604,20.565196258408424,0.023679109710555493,-6.237299543260425,2.6748585388561223,-63.447021484375,5356.25390625,True
1599559757.6621418,0.0,10,0.5,0.5,-2.2994291120529176,-0.05075,-0.00825,-0.2505,-0.013229988938464755,10,1,100,-0.0263338837773892,-10,-1,-100,15032.806090317434,0.004376164157499006,0.0014832226975673931,0.9999893245618655,20.713958546757272,0.02380300495784292,-5.410223220336911,2.3034705541865295,-60.66864013671875,5356.25390625,True
1599559757.697048,0.0,10,0.5,0.5,-2.383334912109375,-0.05075,-0.00825,-0.2505,-0.01793809824845823,10,1,100,-0.02270756605576221,-10,-1,-100,15032.860774007859,0.0041383283811363795,0.0011620659228040787,0.9999907618778291,20.804281202100828,0.023879484889238287,-4.557770312709284,1.932074217594733,-58.16619873046875,5356.25390625,True
1599559757.728963,0.0,10,0.5,0.5,-2.45180470123291,-0.05075,-0.00825,-0.2505,-0.022381571890010617,10,1,100,-0.01911317812561062,-10,-1,-100,15032.916434743674,0.0038909118762952416,0.0008319265676961769,0.9999920843201494,20.829752603852523,0.023897102147229926,-3.686183710779168,1.5606676070590475,-55.9395751953125,5356.25390625,True
1599559757.7588851,0.0,10,0.5,0.5,-2.2210967514038087,-0.05075,-0.00825,-0.2505,-0.007434693756636442,10,1,100,-0.029643650395661417,-10,-1,-100,15032.9672143379,0.0037632967004992994,0.0006699745076526981,0.9999926943393652,20.821705505937462,0.02388644522493853,-3.2463252605426263,1.3749597765726262,-54.92962646484375,5356.25390625,True
1599559757.792865,0.0,10,0.5,0.5,-2.5344163681030274,-0.05075,-0.00825,-0.2505,-0.027684986014285998,10,1,100,-0.01337095086482469,-10,-1,-100,15033.007250425057,0.0035009044315366705,0.000340860289001925,0.9999938137220773,20.771955620120334,0.02383257347835703,-2.363752247924541,1.0035342068419748,-53.11663818359375,5356.25390625,True
1599559757.8258336,0.0,10,0.5,0.5,-2.5633355369567874,-0.05075,-0.00825,-0.2505,-0.031204745043915037,10,1,100,-0.009497199877068395,-10,-1,-100,15033.054122902802,0.003228868726564549,1.2053952043923035e-05,0.9999947871171374,20.686148967124637,0.0237426558813799,-1.4827247592416828,0.632094042834662,-51.579345703125,5356.25390625,True
1599559757.861806,0.0,10,0.5,0.5,-2.3982275588989257,-0.05075,-0.00825,-0.2505,-0.017170236646954842,10,1,100,-0.0211719995536106,-10,-1,-100,15033.049238616135,0.003089585381535312,-0.0001567127758174369,0.9999952149401896,20.632811896997875,0.023687029494857712,-1.0443695201965963,0.4463680414309943,-50.9141845703125,5356.25390625,True
1599559757.8924806,0.0,10,0.5,0.5,-2.4283277153015135,-0.05075,-0.00825,-0.2505,-0.018456883935398707,10,1,100,-0.019299448716010942,-10,-1,-100,15033.043378672446,0.002947787816259357,-0.00031937306318890243,0.9999956042642572,20.574034190555054,0.023625733516486877,-0.6080838447963371,0.26063802848828654,-50.31781005859375,5356.25390625,True
1599559757.9263902,0.0,10,0.5,0.5,-2.5892897781372075,-0.05075,-0.00825,-0.2505,-0.03815046006038934,10,1,100,-0.0012738032104443534,-10,-1,-100,15033.02775164321,0.002656712692488922,-0.0006440774730743522,0.9999962635139583,20.444252365907346,0.023490251687079328,0.25695652768493116,-0.11083447131773472,-49.3319091796875,5356.25390625,True
1599559757.9593024,0.0,10,0.5,0.5,-2.567888275146484,-0.05075,-0.00825,-0.2505,-0.042223198300749026,10,1,100,0.0028741107158660115,-10,-1,-100,15033.003336127615,0.0023561600050810154,-0.0009740737872292217,0.999996749839862,20.425505930554465,0.023483451542906417,1.1171984076030264,-0.48232097230038806,-48.621795654296875,5356.25390625,True
1599559757.9952056,0.0,10,0.5,0.5,-2.5674414131164554,-0.05075,-0.00825,-0.2505,-0.06251558153056197,10,1,100,0.024616206666878606,-10,-1,-100,15032.972085286048,0.0018873174711303033,-0.0014560322448839069,0.9999971589973969,20.42170119607454,0.02350162674092287,2.4075782150578924,-1.039571792704345,-48.073394775390625,5356.25390625,True
1599559758.0271199,0.0,10,0.5,0.5,-2.4468291107177738,-0.05075,-0.00825,-0.2505,-0.048772620453330626,10,1,100,0.013699830888908329,-10,-1,-100,15032.946694385959,0.0015625993534169936,-0.001766568237556562,0.9999972187560937,20.421733895194354,0.02351648121978722,3.2680535573313114,-1.4110855228758175,-48.05224609375,5356.25390625,True
1599559758.0600324,0.0,10,0.5,0.5,-2.4219549591064453,-0.05075,-0.00825,-0.2505,-0.03408392679801211,10,1,100,-0.0003523471013738323,-10,-1,-100,15032.878335218411,0.001397489709069022,-0.001912677712064843,0.9999971943393055,20.423299213785388,0.023525451751445697,3.6985970512610717,-1.5968460193273923,-48.144927978515625,5356.25390625,True
1599559758.0929751,0.0,10,0.5,0.5,-2.451602355194092,-0.05075,-0.00825,-0.2505,-0.019747439775160098,10,1,100,-0.016613969319448366,-10,-1,-100,15032.878335218411,0.001397489709069022,-0.001912677712064843,0.9999971943393055,20.423299213785388,0.023525451751445697,3.6985970512610717,-1.5968460193273923,-48.144927978515625,5356.25390625,True
1599559758.129548,0.0,10,0.5,0.5,-2.1379674011230474,-0.05075,-0.00825,-0.2505,-0.08246370612202,10,1,100,0.0589796314935806,-10,-1,-100,15032.755289584282,0.0007124258898518772,-0.002480477722291099,0.9999966698342653,20.446404744544108,0.02357658709840744,5.426070480723191,-2.3399096297876656,-49.204620361328125,5356.25390625,True
1599559758.1594825,0.0,10,0.5,0.5,-2.4066477577209473,-0.05075,-0.00825,-0.2505,-0.025965838900523713,10,1,100,-0.009247902573965409,-10,-1,-100,15032.755289584282,0.0007124258898518772,-0.002480477722291099,0.9999966698342653,20.446404744544108,0.02357658709840744,5.426070480723191,-2.3399096297876656,-49.204620361328125,5356.25390625,True
1599559758.1933608,0.0,10,0.5,0.5,-2.1244658615112306,-0.05075,-0.00825,-0.2505,-0.056338203036307634,10,1,100,0.030288626316669173,-10,-1,-100,15032.610759796342,0.0003552905752431198,-0.002754324185639739,0.9999961437260084,20.46963091975088,0.023610631596202337,6.294964642035702,-2.711452649742336,-50.1478271484375,5356.25390625,True
1599559758.2274332,0.0,10,0.5,0.5,-2.188277687072754,-0.05075,-0.00825,-0.2505,-0.04148549277385607,10,1,100,0.014429220598826044,-10,-1,-100,15032.591229215846,0.00017728424558490714,-0.0028658894122891047,0.9999958776155893,20.480771763814776,0.023624957831083315,6.730019125944749,-2.8972266089370424,-50.722412109375,5356.25390625,True
1599559758.2623086,0.0,10,0.5,0.5,-1.6879518707275392,-0.05075,-0.00825,-0.2505,-0.06876484442848135,10,1,100,0.05751971741686413,-10,-1,-100,15032.36174000334,-0.00037375284011320105,-0.0032129914366950305,0.9999947684837367,20.51984735889162,0.023661733152509162,8.04033211467991,-3.454556088862757,-52.85992431640625,5356.25390625,True
1599559758.293226,0.0,10,0.5,0.5,-2.2204880661010744,-0.05075,-0.00825,-0.2505,-0.03431153338425085,10,1,100,0.0027190554003135164,-10,-1,-100,15032.36174000334,-0.00037375284011320105,-0.0032129914366950305,0.9999947684837367,20.51984735889162,0.023661733152509162,8.04033211467991,-3.454556088862757,-52.85992431640625,5356.25390625,True
1599559758.3262968,0.0,10,0.5,0.5,-1.6840214485168459,-0.05075,-0.00825,-0.2505,-0.05705940355617324,10,1,100,0.04413627077747595,-10,-1,-100,15032.203539354494,-0.0007477912409554103,-0.003417754876758447,0.9999938798612031,20.53551602743577,0.023658935023611025,8.912215250983117,-3.826113910761195,-54.629119873046875,5356.25390625,True
1599559758.3596795,0.0,10,0.5,0.5,-1.166875884246826,-0.05075,-0.00825,-0.2505,-0.06509392213901864,10,1,100,0.06899304448899027,-10,-1,-100,15031.968191365595,-0.0013114012675420163,-0.0036751611524493523,0.9999923866796283,20.51471675017624,0.023569195881789094,10.200646300288975,-4.383454528326243,-57.798980712890625,5356.25390625,True
1599559758.396548,0.0,10,0.5,0.5,-1.2125847900390627,-0.05075,-0.00825,-0.2505,-0.05566877916554165,10,1,100,0.05472540930155029,-10,-1,-100,15031.804131842102,-0.0016914555167158775,-0.0038217486552141185,0.9999912665695891,20.45498805712525,0.023427069460926105,11.033509441348416,-4.75501603596684,-60.25640869140625,5356.25390625,True
1599559758.4264996,0.0,10,0.5,0.5,-0.9950180503845216,-0.05075,-0.00825,-0.2505,-0.05329531131415723,10,1,100,0.05758293126621343,-10,-1,-100,15031.581478642067,-0.0020601287199837936,-0.003931697521857548,0.9999901487636035,20.345036666493193,0.023200097792313624,11.83221827100575,-5.126577824904415,-62.9888916015625,5356.25390625,True
1599559758.459576,0.0,10,0.5,0.5,-1.6672587493896487,-0.05075,-0.00825,-0.2505,-0.042502326630793535,10,1,100,0.021061372782327104,-10,-1,-100,15031.581478642067,-0.0020601287199837936,-0.003931697521857548,0.9999901487636035,20.345036666493193,0.023200097792313624,11.83221827100575,-5.126577824904415,-62.9888916015625,5356.25390625,True
1599559758.494085,0.0,10,0.5,0.5,-0.2656760780334473,-0.05075,-0.00825,-0.2505,-0.05661778639033113,10,1,100,0.08180463490422765,-10,-1,-100,15031.278749030665,-0.0026098196896284934,-0.004058700592581011,0.9999883578275737,20.054113739305595,0.022665333826390504,12.931826626873486,-5.683921442335237,-67.60369873046875,5356.25390625,True
1599559758.5300462,0.0,10,0.5,0.5,-0.3761626251220703,-0.05075,-0.00825,-0.2505,-0.050480105568629724,10,1,100,0.06747284582898107,-10,-1,-100,15030.99261933018,-0.002976229538094633,-0.004116926083159338,0.9999870964054298,19.754532320423127,0.02216253737479345,13.572005617499007,-6.055486222346278,-71.02392578125,5356.25390625,True
1599559758.559969,0.0,10,0.5,0.5,-1.2157067199707032,-0.05075,-0.00825,-0.2505,-0.04479381670054903,10,1,100,0.03116501299370088,-10,-1,-100,15030.99261933018,-0.002976229538094633,-0.004116926083159338,0.9999870964054298,19.754532320423127,0.02216253737479345,13.572005617499007,-6.055486222346278,-71.02392578125,5356.25390625,True
1599559758.5930703,0.0,10,0.5,0.5,0.43593556060791006,-0.05075,-0.00825,-0.2505,-0.04760838727816906,10,1,100,0.08666425819911766,-10,-1,-100,15030.618600714486,-0.0034779013001587132,-0.0041413757823460014,0.9999853764976644,19.128889532701425,0.021193314639496332,14.352839066093601,-6.612841573643317,-76.45095825195312,5356.25390625,True
1599559758.627153,0.0,10,0.5,0.5,-0.9040734703063965,-0.05075,-0.00825,-0.2505,-0.04525625579406779,10,1,100,0.03680749683871419,-10,-1,-100,15030.618600714486,-0.0034779013001587132,-0.0041413757823460014,0.9999853764976644,19.128889532701425,0.021193314639496332,14.352839066093601,-6.612841573643317,-76.45095825195312,5356.25390625,True
1599559758.6621394,0.0,10,0.5,0.5,0.8291989852905273,-0.05075,-0.00825,-0.2505,-0.04294885903046503,10,1,100,0.08946251880726513,-10,-1,-100,15030.237745572464,-0.003953761364909135,-0.004119555462362657,0.9999836983840598,18.303728285949276,0.02002737735841566,14.892429674292236,-7.1702131723248765,-82.13995361328125,5356.25390625,True
1599559758.6938834,0.0,10,0.5,0.5,0.5796661979675293,-0.05075,-0.00825,-0.2505,-0.04050776917556415,10,1,100,0.07453765485205197,-10,-1,-100,15029.88227984414,-0.004247766324067623,-0.004076889081346333,0.9999826675781308,17.652741601758844,0.01918650570699879,15.107948208031086,-7.541806180902165,-85.96688842773438,5356.25390625,True
1599559758.7276592,0.0,10,0.5,0.5,0.7799207740783691,-0.05075,-0.00825,-0.2505,-0.03804430762321209,10,1,100,0.07394918729293808,-10,-1,-100,15029.587360008736,-0.004507024431804734,-0.0040153411500111124,0.9999817817171572,16.9787525299767,0.01838145313685447,15.247986867163569,-7.913409436779516,-89.73672485351562,5356.25390625,True
1599559758.7596657,0.0,10,0.5,0.5,-0.14010198974609375,-0.05075,-0.00825,-0.2505,-0.044218460006213815,10,1,100,0.04830493341073577,-10,-1,-100,15029.587360008736,-0.004507024431804734,-0.0040153411500111124,0.9999817817171572,16.9787525299767,0.01838145313685447,15.247986867163569,-7.913409436779516,-89.73672485351562,5356.25390625,True
1599559758.7962804,0.0,10,0.5,0.5,1.4896298915863038,-0.05075,-0.00825,-0.2505,-0.030830279627762913,10,1,100,0.08733899112788947,-10,-1,-100,15029.08150399581,-0.004859655051313567,-0.0038935543796359646,0.9999806118055865,17.427950808191227,0.018887627499354295,16.755410557230626,-8.470821991232711,-95.07337188720703,5356.25390625,True
1599559758.826342,0.0,10,0.5,0.5,0.1792695058822632,-0.05075,-0.00825,-0.2505,-0.043005142351055535,10,1,100,0.05235588181013917,-10,-1,-100,15029.08150399581,-0.004859655051313567,-0.0038935543796359646,0.9999806118055865,17.427950808191227,0.018887627499354295,16.755410557230626,-8.470821991232711,-95.07337188720703,5356.25390625,True
1599559758.8604147,0.0,10,0.5,0.5,1.237950024032593,-0.05075,-0.00825,-0.2505,-0.031692234020993096,10,1,100,0.07571729258927656,-10,-1,-100,15028.774864809588,-0.00506998620806783,-0.003790859891374438,0.9999799621098084,18.16965127123742,0.019786685644751896,18.236005200182863,-8.842424064827403,-98.51243591308594,5356.25390625,True
1599559758.8933694,0.0,10,0.5,0.5,0.9047599437713623,-0.05075,-0.00825,-0.2505,-0.03627489248032441,10,1,100,0.06450188041290406,-10,-1,-100,15028.569787221262,-0.005157334642904706,-0.003739458220941321,0.9999797089699345,18.52069462741055,0.020237928079048072,18.979558464802096,-9.028222402455306,-100.19083404541016,5356.25390625,True
1599559758.9292736,0.0,10,0.5,0.5,1.475531738090515,-0.05075,-0.00825,-0.2505,-0.028639695826502522,10,1,100,0.074166039490211,-10,-1,-100,15028.204554049647,-0.005322615479727557,-0.0036236617035693957,0.9999792692052735,19.21904450126644,0.021177815672374128,20.50728352592548,-9.399812064652842,-103.40128326416016,5356.25390625,True
1599559758.9602017,0.0,10,0.5,0.5,1.6002516132354736,-0.05075,-0.00825,-0.2505,-0.026913539849678793,10,1,100,0.07272628687170121,-10,-1,-100,15027.836391015677,-0.005458105112871361,-0.003503170464422681,0.9999789682214693,19.847699738009354,0.02208797360259145,22.016867168341637,-9.771390896522757,-106.41108703613281,5356.25390625,True
1599559758.993148,0.0,10,0.5,0.5,1.7022727546691896,-0.05075,-0.00825,-0.2505,-0.024626878387936445,10,1,100,0.07177179397086335,-10,-1,-100,15027.413539777743,-0.005570800113164736,-0.003373425329471577,0.9999787928689516,20.39114609040958,0.02293944272669878,23.481620911245187,-10.142957858801024,-109.17045593261719,5356.25390625,True
1599559759.027214,0.0,10,0.5,0.5,1.4195941822052003,-0.05075,-0.00825,-0.2505,-0.0304883219596167,10,1,100,0.06553679816908389,-10,-1,-100,15027.194789603702,-0.005615098298189577,-0.0033094393575612037,0.9999787589155283,20.634929819900673,0.023344051561046818,24.198520466043924,-10.328736527142517,-110.45259094238281,5356.25390625,True
1599559759.050138,0.0,10,0.5,0.5,1.829547267150879,-0.05075,-0.00825,-0.2505,-0.022387418323718107,10,1,100,0.0689286416934371,-10,-1,-100,15026.771938395454,-0.005684961287547987,-0.0031783233952470454,0.9999787895128348,21.132842863996174,0.024180020536256248,25.67592917399258,-10.700283868994068,-112.81251525878906,5356.25390625,True
1599559759.0760667,0.0,10,0.5,0.5,1.5818503658294678,-0.05075,-0.00825,-0.2505,-0.028235843748630994,10,1,100,0.06484523119092071,-10,-1,-100,15026.556117816246,-0.005710280330709353,-0.003113055494964986,0.9999788505683658,21.358767379982385,0.024577203420442943,26.402014083045437,-10.886052394234005,-113.88945007324219,5356.25390625,True
1599559759.098043,0.0,10,0.5,0.5,2.1807637489318847,-0.05075,-0.00825,-0.2505,-0.013084861131818566,10,1,100,0.06651215794558202,-10,-1,-100,15025.900843273615,-0.005747357653263057,-0.002916805094242134,0.9999792298483244,21.948138831772358,0.025677630468613977,28.522967906181346,-11.4433379546953,-116.7069091796875,5356.25390625,True
1599559759.1270993,0.0,10,0.5,0.5,1.7342433408737183,-0.05075,-0.00825,-0.2505,-0.025590157199082086,10,1,100,0.06282247040730637,-10,-1,-100,15025.630334803136,-0.005746714693780328,-0.002852968102637749,0.9999794177098014,22.118413745965608,0.026015099430937907,29.212079986699347,-11.629093168375539,-117.50825500488281,5356.25390625,True
1599559759.160053,0.0,10,0.5,0.5,1.552014990234375,-0.05075,-0.00825,-0.2505,-0.03186979773182075,10,1,100,0.06297547231982593,-10,-1,-100,15025.630334803136,-0.005746714693780328,-0.002852968102637749,0.9999794177098014,22.118413745965608,0.026015099430937907,29.212079986699347,-11.629093168375539,-117.50825500488281,5356.25390625,True
1599559759.1969192,0.0,10,0.5,0.5,1.7883194374084475,-0.05075,-0.00825,-0.2505,-0.024675276319297723,10,1,100,0.06232970357839791,-10,-1,-100,15025.408654596074,-0.005740228861143971,-0.002788415991422755,0.9999796370471153,22.277155714275846,0.026338688321605696,29.89296558062591,-11.814845222973963,-118.24064636230469,5356.25390625,True
1599559759.2268717,0.0,10,0.5,0.5,2.2946722635269166,-0.05075,-0.00825,-0.2505,-0.0038549260296705905,10,1,100,0.053577278779784784,-10,-1,-100,15024.415487496299,-0.005654235247652401,-0.0025413209260757123,0.9999807854712585,22.81241034181136,0.027506215464340015,32.54190512772188,-12.557821570279156,-120.48106384277344,5356.25390625,True
1599559759.2600343,0.0,10,0.5,0.5,1.864370788574219,-0.05075,-0.00825,-0.2505,-0.02196185384407597,10,1,100,0.05830152686885047,-10,-1,-100,15024.19771317835,-0.0056187054727716386,-0.0024822814293252622,0.9999811340358955,22.92475731432279,0.027769853240622092,33.18734454642327,-12.743558063210777,-120.86888885498047,5356.25390625,True
1599559759.2931106,0.0,10,0.5,0.5,1.779148309516907,-0.05075,-0.00825,-0.2505,-0.02776371461561124,10,1,100,0.06187056439291672,-10,-1,-100,15024.19771317835,-0.0056187054727716386,-0.0024822814293252622,0.9999811340358955,22.92475731432279,0.027769853240622092,33.18734454642327,-12.743558063210777,-120.86888885498047,5356.25390625,True
1599559759.329976,0.0,10,0.5,0.5,1.9601970500946047,-0.05075,-0.00825,-0.2505,-0.015192394174745062,10,1,100,0.05248240388618626,-10,-1,-100,15023.63618789229,-0.005533315008747174,-0.0023688068288629754,0.9999818854255419,23.127603100842073,0.02826840432383091,34.46009334039369,-13.115022669542233,-121.4378433227539,5356.25390625,True
1599559759.3606074,0.0,10,0.5,0.5,1.9150763658523562,-0.05075,-0.00825,-0.2505,-0.014032411636407827,10,1,100,0.04889889896768491,-10,-1,-100,15023.130326215876,-0.005423184345183504,-0.0022559579258475564,0.9999827497139111,23.303833937708134,0.028733297223987462,35.709450996113404,-13.486476148234484,-121.73108673095703,5356.25390625,True
1599559759.395054,0.0,10,0.5,0.5,1.8542882122039794,-0.05075,-0.00825,-0.2505,-0.013269027855343734,10,1,100,0.04533829639747978,-10,-1,-100,15022.563917561783,-0.005290934424889544,-0.0021472666755233197,0.9999836974964821,23.455567211859826,0.029169868632870535,36.93538510024711,-13.857919464943205,-121.74871826171875,5356.25390625,True
1599559759.4269993,0.0,10,0.5,0.5,1.8278833869934084,-0.05075,-0.00825,-0.2505,-0.01837007252402144,10,1,100,0.05075598356793348,-10,-1,-100,15022.286572558573,-0.005220340149722632,-0.0020957075711433033,0.9999841779040793,23.52251854189639,0.029378905167492586,37.539032726099286,-14.043637464269604,-121.65420532226562,5356.25390625,True
1599559759.4629033,0.0,10,0.5,0.5,1.7364109283447269,-0.05075,-0.00825,-0.2505,-0.01236469740349063,10,1,100,0.0404873864628348,-10,-1,-100,15021.71625740081,-0.005063291759982306,-0.0019949877910867345,0.9999851914404867,23.63840271367589,0.029780526846681393,38.72550080462772,-14.415066530608556,-121.2584228515625,5356.25390625,True
1599559759.4931166,0.0,10,0.5,0.5,1.7479023712158204,-0.05075,-0.00825,-0.2505,-0.016930167403100382,10,1,100,0.04675882768466631,-10,-1,-100,15021.42719332804,-0.00497815489217484,-0.001945708609496807,0.9999857159939218,23.687083660143593,0.029973722976148764,39.30714342449337,-14.60077774247401,-120.95719146728516,5356.25390625,True
1599559759.526872,0.0,10,0.5,0.5,1.5824380666732791,-0.05075,-0.00825,-0.2505,-0.011219244718411115,10,1,100,0.034931955587977265,-10,-1,-100,15020.85883116757,-0.004793939411290521,-0.001849816655911644,0.9999867980744847,23.764600144947376,0.030345407950482312,40.443041154744805,-14.972194194563942,-120.14800262451172,5356.25390625,True
1599559759.5608974,0.0,10,0.5,0.5,1.4599264171600344,-0.05075,-0.00825,-0.2505,-0.010523823530328904,10,1,100,0.031657136710580056,-10,-1,-100,15020.229921959224,-0.004597559974737396,-0.0017571734139748495,0.9999878873185775,23.8130846122401,0.030696713326679153,41.53514533593149,-15.343603351290371,-119.063232421875,5356.25390625,True
1599559759.5968032,0.0,10,0.5,0.5,1.084642366409302,-0.05075,-0.00825,-0.2505,-0.004824357249652711,10,1,100,0.01533193632556791,-10,-1,-100,15019.308042881661,-0.0042715829155280036,-0.0016218518164917081,0.9999895615335599,23.821638482908917,0.031176879092695814,43.06554107890272,-15.900705833296335,-116.9193344116211,5356.25390625,True
1599559759.6277592,0.0,10,0.5,0.5,1.0840858577728272,-0.05075,-0.00825,-0.2505,-0.008532110770962928,10,1,100,0.022412622300704527,-10,-1,-100,15018.610774258967,-0.004040834663800019,-0.0015333212413487938,0.9999906602469797,23.776231271521567,0.031454621079327554,43.992228859995535,-16.272101796836996,-115.14557647705078,5356.25390625,True
1599559759.6621773,0.0,10,0.5,0.5,1.225384680557251,-0.05075,-0.00825,-0.2505,-0.012374401106220014,10,1,100,0.03252153833777493,-10,-1,-100,15018.317804087186,-0.003924397190574284,-0.0014886315035284603,0.9999911915026738,23.7356260761345,0.031576352472101527,44.42074800236329,-16.457798663110374,-114.15534973144531,5356.25390625,True
1599559759.694945,0.0,10,0.5,0.5,1.4674284231185915,-0.05075,-0.00825,-0.2505,-0.01675535735571992,10,1,100,0.04400439387853115,-10,-1,-100,15018.317804087186,-0.003924397190574284,-0.0014886315035284603,0.9999911915026738,23.7356260761345,0.031576352472101527,44.42074800236329,-16.457798663110374,-114.15534973144531,5356.25390625,True
1599559759.7313395,0.0,10,0.5,0.5,0.8022997894287112,-0.05075,-0.00825,-0.2505,-0.0069189481249779285,10,1,100,0.017183715676452053,-10,-1,-100,15017.628348199301,-0.0036819353770595736,-0.0013999071709056413,0.9999922417758009,23.613818881983107,0.0317752541221437,45.195173504901724,-16.829191197676206,-111.96820068359375,5356.25390625,True
1599559759.7612512,0.0,10,0.5,0.5,0.600211865234375,-0.05075,-0.00825,-0.2505,-0.005842245645293275,10,1,100,0.013142640490792556,-10,-1,-100,15016.924243805115,-0.003426241225856414,-0.0013101399000737797,0.9999932721796203,23.430672417684193,0.03189676181189981,45.839610259086626,-17.20058358623183,-109.50546264648438,5356.25390625,True
1599559759.794356,0.0,10,0.5,0.5,0.38218401412963865,-0.05075,-0.00825,-0.2505,-0.004630822675150055,10,1,100,0.00902129980334787,-10,-1,-100,15016.218186672428,-0.003157956262989377,-0.0012182345065626667,0.9999942715920567,23.203385417243503,0.03195076243438321,46.38063430139283,-17.571977490315003,-106.76713562011719,5356.25390625,True
1599559759.8273168,0.0,10,0.5,0.5,0.6150448356628418,-0.05075,-0.00825,-0.2505,-0.008592573930663492,10,1,100,0.021160199014368247,-10,-1,-100,15015.869552874588,-0.003026146594571341,-0.0011714062086795262,0.9999947351082815,23.083053866940052,0.031961061867780444,46.6305392949191,-17.757675373775264,-105.30278778076172,5356.25390625,True
1599559759.8631883,0.0,10,0.5,0.5,0.0376877758026124,-0.05075,-0.00825,-0.2505,-0.0028154613129505804,10,1,100,0.004173934364459682,-10,-1,-100,15015.16251885693,-0.002753673588553597,-0.0010770197344436604,0.9999956286455752,22.78262576480471,0.03187233100574084,46.992031882723516,-18.129073483710393,-102.21146392822266,5356.25390625,True
1599559759.8941486,0.0,10,0.5,0.5,0.31392038002014166,-0.05075,-0.00825,-0.2505,-0.006831521695020288,10,1,100,0.015996887680373034,-10,-1,-100,15014.809002019581,-0.0026153070367028026,-0.0010284260312675689,0.9999960512467048,22.602090991219914,0.031767071169871236,47.1001648147385,-18.314774280353788,-100.60699462890625,5356.25390625,True
1599559759.9271019,0.0,10,0.5,0.5,-0.2952384407043457,-0.05075,-0.00825,-0.2505,-0.0006855861706730852,10,1,100,-0.001419489745543602,-10,-1,-100,15014.041421936825,-0.0023329906065465062,-0.0009290402939613359,0.9999968470145104,22.189633119601634,0.03143367492515723,47.184422671390884,-18.686179478319993,-97.30126190185547,5356.25390625,True
1599559759.9610136,0.0,10,0.5,0.5,-1.0186316158294677,-0.05075,-0.00825,-0.2505,0.006400986742978636,10,1,100,-0.019957694932967035,-10,-1,-100,15012.918372435379,-0.0019095725249814615,-0.0007748960622156815,0.9999978765321778,21.536254092810665,0.030721949792345753,47.169730648278566,-19.243294422305663,-92.20484924316406,5356.25390625,True
1599559759.997081,0.0,10,0.5,0.5,-0.8029483713150024,-0.05075,-0.00825,-0.2505,0.0027705033461089823,10,1,100,-0.009064529377574966,-10,-1,-100,15012.145909703919,-0.0016256132850975475,-0.0006684588143994771,0.9999984552709371,21.02348406637679,0.03000702756383409,46.94167722890795,-19.614707605611663,-88.74578857421875,5356.25390625,True
1599559760.0279922,0.0,10,0.5,0.5,0.04258343830108642,-0.05075,-0.00825,-0.2505,-0.00779120416659855,10,1,100,0.019101516220268764,-10,-1,-100,15012.145909703919,-0.0016256132850975475,-0.0006684588143994771,0.9999984552709371,21.02348406637679,0.03000702756383409,46.94167722890795,-19.614707605611663,-88.74578857421875,5356.25390625,True
1599559760.0620573,0.0,10,0.5,0.5,-0.9964588258743285,-0.05075,-0.00825,-0.2505,0.003988224133317228,10,1,100,-0.011696817047400648,-10,-1,-100,15011.37051813223,-0.0013477182407600772,-0.0005621187141176328,0.999998933838479,21.63773080851435,0.03078581569418759,49.23467526995263,-19.98610799689583,-85.36627197265625,5356.25390625,True
1599559760.094097,0.0,10,0.5,0.5,-1.592192381477356,-0.05075,-0.00825,-0.2505,0.01159980464843233,10,1,100,-0.030371874205262744,-10,-1,-100,15010.113680759445,-0.0009274351509602664,-0.00039701133504835333,0.9999994911228909,22.795337621829926,0.032094382792896524,53.32541970581232,-20.543161929685997,-80.65139770507812,5356.25390625,True
1599559760.131032,0.0,10,0.5,0.5,-1.3460532976150514,-0.05075,-0.00825,-0.2505,0.007416015173432147,10,1,100,-0.01880606341563557,-10,-1,-100,15009.27676602255,-0.0006527749911160456,-0.0002857782843626695,0.9999997461077595,23.50489215039903,0.03276945755629379,55.98698493876359,-20.9144986555517,-77.62689208984375,5356.25390625,True
1599559760.1609738,0.0,10,0.5,0.5,-1.4553448987960818,-0.05075,-0.00825,-0.2505,0.007873942975177739,10,1,100,-0.02043113034034213,-10,-1,-100,15008.431062324555,-0.00039058803855294283,-0.0001813420366527243,0.9999999072780207,24.145471560647906,0.033279964993045114,58.54203947757518,-21.285809153492693,-74.82891845703125,5356.25390625,True
1599559760.1948905,0.0,10,0.5,0.5,-0.779593445968628,-0.05075,-0.00825,-0.2505,-0.0024706753786141013,10,1,100,0.005524009060366307,-10,-1,-100,15008.431062324555,-0.00039058803855294283,-0.0001813420366527243,0.9999999072780207,24.145471560647906,0.033279964993045114,58.54203947757518,-21.285809153492693,-74.82891845703125,5356.25390625,True
1599559760.2279007,0.0,10,0.5,0.5,-1.193575533103943,-0.05075,-0.00825,-0.2505,0.0035468146246005004,10,1,100,-0.009285531319227186,-10,-1,-100,15008.012116909958,-0.00025810411287482076,-0.00012745183453058333,0.9999999585691475,24.435524033723556,0.03347391397391316,59.766180237700915,-21.471454808064184,-73.52969360351562,5356.25390625,True
1599559760.2638493,0.0,10,0.5,0.5,-1.9434544675827028,-0.05075,-0.00825,-0.2505,0.015614599199792703,10,1,100,-0.038779606475384566,-10,-1,-100,15006.684968579444,0.00012832086377596828,3.0427323357894882e-05,0.9999999913039669,25.193995447434737,0.03385192836312131,63.2328720349683,-22.02835598666147,-70.03427124023438,5356.25390625,True
1599559760.2947667,0.0,10,0.5,0.5,-1.4055336582183837,-0.05075,-0.00825,-0.2505,0.005813858455791842,10,1,100,-0.014415238161956938,-10,-1,-100,15006.260163908708,0.0002558844838179594,8.398394411348612e-05,0.9999999637349133,25.414303469532854,0.03392310375223734,64.32782872471262,-22.213978367065792,-68.98800659179688,5356.25390625,True
1599559760.3286753,0.0,10,0.5,0.5,-1.4585252685546874,-0.05075,-0.00825,-0.2505,0.006016146489492027,10,1,100,-0.015447736691231473,-10,-1,-100,15005.785554810194,0.0003792691641142658,0.00013372996328281695,0.9999999191355957,25.6210821813092,0.03397332787860154,65.39771862475222,-22.39959537665428,-68.00567626953125,5356.25390625,True
1599559760.3615875,0.0,10,0.5,0.5,-2.2089371917724607,-0.05075,-0.00825,-0.2505,0.022300023643429263,10,1,100,-0.056135785401091834,-10,-1,-100,15003.963290179498,0.0008595057867921733,0.00032625960140192687,0.9999995774021482,26.31978813738446,0.033997390862312585,69.42752371701559,-23.142014061200705,-64.754638671875,5356.25390625,True
1599559760.398489,0.0,10,0.5,0.5,-1.414344972229004,-0.05075,-0.00825,-0.2505,0.0031465316730984127,10,1,100,-0.00836063504049006,-10,-1,-100,15003.963290179498,0.0008595057867921733,0.00032625960140192687,0.9999995774021482,26.31978813738446,0.033997390862312585,69.42752371701559,-23.142014061200705,-64.754638671875,5356.25390625,True
1599559760.4274135,0.0,10,0.5,0.5,-1.6244113983154298,-0.05075,-0.00825,-0.2505,0.008279229274224238,10,1,100,-0.021419046255439653,-10,-1,-100,15003.539462365326,0.000976212048721213,0.0003721128720344166,0.9999994542708743,26.46615974638204,0.03396824063833771,70.37854386396863,-23.327607399609313,-64.11376953125,5356.25390625,True
1599559760.4613302,0.0,10,0.5,0.5,-1.8012635215759278,-0.05075,-0.00825,-0.2505,0.012779532345338688,10,1,100,-0.03433965443765334,-10,-1,-100,15002.569736277685,0.0011980381364952994,0.0004540103057949179,0.999999179289296,26.730394568780806,0.03387773604587123,72.22256288278983,-23.698781575080886,-63.039093017578125,5356.25390625,True
1599559760.495261,0.0,10,0.5,0.5,-1.8739427200317385,-0.05075,-0.00825,-0.2505,0.018352579149354304,10,1,100,-0.04867231832432713,-10,-1,-100,15001.102940635988,0.001528312603325493,0.0005784540450771905,0.9999986648248608,27.064963585448577,0.03367429938757155,74.86070719568465,-24.25551417113018,-61.94415283203125,5356.25390625,True
1599559760.5301955,0.0,10,0.5,0.5,-1.7262743270874024,-0.05075,-0.00825,-0.2505,0.01360699392411371,10,1,100,-0.03843816744497708,-10,-1,-100,15000.125402729842,0.00173377992822987,0.0006477523095754967,0.9999982872105861,27.252525797157006,0.03349884847439781,76.54411754145136,-24.626651677449626,-61.55914306640625,5356.25390625,True
1599559760.56211,0.0,10,0.5,0.5,-1.6407769454956056,-0.05075,-0.00825,-0.2505,0.006760076908905916,10,1,100,-0.018103871751217658,-10,-1,-100,15000.125402729842,0.00173377992822987,0.0006477523095754967,0.9999982872105861,27.252525797157006,0.03349884847439781,76.54411754145136,-24.626651677449626,-61.55914306640625,5356.25390625,True
1599559760.595022,0.0,10,0.5,0.5,-1.683491547393799,-0.05075,-0.00825,-0.2505,0.013091523055589499,10,1,100,-0.03946254141739963,-10,-1,-100,14999.148841342074,0.0019261388487941565,0.0007046061798688873,0.9999978967574213,27.414704847512283,0.03329205189310532,78.17159655794157,-24.99777620010432,-61.45013427734375,5356.25390625,True
1599559760.628931,0.0,10,0.5,0.5,-1.6485297058105468,-0.05075,-0.00825,-0.2505,0.01044566509422913,10,1,100,-0.030774643695674453,-10,-1,-100,14998.660560604301,0.0020203953263959896,0.0007316253724355019,0.9999976913608547,27.486743694336454,0.03317632330924323,78.96469755274023,-25.183333958885,-61.499053955078125,5356.25390625,True
1599559760.664835,0.0,10,0.5,0.5,-1.5751569747924805,-0.05075,-0.00825,-0.2505,0.013121348337882123,10,1,100,-0.04145767799039003,-10,-1,-100,14997.619546186412,0.0022015974261290904,0.0007799239029580678,0.9999972723400194,27.612918936267597,0.03291791137281145,80.50828377470522,-25.554440973729967,-61.803802490234375,5356.25390625,True
1599559760.6957521,0.0,10,0.5,0.5,-1.363057921600342,-0.05075,-0.00825,-0.2505,0.013586619985490959,10,1,100,-0.05050856512910763,-10,-1,-100,14996.084391625598,0.0024469507378184195,0.0008274739511935032,0.9999966638539085,27.755629984936096,0.032453534537695866,82.7060818435523,-26.11108235403923,-62.77825927734375,5356.25390625,True
1599559760.7296617,0.0,10,0.5,0.5,-1.6087898597717287,-0.05075,-0.00825,-0.2505,0.008881736596926574,10,1,100,-0.02613197845527735,-10,-1,-100,14996.084391625598,0.0024469507378184195,0.0008274739511935032,0.9999966638539085,27.755629984936096,0.032453534537695866,82.7060818435523,-26.11108235403923,-62.77825927734375,5356.25390625,True
1599559760.7625737,0.0,10,0.5,0.5,-1.3108343818664552,-0.05075,-0.00825,-0.2505,0.011168199351786647,10,1,100,-0.04279451218130788,-10,-1,-100,14995.035564325051,0.0025969851853723095,0.0008478043268287843,0.9999962684409229,27.816608576858762,0.032084417968358495,84.07883115919438,-26.482165299411054,-63.772735595703125,5356.25390625,True
1599559760.7995203,0.0,10,0.5,0.5,-1.177555928039551,-0.05075,-0.00825,-0.2505,0.01001021785666766,10,1,100,-0.04256695177541481,-10,-1,-100,14993.925214140676,0.002729837976607135,0.0008553269352190541,0.9999959081918562,27.846297003527802,0.03166103340756772,85.36142078085473,-26.85324062282927,-65.04302978515625,5356.25390625,True
1599559760.8285127,0.0,10,0.5,0.5,-1.2716306007385256,-0.05075,-0.00825,-0.2505,0.009626488628586692,10,1,100,-0.036680480833459275,-10,-1,-100,14993.43107345642,0.0027957073238572792,0.0008583123892918141,0.9999957236510573,27.848005293220183,0.03142742605501773,85.96333111337893,-27.038775978239585,-65.78155517578125,5356.25390625,True
1599559760.8624213,0.0,10,0.5,0.5,-0.9461724159240724,-0.05075,-0.00825,-0.2505,0.00887818764172617,10,1,100,-0.04312822312170123,-10,-1,-100,14992.321699724533,0.00291305221059549,0.0008539692855281234,0.999995392421024,27.82157121424978,0.030913988159958307,87.07438737538646,-27.409842660067298,-67.46551513671875,5356.25390625,True
1599559760.8973289,0.0,10,0.5,0.5,-0.7727761375427249,-0.05075,-0.00825,-0.2505,0.007760208861650386,10,1,100,-0.04265041633415888,-10,-1,-100,14991.209395533078,0.0030143136165776915,0.0008396700959459405,0.9999951044217922,27.74999378289623,0.03033761694896847,88.04057071117694,-27.780905757661227,-69.42520141601562,5356.25390625,True
1599559760.932235,0.0,10,0.5,0.5,-0.9308675949096681,-0.05075,-0.00825,-0.2505,0.008155126771831125,10,1,100,-0.03780166138996265,-10,-1,-100,14990.64982586645,0.003061125728261229,0.0008300865247943532,0.999994970220169,27.69505358578803,0.03002610379811671,88.46042964222676,-27.966436519460814,-70.5084228515625,5356.25390625,True
1599559760.9621549,0.0,10,0.5,0.5,-0.48048625793457045,-0.05075,-0.00825,-0.2505,0.006180798745366474,10,1,100,-0.04205102335337958,-10,-1,-100,14989.534592332784,0.003141280950477811,0.0008033116777387539,0.9999947435083539,27.54183807239078,0.02935890881459089,89.15330141366013,-28.337497832471037,-72.87939453125,5356.25390625,True
