Timestamp,Input Throttle,horizon,dT,dt,Input Roll,Roll P,Roll I,Roll D,Input Pitch,Pitch P,Pitch I,Pitch D,Input Yaw,Yaw P,Yaw I,Yaw D,Altitude,Direction X,Direction Y,Direction Z,Drag X,Drag Y,Drag Z,Vertical Velocity,Roll,Mass,Has Fuel
1599561107.046656,0.0,10,0.5,0.5,-5.8498665161132815,-0.1005,-0.0155,-0.12575,-0.0005477315021974587,10,1,100,0.17112600482601736,-10,-1,-100,14993.431430607801,-0.0167766655827336,-7.696802233074692e-05,0.9998592588798928,28.717209819400363,0.027109097274174012,-88.32817292645457,27.194950110469772,-31.793060302734375,5356.25390625,True
1599561107.075724,0.0,10,0.5,0.5,-5.940142478942872,-0.1005,-0.0155,-0.12575,-0.0005430603277382896,10,1,100,0.17327319889190404,-10,-1,-100,14993.966588485288,-0.016811473550972643,-7.483787053254461e-05,0.9998586743917052,28.644513561697266,0.02727498391144553,-87.50366987505396,27.00897863443147,-31.792510986328125,5356.25390625,True
1599561107.1119075,0.0,10,0.5,0.5,-6.0304192932128915,-0.1005,-0.0155,-0.12575,-0.0004948232944222397,10,1,100,0.17540736553448188,-10,-1,-100,14994.501746319118,-0.016847235515621596,-7.239481598536702e-05,0.9998580726355475,28.571869579752743,0.0274393912712584,-86.68237685879426,26.823011287568157,-31.791961669921875,5356.25390625,True
1599561107.142864,0.0,10,0.5,0.5,-6.089370779418945,-0.1005,-0.0155,-0.12575,0.0072360461802066,10,1,100,0.1815938277642663,-10,-1,-100,14996.105266307248,-0.016920671289649938,1.7258775049786305e-07,0.999856835193458,28.357545169458753,0.027926303104927726,-84.24750223359672,26.265132350992733,-31.92987060546875,5356.25390625,True
1599561107.1767344,0.0,10,0.5,0.5,-6.196721528625488,-0.1005,-0.0155,-0.12575,-2.0676934604837437e-05,10,1,100,0.17594231749039715,-10,-1,-100,14996.105266307248,-0.016920671289649938,1.7258775049786305e-07,0.999856835193458,28.357545169458753,0.027926303104927726,-84.24750223359672,26.265132350992733,-31.92987060546875,5356.25390625,True
1599561107.20898,0.0,10,0.5,0.5,-6.130658604431153,-0.1005,-0.0155,-0.12575,0.016016594146595387,10,1,100,0.18130843386630735,-10,-1,-100,14997.646283221547,-0.01695407173734944,0.00014596580431799945,0.9998562587419798,28.178891559479055,0.028422536186572266,-81.94330147861393,25.707286799569484,-32.61968994140625,5356.25390625,True
1599561107.2449658,0.0,10,0.5,0.5,-6.306342866516114,-0.1005,-0.0155,-0.12575,0.001451869070277028,10,1,100,0.17966379627009213,-10,-1,-100,14997.646283221547,-0.01695407173734944,0.00014596580431799945,0.9998562587419798,28.178891559479055,0.028422536186572266,-81.94330147861393,25.707286799569484,-32.61968994140625,5356.25390625,True
1599561107.2754657,0.0,10,0.5,0.5,-6.214133207702637,-0.1005,-0.0155,-0.12575,0.018998677731080715,10,1,100,0.17990205607303994,-10,-1,-100,14998.710736387875,-0.016940824943069557,0.0003053495505031984,0.9998564473022616,28.084623390289448,0.028753485107724703,-80.49078994605448,25.335406719459016,-33.42034912109375,5356.25390625,True
1599561107.3084767,0.0,10,0.5,0.5,-6.159224000549317,-0.1005,-0.0155,-0.12575,0.025982327935353555,10,1,100,0.17726472256888762,-10,-1,-100,14999.71757015679,-0.016889405893738215,0.0005134540038463113,0.9998572319754168,28.007134823944707,0.029073183042142518,-79.09352209448471,24.9635390235875,-34.49566650390625,5356.25390625,True
1599561107.3423586,0.0,10,0.5,0.5,-6.235528567504883,-0.1005,-0.0155,-0.12575,0.01898138923562503,10,1,100,0.18019265124903278,-10,-1,-100,15000.189248416806,-0.016853924831534917,0.0006385281968844761,0.9998577586334542,27.973434701814234,0.029224954177511864,-78.41144248982856,24.777609643663318,-35.136322021484375,5356.25390625,True
1599561107.3792603,0.0,10,0.5,0.5,-5.665865531921388,-0.1005,-0.0155,-0.12575,0.07399537443889259,10,1,100,0.1581978493802952,-10,-1,-100,15002.132598891156,-0.01660639482633291,0.0012517786667698907,0.9998613207345515,27.855392051176164,0.029732428727209423,-75.74265993849554,24.033920323147694,-38.3861083984375,5356.25390625,True
1599561107.409179,0.0,10,0.5,0.5,-5.6034109481811525,-0.1005,-0.0155,-0.12575,0.05430896971527584,10,1,100,0.1625793124765636,-10,-1,-100,15003.073998239706,-0.016421353823166614,0.00162910382673366,0.999863833308984,27.794085604640824,0.02989390352344968,-74.40947909345802,23.662092637630348,-40.4232177734375,5356.25390625,True
1599561107.4421456,0.0,10,0.5,0.5,-5.5923866851806645,-0.1005,-0.0155,-0.12575,0.03795505407148858,10,1,100,0.16837864102991434,-10,-1,-100,15003.542744614067,-0.016306210552343905,0.0018219057011233243,0.9998653850179227,27.759190306489902,0.029942416280778424,-73.7335278991225,23.476183073647707,-41.5450439453125,5356.25390625,True
1599561107.475057,0.0,10,0.5,0.5,-5.71833904876709,-0.1005,-0.0155,-0.12575,0.01886429668423303,10,1,100,0.17983886561585755,-10,-1,-100,15003.542744614067,-0.016306210552343905,0.0018219057011233243,0.9998653850179227,27.759190306489902,0.029942416280778424,-73.7335278991225,23.476183073647707,-41.5450439453125,5356.25390625,True
1599561107.5119953,0.0,10,0.5,0.5,-5.14918931427002,-0.1005,-0.0155,-0.12575,0.0651485193490029,10,1,100,0.15093469394382256,-10,-1,-100,15004.483165261685,-0.016044003955995683,0.002241015240699984,0.9998687752839125,27.674889231586405,0.029961211620040108,-72.3480501107238,23.10437335989761,-43.9947509765625,5356.25390625,True
1599561107.5419214,0.0,10,0.5,0.5,-5.138099459838868,-0.1005,-0.0155,-0.12575,0.048297296014673655,10,1,100,0.16080011137865172,-10,-1,-100,15004.952886804822,-0.01589611690629907,0.0024667938439549095,0.9998706058262903,27.622803620331528,0.029925828210555474,-71.6321881555448,22.918473483167976,-45.322662353515625,5356.25390625,True
1599561107.57583,0.0,10,0.5,0.5,-4.637853509521485,-0.1005,-0.0155,-0.12575,0.07804472061253824,10,1,100,0.13846794353881858,-10,-1,-100,15005.831782698864,-0.015559616203331891,0.002940368408676668,0.9998746184283439,27.491395435900422,0.029751657921166713,-70.13752395800357,22.546684619147726,-48.184722900390625,5356.25390625,True
1599561107.6089997,0.0,10,0.5,0.5,-3.885563203430176,-0.1005,-0.0155,-0.12575,0.11174644240047885,10,1,100,0.10501013935546621,-10,-1,-100,15007.17746789672,-0.014950812303998542,0.003674729663219219,0.9998814777629161,27.201945904441704,0.029196283333501098,-67.6864812303412,21.989033222680874,-52.993865966796875,5356.25390625,True
1599561107.6459048,0.0,10,0.5,0.5,-4.459973992919922,-0.1005,-0.0155,-0.12575,0.03864725495749536,10,1,100,0.16569152802489398,-10,-1,-100,15007.17746789672,-0.014950812303998542,0.003674729663219219,0.9998814777629161,27.201945904441704,0.029196283333501098,-67.6864812303412,21.989033222680874,-52.993865966796875,5356.25390625,True
1599561107.6778133,0.0,10,0.5,0.5,-3.6281032363891605,-0.1005,-0.0155,-0.12575,0.09516810328039585,10,1,100,0.11338417005273006,-10,-1,-100,15008.046595706372,-0.014477053225696816,0.0041856816701007025,0.9998864410516113,26.927130748543764,0.02860992018249976,-65.87254436392548,21.617291033188778,-56.543914794921875,5356.25390625,True
1599561107.715715,0.0,10,0.5,0.5,-2.71971641998291,-0.1005,-0.0155,-0.12575,0.12815780018372971,10,1,100,0.07129010674265754,-10,-1,-100,15009.330754533876,-0.01366585064406353,0.004946865145047617,0.9998943809480133,26.354656361822265,0.027396426062493835,-62.8131494004254,21.059724528346592,-62.385345458984375,5356.25390625,True
1599561107.7446373,0.0,10,0.5,0.5,-2.945417237854004,-0.1005,-0.0155,-0.12575,0.08131392961772492,10,1,100,0.11898610728106157,-10,-1,-100,15009.739927217714,-0.013364666978548097,0.005209637583964516,0.9998971173839818,26.113169914780965,0.02690610890616606,-61.6897556626003,20.873883554164646,-64.47003173828125,5356.25390625,True
1599561107.7795439,0.0,10,0.5,0.5,-1.6616108093261723,-0.1005,-0.0155,-0.12575,0.1342130641554689,10,1,100,0.04277732853982319,-10,-1,-100,15010.95572549128,-0.012400835373017918,0.005926167811725523,0.9999055454477281,25.207932634654707,0.025211892723892553,-57.96494159805947,20.316411753712586,-71.13824462890625,5356.25390625,True
1599561107.812446,0.0,10,0.5,0.5,-1.3706056365966797,-0.1005,-0.0155,-0.12575,0.11499886551564213,10,1,100,0.060402429829471305,-10,-1,-100,15011.76625717408,-0.011688403357150306,0.006399153247409284,0.9999112120906918,24.43267169150079,0.023938268385084456,-55.157484460480966,19.94481109191875,-75.92791748046875,5356.25390625,True
1599561107.8463306,0.0,10,0.5,0.5,-1.3543199645996093,-0.1005,-0.0155,-0.12575,0.09108830134154931,10,1,100,0.09164824285994982,-10,-1,-100,15012.170546984067,-0.011328988740452458,0.006607610107769782,0.9999139930527937,23.987400090864575,0.02327424446601875,-53.649290924017265,19.759026116091572,-78.42645263671875,5356.25390625,True
1599561107.8792765,0.0,10,0.5,0.5,-1.6151416229248048,-0.1005,-0.0155,-0.12575,0.07067927479220656,10,1,100,0.1271182030081803,-10,-1,-100,15012.170546984067,-0.011328988740452458,0.006607610107769782,0.9999139930527937,23.987400090864575,0.02327424446601875,-53.649290924017265,19.759026116091572,-78.42645263671875,5356.25390625,True
1599561107.9121897,0.0,10,0.5,0.5,0.8532632919311522,-0.1005,-0.0155,-0.12575,0.15596181381874558,10,1,100,-0.04398341280089395,-10,-1,-100,15013.72520515928,-0.009777671440520734,0.007379141538680305,0.9999249698909181,21.814701517378907,0.020607468123786984,-46.960505487581116,19.015988137430217,-89.1097412109375,5356.25390625,True
1599561107.9433076,0.0,10,0.5,0.5,0.21655459136962893,-0.1005,-0.0155,-0.12575,0.0980542510637542,10,1,100,0.06480405173440547,-10,-1,-100,15014.06992474664,-0.00936161624977899,0.007550066111617219,0.9999276757060492,21.245256021143422,0.02003825583684539,-45.28926431794291,18.830251744939673,-91.95297241210938,5356.25390625,True
1599561107.9771805,0.0,10,0.5,0.5,0.5782972473144532,-0.1005,-0.0155,-0.12575,0.09885041314115979,10,1,100,0.05926836590060534,-10,-1,-100,15014.473238051869,-0.008938140928846695,0.00770916689094683,0.9999303367648085,21.73448274834788,0.02051973118392929,-45.876493251074415,18.644514139266974,-94.86520385742188,5356.25390625,True
1599561108.0111237,0.0,10,0.5,0.5,1.588646789932251,-0.1005,-0.0155,-0.12575,0.11305650720629089,10,1,100,0.01101691412314569,-10,-1,-100,15015.21638959786,-0.008119979867636021,0.007979282602540643,0.9999351963882951,22.718391682177867,0.02162805508319919,-47.00057118414263,18.2730311419077,-100.66260528564453,5356.25390625,True
1599561108.0465457,0.0,10,0.5,0.5,1.5793842357635501,-0.1005,-0.0155,-0.12575,0.09997785126892447,10,1,100,0.04468710985186344,-10,-1,-100,15015.559156436124,-0.007688068930758353,0.008102496740074924,0.9999376196256909,23.16445187566469,0.022196481975051675,-47.437590888527886,18.087284460522916,-103.54161834716797,5356.25390625,True
1599561108.0794504,0.0,10,0.5,0.5,3.1867365077972414,-0.1005,-0.0155,-0.12575,0.12019939730822848,10,1,100,-0.05407380041201745,-10,-1,-100,15016.586482653394,-0.006403030514573652,0.008395473073104282,0.9999442570624165,24.224307579798403,0.023766504272052652,-48.083493750729176,17.530022154213476,-111.96414184570312,5356.25390625,True
1599561108.1113403,0.0,10,0.5,0.5,3.4056950794219976,-0.1005,-0.0155,-0.12575,0.10625781333659606,10,1,100,-0.021307099292573087,-10,-1,-100,15017.327682725387,-0.005539021634095212,0.00853217730748964,0.9999482592563129,24.72203242931186,0.02463135406379073,-48.03383119210887,17.158498010472712,-117.28778839111328,5356.25390625,True
1599561108.1442845,0.0,10,0.5,0.5,2.807778319168091,-0.1005,-0.0155,-0.12575,0.09284799084763666,10,1,100,0.0644076073813786,-10,-1,-100,15017.327682725387,-0.005539021634095212,0.00853217730748964,0.9999482592563129,24.72203242931186,0.02463135406379073,-48.03383119210887,17.158498010472712,-117.28778839111328,5356.25390625,True
1599561108.1801898,0.0,10,0.5,0.5,4.563266781997681,-0.1005,-0.0155,-0.12575,0.10840288399607462,10,1,100,-0.07118997596276688,-10,-1,-100,15018.28958382213,-0.004311906677987576,0.008671646314239003,0.9999531039058788,25.28052282470242,0.0256267777040495,-47.526907530969346,16.601196741111465,-124.76350402832031,5356.25390625,True
1599561108.2110739,0.0,10,0.5,0.5,4.227758076858521,-0.1005,-0.0155,-0.12575,0.09656739482511781,10,1,100,0.0045904996776119505,-10,-1,-100,15018.628447071533,-0.0038916402074045003,0.008688964567723844,0.9999546774885535,25.387387473372286,0.025827867927909438,-47.19478890544582,16.415428540705577,-127.11815643310547,5356.25390625,True
1599561108.243982,0.0,10,0.5,0.5,4.5242994544982915,-0.1005,-0.0155,-0.12575,0.09597337597297048,10,1,100,0.0008574157238544974,-10,-1,-100,15018.969263984705,-0.0034824038786884985,0.008697416122726948,0.99995611294497,25.458926871792993,0.025963060620386592,-46.79321874864261,16.229661154735286,-129.4039764404297,5356.25390625,True
1599561108.2769284,0.0,10,0.5,0.5,4.8008501369476315,-0.1005,-0.0155,-0.12575,0.09706328431275682,10,1,100,-0.0003484070987450766,-10,-1,-100,15019.306174863712,-0.0031051317974338027,0.00871380918074233,0.9999572129276744,25.497605985966462,0.02603382408664187,-46.32890798699434,16.04389516298038,-131.62071228027344,5356.25390625,True
1599561108.313799,0.0,10,0.5,0.5,5.539961198043824,-0.1005,-0.0155,-0.12575,0.09512946501387717,10,1,100,-0.0468424201049569,-10,-1,-100,15019.92335657205,-0.002345172045738831,0.008710073837067294,0.9999593165633434,25.485675594418087,0.025990758444799013,-45.23686248758187,15.67237028588778,-135.84780883789062,5356.25390625,True
1599561108.3451471,0.0,10,0.5,0.5,5.966010667800903,-0.1005,-0.0155,-0.12575,0.09143029582967771,10,1,100,-0.052565139868144616,-10,-1,-100,15020.543469147175,-0.0016082684271536121,0.008672139343918975,0.9999611029794438,25.37099682664587,0.025723867124356842,-43.967709812414064,15.300858985837051,-139.799560546875,5356.25390625,True
1599561108.3830678,0.0,10,0.5,0.5,5.953403100585937,-0.1005,-0.0155,-0.12575,0.09223122734692407,10,1,100,-0.01851527086823717,-10,-1,-100,15020.817881533178,-0.001253820047930283,0.008644304766903308,0.999961851237528,25.280835034253347,0.025517142534895794,-43.28054783740533,15.11510983833523,-141.67210388183594,5356.25390625,True
1599561108.4159884,0.0,10,0.5,0.5,6.577587113571167,-0.1005,-0.0155,-0.12575,0.08786019504577147,10,1,100,-0.0586301181114898,-10,-1,-100,15021.432135923416,-0.0005727631363184397,0.008578771395945107,0.9999630376287544,25.04606717470788,0.02498227314917145,-41.82666416520525,14.743626684409353,-145.21046447753906,5356.25390625,True
1599561108.4469151,0.0,10,0.5,0.5,6.922351430892945,-0.1005,-0.0155,-0.12575,0.08604300887581529,10,1,100,-0.06208498539237772,-10,-1,-100,15021.990727374796,7.2487151901985e-05,0.008502509095053649,0.9999638503889534,24.757701653356108,0.024324014474135076,-40.30525292252138,14.372165366691108,-148.47314453125,5356.25390625,True
1599561108.4798594,0.0,10,0.5,0.5,6.9061374023437505,-0.1005,-0.0155,-0.12575,0.08821802095375587,10,1,100,-0.03253284705961793,-10,-1,-100,15022.266117642168,0.0003853211483627392,0.00845297953878127,0.999964198691398,24.622143295667716,0.02398401167514218,-39.56749329356651,14.186442988519861,-150.00123596191406,5356.25390625,True
1599561108.5137699,0.0,10,0.5,0.5,7.991540320968628,-0.1005,-0.0155,-0.12575,0.0724708359263225,10,1,100,-0.1278461999018521,-10,-1,-100,15023.368654990103,0.0015308149502724097,0.008264868439892176,0.9999646736536543,23.998887153517643,0.022474275312122302,-36.54999976464155,13.443610387824794,-155.42379760742188,5356.25390625,True
1599561108.5447254,0.0,10,0.5,0.5,7.357176649093629,-0.1005,-0.0155,-0.12575,0.09124126802779725,10,1,100,-0.013881091873711013,-10,-1,-100,15023.368654990103,0.0015308149502724097,0.008264868439892176,0.9999646736536543,23.998887153517643,0.022474275312122302,-36.54999976464155,13.443610387824794,-155.42379760742188,5356.25390625,True
1599561108.5825884,0.0,10,0.5,0.5,7.6687901466369635,-0.1005,-0.0155,-0.12575,0.08527509193570632,10,1,100,-0.04348488583870481,-10,-1,-100,15023.642092484399,0.0017950108452653743,0.008211016017353015,0.9999646779521905,23.8313241985297,0.022079093455917572,-35.794334993646785,13.25791609966294,-156.607177734375,5356.25390625,True
1599561108.616501,0.0,10,0.5,0.5,8.47701863861084,-0.1005,-0.0155,-0.12575,0.069450471857946,10,1,100,-0.12307037298795018,-10,-1,-100,15024.680180288386,0.0027538957105030693,0.008018641268979023,0.9999640580793967,23.1761284299471,0.020536091497335218,-32.8633304035777,12.515190072105465,-160.65081787109375,5356.25390625,True
1599561108.6464517,0.0,10,0.5,0.5,8.203231496429444,-0.1005,-0.0155,-0.12575,0.08382562571875989,10,1,100,-0.051552479666702025,-10,-1,-100,15024.892095199437,0.002970120169155139,0.007975070321838942,0.9999637876641047,23.01806994985737,0.020166791243727816,-32.155770978720454,12.329520282707984,-161.48928833007812,5356.25390625,True
1599561108.6793652,0.0,10,0.5,0.5,8.13753812942505,-0.1005,-0.0155,-0.12575,0.0881092200812452,10,1,100,-0.03046156302298447,-10,-1,-100,15024.892095199437,0.002970120169155139,0.007975070321838942,0.9999637876641047,23.01806994985737,0.020166791243727816,-32.155770978720454,12.329520282707984,-161.48928833007812,5356.25390625,True
1599561108.714239,0.0,10,0.5,0.5,8.503710460662843,-0.1005,-0.0155,-0.12575,0.08040113499144956,10,1,100,-0.07543041857818747,-10,-1,-100,15025.380378015107,0.0033747657754785217,0.0079056305201336,0.9999630552985646,22.714203096803555,0.019457020243613222,-30.777122880462407,11.958192904950383,-162.95913696289062,5356.25390625,True
1599561108.7441664,0.0,10,0.5,0.5,8.62207659301758,-0.1005,-0.0155,-0.12575,0.07841977556796423,10,1,100,-0.0761391540723369,-10,-1,-100,15025.86573177611,0.003744860662243493,0.007825162591321395,0.9999623707165384,22.432734714252348,0.018792065429466397,-29.453341621716152,11.586880131032578,-164.15341186523438,5356.25390625,True
1599561108.974665,0.0,10,0.5,0.5,8.612960744476318,-0.1005,-0.0155,-0.12575,0.08218518895737463,10,1,100,-0.05847434971768947,-10,-1,-100,15026.078623121255,0.003916796316261616,0.007786926058490961,0.9999620105229879,22.302240276330153,0.01847778494311271,-28.813518829265806,11.401228656568376,-164.64712524414062,5356.25390625,True
1599561109.0006006,0.0,10,0.5,0.5,8.752486274719239,-0.1005,-0.0155,-0.12575,0.07963642671177885,10,1,100,-0.07637376023522513,-10,-1,-100,15026.563976686215,0.004232328543560816,0.0077296455382638435,0.9999611692335619,22.06493143119106,0.017886785038663186,-27.57985388281245,11.029933952797075,-165.4274139404297,5356.25390625,True
1599561109.0311062,0.0,10,0.5,0.5,8.792391357421875,-0.1005,-0.0155,-0.12575,0.08030246406712066,10,1,100,-0.07608158373498891,-10,-1,-100,15026.984877659823,0.004513022593471397,0.007684284799470042,0.9999602914087097,21.862573882362682,0.017345409067573866,-26.40825608696513,10.658648560951567,-165.93179321289062,5356.25390625,True
1599561109.068071,0.0,10,0.5,0.5,8.778892278289794,-0.1005,-0.0155,-0.12575,0.08301998263465762,10,1,100,-0.062233631572482156,-10,-1,-100,15027.19484000653,0.004639597430418956,0.00766828028176276,0.9999598349999884,21.775452993068523,0.017092715033480498,-25.845483489355146,10.473008829172203,-166.08047485351562,5356.25390625,True
1599561109.0989919,0.0,10,0.5,0.5,8.776713411712647,-0.1005,-0.0155,-0.12575,0.08456077558957285,10,1,100,-0.04988702612574091,-10,-1,-100,15027.19484000653,0.004639597430418956,0.00766828028176276,0.9999598349999884,21.775452993068523,0.017092715033480498,-25.845483489355146,10.473008829172203,-166.08047485351562,5356.25390625,True
1599561109.169007,0.0,10,0.5,0.5,8.76987537765503,-0.1005,-0.0155,-0.12575,0.08130341591281195,10,1,100,-0.09620169595048639,-10,-1,-100,15027.975117848837,0.005058053895566503,0.007639161317188198,0.9999580287717877,21.547489171757352,0.016208151597255305,-23.763664262038578,9.73046293275924,-165.9853515625,5356.25390625,True
1599561109.198931,0.0,10,0.5,0.5,8.685714980316162,-0.1005,-0.0155,-0.12575,0.08447879878190764,10,1,100,-0.07178822128284576,-10,-1,-100,15028.33547174465,0.005214433495826573,0.007641901629977457,0.9999572045956743,21.502941321324744,0.015830951401223065,-22.810624119575174,9.359194431647282,-165.52395629882812,5356.25390625,True
1599561109.2517793,0.0,10,0.5,0.5,8.674349254608154,-0.1005,-0.0155,-0.12575,0.08603673063223989,10,1,100,-0.06332638884073458,-10,-1,-100,15028.543480770779,0.005277630734474106,0.007658858720872405,0.9999567433128916,21.49640459061768,0.015655673850582735,-22.351831227822892,9.173560505308574,-165.18963623046875,5356.25390625,True
1599561109.2829528,0.0,10,0.5,0.5,8.524046318817138,-0.1005,-0.0155,-0.12575,0.08832522360853219,10,1,100,-0.06828401287120041,-10,-1,-100,15028.900904888986,0.005378054342098535,0.007695366204744076,0.999955927964062,21.51300951340432,0.015328804182068619,-21.46459925054465,8.802292125231203,-164.31414794921875,5356.25390625,True
1599561109.3148575,0.0,10,0.5,0.5,8.37574931564331,-0.1005,-0.0155,-0.12575,0.08977072838626388,10,1,100,-0.06545427702943363,-10,-1,-100,15029.256375750294,0.005441802488135028,0.0077418869283480555,0.9999552239837886,21.5663452252123,0.01503038553433665,-20.610965591663142,8.43102208379594,-163.16281127929688,5356.25390625,True
1599561109.3447824,0.0,10,0.5,0.5,8.365339456939697,-0.1005,-0.0155,-0.12575,0.08850985277597473,10,1,100,-0.061124914041155526,-10,-1,-100,15029.405790403718,0.005458854828433046,0.007772791694860838,0.9999548912892174,21.605334416639728,0.014890789972799544,-20.193942421295127,8.245385961250731,-162.48367309570312,5356.25390625,True
1599561109.3807855,0.0,10,0.5,0.5,8.093250693511962,-0.1005,-0.0155,-0.12575,0.09317090975534499,10,1,100,-0.0602151671947332,-10,-1,-100,15029.699737132876,0.005464684658725431,0.00784327303183367,0.9999543091010352,21.704521690551587,0.014629361865590029,-19.37382844174895,7.87411078401596,-160.91842651367188,5356.25390625,True
1599561109.4127004,0.0,10,0.5,0.5,7.866550688171388,-0.1005,-0.0155,-0.12575,0.09500512049929014,10,1,100,-0.05627892531850544,-10,-1,-100,15030.050324461889,0.005433080163648106,0.007923918319941593,0.9999538455140788,21.826341704226206,0.014390254251759532,-18.564517197279685,7.502830918697724,-159.07736206054688,5356.25390625,True
1599561109.444579,0.0,10,0.5,0.5,8.087440174865723,-0.1005,-0.0155,-0.12575,0.0869645550405451,10,1,100,-0.059531380583255585,-10,-1,-100,15030.050324461889,0.005433080163648106,0.007923918319941593,0.9999538455140788,21.826341704226206,0.014390254251759532,-18.564517197279685,7.502830918697724,-159.07736206054688,5356.25390625,True
1599561109.4784875,0.0,10,0.5,0.5,7.844915237426759,-0.1005,-0.0155,-0.12575,0.09178619952403874,10,1,100,-0.05615119297153981,-10,-1,-100,15030.19876239833,0.005401629837420482,0.00796751905339319,0.9999536694443564,21.893296190988547,0.014278733845555792,-18.16099487881011,7.317189159406405,-158.05340576171875,5356.25390625,True
1599561109.5143912,0.0,10,0.5,0.5,7.17263356628418,-0.1005,-0.0155,-0.12575,0.10296550089450743,10,1,100,-0.0426962051270296,-10,-1,-100,15030.574739821837,0.005250027803711638,0.008108514061015603,0.9999533435154776,22.10440546826112,0.013974968644312915,-16.941238179789796,6.760256242242706,-154.56787109375,5356.25390625,True
1599561109.5453107,0.0,10,0.5,0.5,7.299182359313965,-0.1005,-0.0155,-0.12575,0.09438440249921717,10,1,100,-0.05020561706014723,-10,-1,-100,15030.719271071139,0.0051803006325427175,0.008158254670948042,0.9999533025927163,22.17385643637095,0.013883938512792376,-16.52800144064174,6.574609391593692,-153.26815795898438,5356.25390625,True
1599561109.5802152,0.0,10,0.5,0.5,6.4679078643798835,-0.1005,-0.0155,-0.12575,0.10559760585699256,10,1,100,-0.02741949130535027,-10,-1,-100,15031.093294439721,0.004909796727221257,0.008304942207738244,0.999953459832518,22.358388420129124,0.013643531208147316,-15.254382183055252,6.017662190867128,-148.95559692382812,5356.25390625,True
1599561109.612168,0.0,10,0.5,0.5,6.62862719116211,-0.1005,-0.0155,-0.12575,0.09641902589360804,10,1,100,-0.0424027840258338,-10,-1,-100,15031.235872203833,0.004800430232576374,0.008354265529255963,0.9999535799811152,22.406161895126516,0.013574393421948524,-14.815544099728617,5.8320111844527975,-147.3802490234375,5356.25390625,True
1599561109.6470652,0.0,10,0.5,0.5,6.040900922393799,-0.1005,-0.0155,-0.12575,0.10130223445772703,10,1,100,-0.02608874480471583,-10,-1,-100,15031.464386832085,0.0045532218118977,0.008442898718196324,0.9999539917578039,22.46910298642913,0.013450669646101754,-13.911596662223976,5.460707033488161,-144.0229949951172,5356.25390625,True
1599561109.6799772,0.0,10,0.5,0.5,6.4334089012146,-0.1005,-0.0155,-0.12575,0.09250901674267575,10,1,100,-0.05072072880495948,-10,-1,-100,15031.464386832085,0.0045532218118977,0.008442898718196324,0.9999539917578039,22.46910298642913,0.013450669646101754,-13.911596662223976,5.460707033488161,-144.0229949951172,5356.25390625,True
1599561109.7118888,0.0,10,0.5,0.5,5.148581909942627,-0.1005,-0.0155,-0.12575,0.10489278421147111,10,1,100,-0.0021921628350217645,-10,-1,-100,15031.770048251608,0.004112876333095116,0.008554869234255068,0.9999549482154951,22.44749373811616,0.013286589607835986,-12.481107904006624,4.9037451801071565,-138.47067260742188,5356.25390625,True
1599561109.7449048,0.0,10,0.5,0.5,5.3621058235168455,-0.1005,-0.0155,-0.12575,0.09686809698397562,10,1,100,-0.028028587778191602,-10,-1,-100,15031.853054904146,0.003948667768508521,0.008583062004783584,0.9999553685387543,22.39931726808316,0.013231205756477854,-11.982932398623719,4.718089460089588,-136.4822235107422,5356.25390625,True
1599561109.781454,0.0,10,0.5,0.5,5.111650180816651,-0.1005,-0.0155,-0.12575,0.09736535689140158,10,1,100,-0.02498723370058429,-10,-1,-100,15031.938014980056,0.0037730880476289494,0.008612613119254433,0.9999557923737644,22.326576209188076,0.013172029821822239,-11.474143349422734,4.532432421671542,-134.4248504638672,5356.25390625,True
1599561109.8143668,0.0,10,0.5,0.5,4.354527391815186,-0.1005,-0.0155,-0.12575,0.09808871752171885,10,1,100,-0.0016873479746836728,-10,-1,-100,15032.100121437106,0.0034031620603357142,0.00864542768832235,0.999956836602499,22.098393945389454,0.013033971584502273,-10.426678103068463,4.161113401155236,-130.10385131835938,5356.25390625,True
1599561109.8453138,0.0,10,0.5,0.5,3.81465530090332,-0.1005,-0.0155,-0.12575,0.09650956332050409,10,1,100,0.005798586215872627,-10,-1,-100,15032.258321459754,0.0030006285499523384,0.00866028688688675,0.999957996947543,21.742649972328618,0.01285133906593543,-9.343532053659468,3.789785110129562,-125.50753784179688,5356.25390625,True
1599561109.8792229,0.0,10,0.5,0.5,2.671005472564697,-0.1005,-0.0155,-0.12575,0.0914631644939499,10,1,100,0.037301644078421584,-10,-1,-100,15032.441910231253,0.0023503424683567874,0.008627417284589465,0.9999600209814786,20.92417394340189,0.012445367509802997,-7.670400562122536,3.232767261083453,-118.09718322753906,5356.25390625,True
1599561109.915127,0.0,10,0.5,0.5,2.3528262447357178,-0.1005,-0.0155,-0.12575,0.08789250846113447,10,1,100,0.022478827111838195,-10,-1,-100,15032.601085930597,0.0018964988740244864,0.008564648807099392,0.9999615243012262,20.179868836423708,0.012060022899626103,-6.547847344237529,2.8613981171286533,-112.8131332397461,5356.25390625,True
1599561109.94505,0.0,10,0.5,0.5,2.9612747119903564,-0.1005,-0.0155,-0.12575,0.0941953268700779,10,1,100,-0.022604202536072232,-10,-1,-100,15032.601085930597,0.0018964988740244864,0.008564648807099392,0.9999615243012262,20.179868836423708,0.012060022899626103,-6.547847344237529,2.8613981171286533,-112.8131332397461,5356.25390625,True
1599561109.9789915,0.0,10,0.5,0.5,2.286606014251709,-0.1005,-0.0155,-0.12575,0.08920823567116462,10,1,100,0.002580568778393969,-10,-1,-100,15032.618662116933,0.0016701863451280227,0.008519120356856686,0.9999623168229481,19.765200330815436,0.011837345741742826,-5.997142805332858,2.675704793536206,-110.06798553466797,5356.25390625,True
1599561110.011903,0.0,10,0.5,0.5,1.2903253532409669,-0.1005,-0.0155,-0.12575,0.08101493402611364,10,1,100,0.031043412538220665,-10,-1,-100,15032.717290430446,0.0012083154987389672,0.008403177003827709,0.9999639626456035,18.918345532330758,0.011364406973808182,-4.94347492383975,2.304297668037545,-104.37139892578125,5356.25390625,True
1599561110.0481865,0.0,10,0.5,0.5,0.5941376037597657,-0.1005,-0.0155,-0.12575,0.07585549190584177,10,1,100,0.03835022824323599,-10,-1,-100,15032.813965491136,0.0007250481377152854,0.008250906046993774,0.9999656978389816,17.860201748122762,0.010734524734428708,-3.9147301956266793,1.9328577408169108,-98.3998031616211,5356.25390625,True
1599561110.0791087,0.0,10,0.5,0.5,-0.13033153495788574,-0.1005,-0.0155,-0.12575,0.07009995248999329,10,1,100,0.042095323226782236,-10,-1,-100,15032.847163847648,0.000254747698930045,0.008060431148989085,0.9999674817479328,16.67108596417642,0.0100154173909993,-2.9518606833103624,1.5613917212012205,-92.15322875976562,5356.25390625,True
1599561110.111989,0.0,10,0.5,0.5,-0.14351689300537107,-0.1005,-0.0155,-0.12575,0.07733851653256246,10,1,100,0.0208449062500799,-10,-1,-100,15032.923333676998,2.374556352219176e-05,0.007953552397422537,0.9999683697199676,16.04754436576505,0.00963829984109297,-2.5034558522132366,1.3756536589854047,-88.92678833007812,5356.25390625,True
1599561110.1450522,0.0,10,0.5,0.5,-1.3020348991394044,-0.1005,-0.0155,-0.12575,0.0617895681827102,10,1,100,0.04828393107461459,-10,-1,-100,15032.958484799718,-0.00043229356481334767,0.00771563496620141,0.9999701406038793,16.441127737489715,0.009866820509711924,-1.8722682208116126,1.0041755707204159,-82.32470703125,5356.25390625,True
1599561110.1809256,0.0,10,0.5,0.5,-2.055468518829346,-0.1005,-0.0155,-0.12575,0.05623027600403001,10,1,100,0.051605377408407024,-10,-1,-100,15032.9897305005,-0.0008735827794027247,0.0074496526386688584,0.9999718693686791,17.67752172596959,0.010622072040538513,-1.2683893729112132,0.6327016726021539,-75.65249633789062,5356.25390625,True
1599561110.2141142,0.0,10,0.5,0.5,-2.0470675636291507,-0.1005,-0.0155,-0.12575,0.06655353686981,10,1,100,0.03172578333850502,-10,-1,-100,15033.006329743424,-0.0010905091999127265,0.007302798925372009,0.9999727395872051,18.20624162110197,0.010954749672682795,-0.9228496778177577,0.4469669587575509,-72.32275390625,5356.25390625,True
1599561110.245503,0.0,10,0.5,0.5,-3.1728277511596676,-0.1005,-0.0155,-0.12575,0.04794691234939489,10,1,100,0.0550601867109052,-10,-1,-100,15032.976051733945,-0.0014967179295179392,0.007001348616152207,0.9999743701480527,19.077868398098833,0.011504574725295886,-0.16334573589936532,0.07549812350707663,-65.8099365234375,5356.25390625,True
1599561110.2784111,0.0,10,0.5,0.5,-4.526923962783814,-0.1005,-0.0155,-0.12575,0.024088389952288597,10,1,100,0.07706672107505472,-10,-1,-100,15032.960420632153,-0.0020629732535571805,0.006511828404334099,0.9999766698439457,19.963017641836686,0.012044501861121402,1.0906241815062716,-0.48172154282223456,-56.52716064453125,5356.25390625,True
1599561110.3153043,0.0,10,0.5,0.5,-4.769593482208252,-0.1005,-0.0155,-0.12575,0.03590742055353678,10,1,100,0.0583647829915908,-10,-1,-100,15032.93014401209,-0.0024041336818090174,0.006176121963058771,0.9999780375881949,20.311718666594686,0.012260248627302277,1.9654724852875975,-0.8532164486141534,-50.680816650390625,5356.25390625,True
1599561110.3467107,0.0,10,0.5,0.5,-4.764471780014039,-0.1005,-0.0155,-0.12575,0.05113147911612495,10,1,100,0.042296920203488346,-10,-1,-100,15032.94381397462,-0.0025645041184852676,0.006011464820099091,0.9999786425766017,20.4059899561816,0.012321348670545037,2.4045044216012914,-1.038968729881094,-47.86090087890625,5356.25390625,True
1599561110.379623,0.0,10,0.5,0.5,-4.497458643722534,-0.1005,-0.0155,-0.12575,0.0673580221937201,10,1,100,0.026637158497585744,-10,-1,-100,15032.94381397462,-0.0025645041184852676,0.006011464820099091,0.9999786425766017,20.4059899561816,0.012321348670545037,2.4045044216012914,-1.038968729881094,-47.86090087890625,5356.25390625,True
1599561110.4135323,0.0,10,0.5,0.5,-5.804999531555176,-0.1005,-0.0155,-0.12575,0.030146152913330067,10,1,100,0.06011249324459249,-10,-1,-100,15032.85006073967,-0.0028658348414069648,0.005675210955029086,0.9999797892814023,20.457531607825462,0.012365933879816512,3.272618960304698,-1.4104820294749683,-42.427947998046875,5356.25390625,True
1599561110.4484386,0.0,10,0.5,0.5,-6.925700151062012,-0.1005,-0.0155,-0.12575,0.006606378396237934,10,1,100,0.07428472747105211,-10,-1,-100,15032.765095796785,-0.0032657734619941977,0.005157696054986389,0.9999813662739419,20.261753858728575,0.012280852721894456,4.522108859909766,-1.9677695774312531,-34.79559326171875,5356.25390625,True
1599561110.4818642,0.0,10,0.5,0.5,-6.049834895324707,-0.1005,-0.0155,-0.12575,0.058078282766264,10,1,100,0.034619817314880445,-10,-1,-100,15032.765095796785,-0.0032657734619941977,0.005157696054986389,0.9999813662739419,20.261753858728575,0.012280852721894456,4.522108859909766,-1.9677695774312531,-34.79559326171875,5356.25390625,True
1599561110.5147755,0.0,10,0.5,0.5,-7.196777078247071,-0.1005,-0.0155,-0.12575,0.020902109208153802,10,1,100,0.0607657148403485,-10,-1,-100,15032.669390497496,-0.003500887548682834,0.004822056239831947,0.9999822456223867,19.98078054002598,0.012146453361025522,5.301504390679149,-2.3393009743366786,-30.051849365234375,5356.25390625,True
1599561110.54669,0.0,10,0.5,0.5,-7.681890309143067,-0.1005,-0.0155,-0.12575,0.0192916672325614,10,1,100,0.061678875567500804,-10,-1,-100,15032.576614929247,-0.003720540629765451,0.004504677477548738,0.9999829325834744,19.597115514155576,0.01196416847003059,6.025692143065971,-2.7108332823418024,-25.583526611328125,5356.25390625,True
1599561110.583104,0.0,10,0.5,0.5,-7.674496221923829,-0.1005,-0.0155,-0.12575,0.03216536563129546,10,1,100,0.050430404320352264,-10,-1,-100,15032.525832617655,-0.0038155754817484322,0.00433572869859597,0.9999833212811077,19.374851596419216,0.011859999035327135,6.365678300296775,-2.896599306963457,-23.452911376953125,5356.25390625,True
1599561110.616016,0.0,10,0.5,0.5,-8.389625410461427,-0.1005,-0.0155,-0.12575,0.01418361735151575,10,1,100,0.061153023207304535,-10,-1,-100,15032.36665120069,-0.003997341102930499,0.004021091751475052,0.9999839259134284,18.935841824685546,0.011664184738604186,7.019629392689378,-3.2681311462890017,-19.398101806640625,5356.25390625,True
1599561110.6489294,0.0,10,0.5,0.5,-9.196523756408693,-0.1005,-0.0155,-0.12575,-0.0032280192651417683,10,1,100,0.06990195898945964,-10,-1,-100,15032.154735319666,-0.0042403598403434484,0.0035790348636253856,0.9999846048104286,18.324686415523068,0.01141480249339634,7.951818622538534,-3.825431030196607,-13.8323974609375,5356.25390625,True
1599561110.6798463,0.0,10,0.5,0.5,-8.942335583496094,-0.1005,-0.0155,-0.12575,0.025129889085382193,10,1,100,0.05366679287625278,-10,-1,-100,15032.104930101545,-0.0043120242495455815,0.0034373251206753913,0.9999847955058547,18.1055517733965,0.011323555182709605,8.238390759549615,-4.011199576888579,-12.114898681640625,5356.25390625,True
1599561110.7157505,0.0,10,0.5,0.5,-9.154773731994629,-0.1005,-0.0155,-0.12575,0.024271646107654664,10,1,100,0.05455184014975772,-10,-1,-100,15031.995554533089,-0.004383630942096602,0.003303035999740986,0.9999849367530232,17.87994547487875,0.011227215691753658,8.512661332871456,-4.196969530882577,-10.46624755859375,5356.25390625,True
1599561110.7456706,0.0,10,0.5,0.5,-9.704694947814943,-0.1005,-0.0155,-0.12575,0.009482630018218197,10,1,100,0.06255632683968042,-10,-1,-100,15031.83149184694,-0.004519842244484452,0.003048971587915157,0.9999851372887205,17.437283274572756,0.011031325623628496,9.037158603899643,-4.568515775055259,-7.375518798828125,5356.25390625,True
1599561110.7796686,0.0,10,0.5,0.5,-9.69662332763672,-0.1005,-0.0155,-0.12575,0.021031545578028606,10,1,100,0.055706229155221866,-10,-1,-100,15031.722116460209,-0.004579893442793714,0.0029253815725873286,0.9999852332503253,17.24764279812329,0.010946572728892148,9.302533303249568,-4.754292455638801,-5.933502197265625,5356.25390625,True
1599561110.8115842,0.0,10,0.5,0.5,-10.44534096069336,-0.1005,-0.0155,-0.12575,-0.0038244771950050153,10,1,100,0.0689556251849871,-10,-1,-100,15031.445748690516,-0.004753739841544727,0.00258909254660936,0.9999853491713286,16.70304076820987,0.010668399867371019,10.065470246077522,-5.311638711661082,-2.0205078125,5356.25390625,True
1599561110.8405056,0.0,10,0.5,0.5,-10.268032426452637,-0.1005,-0.0155,-0.12575,0.01843427620638908,10,1,100,0.057924570399353656,-10,-1,-100,15031.330514376168,-0.004810147009285753,0.002488062648013314,0.9999853359074864,16.533364253052987,0.01056738693061055,10.311915263615438,-5.497426473401891,-0.8538818359375,5356.25390625,True
1599561110.8744745,0.0,10,0.5,0.5,-10.414951499938963,-0.1005,-0.0155,-0.12575,0.017505289267836028,10,1,100,0.05805025481927356,-10,-1,-100,15031.217233228963,-0.004861378602449045,0.0023898937622044434,0.9999853275953048,16.371637774866993,0.010462597114611217,10.556355317086608,-5.683217109544929,0.243865966796875,5356.25390625,True
1599561110.9014034,0.0,10,0.5,0.5,-10.968584704589844,-0.1005,-0.0155,-0.12575,-0.0014035681895387432,10,1,100,0.06998948304923086,-10,-1,-100,15030.815866494086,-0.005015454091076483,0.002130673147052376,0.9999851526158781,16.87106978845036,0.010722759706241036,11.946083549799841,-6.240600923750604,3.124053955078125,5356.25390625,True
1599561110.9393008,0.0,10,0.5,0.5,-10.647595361328126,-0.1005,-0.0155,-0.12575,0.02429798777051364,10,1,100,0.05470192204741986,-10,-1,-100,15030.815866494086,-0.005015454091076483,0.002130673147052376,0.9999851526158781,16.87106978845036,0.010722759706241036,11.946083549799841,-6.240600923750604,3.124053955078125,5356.25390625,True
1599561110.973211,0.0,10,0.5,0.5,-11.03902382965088,-0.1005,-0.0155,-0.12575,0.007786493532014023,10,1,100,0.0653202837743076,-10,-1,-100,15030.586374606704,-0.005111059094968057,0.0019822872163427637,0.9999849736932649,17.34058093200946,0.010940710282407914,13.010290256727977,-6.61219635579039,4.6998291015625,5356.25390625,True
1599561111.0011375,0.0,10,0.5,0.5,-11.163827767944335,-0.1005,-0.0155,-0.12575,0.008949133504214231,10,1,100,0.0670469091474694,-10,-1,-100,15030.299265950802,-0.0052128777843940275,0.0018594119587606477,0.9999846841288984,17.745684790968003,0.01108780631289112,14.063207129167004,-6.983795138210937,6.00030517578125,5356.25390625,True
1599561111.0340478,0.0,10,0.5,0.5,-11.152108840942384,-0.1005,-0.0155,-0.12575,0.014905898381200688,10,1,100,0.061814286301516516,-10,-1,-100,15030.119578942307,-0.005257051972968203,0.001803294053623978,0.9999845556482908,17.925563825105815,0.011137089660944295,14.584091336490541,-7.169595379722905,6.547210693359375,5356.25390625,True
1599561111.062969,0.0,10,0.5,0.5,-11.310464541625976,-0.1005,-0.0155,-0.12575,0.010159190130400647,10,1,100,0.06778109800065794,-10,-1,-100,15029.832470504916,-0.005350660049817947,0.0017104892848071116,0.9999842222072495,18.242608973279697,0.011191640930777076,15.612187013487183,-7.54119703818575,7.434539794921875,5356.25390625,True
1599561111.0953631,0.0,10,0.5,0.5,-11.40615684967041,-0.1005,-0.0155,-0.12575,0.008703871281498153,10,1,100,0.07399132860955047,-10,-1,-100,15029.363722025882,-0.0054914596544846156,0.0016141079438954905,0.999983619129038,18.616621815051413,0.011175550685292692,17.11144884111947,-8.098600496086936,8.24920654296875,5356.25390625,True
1599561111.125283,0.0,10,0.5,0.5,-11.32569570465088,-0.1005,-0.0155,-0.12575,0.018210878009791088,10,1,100,0.06000252476405269,-10,-1,-100,15029.363722025882,-0.0054914596544846156,0.0016141079438954905,0.999983619129038,18.616621815051413,0.011175550685292692,17.11144884111947,-8.098600496086936,8.24920654296875,5356.25390625,True
1599561111.158194,0.0,10,0.5,0.5,-11.385761787414552,-0.1005,-0.0155,-0.12575,0.013395883173721205,10,1,100,0.07576295440702892,-10,-1,-100,15028.892044113949,-0.005634065633227181,0.0015712216132064132,0.9999828941372361,18.874661837391557,0.011059821716062162,18.544491199682234,-8.65600351908075,8.4443359375,5356.25390625,True
1599561111.4080472,0.0,10,0.5,0.5,-11.359203550720217,-0.1005,-0.0155,-0.12575,0.017087951193864755,10,1,100,0.06659148484895938,-10,-1,-100,15028.712357416516,-0.005679581419170753,0.0015666317864311088,0.9999826438592566,18.935312863035563,0.011002261103095642,19.004064322704863,-8.841804449121456,8.3717041015625,5356.25390625,True
1599561111.4379678,0.0,10,0.5,0.5,-11.23818941040039,-0.1005,-0.0155,-0.12575,0.020637861165907864,10,1,100,0.07752734623956639,-10,-1,-100,15028.117632751237,-0.005819632507382499,0.0015954795454501088,0.999981792995502,19.066115746985854,0.010796485272323195,20.34383413202146,-9.399206389419113,7.74078369140625,5356.25390625,True
1599561111.474546,0.0,10,0.5,0.5,-11.24595731048584,-0.1005,-0.0155,-0.12575,0.019922187778081635,10,1,100,0.068595030928698,-10,-1,-100,15027.938922541915,-0.005865017740734095,0.001615685198852236,0.9999814953929094,19.08726245764994,0.010716219589824964,20.769763230014888,-9.58500680681251,7.392822265625,5356.25390625,True
1599561111.5084527,0.0,10,0.5,0.5,-11.29633005065918,-0.1005,-0.0155,-0.12575,0.017850123643048894,10,1,100,0.06414146395850415,-10,-1,-100,15027.938922541915,-0.005865017740734095,0.001615685198852236,0.9999814953929094,19.08726245764994,0.010716219589824964,20.769763230014888,-9.58500680681251,7.392822265625,5356.25390625,True
1599561111.5862474,0.0,10,0.5,0.5,-10.829879609680177,-0.1005,-0.0155,-0.12575,0.034165249999944275,10,1,100,0.08368274688773804,-10,-1,-100,15027.162558973534,-0.0060419803504127975,0.0017643378039308218,0.9999801905965733,19.04376768218758,0.010351698262647521,22.332681667488256,-10.328208482930451,5.312713623046875,5356.25390625,True
1599561111.621155,0.0,10,0.5,0.5,-10.761645591735842,-0.1005,-0.0155,-0.12575,0.03133471106950045,10,1,100,0.07533532623572756,-10,-1,-100,15026.740685961791,-0.006126216078224233,0.0018738307947753466,0.9999794789068002,18.938903272854233,0.010154908367806937,23.0106844674803,-10.699809414107614,3.859710693359375,5356.25390625,True
1599561111.6490798,0.0,10,0.5,0.5,-10.940195085144044,-0.1005,-0.0155,-0.12575,0.0203924656591631,10,1,100,0.0669986698651096,-10,-1,-100,15026.740685961791,-0.006126216078224233,0.0018738307947753466,0.9999794789068002,18.938903272854233,0.010154908367806937,23.0106844674803,-10.699809414107614,3.859710693359375,5356.25390625,True
1599561111.6799955,0.0,10,0.5,0.5,-10.54365339050293,-0.1005,-0.0155,-0.12575,0.03613451032950681,10,1,100,0.07515897510552148,-10,-1,-100,15026.256312669371,-0.0061996956203839715,0.002016791799496682,0.9999787479367009,18.772688195178283,0.009958512039959667,23.602879974686335,-11.07141072484286,2.13153076171875,5356.25390625,True
1599561111.7049282,0.0,10,0.5,0.5,-10.532634448242188,-0.1005,-0.0155,-0.12575,0.030533229486168403,10,1,100,0.07176895547637005,-10,-1,-100,15026.07760311768,-0.006235032993022449,0.0020954695380715456,0.9999783664514903,18.66501734284957,0.009863143933164101,23.86237600873501,-11.257211421575052,1.164215087890625,5356.25390625,True
1599561111.7358472,0.0,10,0.5,0.5,-10.40886070404053,-0.1005,-0.0155,-0.12575,0.03192216748226244,10,1,100,0.07216479320353016,-10,-1,-100,15025.83444024669,-0.006270080426269304,0.0021791838625639347,0.9999779683818746,18.54003162895984,0.009771134677316056,24.09486419590063,-11.443012295770911,0.1280517578125,5356.25390625,True
1599561111.7617757,0.0,10,0.5,0.5,-9.72957359008789,-0.1005,-0.0155,-0.12575,0.056072684171818474,10,1,100,0.07803568396560251,-10,-1,-100,15025.107880732277,-0.006354735268155246,0.0024742852526899273,0.9999767473557374,18.858836479520534,0.009948622648180536,25.70655930024199,-12.000409154890782,-3.39324951171875,5356.25390625,True
1599561111.7897036,0.0,10,0.5,0.5,-10.15414154663086,-0.1005,-0.0155,-0.12575,0.02665331050584509,10,1,100,0.06963771516190675,-10,-1,-100,15025.107880732277,-0.006354735268155246,0.0024742852526899273,0.9999767473557374,18.858836479520534,0.009948622648180536,25.70655930024199,-12.000409154890782,-3.39324951171875,5356.25390625,True
1599561111.8216164,0.0,10,0.5,0.5,-9.200081198120117,-0.1005,-0.0155,-0.12575,0.06535889931202103,10,1,100,0.0755296796222267,-10,-1,-100,15024.376439079875,-0.006407812124375634,0.0028253553275576723,0.9999754783548702,19.752564838921828,0.01058104215607425,28.17938901570851,-12.557780926789771,-7.5338134765625,5356.25390625,True
1599561111.8545303,0.0,10,0.5,0.5,-9.35421354370117,-0.1005,-0.0155,-0.12575,0.04448242805738596,10,1,100,0.07180604558485384,-10,-1,-100,15024.136205373681,-0.006421719143887468,0.002953624138641935,0.9999750185018047,20.057835383735235,0.010833064027157275,29.039652892323986,-12.743564282470148,-9.0516357421875,5356.25390625,True
1599561111.8894372,0.0,10,0.5,0.5,-9.16062052307129,-0.1005,-0.0155,-0.12575,0.046606996718222125,10,1,100,0.07153176995551563,-10,-1,-100,15023.892065911088,-0.006431362381901376,0.003088330101144512,0.9999745495736874,20.364426868754908,0.011105004770390954,29.914834575747232,-12.929343313199258,-10.63824462890625,5356.25390625,True
1599561111.9263375,0.0,10,0.5,0.5,-8.165068748474122,-0.1005,-0.0155,-0.12575,0.08134266285779268,10,1,100,0.06888630210656846,-10,-1,-100,15023.038554124068,-0.006415725270531329,0.003525365220781847,0.9999732047756645,21.37839764730991,0.01208514889445116,32.76294162715143,-13.486650496764078,-15.81103515625,5356.25390625,True
1599561111.9622421,0.0,10,0.5,0.5,-8.785057501220704,-0.1005,-0.0155,-0.12575,0.03780430433665981,10,1,100,0.07047896416280391,-10,-1,-100,15023.038554124068,-0.006415725270531329,0.003525365220781847,0.9999732047756645,21.37839764730991,0.01208514889445116,32.76294162715143,-13.486650496764078,-15.81103515625,5356.25390625,True
1599561111.9931602,0.0,10,0.5,0.5,-7.896484616088868,-0.1005,-0.0155,-0.12575,0.07278115701774937,10,1,100,0.06652166999969618,-10,-1,-100,15022.489728574757,-0.0063794866788737066,0.003841835213859019,0.9999722708414986,22.04239875837352,0.012814547704351885,34.71463088388407,-13.85815988052411,-19.603668212890625,5356.25390625,True
1599561112.029063,0.0,10,0.5,0.5,-6.935792120361328,-0.1005,-0.0155,-0.12575,0.0965846500340958,10,1,100,0.057696389384214654,-10,-1,-100,15021.633286776487,-0.006266149234445591,0.004344271468246541,0.999970930917085,22.985365975505083,0.013956153800953518,37.661080653174494,-14.415375716125306,-25.808868408203125,5356.25390625,True
1599561112.065964,0.0,10,0.5,0.5,-7.67428776550293,-0.1005,-0.0155,-0.12575,0.046565904788361125,10,1,100,0.06903324545116853,-10,-1,-100,15021.633286776487,-0.006266149234445591,0.004344271468246541,0.999970930917085,22.985365975505083,0.013956153800953518,37.661080653174494,-14.415375716125306,-25.808868408203125,5356.25390625,True
1599561112.1018674,0.0,10,0.5,0.5,-5.544083212280274,-0.1005,-0.0155,-0.12575,0.123306598046585,10,1,100,0.03892842984369829,-10,-1,-100,15020.464346204419,-0.005992472666370247,0.005039945872770683,0.9999693441385803,24.112030186968465,0.015388892804017087,41.55159048858881,-15.158233814810853,-35.04644775390625,5356.25390625,True
1599561112.1327868,0.0,10,0.5,0.5,-6.095219355773926,-0.1005,-0.0155,-0.12575,0.0742307214733949,10,1,100,0.05704723406169451,-10,-1,-100,15020.157706588157,-0.005908721517921522,0.005223900398381737,0.9999688984536726,24.330862652278988,0.015674882472167022,42.44454772817492,-15.343932125464182,-37.52789306640625,5356.25390625,True
1599561112.1676936,0.0,10,0.5,0.5,-6.354352406311035,-0.1005,-0.0155,-0.12575,0.05611023042685861,10,1,100,0.0653777475315436,-10,-1,-100,15020.157706588157,-0.005908721517921522,0.005223900398381737,0.9999688984536726,24.330862652278988,0.015674882472167022,42.44454772817492,-15.343932125464182,-37.52789306640625,5356.25390625,True
1599561112.2045949,0.0,10,0.5,0.5,-4.530009410095215,-0.1005,-0.0155,-0.12575,0.11418094704785689,10,1,100,0.029909387104439196,-10,-1,-100,15019.235834539752,-0.0055867355964082585,0.005749635508508245,0.9999678645221032,24.78611255661636,0.016250364843395943,44.81547623629207,-15.900995019188901,-45.38580322265625,5356.25390625,True
1599561112.2414968,0.0,10,0.5,0.5,-3.5437597259521487,-0.1005,-0.0155,-0.12575,0.11960271783448109,10,1,100,0.018343187755607004,-10,-1,-100,15018.250485600787,-0.00518963293144998,0.006274323514529049,0.999966849737766,24.871210163841617,0.016288129357906883,46.55203429701307,-16.458027409339767,-53.863433837890625,5356.25390625,True
1599561112.2714157,0.0,10,0.5,0.5,-3.872247781372071,-0.1005,-0.0155,-0.12575,0.08446400498015719,10,1,100,0.0413400154895372,-10,-1,-100,15017.939939392381,-0.005038821424024048,0.006428973409132848,0.9999666387332937,24.80222831100525,0.016166929639335362,46.94918031069504,-16.64370284085069,-56.827301025390625,5356.25390625,True
1599561112.315125,0.0,10,0.5,0.5,-2.7934502868652347,-0.1005,-0.0155,-0.12575,0.1022624992074868,10,1,100,0.021024443479825725,-10,-1,-100,15017.259276619297,-0.004718284766136285,0.006728729071577162,0.9999662304267813,24.52939399399164,0.015743796287570135,47.473961540514246,-17.01505682841754,-62.9617919921875,5356.25390625,True
1599561112.3520281,0.0,10,0.5,0.5,-2.0415362380981446,-0.1005,-0.0155,-0.12575,0.1043954699198428,10,1,100,0.014269490154647714,-10,-1,-100,15016.520996173727,-0.004367022265558878,0.007017712713138142,0.9999658398289453,24.090234443935845,0.015125698118553887,47.64707037414079,-17.38642117880943,-69.3717041015625,5356.25390625,True
1599561112.3899245,0.0,10,0.5,0.5,-2.7704422302246097,-0.1005,-0.0155,-0.12575,0.07581469351367269,10,1,100,0.049194493771056974,-10,-1,-100,15016.520996173727,-0.004367022265558878,0.007017712713138142,0.9999658398289453,24.090234443935845,0.015125698118553887,47.64707037414079,-17.38642117880943,-69.3717041015625,5356.25390625,True
1599561112.426827,0.0,10,0.5,0.5,-1.190225094604492,-0.1005,-0.0155,-0.12575,0.10282295589472895,10,1,100,0.008169362949001877,-10,-1,-100,15015.839356354438,-0.003995793009875547,0.007260811970016025,0.9999656565341424,23.449325980783886,0.014359108049452864,47.3757888426272,-17.75780255223539,-76.05764770507812,5356.25390625,True
1599561112.456747,0.0,10,0.5,0.5,-0.37800526580810556,-0.1005,-0.0155,-0.12575,0.10179192972043082,10,1,100,0.002453457881229519,-10,-1,-100,15015.095215911977,-0.003608413055206015,0.0074697869287734175,0.9999655902272148,22.546938377780517,0.013499364228916424,46.511174134751215,-18.129205653322707,-83.01937866210938,5356.25390625,True
1599561112.4936485,0.0,10,0.5,0.5,-0.36816009368896485,-0.1005,-0.0155,-0.12575,0.09180714167456687,10,1,100,0.01825626096238898,-10,-1,-100,15014.724121965235,-0.0034020786331634945,0.007566784417175918,0.9999655842250561,21.995748184277467,0.013064360176916354,45.84187463573107,-18.31491585767195,-86.60357666015625,5356.25390625,True
1599561112.5275567,0.0,10,0.5,0.5,1.7778004253387452,-0.1005,-0.0155,-0.12575,0.10638252695621826,10,1,100,-0.028869044626652116,-10,-1,-100,15013.608887097565,-0.0027883687831197004,0.007785337560085209,0.9999658061746936,21.27280679959634,0.01264220363969664,45.6928019030413,-18.87206447604912,-97.74437713623047,5356.25390625,True
1599561112.55648,0.0,10,0.5,0.5,1.3295633361816406,-0.1005,-0.0155,-0.12575,0.09073790457241188,10,1,100,0.009619056986767838,-10,-1,-100,15013.237793158041,-0.0025831792547789797,0.007839469816366594,0.9999659343687343,22.08683444862541,0.013244500141903832,47.91127067027429,-19.057766731835894,-101.54275512695312,5356.25390625,True
1599561112.5903897,0.0,10,0.5,0.5,1.8047700580596924,-0.1005,-0.0155,-0.12575,0.09057368193715593,10,1,100,0.0068482040326842825,-10,-1,-100,15012.86083960475,-0.002374184253379046,0.007885288176022019,0.9999660921648853,22.839829778991966,0.013860716699759816,50.03071968164309,-19.243457311334318,-105.36953735351562,5356.25390625,True
1599561112.6265533,0.0,10,0.5,0.5,3.1401081119537353,-0.1005,-0.0155,-0.12575,0.09295701004009921,10,1,100,-0.01659068991996041,-10,-1,-100,15012.058103955933,-0.0019736674422442192,0.00794714333604326,0.9999664732127892,24.138270233983036,0.015071077701920961,53.902321720323094,-19.61480257236421,-113.045654296875,5356.25390625,True
1599561112.6565719,0.0,10,0.5,0.5,3.953327898406983,-0.1005,-0.0155,-0.12575,0.08985344399681253,10,1,100,-0.02065133088218247,-10,-1,-100,15011.310055826674,-0.001575432836084885,0.007973780908462772,0.9999669678691406,25.10226355506972,0.016112835051394023,57.1233834875229,-19.986102277586763,-120.52124786376953,5356.25390625,True
1599561112.6904528,0.0,10,0.5,0.5,4.734246862030029,-0.1005,-0.0155,-0.12575,0.08647991041487857,10,1,100,-0.022750721124872066,-10,-1,-100,15010.501460668282,-0.0011971731482156316,0.007966196530974851,0.9999675527182285,25.85317044839119,0.01694720897841452,59.93258339996855,-20.357363740113918,-127.73343658447266,5356.25390625,True
1599561112.7233915,0.0,10,0.5,0.5,4.710469737243653,-0.1005,-0.0155,-0.12575,0.08597119159839675,10,1,100,-0.004782639851059704,-10,-1,-100,15010.065913034952,-0.0010195285791121892,0.007953814667819782,0.9999678481799834,26.13262338810367,0.017248328439440398,61.136620216739075,-20.542983332875586,-131.237060546875,5356.25390625,True
1599561112.7563088,0.0,10,0.5,0.5,5.904495059585572,-0.1005,-0.0155,-0.12575,0.08245955969939885,10,1,100,-0.024696088715433155,-10,-1,-100,15009.256340803346,-0.00068004533905698,0.007909783500456392,0.9999684859350882,26.521500246926426,0.017600928285388756,63.175572897119665,-20.91420780186925,-138.0380096435547,5356.25390625,True
1599561112.7892156,0.0,10,0.5,0.5,5.891325381851197,-0.1005,-0.0155,-0.12575,0.08361004289483404,10,1,100,-0.008666811761819052,-10,-1,-100,15008.820792888408,-0.000520159227376753,0.00787962413051141,0.9999688199928737,26.623885313997967,0.017642856269563936,63.986371060785125,-21.099815367632626,-141.3351593017578,5356.25390625,True
1599561112.8231273,0.0,10,0.5,0.5,7.012303979873657,-0.1005,-0.0155,-0.12575,0.07819612698079445,10,1,100,-0.02583504879432308,-10,-1,-100,15007.94872064772,-0.00022154083812453665,0.007802616524795852,0.9999695345834411,26.647749067816722,0.017468788235178397,65.178930041284,-21.471027840124446,-147.72280883789062,5356.25390625,True
1599561112.852047,0.0,10,0.5,0.5,7.686576513290406,-0.1005,-0.0155,-0.12575,0.07647604737539651,10,1,100,-0.02543514590830972,-10,-1,-100,15007.073718927451,4.3403546054594083e-05,0.007716758130362072,0.9999702244367528,26.457685045752516,0.017006338245479015,65.84174225507358,-21.842244419630443,-153.83456420898438,5356.25390625,True
1599561112.8869276,0.0,10,0.5,0.5,7.67297640914917,-0.1005,-0.0155,-0.12575,0.07942948532493616,10,1,100,-0.012621262630547596,-10,-1,-100,15006.637194519164,0.00016519789066580788,0.007665616825354198,0.9999706050821414,26.292820715941254,0.01669352964899846,65.99205360081189,-22.02785658338049,-156.787109375,5356.25390625,True
1599561112.9168775,0.0,10,0.5,0.5,9.297687899017335,-0.1005,-0.0155,-0.12575,0.06742390068926135,10,1,100,-0.035452001444781424,-10,-1,-100,15005.323714893544,0.00048097366849136,0.007510141099560008,0.9999716828215662,25.569464980710908,0.015575365885407078,65.81306816240466,-22.58471537382232,-165.230712890625,5356.25390625,True
1599561112.94979,0.0,10,0.5,0.5,8.32868957901001,-0.1005,-0.0155,-0.12575,0.08293395856103414,10,1,100,-0.004159939454413257,-10,-1,-100,15005.323714893544,0.00048097366849136,0.007510141099560008,0.9999716828215662,25.569464980710908,0.015575365885407078,65.81306816240466,-22.58471537382232,-165.230712890625,5356.25390625,True
1599561112.9826982,0.0,10,0.5,0.5,9.605122074127198,-0.1005,-0.0155,-0.12575,0.07074446736538315,10,1,100,-0.023168834555293297,-10,-1,-100,15004.389142963104,0.0006515503138532371,0.007399724817996348,0.9999724093967826,24.93645584712573,0.014797601270340622,65.2486720260173,-22.955975586257445,-170.514892578125,5356.25390625,True
1599561113.0177195,0.0,10,0.5,0.5,10.151199442672729,-0.1005,-0.0155,-0.12575,0.07062544894696822,10,1,100,-0.02198661909299478,-10,-1,-100,15003.452617252246,0.0007938480480250133,0.007298786263762399,0.9999730483989818,24.216944927343288,0.014086376128882454,64.40081282494043,-23.327252033619565,-175.52294921875,5356.25390625,True
1599561113.0506167,0.0,10,0.5,0.5,10.138646775817872,-0.1005,-0.0155,-0.12575,0.07443693741866661,10,1,100,-0.014141663154591694,-10,-1,-100,15003.011210269528,0.0008500818240172903,0.007242280573535351,0.9999734130130593,23.833189150036063,0.013774027552279237,63.88969961749252,-23.51289562659495,-177.92355346679688,5356.25390625,True
1599561113.0835397,0.0,10,0.5,0.5,-70.50145325622559,-0.1005,-0.0155,-0.12575,0.06885731366424025,10,1,100,-0.01896720737198243,-10,-1,-100,15002.011208439362,0.0009433723765291584,0.007140834761101691,0.9999740589272673,23.032775935404388,0.013259864675145887,62.72900639628208,-23.884191636281724,177.48236083984375,5356.25390625,True
1599561113.1154475,0.0,10,0.5,0.5,-25.321263248443604,-0.1005,-0.0155,-0.12575,0.06876916375600743,10,1,100,-0.017021638724542845,-10,-1,-100,15001.071753731696,0.001009019147730873,0.007048508976759296,0.9999746498794676,23.681415963464595,0.013754907590901385,65.50867342076634,-24.25547475099064,173.16433715820312,5356.25390625,True
1599561113.1513238,0.0,10,0.5,0.5,-25.43723511810303,-0.1005,-0.0155,-0.12575,0.06835934025942934,10,1,100,-0.014390204516056642,-10,-1,-100,15000.069799368968,0.0010433857393142775,0.006961606336618911,0.9999752233847661,24.498064498594704,0.014503275079894289,68.81610625873464,-24.626727900985973,169.12237548828125,5356.25390625,True
1599561113.1892262,0.0,10,0.5,0.5,-25.984066596984864,-0.1005,-0.0155,-0.12575,0.07271701088726423,10,1,100,-0.012013067364673762,-10,-1,-100,14999.570774826454,0.0010518678243071292,0.006922983678733585,0.9999754826349815,24.90144149410451,0.014925257546534494,70.48213574239405,-24.812342797004014,167.12213134765625,5356.25390625,True
1599561113.2241635,0.0,10,0.5,0.5,-25.79327407684326,-0.1005,-0.0155,-0.12575,0.06899600161474315,10,1,100,-0.010888142182706138,-10,-1,-100,14998.565891162376,0.0010484354323934228,0.006854766427680031,0.9999759561911308,25.680205006982725,0.015839945834146888,73.7857477552323,-25.1835479081862,162.96829223632812,5356.25390625,True
1599561113.2540886,0.0,10,0.5,0.5,-25.813083326721195,-0.1005,-0.0155,-0.12575,0.06959010126505041,10,1,100,-0.008025862873527426,-10,-1,-100,14997.560030592373,0.001018491411895949,0.006798888787541116,0.999976368614028,26.415811795053607,0.016821767693214605,77.0303874108171,-25.554719117243977,158.55654907226562,5356.25390625,True
1599561113.2889829,0.0,10,0.5,0.5,-25.256760009765628,-0.1005,-0.0155,-0.12575,0.06905186569064829,10,1,100,-0.0009902632091790924,-10,-1,-100,14995.994599594269,0.0009268209256374384,0.0067438444752039185,0.9999768305139205,27.437003539420065,0.01833205952990902,81.77070481389089,-26.111411314812074,151.42739868164062,5356.25390625,True
1599561113.3248978,0.0,10,0.5,0.5,-26.644070744323734,-0.1005,-0.0155,-0.12575,0.07447966726193245,10,1,100,-0.010201896560744763,-10,-1,-100,14995.994599594269,0.0009268209256374384,0.0067438444752039185,0.9999768305139205,27.437003539420065,0.01833205952990902,81.77070481389089,-26.111411314812074,151.42739868164062,5356.25390625,True
1599561113.3538158,0.0,10,0.5,0.5,-25.990061085510256,-0.1005,-0.0155,-0.12575,0.07257427257738353,10,1,100,-0.00037142568570147985,-10,-1,-100,14994.926239945344,0.0008372027625808775,0.006727118960201467,0.9999770222170257,28.074929304165305,0.01929495895116987,84.87436128574987,-26.482495983870123,146.3311767578125,5356.25390625,True
1599561113.3887267,0.0,10,0.5,0.5,-26.52994067993164,-0.1005,-0.0155,-0.12575,0.07389789182159037,10,1,100,-0.003430983810573617,-10,-1,-100,14994.420380453113,0.0007835064566514271,0.0067244665463316285,0.9999770835710684,28.352567134699335,0.019720741472981137,86.32091998426415,-26.668026376072948,143.679931640625,5356.25390625,True
1599561113.4246278,0.0,10,0.5,0.5,-24.806951686096195,-0.1005,-0.0155,-0.12575,0.07860473671890125,10,1,100,0.020534780357846814,-10,-1,-100,14992.22213855572,0.0005168815727911645,0.006765315500086605,0.9999769814048841,29.111254374371523,0.020821485799013002,91.12528392199522,-27.41008451506916,132.3876953125,5356.25390625,True
