Timestamp,Input Throttle,horizon,dT,dt,Input Roll,Roll P,Roll I,Roll D,Input Pitch,Pitch P,Pitch I,Pitch D,Input Yaw,Yaw P,Yaw I,Yaw D,Altitude,Direction X,Direction Y,Direction Z,Drag X,Drag Y,Drag Z,Vertical Velocity,Roll,Mass,Has Fuel
1599564447.9905953,0.0,10,0.5,0.5,-11.641939346313478,-0.2,-0.03,-0.2505,-0.00026483259529386845,10,1,100,0.17494585538423482,-10,-1,-100,14994.547641703393,-0.016809720074652593,-7.459921829560836e-05,0.9998587038906891,28.576522856137615,0.02719959594716018,-86.69270043963013,26.82333024568573,-31.791717529296875,5356.25390625,True
1599564448.0464141,0.0,10,0.5,0.5,-11.816542556762696,-0.2,-0.03,-0.2505,-0.00048799361814537054,10,1,100,0.17370996734189714,-10,-1,-100,14995.089636140503,-0.016845463661815375,-7.218595932615133e-05,0.9998581025041533,28.503869487481204,0.02736321695376435,-85.87437336425873,26.637366489339563,-31.7911376953125,5356.25390625,True
1599564448.0963144,0.0,10,0.5,0.5,-11.92923962402344,-0.2,-0.03,-0.2505,0.007629337889409994,10,1,100,0.18409814672279357,-10,-1,-100,14997.148236182518,-0.016957081768460766,3.867458859609423e-06,0.9998562183448881,28.21739824989162,0.0280057164324223,-82.64367607306148,25.893551367470877,-31.92828369140625,5356.25390625,True
1599564448.1431544,0.0,10,0.5,0.5,-12.064573348999023,-0.2,-0.03,-0.2505,0.004215609744819168,10,1,100,0.17668988010497427,-10,-1,-100,14997.69413481874,-0.0169757893672778,4.196952184233023e-05,0.999855900024557,28.1529895037437,0.028167859546143276,-81.86447026166026,25.707607152720445,-32.090850830078125,5356.25390625,True
1599564448.1945496,0.0,10,0.5,0.5,-11.876683700561523,-0.2,-0.03,-0.2505,0.02050047823328645,10,1,100,0.1779383719336952,-10,-1,-100,14999.202925484627,-0.016988713665220496,0.00022461386579283142,0.9998556561607342,27.989790835594597,0.028659764562622585,-79.62844455615898,25.149794988810335,-32.98394775390625,5356.25390625,True
1599564448.2443779,0.0,10,0.5,0.5,-12.27145263671875,-0.2,-0.03,-0.2505,0.0022585052248156154,10,1,100,0.17834481350594766,-10,-1,-100,14999.202925484627,-0.016988713665220496,0.00022461386579283142,0.9998556561607342,27.989790835594597,0.028659764562622585,-79.62844455615898,25.149794988810335,-32.98394775390625,5356.25390625,True
1599564448.2922902,0.0,10,0.5,0.5,-12.019992065429689,-0.2,-0.03,-0.2505,0.022553868703721208,10,1,100,0.17696600897967854,-10,-1,-100,15000.169721238664,-0.01696073479346785,0.0004089129757230706,0.999856072775199,27.904595953096194,0.028982676930499465,-78.21527658029926,24.777936600735412,-33.92181396484375,5356.25390625,True
1599564448.34115,0.0,10,0.5,0.5,-11.206820358276367,-0.2,-0.03,-0.2505,0.061266168039823925,10,1,100,0.16309807821455916,-10,-1,-100,15002.101355134742,-0.01679380850783393,0.0009280158760099281,0.9998585433861813,27.773633221396693,0.029563323146168656,-75.51740184167785,24.034255157500276,-36.621795654296875,5356.25390625,True
1599564448.3970044,0.0,10,0.5,0.5,-11.661816192626954,-0.2,-0.03,-0.2505,0.026820398381599254,10,1,100,0.1740839485505938,-10,-1,-100,15002.58182076877,-0.016726661788941746,0.0010859405922177471,0.9998595098904788,27.745169040403287,0.029683927785101948,-74.85786221348675,23.848341849174435,-37.468597412109375,5356.25390625,True
1599564448.4468374,0.0,10,0.5,0.5,-11.619116668701173,-0.2,-0.03,-0.2505,0.02983923346709065,10,1,100,0.1740375006183823,-10,-1,-100,15003.065217303345,-0.016649991007120616,0.0012559652526454882,0.9998605904578631,27.71651894300188,0.029789984078988512,-74.19900149782485,23.66243134192102,-38.384063720703125,5356.25390625,True
1599564448.4947438,0.0,10,0.5,0.5,-10.043899749755859,-0.2,-0.03,-0.2505,0.09769674108586597,10,1,100,0.13681700504871488,-10,-1,-100,15004.932390051894,-0.016226785799370685,0.00202627777206626,0.9998662838705041,27.581350170253057,0.030019563929904486,-71.52208467564573,22.918817815636896,-42.733428955078125,5356.25390625,True
1599564448.543613,0.0,10,0.5,0.5,-11.100590606689453,-0.2,-0.03,-0.2505,0.020875576842824994,10,1,100,0.17907923239617982,-10,-1,-100,15004.932390051894,-0.016226785799370685,0.00202627777206626,0.9998662838705041,27.581350170253057,0.030019563929904486,-71.52208467564573,22.918817815636896,-42.733428955078125,5356.25390625,True
1599564448.5924835,0.0,10,0.5,0.5,-9.902303955078125,-0.2,-0.03,-0.2505,0.06962078329938814,10,1,100,0.1479055079501611,-10,-1,-100,15005.833747777273,-0.015943950738827282,0.0024675083182792044,0.9998698424482745,27.48436528358975,0.02997868578042107,-70.1170571847053,22.54702956362753,-45.320465087890625,5356.25390625,True
1599564448.644314,0.0,10,0.5,0.5,-9.220629211425782,-0.2,-0.03,-0.2505,0.0743746551792853,10,1,100,0.1385283901231153,-10,-1,-100,15006.738034189679,-0.01560250245902344,0.0029096043402360196,0.9998740401268549,27.352989924005435,0.029804348369198402,-68.63385774625692,22.17525559395837,-48.182952880859375,5356.25390625,True
1599564448.7021887,0.0,10,0.5,0.5,-6.938815322875977,-0.2,-0.03,-0.2505,0.13967465302891008,10,1,100,0.08086084181762168,-10,-1,-100,15008.478243842255,-0.014769092935432054,0.0039025392180857188,0.9998833152330906,26.93607448037411,0.028981025915055046,-65.32671198850345,21.431759725225835,-54.7325439453125,5356.25390625,True
1599564448.7510576,0.0,10,0.5,0.5,-8.514242095947266,-0.2,-0.03,-0.2505,0.04074895777916944,10,1,100,0.16397983210378142,-10,-1,-100,15008.478243842255,-0.014769092935432054,0.0039025392180857188,0.9998833152330906,26.93607448037411,0.028981025915055046,-65.32671198850345,21.431759725225835,-54.7325439453125,5356.25390625,True
1599564448.8009253,0.0,10,0.5,0.5,-6.787653823852539,-0.2,-0.03,-0.2505,0.09662976926731567,10,1,100,0.10877922582652987,-10,-1,-100,15009.32100391027,-0.014269287079029575,0.0044072030267486,0.9998884757850434,26.622154651138896,0.028307854058884193,-63.44813557882518,21.060043584935926,-58.420318603515625,5356.25390625,True
1599564448.8527894,0.0,10,0.5,0.5,-5.852319931030274,-0.2,-0.03,-0.2505,0.09837266199912796,10,1,100,0.09819468597218381,-10,-1,-100,15010.157903607236,-0.01372114179972821,0.004878197977594035,0.9998939611039778,26.217810871020202,0.0274576258484493,-61.38430837052559,20.688353661752178,-62.38397216796875,5356.25390625,True
1599564448.9105992,0.0,10,0.5,0.5,-2.824733795166016,-0.2,-0.03,-0.2505,0.1584241205891311,10,1,100,0.012988958555890301,-10,-1,-100,15011.774084419594,-0.012451023720858942,0.0058487064818157465,0.9999053778437199,25.07268748663427,0.025277642519246243,-56.59944895707313,19.94506935622476,-71.13690185546875,5356.25390625,True
1599564448.9913826,0.0,10,0.5,0.5,-4.916337768554688,-0.2,-0.03,-0.2505,0.06184954675591977,10,1,100,0.13957320263600878,-10,-1,-100,15011.774084419594,-0.012451023720858942,0.0058487064818157465,0.9999053778437199,25.07268748663427,0.025277642519246243,-56.59944895707313,19.94506935622476,-71.13690185546875,5356.25390625,True
1599564449.0562081,0.0,10,0.5,0.5,-0.3777231445312501,-0.2,-0.03,-0.2505,0.15339778093308215,10,1,100,-0.017286553894913723,-10,-1,-100,15013.325812202645,-0.011028843177201703,0.006676787936854341,0.9999168891067991,23.3679325908169,0.022664345225816958,-50.791052800692434,19.20193664011382,-80.993408203125,5356.25390625,True
1599564449.127021,0.0,10,0.5,0.5,-0.3256285400390624,-0.2,-0.03,-0.2505,0.1139774018942689,10,1,100,0.036399388652011505,-10,-1,-100,15014.10411720071,-0.010228731199414596,0.007066994440932226,0.9999227123371195,22.295149507188,0.02133175449151074,-47.52446586540498,18.830431241026673,-86.3349609375,5356.25390625,True
1599564449.2038145,0.0,10,0.5,0.5,0.9587527465820311,-0.2,-0.03,-0.2505,0.10806567106787482,10,1,100,0.032398647817964754,-10,-1,-100,15014.817970191012,-0.009470439079844033,0.007363402149245933,0.9999280429573036,21.113182609967513,0.020089217656482677,-44.11971414861056,18.458963216672267,-91.86578369140625,5356.25390625,True
1599564449.3633978,0.0,10,0.5,0.5,0.9781100349426272,-0.2,-0.03,-0.2505,0.09474942430997829,10,1,100,0.06319583864789216,-10,-1,-100,15015.174407616141,-0.009066942080196483,0.007507356100976638,0.9999307126824776,21.592187279763632,0.020563496221704582,-44.66798105417558,18.27323235609725,-94.67420196533203,5356.25390625,True
1599564449.5456362,0.0,10,0.5,0.5,6.588312374114991,-0.2,-0.03,-0.2505,0.13800771620873303,10,1,100,-0.11990228739025764,-10,-1,-100,15016.959532316076,-0.007041539625969009,0.008027300754574376,0.9999429879559593,23.69558140816521,0.023239789467492725,-46.53453689359345,17.34453602445247,-108.37950134277344,5356.25390625,True
1599564449.6321192,0.0,10,0.5,0.5,7.7512453651428235,-0.2,-0.03,-0.2505,0.1092932465682386,10,1,100,-0.09435242019394431,-10,-1,-100,15018.322791187209,-0.005439561236010029,0.008235187296080108,0.9999512952458025,24.682111272798167,0.024966422949868883,-46.40014448196438,16.601525353759342,-118.22449493408203,5356.25390625,True
1599564449.7074308,0.0,10,0.5,0.5,7.51005248260498,-0.2,-0.03,-0.2505,0.0951082467221704,10,1,100,-0.016722495517602597,-10,-1,-100,15018.974149318296,-0.004697425225558992,0.008291281746050158,0.9999545933907489,25.020253290955402,0.02561204385875086,-45.985376008854935,16.23000904990215,-122.74059295654297,5356.25390625,True
1599564449.7922049,0.0,10,0.5,0.5,7.5425611381530775,-0.2,-0.03,-0.2505,0.09163814890779752,10,1,100,0.01720894051284065,-10,-1,-100,15019.271019729436,-0.00433992541801978,0.00830719937614745,0.9999560767783208,25.13783338230798,0.025850577629745082,-45.67371819282541,16.044250092806923,-124.89559936523438,5356.25390625,True
1599564449.9438014,0.0,10,0.5,0.5,9.91669379425049,-0.2,-0.03,-0.2505,0.0908294138978297,10,1,100,-0.061787576707810335,-10,-1,-100,15020.213393507991,-0.0033053038149615855,0.00831120053851023,0.9999599986560961,25.311689728223488,0.02622928183509593,-44.39515332028786,15.486977771249496,-130.94760131835938,5356.25390625,True
1599564450.0265782,0.0,10,0.5,0.5,10.242651725769043,-0.2,-0.03,-0.2505,0.08665687325168629,10,1,100,-0.03016517345106444,-10,-1,-100,15020.800301732379,-0.0026605294053390054,0.008274667140187188,0.9999622250200267,25.302061848660706,0.026218738706647687,-43.315575484958735,15.115472237530417,-134.6380615234375,5356.25390625,True
1599564450.1003795,0.0,10,0.5,0.5,11.769643173217775,-0.2,-0.03,-0.2505,0.08206756991016403,10,1,100,-0.06450591983120206,-10,-1,-100,15021.744629948866,-0.0017710826970586087,0.00819752860164479,0.9999648312770333,25.14261946208929,0.02586376745617207,-41.458520610634295,14.55823739978813,-139.6568145751953,5356.25390625,True
1599564450.191136,0.0,10,0.5,0.5,12.670034957885742,-0.2,-0.03,-0.2505,0.0773405501532157,10,1,100,-0.06640940671403957,-10,-1,-100,15022.56396127306,-0.0009536065001234917,0.008083047259120544,0.9999668769422565,24.85477662508256,0.025190717065994257,-39.417856659422334,14.001039682054765,-144.05548095703125,5356.25390625,True
1599564450.2599528,0.0,10,0.5,0.5,12.339788383483887,-0.2,-0.03,-0.2505,0.08389432425602708,10,1,100,-0.013682601735899753,-10,-1,-100,15022.856927427696,-0.0006982128433467393,0.00803762939156207,0.9999674539766727,24.738892499979663,0.024914853963745494,-38.714487187861415,13.815316353706155,-145.3839111328125,5356.25390625,True
1599564450.327771,0.0,10,0.5,0.5,13.776450477600099,-0.2,-0.03,-0.2505,0.07499088409027235,10,1,100,-0.06603343258353221,-10,-1,-100,15023.676261343295,1.9051012137878497e-06,0.007914787122054491,0.9999686775800447,24.420288634358837,0.024050530263033252,-36.677183903220914,13.258174224499303,-148.95523071289062,5356.25390625,True
1599564450.3956225,0.0,10,0.5,0.5,13.962107070922853,-0.2,-0.03,-0.2505,0.0757897866716228,10,1,100,-0.04431032005329359,-10,-1,-100,15024.139150238014,0.00043264871219263386,0.007810004690495261,0.9999694078529734,24.191015805579305,0.023419768970144677,-35.31662646702694,12.886769158482366,-150.99169921875,5356.25390625,True
1599564450.4793677,0.0,10,0.5,0.5,14.37284393310547,-0.2,-0.03,-0.2505,0.07704429359579755,10,1,100,-0.044519766129542504,-10,-1,-100,15024.662586471299,0.0008193431516500643,0.00772635008481035,0.9999698156400356,23.95683310648311,0.022768317349503228,-33.96833468476654,12.515381862874632,-152.75204467773438,5356.25390625,True
1599564450.60902,0.0,10,0.5,0.5,14.70434970855713,-0.2,-0.03,-0.2505,0.07479969206250994,10,1,100,-0.04584815403763842,-10,-1,-100,15025.186999517842,0.001177269891787091,0.007630357554077151,0.9999701953954421,23.726837714778213,0.022114628616492132,-32.645434397419606,12.144011179813617,-154.23681640625,5356.25390625,True
1599564450.67983,0.0,10,0.5,0.5,15.39188703918457,-0.2,-0.03,-0.2505,0.06461437039785195,10,1,100,-0.07793507253507337,-10,-1,-100,15026.114733160124,0.0017890164645089368,0.007451098623906419,0.9999706398436838,23.30889578010176,0.02085459607327382,-30.111752256062463,11.401313813848944,-156.37884521484375,5356.25390625,True
1599564450.7666104,0.0,10,0.5,0.5,15.113348022460936,-0.2,-0.03,-0.2505,0.07773733618870982,10,1,100,-0.0319604390314719,-10,-1,-100,15026.343247334356,0.0019216267334210297,0.007408213922533772,0.9999707124297068,23.21747574681431,0.020556382514491774,-29.505866639405134,11.215647452402909,-156.74197387695312,5356.25390625,True
1599564450.8274846,0.0,10,0.5,0.5,15.404069381713866,-0.2,-0.03,-0.2505,0.07005513527820179,10,1,100,-0.05728919511145522,-10,-1,-100,15026.972154438845,0.0022676911872060693,0.007300210537204907,0.9999707818245451,22.982375152491795,0.01971300912168495,-27.758431373602363,10.658663335783901,-157.41744995117188,5356.25390625,True
1599564450.896266,0.0,10,0.5,0.5,15.303200790405274,-0.2,-0.03,-0.2505,0.08075802815079004,10,1,100,-0.02317557179220577,-10,-1,-100,15026.972154438845,0.0022676911872060693,0.007300210537204907,0.9999707818245451,22.982375152491795,0.01971300912168495,-27.758431373602363,10.658663335783901,-157.41744995117188,5356.25390625,True
1599564450.9660783,0.0,10,0.5,0.5,15.40406510925293,-0.2,-0.03,-0.2505,0.07306609430657027,10,1,100,-0.044562645376594476,-10,-1,-100,15027.370591712533,0.0024584475162602714,0.0072310996095887635,0.9999708331917716,22.861715816509793,0.01919713968520083,-26.651884171249492,10.287350931918162,-157.5230712890625,5356.25390625,True
1599564451.0388837,0.0,10,0.5,0.5,15.256345016479493,-0.2,-0.03,-0.2505,0.07054239519938345,10,1,100,-0.0505384414459504,-10,-1,-100,15028.001450244454,0.0026830859123797056,0.0071461032722810545,0.99997086670463,22.737670564747635,0.018495101120496814,-25.07369604066035,9.73039384885007,-157.16421508789062,5356.25390625,True
1599564451.125663,0.0,10,0.5,0.5,14.940386917114257,-0.2,-0.03,-0.2505,0.07060330903491076,10,1,100,-0.045275014884368164,-10,-1,-100,15028.567856977694,0.002836379395786874,0.0070701981151600046,0.9999709832042806,22.679459335145157,0.017877306169434684,-23.57937437950273,9.173445734247563,-156.18487548828125,5356.25390625,True
1599564451.1959922,0.0,10,0.5,0.5,14.757972778320314,-0.2,-0.03,-0.2505,0.07322154026891947,10,1,100,-0.03713093150538606,-10,-1,-100,15028.904770988622,0.002899123191534851,0.007025763337183579,0.9999711164499954,22.67333717685123,0.0175103242325981,-22.619721089155743,8.802149711316265,-155.187255859375,5356.25390625,True
1599564451.2628124,0.0,10,0.5,0.5,14.749170547485353,-0.2,-0.03,-0.2505,0.07522956420846226,10,1,100,-0.03325983163492842,-10,-1,-100,15029.071762058535,0.0029187289393203582,0.007004335794249319,0.9999712097362905,22.678716632024383,0.01733982809560591,-22.148292886053714,8.616502022591439,-154.58505249023438,5356.25390625,True
1599564451.9464965,0.0,10,0.5,0.5,14.269778686523438,-0.2,-0.03,-0.2505,0.07281226171507459,10,1,100,-0.033309548052145206,-10,-1,-100,15029.407698598108,0.00293509578129309,0.006963537109178795,0.9999714467741987,22.70266626122066,0.017023477223738436,-21.217010662220602,8.245206624447386,-153.17385864257812,5356.25390625,True
1599564452.0332668,0.0,10,0.5,0.5,13.433620018005373,-0.2,-0.03,-0.2505,0.07007896931068691,10,1,100,-0.028287220510506486,-10,-1,-100,15029.85008114716,0.002902719181899307,0.0069022054831156116,0.9999719664974713,22.76018181145771,0.016609759242211787,-19.83494537135911,7.688262317632267,-150.54017639160156,5356.25390625,True
1599564452.096097,0.0,10,0.5,0.5,13.129623687744143,-0.2,-0.03,-0.2505,0.0715940683382509,10,1,100,-0.025185455252381403,-10,-1,-100,15030.184064576402,0.002844075586724376,0.006860722080709473,0.9999724204829793,22.801643004299994,0.01637445024235964,-18.912007945727883,7.316964923447959,-148.43980407714844,5356.25390625,True
1599564452.1609235,0.0,10,0.5,0.5,12.560489875793458,-0.2,-0.03,-0.2505,0.07061960607633279,10,1,100,-0.021559529070881996,-10,-1,-100,15030.458476744709,0.0027569616723214408,0.0068146488687244764,0.9999729794965129,22.834416053213324,0.016170887248692974,-17.978656359681427,6.945666601819588,-146.0638427734375,5356.25390625,True
1599564452.2347326,0.0,10,0.5,0.5,12.539881088256838,-0.2,-0.03,-0.2505,0.07230997640083858,10,1,100,-0.02440916234361578,-10,-1,-100,15030.565897332854,0.0027032281703571566,0.006788572553204969,0.9999733035637246,22.844075692467264,0.016080491945698445,-17.505761135006907,6.760017094994833,-144.77255249023438,5356.25390625,True
1599564452.311269,0.0,10,0.5,0.5,11.568845718383791,-0.2,-0.03,-0.2505,0.0686084428837823,10,1,100,-0.01579918368001986,-10,-1,-100,15030.835426532198,0.0025757110561904343,0.006731681632563088,0.9999740247501195,22.84171999933124,0.015919889213295475,-16.54299563110065,6.388717483814869,-141.9832763671875,5356.25390625,True
1599564452.4010298,0.0,10,0.5,0.5,10.103398902893067,-0.2,-0.03,-0.2505,0.06286083203883319,10,1,100,-0.0021314094508861,-10,-1,-100,15031.214330396266,0.002335427310737716,0.0066281656224591355,0.9999753062949891,22.756939552114037,0.0157158343784022,-15.04536658565593,5.831766662625457,-137.28285217285156,5356.25390625,True
1599564452.468848,0.0,10,0.5,0.5,9.65442162322998,-0.2,-0.03,-0.2505,0.06385718286775575,10,1,100,-0.005308432339814744,-10,-1,-100,15031.428195284097,0.0021461856216815436,0.006543588745945586,0.9999762873856566,22.622560929736824,0.015586895013202243,-14.004605279876044,5.460464411422275,-133.80496215820312,5356.25390625,True
1599564452.5586069,0.0,10,0.5,0.5,8.767640403747558,-0.2,-0.03,-0.2505,0.06122454372130449,10,1,100,-0.0012789669877716035,-10,-1,-100,15031.635223318473,0.0019381436682247267,0.006443246329028452,0.9999773638317344,22.40622116149479,0.015444760446747524,-12.927792168058877,5.089159250813598,-130.0516815185547,5356.25390625,True
1599564452.6363993,0.0,10,0.5,0.5,7.817524387359619,-0.2,-0.03,-0.2505,0.058423762822348,10,1,100,0.0029119390086288846,-10,-1,-100,15031.844204824418,0.0017117890919542615,0.006327093866393412,0.99997851859993,22.090069429945462,0.015270515067427817,-11.815725513843919,4.717849191024708,-126.02303314208984,5356.25390625,True
1599564452.7196884,0.0,10,0.5,0.5,6.802086421966553,-0.2,-0.03,-0.2505,0.05507673390049862,10,1,100,0.0068046875768604485,-10,-1,-100,15031.992638930562,0.0014717207991311572,0.006191688857370068,0.9999797483084258,21.652587292548986,0.0150396444755685,-10.670399928993714,4.346530949034489,-121.71908569335938,5356.25390625,True
1599564452.8568418,0.0,10,0.5,0.5,5.7229103813171385,-0.2,-0.03,-0.2505,0.0515237221696178,10,1,100,0.010462674235634396,-10,-1,-100,15032.2016201457,0.001221552813286901,0.00603699496820612,0.999981031070329,21.07611624655007,0.014728175477689634,-9.499176266173478,3.9752012878759175,-117.13983917236328,5356.25390625,True
1599564453.0004578,0.0,10,0.5,0.5,2.2718737449645996,-0.2,-0.03,-0.2505,0.02590841522639801,10,1,100,0.04287430393295811,-10,-1,-100,15032.432081838371,0.0007010045256061002,0.005664284288132268,0.9999837121054314,19.618131651923747,0.013876611583856804,-7.190263047244227,3.2324894418854773,-107.155517578125,5356.25390625,True
1599564453.1061754,0.0,10,0.5,0.5,3.4471047821044927,-0.2,-0.03,-0.2505,0.051399260703679894,10,1,100,0.005495739828844298,-10,-1,-100,15032.537547729793,0.0005695321841710598,0.005558279026760945,0.9999843904618472,19.208894804887628,0.01362016984053685,-6.635886227794921,3.046797464186897,-104.48739624023438,5356.25390625,True
1599564453.2348385,0.0,10,0.5,0.5,0.1987336273193363,-0.2,-0.03,-0.2505,0.023766666251151758,10,1,100,0.0350803624409799,-10,-1,-100,15032.664496408193,0.00018304933138174517,0.0052118473576203625,0.9999864014775717,17.654192851018518,0.012571139742294018,-4.9836885707810055,2.4896739052196857,-96.070068359375,5356.25390625,True
1599564453.3016515,0.0,10,0.5,0.5,-0.5218227310180664,-0.2,-0.03,-0.2505,0.02967088456236712,10,1,100,0.025331433645679656,-10,-1,-100,15032.748477148241,-7.738101952492457e-05,0.004952017575045049,0.9999877356918506,16.491779917990524,0.011750277733828347,-3.9609915973215566,2.118222712617126,-90.11448669433594,5356.25390625,True
1599564453.396401,0.0,10,0.5,0.5,-0.573550407409668,-0.2,-0.03,-0.2505,0.04037970504294243,10,1,100,0.013383761902931453,-10,-1,-100,15032.78949031746,-0.00020310878443717217,0.004814779471670466,0.9999883882553142,15.890556714700361,0.01131772330941042,-3.4819566752444016,1.9324911979255206,-87.03347778320312,5356.25390625,True
1599564453.4841993,0.0,10,0.5,0.5,-4.147127136230469,-0.2,-0.03,-0.2505,0.007663989647965025,10,1,100,0.039968066598866675,-10,-1,-100,15032.915462893085,-0.0005567744896884675,0.004394250497876312,0.9999901902342491,17.593665621328192,0.01251400514199334,-2.743621446090818,1.3752898938655003,-77.72244262695312,5356.25390625,True
1599564453.5659451,0.0,10,0.5,0.5,-4.715381469726562,-0.2,-0.03,-0.2505,0.015957618120090084,10,1,100,0.029758189668375692,-10,-1,-100,15032.936944357585,-0.0007830144677202998,0.004089301997126463,0.9999913322111946,18.570333093259972,0.0132211307243109,-2.1137740616044276,1.0038290390504638,-71.65713500976562,5356.25390625,True
1599564453.6596947,0.0,10,0.5,0.5,-6.026554397583008,-0.2,-0.03,-0.2505,0.01239597317080799,10,1,100,0.03047164219853294,-10,-1,-100,15032.959402605658,-0.0009926993269907178,0.0037818374462984922,0.9999923560975733,19.33543666726876,0.013779583870303772,-1.3864774125877402,0.6323733180871236,-65.76290893554688,5356.25390625,True
1599564453.7414756,0.0,10,0.5,0.5,-6.016834861755371,-0.2,-0.03,-0.2505,0.025941675755315474,10,1,100,0.0207249488388057,-10,-1,-100,15032.999439329957,-0.0010922569972218093,0.0036277808385141276,0.9999928230646656,19.627339625161063,0.013989113080384337,-0.9940595989803828,0.4466449411536866,-62.908294677734375,5356.25390625,True
1599564453.809907,0.0,10,0.5,0.5,-7.959098442077636,-0.2,-0.03,-0.2505,0.006272343779539384,10,1,100,0.031988095701367236,-10,-1,-100,15032.959398149163,-0.0012828253254584946,0.0033112480934929735,0.999993694977747,20.032550380463398,0.01428093216565238,-0.17078087296292802,0.07518089066733236,-57.401275634765625,5356.25390625,True
1599564453.8966768,0.0,10,0.5,0.5,-9.116176895141603,-0.2,-0.03,-0.2505,0.002556595253034498,10,1,100,0.03249342835649733,-10,-1,-100,15032.98088072089,-0.0014583864860487135,0.002992189472209801,0.9999944599401638,20.266820981488326,0.014455544237218265,0.6809510791544243,-0.29629703733003354,-52.168487548828125,5356.25390625,True
1599564453.9784653,0.0,10,0.5,0.5,-9.10247253417969,-0.2,-0.03,-0.2505,0.016511593673089214,10,1,100,0.02419928355225226,-10,-1,-100,15032.959396155784,-0.0015406231419906348,0.002831428979240071,0.9999948047316396,20.36742324891543,0.01453230003327899,1.1133376710212182,-0.4820409239802421,-49.6553955078125,5356.25390625,True
1599564454.0642369,0.0,10,0.5,0.5,-12.855720916748048,-0.2,-0.03,-0.2505,-0.03615122299000289,10,1,100,0.04928668493433435,-10,-1,-100,15032.877361941035,-0.0018415327005693444,0.002209009152373589,0.9999958645093876,20.411174720836385,0.014594020812255044,2.835598955013013,-1.2250468867790538,-40.291839599609375,5356.25390625,True
1599564454.1333218,0.0,10,0.5,0.5,-12.600331253051758,-0.2,-0.03,-0.2505,-0.008072194717914132,10,1,100,0.034023357689663705,-10,-1,-100,15032.833415331435,-0.0019744887952057553,0.0019011666924278186,0.9999962434725469,20.26790177794224,0.01451336684609383,3.6696869946568653,-1.5965651038829323,-36.023590087890625,5356.25390625,True
1599564454.2066393,0.0,10,0.5,0.5,-12.608265594482424,-0.2,-0.03,-0.2505,0.0056223280763672175,10,1,100,0.027723114611274906,-10,-1,-100,15032.81290648377,-0.002036358391639248,0.0017485790732275097,0.9999963978513748,20.171776035639354,0.014457799578145821,4.077276025535177,-1.7823270299104195,-33.992828369140625,5356.25390625,True
1599564454.2734601,0.0,10,0.5,0.5,-13.995419174194335,-0.2,-0.03,-0.2505,-0.01011324234533734,10,1,100,0.036036480336566784,-10,-1,-100,15032.707437248668,-0.002166512940802166,0.0014695998704830446,0.9999965732430778,19.925727044859112,0.014314639467960922,4.867203461083445,-2.1538542813407338,-30.1376953125,5356.25390625,True
1599564454.3358035,0.0,10,0.5,0.5,-14.784957824707032,-0.2,-0.03,-0.2505,-0.0138118269940829,10,1,100,0.03578897371540672,-10,-1,-100,15032.603921159985,-0.0022811217994387145,0.0011850176899334743,0.9999966961027473,19.621922261520037,0.014141699810033086,5.619905190245654,-2.5253839413105155,-26.558349609375,5356.25390625,True
1599564454.396248,0.0,10,0.5,0.5,-14.78332440185547,-0.2,-0.03,-0.2505,-0.0006912164340806461,10,1,100,0.030578345303860596,-10,-1,-100,15032.583414209308,-0.0023365804059745044,0.001048225152985879,0.9999967208026409,19.454172028966262,0.0140488320442115,5.98180061274866,-2.711149267838659,-24.87200927734375,5356.25390625,True
1599564454.461108,0.0,10,0.5,0.5,-15.909927627563476,-0.2,-0.03,-0.2505,-0.015765169104855262,10,1,100,0.03764455565523753,-10,-1,-100,15032.415445309016,-0.002450013886856846,0.0007893174699294892,0.9999966871994557,19.097977273003064,0.013857944592517685,6.677188131845187,-3.082680994846357,-21.705841064453125,5356.25390625,True
1599564454.5179226,0.0,10,0.5,0.5,-17.720689514160156,-0.2,-0.03,-0.2505,-0.04390201280210655,10,1,100,0.05006283838124307,-10,-1,-100,15032.143961918424,-0.00266479438799572,0.0003007377820564728,0.9999964042073631,18.5149940791171,0.013601510675164259,8.034221712627556,-3.825751761776138,-16.200225830078125,5356.25390625,True
1599564454.5737724,0.0,10,0.5,0.5,-16.46513604736328,-0.2,-0.03,-0.2505,0.0046549049540514425,10,1,100,0.028722985173609366,-10,-1,-100,15032.143961918424,-0.00266479438799572,0.0003007377820564728,0.9999964042073631,18.5149940791171,0.013601510675164259,8.034221712627556,-3.825751761776138,-16.200225830078125,5356.25390625,True
1599564454.6369088,0.0,10,0.5,0.5,-18.556915359497072,-0.2,-0.03,-0.2505,-0.04251960768155277,10,1,100,0.05399930828676046,-10,-1,-100,15031.80802563217,-0.0028934824091135054,-0.0001256746494579716,0.9999958059739203,18.010947920901476,0.013426719626642757,9.334158351650654,-4.568842598269094,-11.7965087890625,5356.25390625,True
1599564454.6930926,0.0,10,0.5,0.5,-17.985717681884765,-0.2,-0.03,-0.2505,-0.011543067024385296,10,1,100,0.036879201241874,-10,-1,-100,15031.725017278688,-0.002944513401296958,-0.00022902912337985487,0.9999956386837345,17.896454911353462,0.013391718175189377,9.652127130311214,-4.75462003545203,-10.86785888671875,5356.25390625,True
1599564454.747946,0.0,10,0.5,0.5,-18.910392944335936,-0.2,-0.03,-0.2505,-0.030985320948029936,10,1,100,0.052124812650169015,-10,-1,-100,15031.409590479918,-0.0031284989699930264,-0.0004975191005458332,0.999994982471882,17.67276489729998,0.013369942728077568,10.64939356878988,-5.3119646128966425,-8.494873046875,5356.25390625,True
1599564454.8157647,0.0,10,0.5,0.5,-18.956048141479492,-0.2,-0.03,-0.2505,-0.022665669614834384,10,1,100,0.04715323052528855,-10,-1,-100,15031.17912270152,-0.0032495132766043686,-0.0006637870805831507,0.9999945000099635,17.56906818617943,0.013381849959584802,11.327937077409215,-5.683538683616666,-7.257354736328125,5356.25390625,True
1599564454.8726127,0.0,10,0.5,0.5,-18.72625622558594,-0.2,-0.03,-0.2505,-0.006280108226483705,10,1,100,0.03517311535265084,-10,-1,-100,15031.17912270152,-0.0032495132766043686,-0.0006637870805831507,0.9999945000099635,17.56906818617943,0.013381849959584802,11.327937077409215,-5.683538683616666,-7.257354736328125,5356.25390625,True
1599564454.9264708,0.0,10,0.5,0.5,-19.228363265991213,-0.2,-0.03,-0.2505,-0.02201601497278744,10,1,100,0.0503818722496612,-10,-1,-100,15030.948655468295,-0.0033867901571810063,-0.0008049013355940336,0.9999939408747792,17.506258575967255,0.013417561920381979,12.025932295913814,-6.055121387812344,-6.295166015625,5356.25390625,True
1599564454.9803245,0.0,10,0.5,0.5,-19.542701171875,-0.2,-0.03,-0.2505,-0.034841243246033826,10,1,100,0.06776082792995941,-10,-1,-100,15030.426197783905,-0.003668572674473622,-0.0010479709889738692,0.999992721639182,17.517153827687775,0.013575940780682113,13.511681423966994,-6.798309132452376,-5.19732666015625,5356.25390625,True
1599564455.032186,0.0,10,0.5,0.5,-19.326716461181643,-0.2,-0.03,-0.2505,-0.010743897522246236,10,1,100,0.039715775427547735,-10,-1,-100,15030.426197783905,-0.003668572674473622,-0.0010479709889738692,0.999992721639182,17.517153827687775,0.013575940780682113,13.511681423966994,-6.798309132452376,-5.19732666015625,5356.25390625,True
1599564455.08305,0.0,10,0.5,0.5,-19.421473480224613,-0.2,-0.03,-0.2505,-0.025119320417339712,10,1,100,0.06563388907870221,-10,-1,-100,15029.984793486074,-0.003903084108768102,-0.0011769863894211705,0.9999916902842138,17.653120565624967,0.013788590019053438,14.734200290921752,-7.3557147965202905,-5.096923828125,5356.25390625,True
1599564455.139898,0.0,10,0.5,0.5,-19.382696228027342,-0.2,-0.03,-0.2505,-0.01592252871766095,10,1,100,0.05133346514017709,-10,-1,-100,15029.837334085954,-0.003985146749848517,-0.0012093225342202942,0.9999913280345938,17.72314631032405,0.013880351308488659,15.166740299408241,-7.541518543561875,-5.20111083984375,5356.25390625,True
1599564455.1937532,0.0,10,0.5,0.5,-18.943737503051757,-0.2,-0.03,-0.2505,-0.022933826533552117,10,1,100,0.08023978760223635,-10,-1,-100,15029.188900749665,-0.004321333580156839,-0.0013010853184400747,0.9999898165746904,18.123855411432952,0.0143665455602782,17.04021527023629,-8.284737846018539,-6.306671142578125,5356.25390625,True
1599564455.2446177,0.0,10,0.5,0.5,-19.035093032836915,-0.2,-0.03,-0.2505,-0.015143886610956525,10,1,100,0.05635045581734262,-10,-1,-100,15029.041440068046,-0.004408484181328059,-0.0013126198405535678,0.999989421092232,18.252952501995306,0.014520420749363284,17.547054005265412,-8.470542930802603,-6.75518798828125,5356.25390625,True
1599564455.2964795,0.0,10,0.5,0.5,-18.926711807250975,-0.2,-0.03,-0.2505,-0.014747871845809064,10,1,100,0.05756143153925848,-10,-1,-100,15028.894957404933,-0.004497389988246557,-0.0013185205530488813,0.9999890174331139,18.392974060249408,0.014688187369101022,18.07011630344328,-8.656347592659301,-7.272552490234375,5356.25390625,True
1599564455.3468556,0.0,10,0.5,0.5,-18.50089553833008,-0.2,-0.03,-0.2505,-0.012240272634012868,10,1,100,0.06901243389817988,-10,-1,-100,15028.538514535408,-0.004681069024146064,-0.0013003421157078345,0.9999881982819464,18.70388743808162,0.01506682601302991,19.16573698522155,-9.027955419913857,-8.513580322265625,5356.25390625,True
1599564455.3987164,0.0,10,0.5,0.5,-17.31762033081055,-0.2,-0.03,-0.2505,-0.004595372373354847,10,1,100,0.09211521069408674,-10,-1,-100,15027.76410466514,-0.005056773795156095,-0.001213738483905333,0.9999864778474143,19.43342205169527,0.016002883486590205,21.555757949414502,-9.771157152574833,-11.821868896484375,5356.25390625,True
1599564455.4580684,0.0,10,0.5,0.5,-18.132653076171877,-0.2,-0.03,-0.2505,-0.013310730693937223,10,1,100,0.0547254596449388,-10,-1,-100,15027.76410466514,-0.005056773795156095,-0.001213738483905333,0.9999864778474143,19.43342205169527,0.016002883486590205,21.555757949414502,-9.771157152574833,-11.821868896484375,5356.25390625,True
1599564455.503947,0.0,10,0.5,0.5,-17.184868240356447,-0.2,-0.03,-0.2505,-0.0041430889484740975,10,1,100,0.07573873462337583,-10,-1,-100,15027.344185127411,-0.005246285400743727,-0.001130024616084476,0.9999855996632456,19.870044285734615,0.016584283681774236,22.880007681477082,-10.142746926264582,-13.888916015625,5356.25390625,True
1599564455.557802,0.0,10,0.5,0.5,-16.62141680908203,-0.2,-0.03,-0.2505,0.00021980563230345265,10,1,100,0.07712880142601343,-10,-1,-100,15026.925242090947,-0.005429771365187125,-0.0010141838276701643,0.9999847443906759,20.352482580253938,0.017243240462778888,24.296036196020825,-10.514326210874096,-16.23114013671875,5356.25390625,True
1599564455.6076703,0.0,10,0.5,0.5,-15.995779571533204,-0.2,-0.03,-0.2505,0.0028076358681670046,10,1,100,0.07970090868302614,-10,-1,-100,15026.506299341563,-0.005618358490935136,-0.0008853790062050337,0.999983824945125,20.846605167148713,0.017950166725094002,25.767472597087,-10.885892393183378,-18.84881591796875,5356.25390625,True
1599564455.6595306,0.0,10,0.5,0.5,-15.307062744140623,-0.2,-0.03,-0.2505,0.008107899187491444,10,1,100,0.08040111902752417,-10,-1,-100,15026.023879782646,-0.005794607540763158,-0.000720364599591253,0.999982951653823,21.35265723860997,0.018700722322444647,27.29611938425178,-11.25744362835749,-21.7415771484375,5356.25390625,True
1599564456.110499,0.0,10,0.5,0.5,-14.55486686706543,-0.2,-0.03,-0.2505,0.012321423092120568,10,1,100,0.08149275776924636,-10,-1,-100,15025.603960182634,-0.005963112973903457,-0.0005324912471135776,0.9999820787077798,21.89031119937989,0.019503855154154082,28.909474247804305,-11.628977319639876,-24.909637451171875,5356.25390625,True
1599564456.155888,0.0,10,0.5,0.5,-12.919365661621093,-0.2,-0.03,-0.2505,0.02998146127998515,10,1,100,0.09009484235413592,-10,-1,-100,15024.849080122542,-0.006193007973535682,-0.0002018502104908551,0.9999808027700993,22.650681269846558,0.020681924920183652,31.351278110322994,-12.186241512178777,-30.177764892578125,5356.25390625,True
1599564456.2057545,0.0,10,0.5,0.5,-13.315676223754885,-0.2,-0.03,-0.2505,0.010534792512555829,10,1,100,0.07488339904875342,-10,-1,-100,15024.63912084687,-0.006262095285159494,-7.906513838324917e-05,0.9999803897633911,22.883306273838272,0.02104965003047446,32.1574643031914,-12.371985994359964,-32.0714111328125,5356.25390625,True
1599564456.2680984,0.0,10,0.5,0.5,-11.916470153808595,-0.2,-0.03,-0.2505,0.027238685992151398,10,1,100,0.08166227392564684,-10,-1,-100,15024.095177826239,-0.006384923789792069,0.0001832844538793836,0.9999795993694108,23.302935660553764,0.02171619178880202,33.73344432243245,-12.74345949441714,-36.06512451171875,5356.25390625,True
1599564456.3088193,0.0,10,0.5,0.5,-8.863893264770509,-0.2,-0.03,-0.2505,0.06558859886891613,10,1,100,0.08872272622297275,-10,-1,-100,15023.067837724579,-0.006559223037828604,0.0007690709033891044,0.9999781923237555,23.88674428666362,0.022606853209130404,36.601044953990844,-13.486349704701842,-44.878326416015625,5356.25390625,True
1599564456.3562016,0.0,10,0.5,0.5,-9.902328491210938,-0.2,-0.03,-0.2505,0.02429039784873895,10,1,100,0.07438163734639754,-10,-1,-100,15022.796353616985,-0.006585937501490523,0.000924363294226063,0.9999778852453323,23.963287184279395,0.02270336197036433,37.22568536084366,-13.672062672645,-47.253692626953125,5356.25390625,True
1599564456.4050727,0.0,10,0.5,0.5,-9.289957656860352,-0.2,-0.03,-0.2505,0.026620990469804894,10,1,100,0.07397230419088727,-10,-1,-100,15022.521941078245,-0.006605112018218233,0.0010847816717437782,0.9999775976210423,24.006575199767344,0.02273974059195376,37.801258453035,-13.85777311936332,-49.6978759765625,5356.25390625,True
1599564456.4629169,0.0,10,0.5,0.5,-7.49950065612793,-0.2,-0.03,-0.2505,0.045714087733789745,10,1,100,0.07281880328362408,-10,-1,-100,15021.914520667866,-0.006610821728252419,0.0014021767116253559,0.9999771652075595,23.9818363213117,0.022619195089061593,38.778099323868226,-14.229189046387527,-54.792877197265625,5356.25390625,True
1599564456.5067987,0.0,10,0.5,0.5,-4.984677764892579,-0.2,-0.03,-0.2505,0.06933357774809404,10,1,100,0.0687996346747983,-10,-1,-100,15021.099091930664,-0.00657840079514593,0.0019032436020665604,0.9999765508784542,23.687916750115587,0.021996435335525498,39.80842549277967,-14.786313185535088,-62.951446533203125,5356.25390625,True
1599564456.5546737,0.0,10,0.5,0.5,-5.608905426025391,-0.2,-0.03,-0.2505,0.037880192115484636,10,1,100,0.06899615981512615,-10,-1,-100,15020.761202140828,-0.006549841046048274,0.002070283976163687,0.9999764064749376,23.4983959203899,0.021661667527016572,39.98795471860852,-14.972024528492659,-65.80868530273438,5356.25390625,True
1599564456.607531,0.0,10,0.5,0.5,-3.5249951782226567,-0.2,-0.03,-0.2505,0.057784714737134764,10,1,100,0.06296109784317498,-10,-1,-100,15020.153780779452,-0.006468326862118772,0.0024005521141072074,0.9999761987653268,23.03206370692422,0.020881503086765667,40.17097168083706,-15.34345661942244,-71.72976684570312,5356.25390625,True
1599564456.6593912,0.0,10,0.5,0.5,0.8394979095458983,-0.2,-0.03,-0.2505,0.0940987140003654,10,1,100,0.043364696826122734,-10,-1,-100,15018.876437727013,-0.006215614673038554,0.0030282567388477586,0.9999760976120178,21.465878384184887,0.01885856997809046,39.260940756442594,-16.086373371860063,-84.39849853515625,5356.25390625,True
1599564456.7092593,0.0,10,0.5,0.5,0.8685279541015625,-0.2,-0.03,-0.2505,0.06312445238407402,10,1,100,0.050246610408365644,-10,-1,-100,15018.268038605922,-0.006048418618531925,0.003314376649418939,0.9999762154869689,20.33470877123676,0.017743485117370787,38.05541893063519,-16.457860319708022,-91.14630126953125,5356.25390625,True
1599564456.7621195,0.0,10,0.5,0.5,2.403036205291748,-0.2,-0.03,-0.2505,0.06260231602477198,10,1,100,0.04703885635277448,-10,-1,-100,15017.597139615333,-0.005867455056353822,0.00356665401777381,0.9999764256972657,20.7736375760409,0.01820789592641829,39.75916024341862,-16.829345217590532,-97.91124725341797,5356.25390625,True
1599564456.8174574,0.0,10,0.5,0.5,3.853400199890137,-0.2,-0.03,-0.2505,0.06396204811610877,10,1,100,0.04265145747597911,-10,-1,-100,15016.864716997254,-0.005663527708887806,0.003805282490232305,0.9999767218685943,22.16064641747752,0.01968840882074537,43.35519487525668,-17.200793519958907,-104.4804916381836,5356.25390625,True
1599564456.8683221,0.0,10,0.5,0.5,2.3866109771728516,-0.2,-0.03,-0.2505,0.040402822028943595,10,1,100,0.06295462268968668,-10,-1,-100,15016.864716997254,-0.005663527708887806,0.003805282490232305,0.9999767218685943,22.16064641747752,0.01968840882074537,43.35519487525668,-17.200793519958907,-104.4804916381836,5356.25390625,True
1599564456.9132004,0.0,10,0.5,0.5,8.12909411239624,-0.2,-0.03,-0.2505,0.08257709486772455,10,1,100,0.01497549656877066,-10,-1,-100,15015.458464722615,-0.005228192389418208,0.004186065953133944,0.9999775711765615,24.16996745798898,0.02227836069436463,49.34007058661624,-17.943569706490774,-116.8463134765625,5356.25390625,True
1599564456.972044,0.0,10,0.5,0.5,7.833322528839112,-0.2,-0.03,-0.2505,0.06148557553758317,10,1,100,0.032068319823720146,-10,-1,-100,15014.724088389776,-0.004989074055517024,0.004337672303423795,0.9999781466307435,24.91463752865016,0.023341786864411584,51.91890502972681,-18.31490247802457,-122.61861419677734,5356.25390625,True
1599564457.0259018,0.0,10,0.5,0.5,9.067244525909423,-0.2,-0.03,-0.2505,0.059789865800995816,10,1,100,0.032126246309551514,-10,-1,-100,15013.989711801521,-0.004773694672453264,0.004457412082816684,0.9999786714308951,25.489800619662045,0.02416566036889398,54.20072734760971,-18.686205108398244,-128.11563110351562,5356.25390625,True
1599564457.0777946,0.0,10,0.5,0.5,7.885734344482422,-0.2,-0.03,-0.2505,0.04807130470978189,10,1,100,0.053483714003658187,-10,-1,-100,15013.989711801521,-0.004773694672453264,0.004457412082816684,0.9999786714308951,25.489800619662045,0.02416566036889398,54.20072734760971,-18.686205108398244,-128.11563110351562,5356.25390625,True
1599564457.1286254,0.0,10,0.5,0.5,10.424939392089843,-0.2,-0.03,-0.2505,0.05889073736354933,10,1,100,0.028236558165047776,-10,-1,-100,15013.25631182571,-0.004545789752441892,0.0045536004450267035,0.9999793000450127,25.87437331982442,0.024687925985617358,56.118281920390174,-19.05748561638666,-133.33712768554688,5356.25390625,True
1599564457.175538,0.0,10,0.5,0.5,11.529969818115235,-0.2,-0.03,-0.2505,0.05712741872684081,10,1,100,0.026949733713236054,-10,-1,-100,15012.462364980369,-0.004328652818423881,0.004623056924583081,0.9999799448536204,26.09125997917269,0.02491278283855528,57.698007569762844,-19.42875142762834,-138.28317260742188,5356.25390625,True
1599564457.2353413,0.0,10,0.5,0.5,14.536670654296877,-0.2,-0.03,-0.2505,0.057137439051139355,10,1,100,0.0029145739372101603,-10,-1,-100,15010.867634494673,-0.00391446957303874,0.004684840454231833,0.9999813644252977,26.23832875396897,0.02469420626886993,60.25557496386626,-20.171260789637397,-147.34872436523438,5356.25390625,True
1599564457.2911909,0.0,10,0.5,0.5,12.434357208251955,-0.2,-0.03,-0.2505,0.051096132466745436,10,1,100,0.044119503571174966,-10,-1,-100,15010.867634494673,-0.00391446957303874,0.004684840454231833,0.9999813644252977,26.23832875396897,0.02469420626886993,60.25557496386626,-20.171260789637397,-147.34872436523438,5356.25390625,True
1599564457.3381052,0.0,10,0.5,0.5,14.438479972839357,-0.2,-0.03,-0.2505,0.05095242739537229,10,1,100,0.023071573251554952,-10,-1,-100,15010.069780640304,-0.0037249001932997535,0.004682517511368024,0.9999820994139375,26.157361644855754,0.024277570674468008,61.18307655311004,-20.542513405237102,-151.46817016601562,5356.25390625,True
1599564457.391962,0.0,10,0.5,0.5,16.886663360595705,-0.2,-0.03,-0.2505,0.04483433800316998,10,1,100,0.005200262931762484,-10,-1,-100,15008.350050420966,-0.0033918603247349143,0.004623989264270781,0.9999835568682226,25.792012698988728,0.023078221883810795,62.52591288258975,-21.285028963296924,-158.8802490234375,5356.25390625,True
1599564457.4458165,0.0,10,0.5,0.5,15.193136878967286,-0.2,-0.03,-0.2505,0.050769033390298146,10,1,100,0.038277083049831115,-10,-1,-100,15008.350050420966,-0.0033918603247349143,0.004623989264270781,0.9999835568682226,25.792012698988728,0.023078221883810795,62.52591288258975,-21.285028963296924,-158.8802490234375,5356.25390625,True
1599564457.4966803,0.0,10,0.5,0.5,16.802528633117674,-0.2,-0.03,-0.2505,0.0451711278538961,10,1,100,0.02258975348675269,-10,-1,-100,15007.492626687395,-0.0032509176305839135,0.00457270110183882,0.9999842608457359,25.545342185878226,0.02239259196541009,63.01696486113268,-21.656294104201706,-162.17279052734375,5356.25390625,True
1599564457.550537,0.0,10,0.5,0.5,17.455498504638673,-0.2,-0.03,-0.2505,0.043583562466972356,10,1,100,0.022721018908991322,-10,-1,-100,15006.631296903477,-0.003125561372853294,0.0045114294244755345,0.9999849388219066,25.27802881334339,0.021704974325840027,63.435747494049956,-22.02756432263339,-165.18963623046875,5356.25390625,True
1599564457.607387,0.0,10,0.5,0.5,18.6168776550293,-0.2,-0.03,-0.2505,0.03512159155175576,10,1,100,0.017879648028265437,-10,-1,-100,15005.310003954568,-0.0029690869790003137,0.004378751784605435,0.999986005429736,24.869313827688305,0.02073801203090478,64.00225950622814,-22.584477383849627,-169.1982421875,5356.25390625,True
1599564457.666229,0.0,10,0.5,0.5,18.275812171936035,-0.2,-0.03,-0.2505,0.04313637310152431,10,1,100,0.028587648031290283,-10,-1,-100,15004.850042805658,-0.0029258235370646056,0.004331068908174341,0.9999863406060818,24.73722417009185,0.02044450631436641,64.19049816615687,-22.770116458583164,-170.3965606689453,5356.25390625,True
1599564457.720084,0.0,10,0.5,0.5,19.52009267425537,-0.2,-0.03,-0.2505,0.030052166831766692,10,1,100,0.021046313320314113,-10,-1,-100,15003.46625060821,-0.0028194082435827033,0.0041689758103635975,0.9999873352087257,24.37166980810037,0.019676531907089838,64.80379693327198,-23.327035250750875,-173.57809448242188,5356.25390625,True
1599564457.7789266,0.0,10,0.5,0.5,19.98289391326904,-0.2,-0.03,-0.2505,0.025576435771796423,10,1,100,0.0241768745821785,-10,-1,-100,15002.018982888432,-0.0027524987560477786,0.003981342785548846,0.9999882862615052,24.075658550462688,0.019097441231129837,65.56069429725176,-23.883952162747672,-176.1394500732422,5356.25390625,True
1599564457.839764,0.0,10,0.5,0.5,20.041667236328127,-0.2,-0.03,-0.2505,0.0294878829293164,10,1,100,0.027573880790412033,-10,-1,-100,15001.034606616711,-0.0027236101609245072,0.003846965462302602,0.9999888913405104,23.928845778385675,0.01881973622994458,66.18452970235009,-24.255226594483855,-177.50242614746094,5356.25390625,True
1599564457.9095764,0.0,10,0.5,0.5,20.28056384277344,-0.2,-0.03,-0.2505,0.0267850289561678,10,1,100,0.02879549016940981,-10,-1,-100,15000.110776774469,-0.0027095359409961624,0.003700994564133692,0.9999894804717802,23.829177562292756,0.018626004873633892,66.92866570438748,-24.626496336196492,-178.5897979736328,5356.25390625,True
1599564457.967423,0.0,10,0.5,0.5,20.45525025177002,-0.2,-0.03,-0.2505,0.024148636255235792,10,1,100,0.03023189193734825,-10,-1,-100,14999.063900500303,-0.0027107224519082925,0.003545218834832787,0.9999900416540166,23.780962695708325,0.018510866558251064,67.81143174891201,-24.997760091853984,-179.40158081054688,5356.25390625,True
1599564458.0292578,0.0,10,0.5,0.5,20.31346264648438,-0.2,-0.03,-0.2505,0.039618332142382515,10,1,100,0.030045127058852573,-10,-1,-100,14999.063900500303,-0.0027107224519082925,0.003545218834832787,0.9999900416540166,23.780962695708325,0.018510866558251064,67.81143174891201,-24.997760091853984,-179.40158081054688,5356.25390625,True
1599564458.0851076,0.0,10,0.5,0.5,-141.48917791748048,-0.2,-0.03,-0.2505,0.011740577854955934,10,1,100,0.03264471618008378,-10,-1,-100,14997.553155530826,-0.002734974296531146,0.003292765405337489,0.9999908387638272,23.812105711849295,0.018469169993674307,69.43034451162067,-25.55464152997908,179.89743041992188,5356.25390625,True
1599564458.139962,0.0,10,0.5,0.5,-52.474484878540046,-0.2,-0.03,-0.2505,0.0065309433828504675,10,1,100,0.03664967435451141,-10,-1,-100,14995.981865542475,-0.0027938991780776753,0.003017065552137624,0.9999915456856807,23.97367171903492,0.018556991685695357,71.44292977065838,-26.11150164254495,179.81640625,5356.25390625,True
1599564458.219748,0.0,10,0.5,0.5,-53.52979956054688,-0.2,-0.03,-0.2505,0.03395149231560316,10,1,100,0.0307240199803809,-10,-1,-100,14995.981865542475,-0.0027938991780776753,0.003017065552137624,0.9999915456856807,23.97367171903492,0.018556991685695357,71.44292977065838,-26.11150164254495,179.81640625,5356.25390625,True
1599564458.292554,0.0,10,0.5,0.5,-54.48018013000489,-0.2,-0.03,-0.2505,-0.011306393854318687,10,1,100,0.042150370482829755,-10,-1,-100,14993.884206954157,-0.0028979343533735036,0.0026068681198951234,0.999992403078688,24.26406519565229,0.018731046042002958,74.39016100614167,-26.853943071267263,179.60183715820312,5356.25390625,True
1599564458.3673544,0.0,10,0.5,0.5,-55.48838885498047,-0.2,-0.03,-0.2505,0.017588449455600334,10,1,100,0.03599373586916198,-10,-1,-100,14993.359791258234,-0.002936567733685178,0.0024982092122996405,0.9999925677327192,24.317959198603525,0.01876448188962692,75.07730319464143,-27.039546871942733,179.3897705078125,5356.25390625,True
1599564458.4401596,0.0,10,0.5,0.5,-56.4740694732666,-0.2,-0.03,-0.2505,0.016023339933249385,10,1,100,0.03654785009127661,-10,-1,-100,14992.772877705516,-0.0029766198819058307,0.002386718997553342,0.9999927216267653,24.428589878698425,0.018846354266187155,75.94326027361502,-27.225147422705636,179.10931396484375,5356.25390625,True
1599564458.5199473,0.0,10,0.5,0.5,-56.794473754882816,-0.2,-0.03,-0.2505,-0.026320910539791482,10,1,100,0.050264897775459325,-10,-1,-100,14990.551196776913,-0.003137527612757305,0.0019018661832908767,0.9999932693900995,25.026946835106425,0.01937120544906774,79.95365769607558,-27.967513129580887,177.29888916015625,5356.25390625,True
1599564458.6107037,0.0,10,0.5,0.5,-57.71824824523926,-0.2,-0.03,-0.2505,-0.006665662115095634,10,1,100,0.04491006266797973,-10,-1,-100,14989.438891910831,-0.0032347507603253467,0.0016415432462576994,0.999993420840002,25.395523456187863,0.019755261827584768,82.22284857478144,-28.33867134390745,175.98004150390625,5356.25390625,True
1599564458.686501,0.0,10,0.5,0.5,-58.39391165924073,-0.2,-0.03,-0.2505,-0.011284449598856019,10,1,100,0.04604227454143424,-10,-1,-100,14988.328539947164,-0.003332950807128308,0.0013647692821186948,0.9999935144008304,25.805212513097448,0.020232381588215137,84.65910023642545,-28.709810991085348,174.3853302001953,5356.25390625,True
1599564458.7638402,0.0,10,0.5,0.5,-59.01207418060302,-0.2,-0.03,-0.2505,-0.015735623731494244,10,1,100,0.04832247838820797,-10,-1,-100,14987.155688559986,-0.003442387040687834,0.0010746735949253559,0.999993497502922,26.250532307663107,0.02080903164165556,87.24950071237708,-29.08093017599097,172.51480102539062,5356.25390625,True
1599564458.8695567,0.0,10,0.5,0.5,-59.56946841430665,-0.2,-0.03,-0.2505,-0.02057197899639422,10,1,100,0.049814175722965766,-10,-1,-100,14985.979907784844,-0.00355477026097722,0.0007692293271049638,0.999993385925444,26.724733754076276,0.021488519276902266,89.97592377720616,-29.45202720537312,170.36846923828125,5356.25390625,True
1599564458.9353817,0.0,10,0.5,0.5,-58.98734547424316,-0.2,-0.03,-0.2505,-0.025816214084335903,10,1,100,0.05135561378853845,-10,-1,-100,14984.804126809584,-0.0036702046291414623,0.0004461719792671672,0.9999931652409155,27.21984659627946,0.02226956997106323,92.81490729735029,-29.82310010400697,167.9462890625,5356.25390625,True
1599564459.0171626,0.0,10,0.5,0.5,-58.96633012390137,-0.2,-0.03,-0.2505,-0.012165188619708995,10,1,100,0.04645964117167472,-10,-1,-100,14984.156665625633,-0.0037298394805455907,0.0002789208887047516,0.9999930052258301,27.49744877955408,0.022716907859447005,94.35363610656458,-30.00862665688396,166.6318359375,5356.25390625,True
1599564459.094955,0.0,10,0.5,0.5,-57.97851206970215,-0.2,-0.03,-0.2505,-0.03408594659192313,10,1,100,0.053791270003964595,-10,-1,-100,14982.979908800568,-0.003849853298204281,-6.991595276899752e-05,0.9999925868431936,28.077506781802292,0.02369423419555711,97.5535876297315,-30.37965814618905,163.7960205078125,5356.25390625,True
1599564459.2061722,0.0,10,0.5,0.5,-56.49227012634278,-0.2,-0.03,-0.2505,-0.06025225234952461,10,1,100,0.06305520005051984,-10,-1,-100,14981.15862299269,-0.004042308933821928,-0.0006224824209299974,0.9999916360920822,28.943685553457925,0.02528745138922036,102.4339856650785,-30.936148752842435,159.02532958984375,5356.25390625,True
1599564459.269515,0.0,10,0.5,0.5,-56.03816326141358,-0.2,-0.03,-0.2505,-0.048802115455752665,10,1,100,0.05810062854637295,-10,-1,-100,14979.85784411733,-0.004171221824163784,-0.0010178864278300435,0.9999907823653743,29.538520939074875,0.026420450481809455,105.81238687676102,-31.307102550454868,155.5001983642578,5356.25390625,True
1599564459.3457577,0.0,10,0.5,0.5,-56.8503812866211,-0.2,-0.03,-0.2505,-0.009602175308286387,10,1,100,0.04532879970641315,-10,-1,-100,14979.85784411733,-0.004171221824163784,-0.0010178864278300435,0.9999907823653743,29.538520939074875,0.026420450481809455,105.81238687676102,-31.307102550454868,155.5001983642578,5356.25390625,True
1599564460.0369694,0.0,10,0.5,0.5,-53.236177238464364,-0.2,-0.03,-0.2505,-0.10465916263510604,10,1,100,0.07453681073429771,-10,-1,-100,14977.320741181844,-0.0044358094751341835,-0.001879386537518294,0.9999883956829413,30.666616294174794,0.028608446036004063,112.49778442677756,-32.04891070740558,147.62271118164062,5356.25390625,True
1599564460.0977814,0.0,10,0.5,0.5,-53.16383065795899,-0.2,-0.03,-0.2505,-0.06854015983182506,10,1,100,0.06460886018863822,-10,-1,-100,14976.022893914254,-0.004584997735860543,-0.0023310130392198074,0.9999867719994965,31.135302532366943,0.029508754996137587,115.55983139674076,-32.41976839802797,143.27069091796875,5356.25390625,True
1599564460.1665986,0.0,10,0.5,0.5,-53.13370021820069,-0.2,-0.03,-0.2505,-0.05153542900184198,10,1,100,0.056859588145763404,-10,-1,-100,14975.371527985553,-0.004649037275286797,-0.0025836343220201202,0.9999858555430188,31.336578059803497,0.029878785670409188,116.98267356942482,-32.6051870083094,140.99107360839844,5356.25390625,True
1599564460.251372,0.0,10,0.5,0.5,-51.46318349456787,-0.2,-0.03,-0.2505,-0.08288053165696731,10,1,100,0.06654951380865784,-10,-1,-100,14974.06879940594,-0.004794248316941887,-0.0030949197778697753,0.9999837181947734,31.65857872136326,0.030413960833229704,119.55050001101071,-32.97600654295725,136.22528076171875,5356.25390625,True
1599564460.315201,0.0,10,0.5,0.5,-49.10140245056153,-0.2,-0.03,-0.2505,-0.12123467639606908,10,1,100,0.07824760632251343,-10,-1,-100,14972.059044917813,-0.005031477852157961,-0.003904885917993137,0.9999797178426124,31.89549541854889,0.03059372221641887,122.51012873785085,-33.53220367578246,128.56005859375,5356.25390625,True
1599564460.3730469,0.0,10,0.5,0.5,-48.4460066986084,-0.2,-0.03,-0.2505,-0.10559070562025884,10,1,100,0.07303166239196443,-10,-1,-100,14970.694795939256,-0.005198485872783022,-0.004495045349327682,0.9999763848771319,31.854197944831043,0.03024625891219491,123.72734122469046,-33.90299204372551,123.10528564453125,5356.25390625,True
1599564460.4338841,0.0,10,0.5,0.5,-48.40656752014161,-0.2,-0.03,-0.2505,-0.08154673682759717,10,1,100,0.06609514357876355,-10,-1,-100,14970.047339031124,-0.00528591695105649,-0.004808632419482132,0.9999744677421722,31.76465809961463,0.029931167523221832,124.06591605882201,-34.08838657054665,120.27447509765625,5356.25390625,True
1599564460.4887362,0.0,10,0.5,0.5,-44.973157760620126,-0.2,-0.03,-0.2505,-0.15936299223986297,10,1,100,0.08962378275377161,-10,-1,-100,14967.96923236805,-0.005577990956848033,-0.005796824153855219,0.9999676408997517,31.186225965606,0.028484258871114942,123.83012131063796,-34.644586436071044,111.368896484375,5356.25390625,True
1599564460.5472054,0.0,10,0.5,0.5,-47.06103590393067,-0.2,-0.03,-0.2505,-0.061061252975846816,10,1,100,0.06056995037691998,-10,-1,-100,14967.96923236805,-0.005577990956848033,-0.005796824153855219,0.9999676408997517,31.186225965606,0.028484258871114942,123.83012131063796,-34.644586436071044,111.368896484375,5356.25390625,True
1599564460.620992,0.0,10,0.5,0.5,-41.144856063842774,-0.2,-0.03,-0.2505,-0.22349003735649664,10,1,100,0.11260552885505995,-10,-1,-100,14965.179225069121,-0.006049762789255956,-0.00726910497756474,0.9999552792415364,29.598037724330528,0.025811706183555917,120.08923053169667,-35.38626557602102,98.53030395507812,5356.25390625,True
1599564460.6778393,0.0,10,0.5,0.5,-41.112197479248046,-0.2,-0.03,-0.2505,-0.16112638455471734,10,1,100,0.09625822261775127,-10,-1,-100,14963.756393690826,-0.006328326633864814,-0.008034916865875643,0.9999476948285714,28.41855772968579,0.024430475388234642,116.5371233582594,-35.757154904664425,91.69830322265625,5356.25390625,True
1599564460.731696,0.0,10,0.5,0.5,-39.453493194580076,-0.2,-0.03,-0.2505,-0.1816414638987266,10,1,100,0.10603877875840538,-10,-1,-100,14962.267160092597,-0.006668760169189059,-0.00891201427625986,0.9999380499007654,28.521734957698648,0.024491872922436427,118.19905289240265,-36.12805748279759,84.58987426757812,5356.25390625,True
1599564460.7890556,0.0,10,0.5,0.5,-37.73197644042969,-0.2,-0.03,-0.2505,-0.19158423205290392,10,1,100,0.11433896729216944,-10,-1,-100,14960.840431291377,-0.007051807131215019,-0.009793781631431632,0.9999271742769769,30.10069786980817,0.026139283067032986,126.05038757017745,-36.49889794620556,77.2066650390625,5356.25390625,True
1599564460.8469007,0.0,10,0.5,0.5,-39.390117126464844,-0.2,-0.03,-0.2505,-0.10412851126666782,10,1,100,0.07627454807516622,-10,-1,-100,14960.840431291377,-0.007051807131215019,-0.009793781631431632,0.9999271742769769,30.10069786980817,0.026139283067032986,126.05038757017745,-36.49889794620556,77.2066650390625,5356.25390625,True
1599564460.9057472,0.0,10,0.5,0.5,-32.18853746795655,-0.2,-0.03,-0.2505,-0.3159187655097514,10,1,100,0.184695341535044,-10,-1,-100,14957.86198892945,-0.008035398381928205,-0.0117130577046837,0.9998991132369558,32.57338458615229,0.029314522454048524,139.2352718554271,-37.240387006945184,61.61393737792969,5356.25390625,True
1599564460.9615946,0.0,10,0.5,0.5,-32.19572927093506,-0.2,-0.03,-0.2505,-0.23313944547490664,10,1,100,0.15008936317564964,-10,-1,-100,14956.372775983415,-0.008612241606100452,-0.012698216523880907,0.999882285367448,33.490341607282,0.03049125296728559,144.60936564173815,-37.611047018229094,53.4053955078125,5356.25390625,True
1599564461.022395,0.0,10,0.5,0.5,-30.22091961669922,-0.2,-0.03,-0.2505,-0.250063919918492,10,1,100,0.1756667279677241,-10,-1,-100,14954.885523392586,-0.009366062620972884,-0.01374021688066137,0.9998617320965196,34.07799380222447,0.031037460926228846,148.62704969764775,-37.98166751736429,44.921600341796875,5356.25390625,True
1599564461.0782454,0.0,10,0.5,0.5,-32.120051681518554,-0.2,-0.03,-0.2505,-0.1467570426865637,10,1,100,0.1006926410474726,-10,-1,-100,14954.885523392586,-0.009366062620972884,-0.01374021688066137,0.9998617320965196,34.07799380222447,0.031037460926228846,148.62704969764775,-37.98166751736429,44.921600341796875,5356.25390625,True
1599564461.129109,0.0,10,0.5,0.5,-27.975329010009766,-0.2,-0.03,-0.2505,-0.25994262550754166,10,1,100,0.19019757155959013,-10,-1,-100,14953.334801565157,-0.010176300105933839,-0.014761955458373164,0.9998392508734586,34.24725450192782,0.03077650492158368,150.85370551989325,-38.35227005147064,36.163818359375,5356.25390625,True
1599564461.18496,0.0,10,0.5,0.5,-25.87465757751465,-0.2,-0.03,-0.2505,-0.2704944543428381,10,1,100,0.21423631422071082,-10,-1,-100,14951.781158083235,-0.011127233380863908,-0.0157785843081552,0.9998135931034935,33.953318626599035,0.029722383596469983,151.03630275927713,-38.72287965438537,27.13189697265625,5356.25390625,True
1599564461.2428057,0.0,10,0.5,0.5,-23.73068138885498,-0.2,-0.03,-0.2505,-0.27997828187918333,10,1,100,0.2314911535471369,-10,-1,-100,14950.231428593397,-0.012143964469593656,-0.016781273077077836,0.9997854334810414,33.16242961386103,0.028064575826065516,148.9633777091731,-39.09352037736832,17.826065063476562,5356.25390625,True
1599564461.2976592,0.0,10,0.5,0.5,-17.08665453338623,-0.2,-0.03,-0.2505,-0.3787111148643104,10,1,100,0.40149351966511293,-10,-1,-100,14947.063630691497,-0.01460845457147891,-0.018582428297589385,0.9997206041757858,30.434262162663792,0.024576270646093596,139.36792953056,-39.83496081543428,-1.6046142578125,5356.25390625,True
1599564461.3485239,0.0,10,0.5,0.5,-21.695456237792968,-0.2,-0.03,-0.2505,-0.19956263421528847,10,1,100,0.15583847891681657,-10,-1,-100,14947.063630691497,-0.01460845457147891,-0.018582428297589385,0.9997206041757858,30.434262162663792,0.024576270646093596,139.36792953056,-39.83496081543428,-1.6046142578125,5356.25390625,True
1599564461.4113548,0.0,10,0.5,0.5,-14.571849670410156,-0.2,-0.03,-0.2505,-0.3171379392200586,10,1,100,0.39048654724984,-10,-1,-100,14944.672172452905,-0.0167347491495607,-0.019643305027936243,0.9996669889210511,33.602805000094236,0.027530257362549545,156.0826322949183,-40.3909624294961,-16.8924560546875,5356.25390625,True
1599564461.466208,0.0,10,0.5,0.5,-15.762335571289062,-0.2,-0.03,-0.2505,-0.2410708464236634,10,1,100,0.2619464236795575,-10,-1,-100,14943.832378625753,-0.017490394968070356,-0.019907265281560244,0.9996488317768748,34.423528563627855,0.02847042940786659,160.6475038042357,-40.57625193931978,-22.1240234375,5356.25390625,True
1599564461.5170722,0.0,10,0.5,0.5,-9.566926788330079,-0.2,-0.03,-0.2505,-0.2897064917974965,10,1,100,0.44413112307612035,-10,-1,-100,14941.380381098948,-0.019824974800696848,-0.020581922099547022,0.9995915940307021,36.11761594226669,0.030443446269728336,170.92117981965026,-41.132012825028006,-38.227691650390625,5356.25390625,True
1599564461.5749185,0.0,10,0.5,0.5,-8.336992126464843,-0.2,-0.03,-0.2505,-0.2462337958010834,10,1,100,0.3869085240060176,-10,-1,-100,14939.702745596063,-0.021416921263179456,-0.020792873147226096,0.9995543866693247,36.57469620077365,0.0305917852078702,174.68248862872275,-41.50246184010968,-49.30206298828125,5356.25390625,True
1599564461.633761,0.0,10,0.5,0.5,-8.288037002563476,-0.2,-0.03,-0.2505,-0.2321294766408596,10,1,100,0.3170483050676408,-10,-1,-100,14938.926428314764,-0.022218097094503668,-0.020850014237962705,0.9995357087507059,36.5251328532971,0.03019622416384551,175.2442909102681,-41.68768339327863,-54.941162109375,5356.25390625,True
