Timestamp,Input Throttle,horizon,dT,dt,Input Roll,Roll P,Roll I,Roll D,Input Pitch,Pitch P,Pitch I,Pitch D,Input Yaw,Yaw P,Yaw I,Yaw D,Altitude,Direction X,Direction Y,Direction Z,Drag X,Drag Y,Drag Z,Vertical Velocity,Roll,Mass,Has Fuel
1599561155.6261468,0.0,10,0.5,0.5,-5.8501278533935555,-0.1005,-0.0155,-0.2505,-0.0002734649866801562,10,1,100,0.17501477559164788,-10,-1,-100,14993.966588538606,-0.016811675633707324,-7.471875856086199e-05,0.9998586710028043,28.64452557787177,0.027274991779077308,-87.50370763668977,27.008980083638498,-31.792510986328125,5356.25390625,True
1599561155.6580598,0.0,10,0.5,0.5,-5.9406848190307615,-0.1005,-0.0155,-0.2505,5.4823925497504656e-05,10,1,100,0.18188080765984602,-10,-1,-100,14995.569132253295,-0.01692152003152007,-6.735981867938735e-05,0.9998568185607766,28.426711254534347,0.027763726910395966,-85.04932359508226,26.45108907744226,-31.790771484375,5356.25390625,True
1599561155.6916904,0.0,10,0.5,0.5,-6.016333973693848,-0.1005,-0.0155,-0.2505,0.0032591784131112346,10,1,100,0.17460013816652495,-10,-1,-100,14996.105266440427,-0.01693980747047281,-3.147814179184977e-05,0.9998565106714011,28.354195093488695,0.02792364153057604,-84.2375514441301,26.265133374700838,-31.8310546875,5356.25390625,True
1599561155.7246444,0.0,10,0.5,0.5,-6.025066273498536,-0.1005,-0.0155,-0.2505,0.007856901948861766,10,1,100,0.17855706915806252,-10,-1,-100,14997.172651711153,-0.016977004689925215,4.296766765072726e-05,0.9998558793473876,28.22053033725193,0.028247554624951945,-82.65642214595277,25.893233203103996,-32.091796875,5356.25390625,True
1599561155.759911,0.0,10,0.5,0.5,-5.995095808410644,-0.1005,-0.0155,-0.2505,0.012238042525357585,10,1,100,0.17853289938161232,-10,-1,-100,14998.179488618975,-0.016995166978105193,0.00015043516541425863,0.999855560402925,28.106655673355075,0.028576878485954225,-81.14361862557504,25.52134751518811,-32.618988037109375,5356.25390625,True
1599561155.791861,0.0,10,0.5,0.5,-6.087632705688477,-0.1005,-0.0155,-0.2505,0.009582364616515793,10,1,100,0.17805888009815926,-10,-1,-100,14998.71073835215,-0.016991918731166414,0.0002238536049685306,0.9998556018682884,28.057239598853265,0.028741750864099726,-80.4123421606423,25.335409622796195,-32.9849853515625,5356.25390625,True
1599561155.8247702,0.0,10,0.5,0.5,-5.938475842285157,-0.1005,-0.0155,-0.2505,0.022516132117907352,10,1,100,0.17667808423461462,-10,-1,-100,14999.717573154368,-0.016960965890888784,0.00040797384220782063,0.9998560692386641,27.971923506576907,0.02906607268437308,-78.99414186668426,24.96354351489627,-33.92291259765625,5356.25390625,True
1599561155.8586478,0.0,10,0.5,0.5,-6.0595772735595705,-0.1005,-0.0155,-0.2505,0.01634834975950308,10,1,100,0.178436343903555,-10,-1,-100,15000.189251907519,-0.01693339206408959,0.0005189142420378565,0.9998564851823553,27.93508692296889,0.029222635549240938,-78.30402269892423,24.777614970187766,-34.494903564453125,5356.25390625,True
1599561155.8935866,0.0,10,0.5,0.5,-6.288893910217285,-0.1005,-0.0155,-0.2505,0.005306201200703274,10,1,100,0.18288706578988342,-10,-1,-100,15000.189251907519,-0.01693339206408959,0.0005189142420378565,0.9998564851823553,27.93508692296889,0.029222635549240938,-78.30402269892423,24.777614970187766,-34.494903564453125,5356.25390625,True
1599561155.9235122,0.0,10,0.5,0.5,-5.901053244018556,-0.1005,-0.0155,-0.2505,0.033644864108354905,10,1,100,0.17526255974240543,-10,-1,-100,15001.19217827206,-0.016848684379963345,0.0007760667100692005,0.9998577496599834,27.8701949840446,0.029516189249348627,-76.95261820128414,24.405766653541015,-35.844970703125,5356.25390625,True
1599561155.9583836,0.0,10,0.5,0.5,-5.752853204345703,-0.1005,-0.0155,-0.2505,0.04171305575670571,10,1,100,0.17196949384362636,-10,-1,-100,15002.132603624137,-0.01672642344587789,0.0010824833626190032,0.999859517626591,27.812128548265694,0.029770335489685825,-75.62514954139326,24.033929556044665,-37.4698486328125,5356.25390625,True
1599561155.9915361,0.0,10,0.5,0.5,-5.484305223083496,-0.1005,-0.0155,-0.2505,0.05042098371722717,10,1,100,0.16660251922462752,-10,-1,-100,15003.074003680027,-0.016566563965798243,0.001439154935377037,0.9998617293363312,27.753948106312247,0.02996681950799972,-74.30217913561508,23.662103749336502,-39.3695068359375,5356.25390625,True
1599561156.0265517,0.0,10,0.5,0.5,-5.578837815856933,-0.1005,-0.0155,-0.2505,0.03588480523723951,10,1,100,0.17160764356839125,-10,-1,-100,15003.54275050736,-0.016467060983456162,0.0016298851837444016,0.9998630803149274,27.722248159421486,0.030036986798675107,-73.63556858548712,23.476195140723135,-40.422454833984375,5356.25390625,True
1599561156.2869956,0.0,10,0.5,0.5,-4.575772869873048,-0.1005,-0.0155,-0.2505,0.08610265876752399,10,1,100,0.14114694829523008,-10,-1,-100,15004.949964721687,-0.016100118084741002,0.002258291929512286,0.9998678344237395,27.6029194089145,0.03010224563258673,-71.5808069231603,22.918487158306654,-43.99371337890625,5356.25390625,True
1599561156.320923,0.0,10,0.5,0.5,-3.9812985778808594,-0.1005,-0.0155,-0.2505,0.10131835636501345,10,1,100,0.12524536405523867,-10,-1,-100,15006.295653087436,-0.015622770944277466,0.0029658813817676657,0.9998735582940735,27.419118175812788,0.029890787016186197,-69.37786820987579,22.360809688276056,-48.18353271484375,5356.25390625,True
1599561156.3468654,0.0,10,0.5,0.5,-5.006723277282715,-0.1005,-0.0155,-0.2505,0.030840955761110823,10,1,100,0.17284283849820953,-10,-1,-100,15006.295653087436,-0.015622770944277466,0.0029658813817676657,0.9998735582940735,27.419118175812788,0.029890787016186197,-69.37786820987579,22.360809688276056,-48.18353271484375,5356.25390625,True
1599561156.3800046,0.0,10,0.5,0.5,-4.444625611877441,-0.1005,-0.0155,-0.2505,0.05720523754953737,10,1,100,0.15200779935437037,-10,-1,-100,15006.70677989081,-0.015434606177321555,0.003203063918228999,0.9998757489376802,27.33650815867821,0.02974637029716738,-68.59514278359505,22.17492502393175,-49.71783447265625,5356.25390625,True
1599561156.408928,0.0,10,0.5,0.5,-3.654963215637207,-0.1005,-0.0155,-0.2505,0.0874821072206732,10,1,100,0.12497537105497185,-10,-1,-100,15007.582744483952,-0.015019185549833983,0.003691387684680517,0.9998803917081187,27.129423474544062,0.02933388891466646,-66.93682448157958,21.80316921695791,-52.992828369140625,5356.25390625,True
1599561156.440842,0.0,10,0.5,0.5,-3.835790867614746,-0.1005,-0.0155,-0.2505,0.06813372718423431,10,1,100,0.14130849637898235,-10,-1,-100,15008.04855838092,-0.014791753579167427,0.00395653995072096,0.9998827680371691,27.00141171283993,0.029062720868656883,-66.05434446075077,21.6172988941006,-54.733245849609375,5356.25390625,True
1599561156.4687693,0.0,10,0.5,0.5,-2.9460513809204105,-0.1005,-0.0155,-0.2505,0.09946642108505674,10,1,100,0.10886447210381747,-10,-1,-100,15008.92159211007,-0.014291998511046261,0.0044793050228482175,0.9998878310115953,26.687134433751247,0.028386404240517592,-64.16550359630287,21.245575557533055,-58.42083740234375,5356.25390625,True
1599561156.5006876,0.0,10,0.5,0.5,-1.7120152847290042,-0.1005,-0.0155,-0.2505,0.13216274763193264,10,1,100,0.06498307682994549,-10,-1,-100,15010.145203962456,-0.013441078206509017,0.005248418749469343,0.9998958903392277,26.040839074719777,0.02704148476896408,-60.972465613005205,20.688041145582968,-64.46865844726562,5356.25390625,True
1599561156.5276158,0.0,10,0.5,0.5,-3.1851463012695316,-0.1005,-0.0155,-0.2505,0.05566796850850514,10,1,100,0.14974657275973302,-10,-1,-100,15010.145203962456,-0.013441078206509017,0.005248418749469343,0.9998958903392277,26.040839074719777,0.02704148476896408,-60.972465613005205,20.688041145582968,-64.46865844726562,5356.25390625,True
1599561156.55953,0.0,10,0.5,0.5,-1.6101463027954106,-0.1005,-0.0155,-0.2505,0.11061780177058891,10,1,100,0.08003223901588168,-10,-1,-100,15010.957689049304,-0.012810152886800631,0.005744499721111839,0.9999014454964903,25.469564921426535,0.02594354964184272,-58.5663061333533,20.316391349245958,-68.84500122070312,5356.25390625,True
1599561156.591445,0.0,10,0.5,0.5,-1.029553239440918,-0.1005,-0.0155,-0.2505,0.1145081426700892,10,1,100,0.06772700426467698,-10,-1,-100,15011.766268181033,-0.012128043105779016,0.006227108599384685,0.9999070625257709,24.766540727735553,0.02471644280261798,-55.910837390760406,19.944778087588617,-73.49688720703125,5356.25390625,True
1599561156.6263545,0.0,10,0.5,0.5,-2.1491207595825195,-0.1005,-0.0155,-0.2505,0.06664413650979178,10,1,100,0.13554077486894234,-10,-1,-100,15011.766268181033,-0.012128043105779016,0.006227108599384685,0.9999070625257709,24.766540727735553,0.02471644280261798,-55.910837390760406,19.944778087588617,-73.49688720703125,5356.25390625,True
1599561156.661258,0.0,10,0.5,0.5,-0.3802931411743167,-0.1005,-0.0155,-0.2505,0.11721745074649018,10,1,100,0.05481619259979406,-10,-1,-100,15012.571917383466,-0.011397360292276303,0.006683901249520474,0.9999127090113689,23.915159020362285,0.023400003049869077,-52.98582823698754,19.57320467911654,-78.42449951171875,5356.25390625,True
1599561156.7051413,0.0,10,0.5,0.5,0.25867102508544915,-0.1005,-0.0155,-0.2505,0.11757156202598344,10,1,100,0.04381933776525182,-10,-1,-100,15013.32385627646,-0.01063697306391618,0.007099006470486808,0.9999182261121005,22.899708146370042,0.022040691852049796,-49.775747421985706,19.201672506373335,-83.62808227539062,5356.25390625,True
1599561156.7410452,0.0,10,0.5,0.5,-0.0428045745849609,-0.1005,-0.0155,-0.2505,0.09921409628583491,10,1,100,0.07431237809448935,-10,-1,-100,15013.725216051796,-0.010227282889412234,0.007305947035043709,0.999921009791584,22.346997920782822,0.021379531907924493,-48.105839676215616,19.01592146764266,-86.33309936523438,5356.25390625,True
1599561156.7739568,0.0,10,0.5,0.5,1.2939305313110352,-0.1005,-0.0155,-0.2505,0.11913837556567117,10,1,100,0.024010940379558254,-10,-1,-100,15014.473248643684,-0.009401907753964201,0.007671918669593619,0.9999263701865819,21.18401555273991,0.02015493875392484,-44.7140643164326,18.644446913642504,-91.92473602294922,5356.25390625,True
1599561156.8118556,0.0,10,0.5,0.5,1.9306728191375733,-0.1005,-0.0155,-0.2505,0.11802965133867085,10,1,100,0.013704618478705313,-10,-1,-100,15015.216399724479,-0.008562772746117511,0.007991163227376377,0.9999314077641385,22.14335798156281,0.02115354224496654,-45.81043234450726,18.272976353168335,-97.56519317626953,5356.25390625,True
1599561156.8487575,0.0,10,0.5,0.5,2.554929387664795,-0.1005,-0.0155,-0.2505,0.11708331768599503,10,1,100,0.0006756761795804478,-10,-1,-100,15015.899980799994,-0.007686686196051139,0.008269589921059533,0.9999362623376856,23.056561198705484,0.022274632902133315,-46.73262809326998,17.90149450773581,-103.19629669189453,5356.25390625,True
1599561156.8836644,0.0,10,0.5,0.5,3.132527974319458,-0.1005,-0.0155,-0.2505,0.11417565104184021,10,1,100,-0.007185781289315171,-10,-1,-100,15016.586492352653,-0.006824007348101256,0.00849352524475955,0.9999406447147899,23.80200606222997,0.02334566162612276,-47.244964033510485,17.52999844853635,-108.68963623046875,5356.25390625,True
1599561156.911589,0.0,10,0.5,0.5,4.548267660140992,-0.1005,-0.0155,-0.2505,0.11960173526374304,10,1,100,-0.06370906719574439,-10,-1,-100,15017.668508071569,-0.005531921315232377,0.008743480753326599,0.9999464732628834,24.587083817757186,0.024689304640090264,-47.255454873305496,16.9727307013813,-116.4482650756836,5356.25390625,True
1599561156.9454982,0.0,10,0.5,0.5,2.6785161933898927,-0.1005,-0.0155,-0.2505,0.09490608251025959,10,1,100,0.0647717129339867,-10,-1,-100,15017.668508071569,-0.005531921315232377,0.008743480753326599,0.9999464732628834,24.587083817757186,0.024689304640090264,-47.255454873305496,16.9727307013813,-116.4482650756836,5356.25390625,True
1599561156.9754188,0.0,10,0.5,0.5,5.252507981491089,-0.1005,-0.0155,-0.2505,0.11221301265284694,10,1,100,-0.07269515818896255,-10,-1,-100,15018.62845615123,-0.004288218961196972,0.008898528870846537,0.9999512124909272,25.151531867923975,0.02571845139438334,-46.7563797993113,16.415444429594604,-123.59190368652344,5356.25390625,True
1599561157.0133173,0.0,10,0.5,0.5,5.091589693832399,-0.1005,-0.0155,-0.2505,0.1024325669689446,10,1,100,-0.03831570994139327,-10,-1,-100,15019.308136958978,-0.0034772480090013986,0.008948139998491493,0.9999539187066829,25.34656382923492,0.026103443977040404,-46.05456986584418,16.043918169088418,-128.01046752929688,5356.25390625,True
1599561157.046229,0.0,10,0.5,0.5,4.061597701644898,-0.1005,-0.0155,-0.2505,0.09769787807934602,10,1,100,0.04198937404983655,-10,-1,-100,15019.308136958978,-0.0034772480090013986,0.008948139998491493,0.9999539187066829,25.34656382923492,0.026103443977040404,-46.05456986584418,16.043918169088418,-128.01046752929688,5356.25390625,True
1599561157.074155,0.0,10,0.5,0.5,5.58453708152771,-0.1005,-0.0155,-0.2505,0.10189428003374117,10,1,100,-0.04077788869265207,-10,-1,-100,15019.923365672701,-0.002731327188665061,0.008984608076687809,0.999955907362668,25.418865932950855,0.026249768296907915,-45.11840435799747,15.67239642539707,-132.15333557128906,5356.25390625,True
1599561157.1090617,0.0,10,0.5,0.5,6.617810164260865,-0.1005,-0.0155,-0.2505,0.09645874377073005,10,1,100,-0.08686940114037672,-10,-1,-100,15020.817890571663,-0.001641018107653391,0.008966820853528318,0.9999584507285046,25.337456825495117,0.026059704994090868,-43.37757733178429,15.115132999934104,-137.85145568847656,5356.25390625,True
1599561157.1409762,0.0,10,0.5,0.5,5.261617490386962,-0.1005,-0.0155,-0.2505,0.09836695630507261,10,1,100,0.0213854179961592,-10,-1,-100,15020.817890571663,-0.001641018107653391,0.008966820853528318,0.9999584507285046,25.337456825495117,0.026059704994090868,-43.37757733178429,15.115132999934104,-137.85145568847656,5356.25390625,True
1599561157.1698992,0.0,10,0.5,0.5,6.536461557388305,-0.1005,-0.0155,-0.2505,0.0955536770016235,10,1,100,-0.05260715346670944,-10,-1,-100,15021.432145362021,-0.0009746508712986435,0.008940358625655006,0.999959559203933,25.18259920449138,0.025700417283187615,-42.054700997845,14.74364270269457,-141.3055877685547,5356.25390625,True
1599561157.2038083,0.0,10,0.5,0.5,6.300163847351074,-0.1005,-0.0155,-0.2505,0.09672633950890586,10,1,100,-0.021458464744741966,-10,-1,-100,15021.713393972837,-0.0006581342223801705,0.008926352833377657,0.9999599427399277,25.081135735652698,0.02546371964189877,-41.35850236939822,14.557904300915476,-142.92921447753906,5356.25390625,True
1599561157.237718,0.0,10,0.5,0.5,7.511207819366455,-0.1005,-0.0155,-0.2505,0.08868307898807345,10,1,100,-0.0904138437906058,-10,-1,-100,15022.537610539352,0.0002508699287574571,0.008840106265128302,0.9999608940281116,24.715472230952855,0.0245915299189084,-39.19828871212141,14.00071901085362,-147.38702392578125,5356.25390625,True
1599561157.2806027,0.0,10,0.5,0.5,7.364627869033814,-0.1005,-0.0155,-0.2505,0.09006602419267341,10,1,100,-0.06107215212738919,-10,-1,-100,15023.091320692096,0.0008052376044497039,0.008774184681750886,0.9999611818843626,24.472812505958313,0.023950451826340338,-37.785458526297376,13.629287440740155,-150.01422119140625,5356.25390625,True
1599561157.3175037,0.0,10,0.5,0.5,6.758542185974122,-0.1005,-0.0155,-0.2505,0.09666125292325743,10,1,100,-0.006269100450132713,-10,-1,-100,15023.091320692096,0.0008052376044497039,0.008774184681750886,0.9999611818843626,24.472812505958313,0.023950451826340338,-37.785458526297376,13.629287440740155,-150.01422119140625,5356.25390625,True
1599561157.3524127,0.0,10,0.5,0.5,7.624766675567628,-0.1005,-0.0155,-0.2505,0.09090540776410161,10,1,100,-0.06258727808328689,-10,-1,-100,15023.64014900499,0.0013125906224186995,0.008721971856839556,0.9999611013998427,24.207324964052663,0.023257658643251803,-36.35871373687362,13.257876307141107,-152.36541748046875,5356.25390625,True
1599561157.3883154,0.0,10,0.5,0.5,8.130087740325928,-0.1005,-0.0155,-0.2505,0.08438761784808071,10,1,100,-0.08903225266904935,-10,-1,-100,15024.406751430128,0.0020098750998688813,0.008615458624176023,0.9999608663716685,23.791729157925694,0.02217777510124416,-34.235381570934905,12.700796165018803,-155.37551879882812,5356.25390625,True
1599561157.4182365,0.0,10,0.5,0.5,7.722266860198975,-0.1005,-0.0155,-0.2505,0.09067179147175403,10,1,100,-0.04331685836015083,-10,-1,-100,15024.680189300561,0.002223187291916451,0.008576059701401037,0.9999607535489896,23.65390104219678,0.021817767553555998,-33.54022204722767,12.51511200181069,-156.24102783203125,5356.25390625,True
1599561157.4511473,0.0,10,0.5,0.5,7.8223298645019534,-0.1005,-0.0155,-0.2505,0.091613822848608,10,1,100,-0.04447449097814833,-10,-1,-100,15024.892103919876,0.0024231272953227807,0.008549177828099983,0.9999605192269213,23.518385929957777,0.021461354158421833,-32.85407177967355,12.329432225787452,-157.0374298095703,5356.25390625,True
1599561157.4875748,0.0,10,0.5,0.5,8.139034562683106,-0.1005,-0.0155,-0.2505,0.08836920312076882,10,1,100,-0.06583432904850663,-10,-1,-100,15025.380386560573,0.0027953766032381777,0.008495622893959966,0.9999600043308181,23.25812617614307,0.02076573348654226,-31.51340131906826,11.958084673241526,-158.42337036132812,5356.25390625,True
1599561157.518458,0.0,10,0.5,0.5,8.213492388153076,-0.1005,-0.0155,-0.2505,0.0865112530418054,10,1,100,-0.06622094873696457,-10,-1,-100,15025.865739330533,0.003133266703319164,0.008430474496714437,0.9999595540518257,23.018080305994776,0.020101550190848538,-30.221072721692217,11.586751826147745,-159.5337677001953,5356.25390625,True
1599561157.5543652,0.0,10,0.5,0.5,8.366612758636476,-0.1005,-0.0155,-0.2505,0.08458921867415506,10,1,100,-0.08027686995396215,-10,-1,-100,15026.563983245986,0.0035644861530249317,0.008354239172357081,0.999958749712365,22.708226417057237,0.019178336297617705,-28.383018828754416,11.029775401399922,-160.68197631835938,5356.25390625,True
1599561157.5882719,0.0,10,0.5,0.5,8.106503280639648,-0.1005,-0.0155,-0.2505,0.09215553974378862,10,1,100,-0.03757718702092591,-10,-1,-100,15026.563983245986,0.0035644861530249317,0.008354239172357081,0.999958749712365,22.708226417057237,0.019178336297617705,-28.383018828754416,11.029775401399922,-160.68197631835938,5356.25390625,True
1599561157.6171927,0.0,10,0.5,0.5,8.312229536437988,-0.1005,-0.0155,-0.2505,0.0864421038565984,10,1,100,-0.07585049287396245,-10,-1,-100,15027.194844799233,0.003909412918757748,0.008302740543466962,0.9999578896084068,22.47081542671591,0.018351409025149673,-26.66980588583921,10.472820482660357,-161.20938110351562,5356.25390625,True
1599561157.6530974,0.0,10,0.5,0.5,8.199877261352539,-0.1005,-0.0155,-0.2505,0.08856484058089398,10,1,100,-0.061746977569262465,-10,-1,-100,15027.614768195781,0.0040919469527318465,0.008275649800277072,0.9999573838871931,22.35667396465649,0.017853660250358304,-25.59469656040047,10.101525839006914,-161.21624755859375,5356.25390625,True
1599561157.688003,0.0,10,0.5,0.5,8.121011291503907,-0.1005,-0.0155,-0.2505,0.09069621517865165,10,1,100,-0.059425134498450286,-10,-1,-100,15027.975121272611,0.0042337914017479324,0.008270851198158126,0.9999568330837209,22.278735001538664,0.017396915371814755,-24.569005433342316,9.730236169671045,-160.94699096679688,5356.25390625,True
1599561157.7169268,0.0,10,0.5,0.5,8.201761506652833,-0.1005,-0.0155,-0.2505,0.09113096332467804,10,1,100,-0.04553280967477461,-10,-1,-100,15027.975121272611,0.0042337914017479324,0.008270851198158126,0.9999568330837209,22.278735001538664,0.017396915371814755,-24.569005433342316,9.730236169671045,-160.94699096679688,5356.25390625,True
1599561157.7538285,0.0,10,0.5,0.5,7.887151225280762,-0.1005,-0.0155,-0.2505,0.09144395419281989,10,1,100,-0.06141207465520756,-10,-1,-100,15028.544459002325,0.004376126614022887,0.008274009849164887,0.999956194178962,22.227673230359137,0.016783373757844326,-23.111023361398246,9.173307033309161,-160.02606201171875,5356.25390625,True
1599561157.7957156,0.0,10,0.5,0.5,8.123710731506348,-0.1005,-0.0155,-0.2505,0.09109788410692024,10,1,100,-0.04739384735992271,-10,-1,-100,15028.544459002325,0.004376126614022887,0.008274009849164887,0.999956194178962,22.227673230359137,0.016783373757844326,-23.111023361398246,9.173307033309161,-160.02606201171875,5356.25390625,True
1599561158.0588799,0.0,10,0.5,0.5,7.3584846824646,-0.1005,-0.0155,-0.2505,0.09470914060825715,10,1,100,-0.05369033328321996,-10,-1,-100,15029.256374482531,0.0044315919412176805,0.008307089606430618,0.9999556756452445,22.268651204266433,0.01608580112927593,-21.2809203084074,8.430737087194057,-157.83273315429688,5356.25390625,True
1599561158.0893588,0.0,10,0.5,0.5,7.906998073577881,-0.1005,-0.0155,-0.2505,0.09138231155293111,10,1,100,-0.0483074220975386,-10,-1,-100,15029.256374482531,0.0044315919412176805,0.008307089606430618,0.9999556756452445,22.268651204266433,0.01608580112927593,-21.2809203084074,8.430737087194057,-157.83273315429688,5356.25390625,True
1599561158.116286,0.0,10,0.5,0.5,7.072900227355959,-0.1005,-0.0155,-0.2505,0.09534982096414607,10,1,100,-0.04194677237020235,-10,-1,-100,15029.699734063004,0.004372587557116534,0.008343270041887375,0.9999556341773687,22.361195110136766,0.015643791538576285,-19.95871728384297,7.873806163072397,-155.46389770507812,5356.25390625,True
1599561158.1442125,0.0,10,0.5,0.5,7.658205485534669,-0.1005,-0.0155,-0.2505,0.09173068050542332,10,1,100,-0.04792802092072615,-10,-1,-100,15029.699734063004,0.004372587557116534,0.008343270041887375,0.9999556341773687,22.361195110136766,0.015643791538576285,-19.95871728384297,7.873806163072397,-155.46389770507812,5356.25390625,True
1599561158.1771488,0.0,10,0.5,0.5,6.600920106506348,-0.1005,-0.0155,-0.2505,0.09630623301599353,10,1,100,-0.03196172765269961,-10,-1,-100,15030.195826999145,0.004226704798858028,0.00838487594573844,0.9999559134391465,22.48137077180727,0.015265358977929641,-18.647534615001543,7.31686940692406,-152.4747314453125,5356.25390625,True
1599561158.210034,0.0,10,0.5,0.5,7.336167547607422,-0.1005,-0.0155,-0.2505,0.09215385617111416,10,1,100,-0.046581732666560266,-10,-1,-100,15030.195826999145,0.004226704798858028,0.00838487594573844,0.9999559134391465,22.48137077180727,0.015265358977929641,-18.647534615001543,7.31686940692406,-152.4747314453125,5356.25390625,True
1599561158.2381089,0.0,10,0.5,0.5,6.502200686645508,-0.1005,-0.0155,-0.2505,0.09527586983608144,10,1,100,-0.030609571479722528,-10,-1,-100,15030.485865238239,0.004081380826390297,0.00841315859165136,0.9999562795907938,22.562447454345037,0.015048051450574036,-17.765627920916835,6.9455747450740315,-150.13735961914062,5356.25390625,True
1599561158.2700357,0.0,10,0.5,0.5,6.15383493347168,-0.1005,-0.0155,-0.2505,0.09450775361569508,10,1,100,-0.025219147196531892,-10,-1,-100,15030.719262214261,0.003900402822095498,0.008431757842847326,0.9999568452275853,22.631892460967993,0.014859048775175649,-16.86814489492086,6.574277461274354,-147.52447509765625,5356.25390625,True
1599561158.2979302,0.0,10,0.5,0.5,5.773708760070801,-0.1005,-0.0155,-0.2505,0.09432276593031162,10,1,100,-0.019248731531592907,-10,-1,-100,15031.009299398633,0.003681903938127737,0.00844683826802682,0.9999575463521759,22.676961401171315,0.014697079634688717,-15.947596886097202,6.202978054278127,-144.63601684570312,5356.25390625,True
1599561158.3328738,0.0,10,0.5,0.5,6.473412982177734,-0.1005,-0.0155,-0.2505,0.09283200625424852,10,1,100,-0.04102919766077946,-10,-1,-100,15031.009299398633,0.003681903938127737,0.00844683826802682,0.9999575463521759,22.676961401171315,0.014697079634688717,-15.947596886097202,6.202978054278127,-144.63601684570312,5356.25390625,True
1599561158.3608062,0.0,10,0.5,0.5,4.747532975769044,-0.1005,-0.0155,-0.2505,0.0924004880184065,10,1,100,0.0019153400899083253,-10,-1,-100,15031.31984297745,0.003292130161008662,0.00844275825822929,0.9999589400130368,22.666299965154128,0.014494801961191295,-14.509427205437467,5.646025775681693,-139.7869415283203,5356.25390625,True
1599561158.3956792,0.0,10,0.5,0.5,5.934255365753175,-0.1005,-0.0155,-0.2505,0.09282205586333929,10,1,100,-0.036948091443978294,-10,-1,-100,15031.31984297745,0.003292130161008662,0.00844275825822929,0.9999589400130368,22.666299965154128,0.014494801961191295,-14.509427205437467,5.646025775681693,-139.7869415283203,5356.25390625,True
1599561158.4267802,0.0,10,0.5,0.5,3.986790629577637,-0.1005,-0.0155,-0.2505,0.08838743128677032,10,1,100,0.013805240435799962,-10,-1,-100,15031.626478772843,0.0028317721091745043,0.008402320154213392,0.9999606902687465,22.510130747372656,0.014310789068209196,-12.98848847190831,5.089068668024538,-134.31829833984375,5356.25390625,True
1599561158.4636817,0.0,10,0.5,0.5,3.9234556320190435,-0.1005,-0.0155,-0.2505,0.08673165301006291,10,1,100,0.0057065117673999605,-10,-1,-100,15031.853037699242,0.0024882903367179445,0.00835045202976312,0.9999620384605101,22.295280511768038,0.014172569843970894,-11.926160235376933,4.717759106658522,-130.32839965820312,5356.25390625,True
1599561158.4975972,0.0,10,0.5,0.5,4.147537922668457,-0.1005,-0.0155,-0.2505,0.08762968825076597,10,1,100,-0.009170094557206031,-10,-1,-100,15031.934090611176,0.0023129890530905798,0.00831145661700756,0.9999627841927637,22.1477583393597,0.01409179286628409,-11.381146129313493,4.532102057263247,-128.23031616210938,5356.25390625,True
1599561158.5295017,0.0,10,0.5,0.5,2.2813315689086915,-0.1005,-0.0155,-0.2505,0.07477868166405624,10,1,100,0.03516081056366038,-10,-1,-100,15032.179201466264,0.001752355763008524,0.00815924565401308,0.999965177373511,21.512422579992357,0.01376791254227459,-9.696356681331586,3.9751168286443574,-121.52320098876953,5356.25390625,True
1599561158.5612864,0.0,10,0.5,0.5,3.913489047622681,-0.1005,-0.0155,-0.2505,0.08997721493433161,10,1,100,-0.020655083540960253,-10,-1,-100,15032.179201466264,0.001752355763008524,0.00815924565401308,0.999965177373511,21.512422579992357,0.01376791254227459,-9.696356681331586,3.9751168286443574,-121.52320098876953,5356.25390625,True
1599561158.5970025,0.0,10,0.5,0.5,1.297642739868164,-0.1005,-0.0155,-0.2505,0.0660842906433588,10,1,100,0.044869085664191774,-10,-1,-100,15032.422358361306,0.001158798793019307,0.00794226808131118,0.999967788262743,20.540514138592574,0.013259117496195873,-7.961166067518791,3.418100503570305,-114.19700622558594,5356.25390625,True
1599561158.6289768,0.0,10,0.5,0.5,2.175747526550293,-0.1005,-0.0155,-0.2505,0.07816316157751599,10,1,100,0.008901067567305273,-10,-1,-100,15032.441887603141,0.0009486758975726929,0.007855268650766824,0.9999686968942906,20.138673679833776,0.01303668064865085,-7.381461461928497,3.2324187545462606,-111.61737823486328,5356.25390625,True
1599561158.6639018,0.0,10,0.5,0.5,2.7707654483795165,-0.1005,-0.0155,-0.2505,0.08680394767022562,10,1,100,-0.011837899173300644,-10,-1,-100,15032.441887603141,0.0009486758975726929,0.007855268650766824,0.9999686968942906,20.138673679833776,0.01303668064865085,-7.381461461928497,3.2324187545462606,-111.61737823486328,5356.25390625,True
1599561158.6988251,0.0,10,0.5,0.5,0.8362741424560549,-0.1005,-0.0155,-0.2505,0.06490539318517383,10,1,100,0.03354539452513216,-10,-1,-100,15032.60106243426,0.0005385852530783538,0.0076567286732820445,0.9999705417820811,19.37691057680344,0.012605767771586247,-6.286343105989565,2.861037619801388,-106.25181579589844,5356.25390625,True
1599561158.7337246,0.0,10,0.5,0.5,0.14848996810913095,-0.1005,-0.0155,-0.2505,0.059393523492817624,10,1,100,0.038948960924046566,-10,-1,-100,15032.697736959672,0.00011915546800966938,0.007426844450715322,0.9999724135112327,18.4311598407685,0.012027393399510616,-5.203341326637913,2.489627235786797,-100.61113739013672,5356.25390625,True
1599561158.7636476,0.0,10,0.5,0.5,-0.5756623111724852,-0.1005,-0.0155,-0.2505,0.053105043420534584,10,1,100,0.04427338513178659,-10,-1,-100,15032.795388037339,-0.00030766367058404474,0.007161614351186196,0.9999743079814355,17.294201577656896,0.011297514007904004,-4.153978365265328,2.1181843906049562,-94.6954116821289,5356.25390625,True
1599561158.7965603,0.0,10,0.5,0.5,-2.423428783416748,-0.1005,-0.0155,-0.2505,0.030657851616272463,10,1,100,0.06848163337866295,-10,-1,-100,15032.84811538551,-0.0009129020208410622,0.006717558613214632,0.9999770202440545,15.992177628677272,0.01044002201878682,-2.8308187404443728,1.560983366100916,-85.38418579101562,5356.25390625,True
1599561158.8283863,0.0,10,0.5,0.5,-1.2597653915405274,-0.1005,-0.0155,-0.2505,0.05729370239118302,10,1,100,0.029938131239080415,-10,-1,-100,15032.923308605677,-0.0011096312358443651,0.00655750012520926,0.999977883710749,16.63229858058432,0.010852368230623275,-2.593828688105133,1.3752465418133295,-82.25274658203125,5356.25390625,True
1599561158.8632598,0.0,10,0.5,0.5,-2.706227722167969,-0.1005,-0.0155,-0.2505,0.03654788143622692,10,1,100,0.05199254666990131,-10,-1,-100,15032.957483656006,-0.0014858591895012532,0.006224988542424591,0.9999795206603562,17.76629022914163,0.011597114558755197,-2.022307478726205,1.0037760790075456,-76.0999755859375,5356.25390625,True
1599561158.8991885,0.0,10,0.5,0.5,-1.235364587020874,-0.1005,-0.0155,-0.2505,0.0696056140035349,10,1,100,0.01469357279946348,-10,-1,-100,15032.957483656006,-0.0014858591895012532,0.006224988542424591,0.9999795206603562,17.76629022914163,0.011597114558755197,-2.022307478726205,1.0037760790075456,-76.0999755859375,5356.25390625,True
1599561158.9310784,0.0,10,0.5,0.5,-3.3795927299499513,-0.1005,-0.0155,-0.2505,0.029658651706703433,10,1,100,0.05503931387115347,-10,-1,-100,15032.991659438005,-0.001849694822014335,0.005863592755282113,0.9999810982758952,18.679045725132315,0.012215924280841249,-1.3393856986994475,0.6323121227716966,-70.191650390625,5356.25390625,True
1599561158.9610245,0.0,10,0.5,0.5,-3.9465966247558595,-0.1005,-0.0155,-0.2505,0.025645794162866414,10,1,100,0.05553916418625811,-10,-1,-100,15032.961382085807,-0.002182263587513512,0.005500460312323186,0.9999824911777141,19.360782877810056,0.012677327700006106,-0.5727155380142971,0.260849549578138,-64.553955078125,5356.25390625,True
1599561158.9969316,0.0,10,0.5,0.5,-4.48944977684021,-0.1005,-0.0155,-0.2505,0.0181255646939878,10,1,100,0.05760145470407611,-10,-1,-100,15032.989698639722,-0.002500500615870122,0.005104114922042032,0.9999838476233168,19.808861744190946,0.012973629629623925,0.24850270292640847,-0.11062125424846236,-59.19171142578125,5356.25390625,True
1599561159.0279136,0.0,10,0.5,0.5,-4.132335842132568,-0.1005,-0.0155,-0.2505,0.036698884662609024,10,1,100,0.04219009007039668,-10,-1,-100,15033.005322561134,-0.00264656807542137,0.004915150343072744,0.9999844183658698,19.988718618515605,0.013093971346807854,0.6718052082319556,-0.2963614099463432,-56.613739013671875,5356.25390625,True
1599561159.0608625,0.0,10,0.5,0.5,-5.300582859802247,-0.1005,-0.0155,-0.2505,0.012549572757108968,10,1,100,0.058588752950460475,-10,-1,-100,15032.974069335149,-0.002925539834533539,0.004526317506987217,0.9999854767277886,20.28694323338335,0.013296161249712621,1.5365283374516878,-0.667850512199667,-51.664764404296875,5356.25390625,True
1599561159.0947597,0.0,10,0.5,0.5,-4.968974792861938,-0.1005,-0.0155,-0.2505,0.029715398143044445,10,1,100,0.045453350079142474,-10,-1,-100,15032.930123015074,-0.003056969866439399,0.0043315229112759045,0.9999859463234995,20.37651346703176,0.013359262165546892,1.9725727528459178,-0.853599701150513,-49.293701171875,5356.25390625,True
1599561159.1301117,0.0,10,0.5,0.5,-6.037268083190918,-0.1005,-0.0155,-0.2505,0.005094808744768468,10,1,100,0.059557913547709125,-10,-1,-100,15032.895940980525,-0.003302175648617282,0.003933186185590303,0.9999868127542558,20.455033503854736,0.013423331775610668,2.8420522196183757,-1.225107134589237,-44.758453369140625,5356.25390625,True
1599561159.164058,0.0,10,0.5,0.5,-5.723851448059083,-0.1005,-0.0155,-0.2505,0.023645488270296916,10,1,100,0.04793134297696825,-10,-1,-100,15032.851018030662,-0.0034172218330197346,0.003742235678315127,0.999987159051091,20.450092888484367,0.013428245129775439,3.272225393032083,-1.410864952169172,-42.594085693359375,5356.25390625,True
1599561159.1959662,0.0,10,0.5,0.5,-6.689930679321289,-0.1005,-0.0155,-0.2505,0.00016061876339550085,10,1,100,0.060188787535238264,-10,-1,-100,15032.813906964962,-0.003631142777917896,0.003357704825681222,0.9999877702354315,20.371212611753975,0.013396984691508603,4.118048044217595,-1.7823876359289343,-38.472198486328125,5356.25390625,True
1599561159.2289212,0.0,10,0.5,0.5,-7.704567454528808,-0.1005,-0.0155,-0.2505,-0.022624706390625644,10,1,100,0.070714546428217,-10,-1,-100,15032.670350836706,-0.003919354823590198,0.0028035986252654284,0.999988389178852,20.135883735751772,0.013289372054542592,5.343385918733582,-2.3396849233527224,-32.80596923828125,5356.25390625,True
1599561159.2648249,0.0,10,0.5,0.5,-6.966875511169434,-0.1005,-0.0155,-0.2505,0.012428386954130236,10,1,100,0.051605675106125494,-10,-1,-100,15032.620545447688,-0.004005436493424105,0.002621640555218996,0.9999885416740015,20.025693115488195,0.013238507977130212,5.73615640035499,-2.5254527935655355,-31.05499267578125,5356.25390625,True
1599561159.2987342,0.0,10,0.5,0.5,-8.287724281311036,-0.1005,-0.0155,-0.2505,-0.02489924198401474,10,1,100,0.0708896402801588,-10,-1,-100,15032.476990310242,-0.0042570415660630415,0.0021198292759209785,0.9999886918965363,19.631226989011513,0.013066191404086755,6.864349440997027,-3.0827596902208123,-26.215087890625,5356.25390625,True
1599561159.3376303,0.0,10,0.5,0.5,-7.13475337677002,-0.1005,-0.0155,-0.2505,0.02494382284214678,10,1,100,0.04593661081412008,-10,-1,-100,15032.476990310242,-0.0042570415660630415,0.0021198292759209785,0.9999886918965363,19.631226989011513,0.013066191404086755,6.864349440997027,-3.0827596902208123,-26.215087890625,5356.25390625,True
1599561159.3695455,0.0,10,0.5,0.5,-8.197477250671387,-0.1005,-0.0155,-0.2505,-0.011187584043492356,10,1,100,0.062064994162267885,-10,-1,-100,15032.316834088298,-0.004402066377455119,0.0017940749275480055,0.9999887014895532,19.336243901366764,0.012949181903027096,7.576303061348136,-3.454300016939393,-23.3330078125,5356.25390625,True
1599561159.407443,0.0,10,0.5,0.5,-8.442135015869141,-0.1005,-0.0155,-0.2505,-0.010787296393603703,10,1,100,0.06417748963894238,-10,-1,-100,15032.154724988388,-0.004551515711870381,0.0015044109307674948,0.9999885101602299,19.078428459788196,0.012870455314297757,8.279584377900704,-3.825843047608971,-20.72607421875,5356.25390625,True
1599561159.4413533,0.0,10,0.5,0.5,-8.258268116760254,-0.1005,-0.0155,-0.2505,0.0016823096289567234,10,1,100,0.05637373895890918,-10,-1,-100,15032.106873958837,-0.0046149573952681934,0.001357187267150507,0.9999884300385489,18.959559336411658,0.012842102410625323,8.627668757774778,-4.011615814929038,-19.526031494140625,5356.25390625,True
1599561159.4792514,0.0,10,0.5,0.5,-9.122545532226564,-0.1005,-0.0155,-0.2505,-0.026724890906518552,10,1,100,0.07238798084095494,-10,-1,-100,15031.831484404509,-0.00481679931771314,0.0009678042368526749,0.9999879308268136,18.64853546606551,0.012800528992098385,9.6655991128462,-4.568941315311505,-16.338714599609375,5356.25390625,True
1599561159.5131607,0.0,10,0.5,0.5,-9.269421017456056,-0.1005,-0.0155,-0.2505,-0.026243773606610003,10,1,100,0.07296848485077084,-10,-1,-100,15031.494572244585,-0.0050041923530531485,0.0006208892592617577,0.9999872861968903,18.401177947952124,0.01281531690273085,10.701413036904928,-5.126280087504382,-13.77105712890625,5356.25390625,True
1599561159.5430808,0.0,10,0.5,0.5,-8.670898515319825,-0.1005,-0.0155,-0.2505,0.008135589510576382,10,1,100,0.054387878368773304,-10,-1,-100,15031.494572244585,-0.0050041923530531485,0.0006208892592617577,0.9999872861968903,18.401177947952124,0.01281531690273085,10.701413036904928,-5.126280087504382,-13.77105712890625,5356.25390625,True
1599561159.5749955,0.0,10,0.5,0.5,-8.961284436035157,-0.1005,-0.0155,-0.2505,-0.0032087922106932973,10,1,100,0.061756947625292644,-10,-1,-100,15031.445744692232,-0.005069935664862292,0.0005202465304924147,0.9999870124636128,18.332392469809875,0.012831053030972678,11.048016010364975,-5.312063114737064,-13.052825927734375,5356.25390625,True
1599561159.834948,0.0,10,0.5,0.5,-9.243697325134276,-0.1005,-0.0155,-0.2505,-0.013776808455198481,10,1,100,0.06942835023463911,-10,-1,-100,15031.21723054815,-0.005198396353099871,0.00033475604038366757,0.9999864322148323,18.230264238044406,0.01288775640041181,11.755453020893333,-5.68363456566917,-11.8228759765625,5356.25390625,True
1599561159.866861,0.0,10,0.5,0.5,-9.144985789489747,-0.1005,-0.0155,-0.2505,-0.00531092043842529,10,1,100,0.06308547176021749,-10,-1,-100,15031.102973354515,-0.005256431756403222,0.00024516992635986766,0.9999861548126041,18.20711876357576,0.012935810989364518,12.124574277556475,-5.869422958348251,-11.311248779296875,5356.25390625,True
1599561159.9040468,0.0,10,0.5,0.5,-9.51668984375,-0.1005,-0.0155,-0.2505,-0.028073510425612125,10,1,100,0.08437872021547169,-10,-1,-100,15030.58637507679,-0.005501857663371907,-4.150039595477517e-05,0.9999848638054324,18.210842708108444,0.013197419315113333,13.663854592803043,-6.612593239056247,-9.95294189453125,5356.25390625,True
1599561159.9339662,0.0,10,0.5,0.5,-9.260415228271485,-0.1005,-0.0155,-0.2505,-0.006064425607101169,10,1,100,0.066524214068153,-10,-1,-100,15030.41352440475,-0.005561526781006624,-0.00010006234546173657,0.9999845295840287,18.237482170610537,0.013282214311171889,14.068683784428995,-6.7983893530435395,-9.785491943359375,5356.25390625,True
1599561160.0138762,0.0,10,0.5,0.5,-9.274077070617677,-0.1005,-0.0155,-0.2505,-0.006170696441932165,10,1,100,0.0672638834090492,-10,-1,-100,15030.297314409516,-0.005621441645224922,-0.00015254463690015624,0.9999841879369709,18.27490392600943,0.013375698490653681,14.483215413359495,-6.984186572719771,-9.6868896484375,5356.25390625,True
1599561160.0498528,0.0,10,0.5,0.5,-9.276963945007326,-0.1005,-0.0155,-0.2505,-0.00559582961522143,10,1,100,0.06848042011915637,-10,-1,-100,15030.121533837984,-0.005685996468303117,-0.0001935234256307423,0.9999838158654601,18.3232683012929,0.013478380376363812,14.908263746193844,-7.169984892859922,-9.65704345703125,5356.25390625,True
1599561160.0817685,0.0,10,0.5,0.5,-9.085043896484375,-0.1005,-0.0155,-0.2505,-0.014231889661093533,10,1,100,0.08930575744233529,-10,-1,-100,15029.53560053592,-0.005933030247609435,-0.00030787676971849305,0.9999823520262624,18.625172269567614,0.013989741329371853,16.726616534202094,-7.913184380353901,-10.226104736328125,5356.25390625,True
1599561160.1126842,0.0,10,0.5,0.5,-9.237068292236328,-0.1005,-0.0155,-0.2505,-0.0029241233529755744,10,1,100,0.06471400260469312,-10,-1,-100,15029.53560053592,-0.005933030247609435,-0.00030787676971849305,0.9999823520262624,18.625172269567614,0.013989741329371853,16.726616534202094,-7.913184380353901,-10.226104736328125,5356.25390625,True
1599561160.1426084,0.0,10,0.5,0.5,-8.997747752380372,-0.1005,-0.0155,-0.2505,-0.005072582790105911,10,1,100,0.07838417391679668,-10,-1,-100,15029.184040018357,-0.006056460134178962,-0.00032656388639333225,0.9999816061541688,18.83949050550425,0.014312034400740662,17.714717420871878,-8.284785256067233,-10.923583984375,5356.25390625,True
1599561160.1745198,0.0,10,0.5,0.5,-8.628495945739747,-0.1005,-0.0155,-0.2505,-0.00032533550593770704,10,1,100,0.08643756926113716,-10,-1,-100,15028.712363198167,-0.00624092519984424,-0.00029953405974560685,0.9999804803754906,19.233096520949434,0.014886466708781992,19.303497539365075,-8.842184078035029,-12.485931396484375,5356.25390625,True
1599561160.2104251,0.0,10,0.5,0.5,-8.78963838043213,-0.1005,-0.0155,-0.2505,-0.0006680408910725243,10,1,100,0.07464967442571246,-10,-1,-100,15028.535606069374,-0.006300393497822466,-0.00027733173848504755,0.9999801138667106,19.38176332521901,0.015103142006488096,19.862153489883518,-9.02798204675007,-13.14434814453125,5356.25390625,True
1599561160.2473252,0.0,10,0.5,0.5,-8.417861201477052,-0.1005,-0.0155,-0.2505,0.004469125095471544,10,1,100,0.08158124765454797,-10,-1,-100,15028.116662857006,-0.006416468073387792,-0.00020988985766243963,0.9999793922295154,19.73352897025734,0.01559948233759023,21.056514716765438,-9.399574309422748,-14.6676025390625,5356.25390625,True
1599561160.2792394,0.0,10,0.5,0.5,-8.162931100463869,-0.1005,-0.0155,-0.2505,0.0076976992921746696,10,1,100,0.08234594220301208,-10,-1,-100,15027.757290117792,-0.006527887604963231,-0.00011881469168638374,0.9999786860561009,20.126359046046502,0.01615782875054914,22.326325542479758,-9.771159430571766,-16.4661865234375,5356.25390625,True
1599561160.31968,0.0,10,0.5,0.5,-8.603380859375001,-0.1005,-0.0155,-0.2505,-0.0014175487350040806,10,1,100,0.07130659203962733,-10,-1,-100,15027.757290117792,-0.006527887604963231,-0.00011881469168638374,0.9999786860561009,20.126359046046502,0.01615782875054914,22.326325542479758,-9.771159430571766,-16.4661865234375,5356.25390625,True
1599561160.3535557,0.0,10,0.5,0.5,-7.865124964904785,-0.1005,-0.0155,-0.2505,0.011919742765737757,10,1,100,0.08263060253205397,-10,-1,-100,15027.33932299004,-0.006629954645054422,2.4504604532917373e-06,0.999978021606175,20.5424284756189,0.016765163166161067,23.65627366223223,-10.14273537054935,-18.53997802734375,5356.25390625,True
1599561160.3834767,0.0,10,0.5,0.5,-7.097869749450685,-0.1005,-0.0155,-0.2505,0.025133202115907544,10,1,100,0.08752679118553465,-10,-1,-100,15026.736786684138,-0.006766336839260029,0.00023267296094785526,0.9999770810118954,21.230282263637957,0.017781589301719403,25.79492724244579,-10.70007678355595,-22.16680908203125,5356.25390625,True
1599561160.4154165,0.0,10,0.5,0.5,-7.987000791931152,-0.1005,-0.0155,-0.2505,0.0021535717051090492,10,1,100,0.07399660580206961,-10,-1,-100,15026.736786684138,-0.006766336839260029,0.00023267296094785526,0.9999770810118954,21.230282263637957,0.017781589301719403,25.79492724244579,-10.70007678355595,-22.16680908203125,5356.25390625,True
1599561160.443552,0.0,10,0.5,0.5,-6.47809237060547,-0.1005,-0.0155,-0.2505,0.03400832065824158,10,1,100,0.08555614929533686,-10,-1,-100,15026.077608969877,-0.006870666046842776,0.0005217701789484543,0.9999762605701963,21.94641994296984,0.01886906969763708,28.057375517008186,-11.257385321696054,-26.4129638671875,5356.25390625,True
1599561160.480417,0.0,10,0.5,0.5,-6.402297355651856,-0.1005,-0.0155,-0.2505,0.029642272001090077,10,1,100,0.08100241722981572,-10,-1,-100,15025.591282095877,-0.0069232608205957785,0.0007441402557488335,0.9999757570635848,22.40707623976416,0.01958817966437551,29.594212999753786,-11.628902892731483,-29.587799072265625,5356.25390625,True
1599561160.5153627,0.0,10,0.5,0.5,-7.168664041137696,-0.1005,-0.0155,-0.2505,0.007512334735266378,10,1,100,0.07582961992315718,-10,-1,-100,15025.591282095877,-0.0069232608205957785,0.0007441402557488335,0.9999757570635848,22.40707623976416,0.01958817966437551,29.594212999753786,-11.628902892731483,-29.587799072265625,5356.25390625,True
1599561160.543616,0.0,10,0.5,0.5,-5.931148303222657,-0.1005,-0.0155,-0.2505,0.034393512898989134,10,1,100,0.07843236211986762,-10,-1,-100,15025.107884929399,-0.006946301808183372,0.0009875658078595,0.9999753864995701,22.836380609664,0.020268006246577725,31.127450011582674,-12.000401946165184,-33.0379638671875,5356.25390625,True
1599561160.5755265,0.0,10,0.5,0.5,-6.122854046630859,-0.1005,-0.0155,-0.2505,0.024383780454662732,10,1,100,0.07677380900652002,-10,-1,-100,15024.863745070528,-0.006951583215586787,0.0011167142897877344,0.9999752139128208,23.03395022752403,0.02058204688866503,31.884104362185866,-12.186144373398086,-34.866241455078125,5356.25390625,True
1599561160.6044533,0.0,10,0.5,0.5,-5.19359295501709,-0.1005,-0.0155,-0.2505,0.04183779549410714,10,1,100,0.07579412197792505,-10,-1,-100,15024.376441066503,-0.006946991781018847,0.0013915888608561238,0.9999749010778405,23.38322476149372,0.021132626339100846,33.35718604170005,-12.557615307677597,-38.72930908203125,5356.25390625,True
1599561160.6363428,0.0,10,0.5,0.5,-5.4125615402221685,-0.1005,-0.0155,-0.2505,0.03006329257622635,10,1,100,0.07459571220874547,-10,-1,-100,15024.135230459622,-0.0069315421115317645,0.0015330608047988865,0.999974801406778,23.530087588958782,0.02135851833186661,34.06466540288558,-12.743344056828365,-40.764129638671875,5356.25390625,True
1599561160.670254,0.0,10,0.5,0.5,-3.5970059143066417,-0.1005,-0.0155,-0.2505,0.06515565435769,10,1,100,0.06696759106875563,-10,-1,-100,15023.342262196937,-0.006847783442992174,0.0019791914286724447,0.9999745950088965,23.828848872223684,0.02177618359148076,36.01034623212304,-13.300507837889937,-47.28155517578125,5356.25390625,True
1599561160.704194,0.0,10,0.5,0.5,-3.5391806365966803,-0.1005,-0.0155,-0.2505,0.0548391355344458,10,1,100,0.06532416793141915,-10,-1,-100,15022.79343424982,-0.006756500962345907,0.002289181151102351,0.9999745543484612,23.88321954810173,0.021793108683348623,37.10385004237257,-13.671936233100816,-51.970703125,5356.25390625,True
1599561160.737106,0.0,10,0.5,0.5,-4.6676161621093755,-0.1005,-0.0155,-0.2505,0.02404581411047061,10,1,100,0.07445143240835439,-10,-1,-100,15022.79343424982,-0.006756500962345907,0.002289181151102351,0.9999745543484612,23.88321954810173,0.021793108683348623,37.10385004237257,-13.671936233100816,-51.970703125,5356.25390625,True
1599561160.7669592,0.0,10,0.5,0.5,-2.878781393432618,-0.1005,-0.0155,-0.2505,0.0575498548911734,10,1,100,0.060544545321632684,-10,-1,-100,15022.242652458255,-0.006630083657809268,0.0025918937871176905,0.9999746617176292,23.81711093365436,0.021591507834102765,38.00994297104979,-14.043359895713653,-56.93548583984375,5356.25390625,True
1599561160.8048604,0.0,10,0.5,0.5,-3.1675818969726564,-0.1005,-0.0155,-0.2505,0.04440064206846815,10,1,100,0.06513418846730704,-10,-1,-100,15021.936011696933,-0.00655710157536303,0.0027456668636450703,0.99997473254698,23.739814999333536,0.021412869347386686,38.38945867783883,-14.229071671860615,-59.521148681640625,5356.25390625,True
1599561160.841759,0.0,10,0.5,0.5,-1.8812618499755864,-0.1005,-0.0155,-0.2505,0.0632332321326631,10,1,100,0.05371992804078351,-10,-1,-100,15021.386207007105,-0.006387321095848266,0.003054846364155464,0.9999749347073205,23.452510862201773,0.02087303273845985,38.9186875194982,-14.600498872346504,-64.89901733398438,5356.25390625,True
1599561160.8776639,0.0,10,0.5,0.5,-1.1892844360351562,-0.1005,-0.0155,-0.2505,0.064442595971262,10,1,100,0.0485205351370216,-10,-1,-100,15020.771947822883,-0.006186195215095869,0.0033448122121445332,0.999975271304259,23.014530870289757,0.02014520842157283,39.16751376571691,-14.971936270646317,-70.55258178710938,5356.25390625,True
1599561160.9075832,0.0,10,0.5,0.5,-0.46627001800537093,-0.1005,-0.0155,-0.2505,0.06727356209397087,10,1,100,0.04323779794259004,-10,-1,-100,15020.155736229732,-0.005956019627728938,0.0036320106328825994,0.9999756668684278,22.41509777443855,0.019273922001276082,39.09799749611191,-15.343388381765608,-76.48159790039062,5356.25390625,True
1599561160.9414933,0.0,10,0.5,0.5,0.2908905532836914,-0.1005,-0.0155,-0.2505,0.06767028584507392,10,1,100,0.03816328147022639,-10,-1,-100,15019.544406529865,-0.0057015421836355655,0.0038944200527971464,0.9999761626704812,21.60206815773558,0.018283323627414944,38.59641983089443,-15.714858387328588,-82.68637084960938,5356.25390625,True
1599561160.9754035,0.0,10,0.5,0.5,-0.07005354614257808,-0.1005,-0.0155,-0.2505,0.05540138104124575,10,1,100,0.048574671591709424,-10,-1,-100,15019.235812024446,-0.005565980280652694,0.004019163271601078,0.9999764328173497,21.112859018758847,0.017764633808365616,38.17040250301475,-15.90060039972257,-85.89212036132812,5356.25390625,True
1599561161.0063202,0.0,10,0.5,0.5,1.4935089218139648,-0.1005,-0.0155,-0.2505,0.06864333633808707,10,1,100,0.030646851120924568,-10,-1,-100,15018.557099621277,-0.005281003420780111,0.004250687516424298,0.999977021065238,19.97088738939283,0.0167236245764567,36.953693792579045,-16.27209680845185,-92.43529510498047,5356.25390625,True
1599561161.040229,0.0,10,0.5,0.5,1.0805558696746826,-0.1005,-0.0155,-0.2505,0.05733953359878792,10,1,100,0.04270218340114526,-10,-1,-100,15018.253387681674,-0.005132951823463598,0.004356337263099277,0.9999773373088152,20.18591953741268,0.016937510999819178,37.78019624721186,-16.457843517791673,-95.72909545898438,5356.25390625,True
1599561161.0801263,0.0,10,0.5,0.5,4.8815551868438725,-0.1005,-0.0155,-0.2505,0.08613635763551382,10,1,100,-0.011123161211401549,-10,-1,-100,15016.888149891514,-0.004510514101369872,0.0047122925639449505,0.9999787245543442,22.806747813757276,0.019702631401775222,44.62285850671908,-17.200739382521878,-108.71562194824219,5356.25390625,True
1599561161.1155396,0.0,10,0.5,0.5,1.7163849254608154,-0.1005,-0.0155,-0.2505,0.050783138692230716,10,1,100,0.05089601231187344,-10,-1,-100,15016.888149891514,-0.004510514101369872,0.0047122925639449505,0.9999787245543442,22.806747813757276,0.019702631401775222,44.62285850671908,-17.200739382521878,-108.71562194824219,5356.25390625,True
1599561161.1444616,0.0,10,0.5,0.5,5.0080884723663335,-0.1005,-0.0155,-0.2505,0.07237791785490177,10,1,100,-0.0017607069605149947,-10,-1,-100,15015.83931865252,-0.004033743534854013,0.00490668110289939,0.9999798264933396,24.158742102289796,0.0214840640100861,48.807637213384915,-17.7578073563814,-117.86503601074219,5356.25390625,True
1599561161.1793685,0.0,10,0.5,0.5,2.8065932750701905,-0.1005,-0.0155,-0.2505,0.05315516538338327,10,1,100,0.04566401388702001,-10,-1,-100,15015.83931865252,-0.004033743534854013,0.00490668110289939,0.9999798264933396,24.158742102289796,0.0214840640100861,48.807637213384915,-17.7578073563814,-117.86503601074219,5356.25390625,True
1599561161.2192624,0.0,10,0.5,0.5,4.909760451126099,-0.1005,-0.0155,-0.2505,0.06382279737454262,10,1,100,0.010469044317934481,-10,-1,-100,15015.095176112372,-0.0037159288820086847,0.005001976089420162,0.9999805858654179,24.886456458904068,0.022493685946630877,51.33519933222626,-18.129141710044035,-123.6230697631836,5356.25390625,True
1599561161.2591565,0.0,10,0.5,0.5,5.474072125244141,-0.1005,-0.0155,-0.2505,0.062368031176934034,10,1,100,0.009306960449588765,-10,-1,-100,15014.352986776852,-0.0034186877681944136,0.005073876235481445,0.9999812840018011,25.425931536159283,0.023244619845259967,53.528449246149066,-18.500447208536283,-129.10580444335938,5356.25390625,True
1599561161.2930646,0.0,10,0.5,0.5,6.887618233489991,-0.1005,-0.0155,-0.2505,0.061367570802217775,10,1,100,-0.010538910729061435,-10,-1,-100,15013.237749475054,-0.0029703582284296513,0.0051288341234010095,0.9999824358620153,25.88900763031838,0.023815713388370397,56.153955684348674,-19.057368695447945,-136.81350708007812,5356.25390625,True
1599561161.321988,0.0,10,0.5,0.5,5.894166661834717,-0.1005,-0.0155,-0.2505,0.05697225515945899,10,1,100,0.01873189861223804,-10,-1,-100,15012.863725077128,-0.0028313670807964134,0.005137716230147712,0.9999827934681638,25.964347810888817,0.02386472943310296,56.86933185671831,-19.243003083554967,-139.24493408203125,5356.25390625,True
1599561161.3548994,0.0,10,0.5,0.5,6.197051053619385,-0.1005,-0.0155,-0.2505,0.056546774168347504,10,1,100,0.017232408179755385,-10,-1,-100,15012.49067710177,-0.002693865772834406,0.005140905997308659,0.9999831569445181,26.03264015177279,0.02387376681482466,57.57241889680011,-19.428635424278962,-141.6074981689453,5356.25390625,True
1599561161.3888097,0.0,10,0.5,0.5,8.024098588180543,-0.1005,-0.0155,-0.2505,0.05437638829620259,10,1,100,-0.011935094161279965,-10,-1,-100,15011.308057011454,-0.0023060574149031195,0.0051232657154528525,0.9999842169992524,26.05891856076272,0.02355495872797731,59.29338093984712,-19.98552675875137,-148.28172302246094,5356.25390625,True
1599561161.640717,0.0,10,0.5,0.5,6.433661835098267,-0.1005,-0.0155,-0.2505,0.05621710932701857,10,1,100,0.02656305219099264,-10,-1,-100,15011.308057011454,-0.0023060574149031195,0.0051232657154528525,0.9999842169992524,26.05891856076272,0.02355495872797731,59.29338093984712,-19.98552675875137,-148.28172302246094,5356.25390625,True
1599561161.667645,0.0,10,0.5,0.5,7.935842792129518,-0.1005,-0.0155,-0.2505,0.052370404508087415,10,1,100,7.47989876227137e-05,-10,-1,-100,15010.503367970465,-0.0020672591645874536,0.005087922059688471,0.9999849196306217,25.95579765021928,0.023111024547382026,60.16352821260604,-20.35678785956725,-152.38671875,5356.25390625,True
1599561161.699559,0.0,10,0.5,0.5,6.975231562423707,-0.1005,-0.0155,-0.2505,0.05594233303409991,10,1,100,0.023710298525511063,-10,-1,-100,15010.503367970465,-0.0020672591645874536,0.005087922059688471,0.9999849196306217,25.95579765021928,0.023111024547382026,60.16352821260604,-20.35678785956725,-152.38671875,5356.25390625,True
1599561161.7365274,0.0,10,0.5,0.5,9.620107358169555,-0.1005,-0.0155,-0.2505,0.04462780688020346,10,1,100,-0.022570281584715832,-10,-1,-100,15008.820746929967,-0.001648314331194724,0.004984897966510513,0.9999862168310767,25.554164807152258,0.021894033541146572,61.40955877257358,-21.09932173149192,-159.76953125,5356.25390625,True
1599561161.7644606,0.0,10,0.5,0.5,8.423049926376343,-0.1005,-0.0155,-0.2505,0.05076491767277562,10,1,100,0.008728793440650987,-10,-1,-100,15008.384222584311,-0.0015541610094352678,0.004946960510041561,0.9999865559922637,25.426928121506435,0.021556393277603912,61.645678979920504,-21.28495863740953,-161.4429931640625,5356.25390625,True
1599561161.8502297,0.0,10,0.5,0.5,9.16460302810669,-0.1005,-0.0155,-0.2505,0.04663960292046261,10,1,100,-0.0009597363086090889,-10,-1,-100,15007.509221250308,-0.0013824547809084644,0.004875019066030013,0.9999871614215277,25.154975183774912,0.020877524062840155,62.05894209787197,-21.65623606808131,-164.58297729492188,5356.25390625,True
1599561161.8841412,0.0,10,0.5,0.5,8.947808054351807,-0.1005,-0.0155,-0.2505,0.049158835915752486,10,1,100,0.007334704703492878,-10,-1,-100,15007.072697094525,-0.001303613339618921,0.004832700650676196,0.9999874727198744,25.013988403144282,0.02054484791038506,62.2446155240757,-21.841876671456845,-166.04959106445312,5356.25390625,True
1599561161.9200456,0.0,10,0.5,0.5,10.024895560455322,-0.1005,-0.0155,-0.2505,0.03876650470422155,10,1,100,-0.007812821285370313,-10,-1,-100,15005.760194610106,-0.001095749742992226,0.0047000228379521945,0.9999883544911028,24.591496836138376,0.0196149711203637,62.76754246494975,-22.39880400326719,-170.03579711914062,5356.25390625,True
1599561161.950114,0.0,10,0.5,0.5,9.074076781463623,-0.1005,-0.0155,-0.2505,0.051990516637402125,10,1,100,0.012799976643518774,-10,-1,-100,15005.760194610106,-0.001095749742992226,0.0047000228379521945,0.9999883544911028,24.591496836138376,0.0196149711203637,62.76754246494975,-22.39880400326719,-170.03579711914062,5356.25390625,True
1599561161.9860194,0.0,10,0.5,0.5,9.536131428527833,-0.1005,-0.0155,-0.2505,0.04660290186484186,10,1,100,0.006116835798130241,-10,-1,-100,15005.323670243728,-0.0010364467498794594,0.004651445324710153,0.9999886448527934,24.455798576642653,0.01933620867868379,62.943297385663136,-22.584447818721753,-171.22665405273438,5356.25390625,True
1599561162.026907,0.0,10,0.5,0.5,10.70337292098999,-0.1005,-0.0155,-0.2505,0.029256053351518915,10,1,100,-0.008770002935720386,-10,-1,-100,15003.448667639517,-0.0008483542318919602,0.0044500142538151264,0.9999897387814728,23.97279818415909,0.018419587736907588,63.74858023146256,-23.327024581613315,-175.30068969726562,5356.25390625,True
1599561162.0628138,0.0,10,0.5,0.5,10.021708862304687,-0.1005,-0.0155,-0.2505,0.04357199640115255,10,1,100,0.006007025261093871,-10,-1,-100,15003.00726072886,-0.0008130228384043734,0.00439765208205417,0.9999899997750125,23.8723876241612,0.018243879988285926,63.9918157773373,-23.512668128920026,-176.1468505859375,5356.25390625,True
1599561162.093732,0.0,10,0.5,0.5,10.367975009155273,-0.1005,-0.0155,-0.2505,0.037222813793957726,10,1,100,0.0029839916953040245,-10,-1,-100,15002.011165368254,-0.0007545614812959169,0.004292957784003924,0.999990500530098,23.70223663727465,0.01795790746807757,64.5492690933535,-23.883953051530547,-177.63232421875,5356.25390625,True
1599561162.1346219,0.0,10,0.5,0.5,10.259387969970705,-0.1005,-0.0155,-0.2505,0.04183647872368205,10,1,100,0.006086710761289931,-10,-1,-100,15001.571711710189,-0.0007308146915092752,0.004240446252660908,0.9999907422198792,23.63404655034638,0.01784720086655489,64.86904955161094,-24.069594204261367,-178.27162170410156,5356.25390625,True
1599561162.1749504,0.0,10,0.5,0.5,10.655975382232668,-0.1005,-0.0155,-0.2505,0.02873380586876585,10,1,100,0.0040139474064120485,-10,-1,-100,15000.069757083664,-0.000691217488149516,0.004074270063407882,0.999991461234462,23.50441844244267,0.01763751812660979,66.02203752853443,-24.62650934238784,-179.7760467529297,5356.25390625,True
1599561162.2118511,0.0,10,0.5,0.5,10.307533140563965,-0.1005,-0.0155,-0.2505,0.045264155749405094,10,1,100,0.007887373390259394,-10,-1,-100,15000.069757083664,-0.000691217488149516,0.004074270063407882,0.999991461234462,23.50441844244267,0.01763751812660979,66.02203752853443,-24.62650934238784,-179.7760467529297,5356.25390625,True
1599561162.2527401,0.0,10,0.5,0.5,-115.7978508140564,-0.1005,-0.0155,-0.2505,0.032831724242257866,10,1,100,0.007267929109283948,-10,-1,-100,14999.065849219216,-0.0006862145740431564,0.0039619759124362,0.9999919158955374,23.485226012375374,0.017591730118841353,66.97369458859194,-24.99777777325916,179.56564331054688,5356.25390625,True
1599561162.3001611,0.0,10,0.5,0.5,-26.153319251251226,-0.1005,-0.0155,-0.2505,0.025278395469958977,10,1,100,0.009920692625421371,-10,-1,-100,14997.56096482079,-0.0007063437738800568,0.003792015263384899,0.999992560821687,23.66809330343475,0.017721400197797808,69.01608980554646,-25.554663058552887,179.09515380859375,5356.25390625,True
1599561162.339058,0.0,10,0.5,0.5,-26.76612505722046,-0.1005,-0.0155,-0.2505,0.022796187082354806,10,1,100,0.014184287033844962,-10,-1,-100,14995.990650936728,-0.00076375700105301,0.0036157655130641944,0.9999931714341842,23.923459109081666,0.017922015071828803,71.29904769103656,-26.111522267701666,178.96351623535156,5356.25390625,True
1599561162.37895,0.0,10,0.5,0.5,-27.340049205017092,-0.1005,-0.0155,-0.2505,0.04031273638193648,10,1,100,0.008409765042355724,-10,-1,-100,14995.990650936728,-0.00076375700105301,0.0036157655130641944,0.9999931714341842,23.923459109081666,0.017922015071828803,71.29904769103656,-26.111522267701666,178.96351623535156,5356.25390625,True
1599561162.4258294,0.0,10,0.5,0.5,-27.66597549972534,-0.1005,-0.0155,-0.2505,0.02001198718522206,10,1,100,0.018044150109837682,-10,-1,-100,14994.42033680412,-0.0008515902196199609,0.003432154774741014,0.9999937475343035,24.231370901298163,0.01817936701830607,73.77585517918406,-26.668354400447935,178.3456573486328,5356.25390625,True
1599561162.4647212,0.0,10,0.5,0.5,-28.249160586547855,-0.1005,-0.0155,-0.2505,0.03131487018494245,10,1,100,0.01325887964450753,-10,-1,-100,14993.855883196113,-0.0008879331995526168,0.0033689147303347395,0.9999939309756699,24.357733194339207,0.018292850735692846,74.68323898749357,-26.853958542615498,178.0045166015625,5356.25390625,True
1599561162.5115979,0.0,10,0.5,0.5,-28.163073332214356,-0.1005,-0.0155,-0.2505,0.008848153186449492,10,1,100,0.029952798327254157,-10,-1,-100,14991.717209508643,-0.0010726670690062294,0.0031081161148442987,0.9999945944851782,24.981228160537707,0.01892471456695905,78.74027282296989,-27.596337613600184,175.95187377929688,5356.25390625,True
1599561162.5544813,0.0,10,0.5,0.5,-29.22531586608887,-0.1005,-0.0155,-0.2505,0.03480953056857761,10,1,100,0.011511221940663927,-10,-1,-100,14991.717209508643,-0.0010726670690062294,0.0031081161148442987,0.9999945944851782,24.981228160537707,0.01892471456695905,78.74027282296989,-27.596337613600184,175.95187377929688,5356.25390625,True
1599561162.596366,0.0,10,0.5,0.5,-29.269007120513916,-0.1005,-0.0155,-0.2505,0.019839338526107093,10,1,100,0.0242709123012058,-10,-1,-100,14990.58341978304,-0.001188353479213431,0.0029730528509471273,0.999994874373241,25.358630073587364,0.019364347547516505,81.01942849289391,-27.96750183133644,174.51211547851562,5356.25390625,True
1599561162.6382577,0.0,10,0.5,0.5,-29.239314080810548,-0.1005,-0.0155,-0.2505,0.009258484070564208,10,1,100,0.03376679339804951,-10,-1,-100,14988.886153229862,-0.0013793971930175898,0.002755079586183364,0.9999952533886636,25.994191266334113,0.020199863035844628,84.72625012630755,-28.524211905212965,171.83547973632812,5356.25390625,True
