Timestamp,Input Throttle,horizon,dT,dt,Input Roll,Roll P,Roll I,Roll D,Input Pitch,Pitch P,Pitch I,Pitch D,Input Yaw,Yaw P,Yaw I,Yaw D,Altitude,Direction X,Direction Y,Direction Z,Drag X,Drag Y,Drag Z,Vertical Velocity,Roll,Mass,Has Fuel
1599563985.0032322,0.0,10,0.5,0.5,-11.641682067871095,-0.2,-0.02275,-0.001,-0.0003068393847232246,10,1,100,0.17497667835999692,-10,-1,-100,14994.000766735175,-0.01681149632928341,-7.477844746831824e-05,0.9998586740131599,28.644502552670694,0.02727512071272796,-87.50363772560323,27.008979637956816,-31.791595458984375,5356.25390625,True
1599563985.0491135,0.0,10,0.5,0.5,-11.774479204559327,-0.2,-0.02275,-0.001,8.8642678212905e-05,10,1,100,0.1819013429618387,-10,-1,-100,14995.574014572077,-0.016921543875065923,-6.710658385338261e-05,0.9998568181742776,28.426601120845536,0.02776379848429904,-85.04899468795057,26.451088850616756,-31.78973388671875,5356.25390625,True
1599563985.101968,0.0,10,0.5,0.5,-11.879093991851807,-0.2,-0.02275,-0.001,0.007113667244075821,10,1,100,0.17677355111744886,-10,-1,-100,14996.664837752702,-0.01695958758730551,3.792703289724822e-06,0.9998561758445481,28.284996638731243,0.028084863231997777,-83.4386076919492,26.079181192726,-31.9281005859375,5356.25390625,True
1599563985.151873,0.0,10,0.5,0.5,-12.011345929718017,-0.2,-0.02275,-0.001,2.4117800094050616e-05,10,1,100,0.17466513865222058,-10,-1,-100,14996.664837752702,-0.01695958758730551,3.792703289724822e-06,0.9998561758445481,28.284996638731243,0.028084863231997777,-83.4386076919492,26.079181192726,-31.9281005859375,5356.25390625,True
1599563985.194797,0.0,10,0.5,0.5,-12.06464944229126,-0.2,-0.02275,-0.001,0.009795316422912545,10,1,100,0.17962033290564228,-10,-1,-100,14997.694136082893,-0.016989217000893612,9.26183337669023e-05,0.9998556685479864,28.160906420960167,0.028411915928969737,-81.891018618817,25.707288452755424,-32.3201904296875,5356.25390625,True
1599563985.2406316,0.0,10,0.5,0.5,-11.87438584060669,-0.2,-0.02275,-0.001,0.03601599761527438,10,1,100,0.17560133847664436,-10,-1,-100,14999.68632299162,-0.016964171775709275,0.0004116545374642013,0.9998560133421742,27.971845280559727,0.029066234941164865,-78.99392192658306,24.963543218512637,-33.92156982421875,5356.25390625,True
1599563985.2915306,0.0,10,0.5,0.5,-11.888613866424562,-0.2,-0.02275,-0.001,0.016438930338406488,10,1,100,0.1767116283552984,-10,-1,-100,15000.169719408499,-0.016936074959187905,0.0005233398796379794,0.9998564374350685,27.935088087909943,0.02922289121661984,-78.3040269811931,24.777614713275288,-34.49346923828125,5356.25390625,True
1599563985.3427637,0.0,10,0.5,0.5,-11.587718585968018,-0.2,-0.02275,-0.001,0.049640373294944015,10,1,100,0.16543551785610455,-10,-1,-100,15001.617956985603,-0.016792625871485636,0.0009262275449648115,0.9998585649074949,27.840499052179155,0.029649254447768416,-76.28646875936754,24.219846654349908,-36.621551513671875,5356.25390625,True
1599563985.390639,0.0,10,0.5,0.5,-11.711282638549804,-0.2,-0.02275,-0.001,0.009444229516757278,10,1,100,0.18145968921348005,-10,-1,-100,15001.617956985603,-0.016792625871485636,0.0009262275449648115,0.9998585649074949,27.840499052179155,0.029649254447768416,-76.28646875936754,24.219846654349908,-36.621551513671875,5356.25390625,True
1599563985.4524727,0.0,10,0.5,0.5,-11.478514995574951,-0.2,-0.02275,-0.001,0.045857137726829186,10,1,100,0.16769996252304242,-10,-1,-100,15002.581818882842,-0.01665227142350758,0.0012564119581973154,0.999860551919831,27.783362815618183,0.02987703857420196,-74.96393869756552,23.848015155673334,-38.383758544921875,5356.25390625,True
1599563985.500343,0.0,10,0.5,0.5,-11.188208363342287,-0.2,-0.02275,-0.001,0.05254005728464042,10,1,100,0.1622595550979128,-10,-1,-100,15003.546655964572,-0.01646007979291407,0.0016161912280631507,0.9998632174948359,27.722198765370127,0.030037196101856352,-73.63543789605062,23.476194963218685,-40.421051025390625,5356.25390625,True
1599563985.5512412,0.0,10,0.5,0.5,-10.70591769104004,-0.2,-0.02275,-0.001,0.062466854748198554,10,1,100,0.15626499286553702,-10,-1,-100,15004.449968254776,-0.016231183578022345,0.0020319696597230464,0.999866200938385,27.648156992049017,0.03010814904318563,-72.27834755294603,23.10438649965346,-42.73297119140625,5356.25390625,True
1599563985.6010742,0.0,10,0.5,0.5,-10.163327215576173,-0.2,-0.02275,-0.001,0.06905813965962397,10,1,100,0.1476762563489955,-10,-1,-100,15005.415779525414,-0.015945644287331348,0.0024679625729326585,0.9998698143203446,27.55105804508224,0.030067217049998075,-70.8681211487615,22.732590738471636,-45.320068359375,5356.25390625,True
1599563985.6519382,0.0,10,0.5,0.5,-9.251791030883789,-0.2,-0.02275,-0.001,0.10369713839878712,10,1,100,0.11872751035276911,-10,-1,-100,15006.738028438878,-0.015423814462464724,0.0031769796008704774,0.9998759986858586,27.337092159957436,0.029748274338528422,-68.596609538023,22.1749247043429,-49.71636962890625,5356.25390625,True
1599563985.7029808,0.0,10,0.5,0.5,-8.557494319152834,-0.2,-0.02275,-0.001,0.08769672964972289,10,1,100,0.12503222961287172,-10,-1,-100,15007.575906548183,-0.01500813549960949,0.0036731975586428373,0.9998806246190195,27.130159285257605,0.029336363140897603,-66.93864123933868,21.80316893787059,-52.991119384765625,5356.25390625,True
1599563985.7568367,0.0,10,0.5,0.5,-8.163881987762451,-0.2,-0.02275,-0.001,0.06625115719278438,10,1,100,0.1412403867536629,-10,-1,-100,15008.059299316374,-0.014779393399658546,0.0039260899713502,0.9998830708379232,27.002139759384487,0.02906539120337464,-66.05612730236753,21.61729877453569,-54.731719970703125,5356.25390625,True
1599563985.8037114,0.0,10,0.5,0.5,-6.580403764343262,-0.2,-0.02275,-0.001,0.1503557350384388,10,1,100,0.04837144170308966,-10,-1,-100,15009.737982405582,-0.013729169061403432,0.004917384294741128,0.9998936589700834,26.2834290421027,0.02753637391481382,-62.09189432904897,20.873878335763514,-62.382843017578125,5356.25390625,True
1599563985.852581,0.0,10,0.5,0.5,-6.1055539497375495,-0.2,-0.02275,-0.001,0.0791497253747872,10,1,100,0.12024537366604063,-10,-1,-100,15010.157896235469,-0.01343073441346905,0.005167239005958681,0.9998964521460059,26.042304873792393,0.027046016006872935,-60.97589903506832,20.68804098849943,-64.46768188476562,5356.25390625,True
1599563985.9024477,0.0,10,0.5,0.5,-4.703898308563233,-0.2,-0.02275,-0.001,0.12936962200997212,10,1,100,0.04507359244959783,-10,-1,-100,15011.354163579526,-0.012479106623795602,0.005847068702420871,0.9999050373337767,25.13796538314153,0.025350149737208536,-57.27654723409,20.130579864593145,-71.13629150390625,5356.25390625,True
1599563985.9543085,0.0,10,0.5,0.5,-3.6692603012084963,-0.2,-0.02275,-0.001,0.11142697030347573,10,1,100,0.06204348469501228,-10,-1,-100,15012.13051539415,-0.011772183580185044,0.006297507191729753,0.9999108745767918,24.36348905676982,0.024074093258762357,-54.490019357686194,19.758986320514545,-75.92626953125,5356.25390625,True
1599563986.0051725,0.0,10,0.5,0.5,-3.0863986961364747,-0.2,-0.02275,-0.001,0.08813101836637795,10,1,100,0.09324675568226432,-10,-1,-100,15012.550428843591,-0.011417628811189849,0.00649063253237009,0.999913751001385,23.918828854572734,0.023408375601600438,-52.99395957744611,19.573204594358433,-78.42498779296875,5356.25390625,True
1599563986.0570364,0.0,10,0.5,0.5,-2.486339306640625,-0.2,-0.02275,-0.001,0.08981451428708548,10,1,100,0.08809990494106287,-10,-1,-100,15012.910773773212,-0.011053100788075771,0.006677074221954732,0.9999166193452348,23.433001605904053,0.022731746749456952,-51.426239485645944,19.38743334142921,-80.99264526367188,5356.25390625,True
1599563986.119867,0.0,10,0.5,0.5,-0.19888952102661125,-0.2,-0.02275,-0.001,0.14517045143383067,10,1,100,-0.04760366524329722,-10,-1,-100,15014.461525374674,-0.009492750204286924,0.007345579636945516,0.999927962481976,21.17398023212314,0.020150666197155057,-44.692880075288485,18.644446492043233,-91.95272827148438,5356.25390625,True
1599563986.1687384,0.0,10,0.5,0.5,-0.10376030273437498,-0.2,-0.02275,-0.001,0.0788076716411536,10,1,100,0.10778610372728308,-10,-1,-100,15014.461525374674,-0.009492750204286924,0.007345579636945516,0.999927962481976,21.17398023212314,0.020150666197155057,-44.692880075288485,18.644446492043233,-91.95272827148438,5356.25390625,True
1599563986.6131692,0.0,10,0.5,0.5,1.1770285163879395,-0.2,-0.02275,-0.001,0.10857440353544939,10,1,100,0.016881875100858618,-10,-1,-100,15015.175378160086,-0.008671740002463227,0.0076123966541335915,0.99993342395507,22.154508530932826,0.02117234786945329,-45.83349595094388,18.27297570715554,-97.84676361083984,5356.25390625,True
1599563986.661043,0.0,10,0.5,0.5,3.720184932136536,-0.2,-0.02275,-0.001,0.12452372971110887,10,1,100,-0.08274744545546553,-10,-1,-100,15016.602109868778,-0.007025406355290688,0.007996370363087391,0.9999433492586266,23.924871761245747,0.023492104377875998,-47.48879020104823,17.529991771822694,-110.02091217041016,5356.25390625,True
1599563986.719922,0.0,10,0.5,0.5,4.441969286346436,-0.2,-0.02275,-0.001,0.09380049657689246,10,1,100,0.03670932603707412,-10,-1,-100,15016.95952467015,-0.006621759132379075,0.008062434996923662,0.9999455732428206,24.25113551612842,0.024004723218360783,-47.627546022774965,17.344235440244095,-113.04666137695312,5356.25390625,True
1599563986.7658017,0.0,10,0.5,0.5,5.151080425262451,-0.2,-0.02275,-0.001,0.0936353009769447,10,1,100,0.03165494745713457,-10,-1,-100,15017.316941568395,-0.006215319497122726,0.008118132839773308,0.9999477314953739,24.52090769433681,0.024459598319893142,-47.642772116813354,17.15847555969852,-116.01619720458984,5356.25390625,True
1599563986.813187,0.0,10,0.5,0.5,6.420023501777648,-0.2,-0.02275,-0.001,0.09856403309354725,10,1,100,-0.013612145250957094,-10,-1,-100,15017.966345334193,-0.005440869363103709,0.00821089126721136,0.9999514879258753,25.007861029035553,0.02527610532869998,-47.53906912650823,16.786947112376435,-121.76067352294922,5356.25390625,True
1599563986.8620563,0.0,10,0.5,0.5,8.674497903060912,-0.2,-0.02275,-0.001,0.09378040524273502,10,1,100,-0.10916413628969737,-10,-1,-100,15019.27101519506,-0.0038745677202439554,0.008249580654816032,0.9999584652094311,25.460035800580346,0.02604423591866458,-46.26039311444656,16.04387855227823,-132.43255615234375,5356.25390625,True
1599563986.9079366,0.0,10,0.5,0.5,8.792377822494506,-0.2,-0.02275,-0.001,0.09010667382857644,10,1,100,0.04667626641028384,-10,-1,-100,15019.27101519506,-0.0038745677202439554,0.008249580654816032,0.9999584652094311,25.460035800580346,0.02604423591866458,-46.26039311444656,16.04387855227823,-132.43255615234375,5356.25390625,True
1599563986.9558065,0.0,10,0.5,0.5,10.83888705406189,-0.2,-0.02275,-0.001,0.08536625484362001,10,1,100,-0.10915783556514415,-10,-1,-100,15020.50635312975,-0.002464751394186379,0.008204886893023296,0.9999633017424377,25.281493021627774,0.025609563773298344,-43.8123647027459,15.30084399911821,-142.00291442871094,5356.25390625,True
1599563987.0056758,0.0,10,0.5,0.5,10.968115058135988,-0.2,-0.02275,-0.001,0.08998841229000053,10,1,100,0.030964962101224548,-10,-1,-100,15020.50635312975,-0.002464751394186379,0.008204886893023296,0.9999633017424377,25.281493021627774,0.025609563773298344,-43.8123647027459,15.30084399911821,-142.00291442871094,5356.25390625,True
1599563987.0545442,0.0,10,0.5,0.5,11.960832838821414,-0.2,-0.02275,-0.001,0.07999246921774036,10,1,100,-0.0452619536925456,-10,-1,-100,15021.157715454348,-0.0017781685222521965,0.00811323349486086,0.9999655061845705,25.008698469353952,0.02502395320074195,-42.28926427611198,14.929356038735122,-146.3753204345703,5356.25390625,True
1599563987.1044083,0.0,10,0.5,0.5,13.671535120391846,-0.2,-0.02275,-0.001,0.07230632321220822,10,1,100,-0.11101252744704329,-10,-1,-100,15022.271965846303,-0.0005632830424366284,0.007959340302064794,0.9999681653003609,24.278164595612914,0.023450128818314663,-39.014709507743554,14.18645640851632,-154.29205322265625,5356.25390625,True
1599563987.1552742,0.0,10,0.5,0.5,13.792031421470643,-0.2,-0.02275,-0.001,0.08773033685660794,10,1,100,0.009665174838510853,-10,-1,-100,15022.271965846303,-0.0005632830424366284,0.007959340302064794,0.9999681653003609,24.278164595612914,0.023450128818314663,-39.014709507743554,14.18645640851632,-154.29205322265625,5356.25390625,True
1599563987.2011507,0.0,10,0.5,0.5,14.605222357940676,-0.2,-0.02275,-0.001,0.07880986791473522,10,1,100,-0.05204369560619492,-10,-1,-100,15022.85692447517,-8.167968678261429e-06,0.00787827879355779,0.9999689658467084,23.86988179976362,0.02257478517027028,-37.35618632607511,13.815047168539868,-157.83670043945312,5356.25390625,True
1599563987.2560048,0.0,10,0.5,0.5,15.360560675811769,-0.2,-0.02275,-0.001,0.07963310390238164,10,1,100,-0.05418302226837722,-10,-1,-100,15023.38426716812,0.0005099181669730924,0.007812237891351268,0.9999693539917069,23.41802686186622,0.021665013025986352,-35.66561363010217,13.44366483652833,-161.10528564453125,5356.25390625,True
1599563987.3171794,0.0,10,0.5,0.5,16.607688461875917,-0.2,-0.02275,-0.001,0.06617010542926552,10,1,100,-0.10690055062899473,-10,-1,-100,15024.432117655058,0.0014540419684216678,0.0076300878986337575,0.9999698333052919,22.444586817282953,0.01988789551471974,-32.297956340929254,12.700975932856771,-166.81582641601562,5356.25390625,True
1599563987.367041,0.0,10,0.5,0.5,17.195176514053347,-0.2,-0.02275,-0.001,0.07636412677401772,10,1,100,-0.059303302459655816,-10,-1,-100,15024.895985117531,0.0018733659760795415,0.007557697920541566,0.9999696853915432,21.95068334843937,0.019073505437463948,-30.66535933838176,12.3296649222532,-169.25711059570312,5356.25390625,True
1599563987.4149137,0.0,10,0.5,0.5,17.711671674728397,-0.2,-0.02275,-0.001,0.07925584281334996,10,1,100,-0.060614692338806266,-10,-1,-100,15025.419423930929,0.002261265951309591,0.007518806161482844,0.999969176640062,21.467884035730368,0.01833063349674008,-29.08923423186543,11.958372802328167,-171.42208862304688,5356.25390625,True
1599563987.4697669,0.0,10,0.5,0.5,18.17795054359436,-0.2,-0.02275,-0.001,0.07841999522182003,10,1,100,-0.06144444176537011,-10,-1,-100,15025.883292558254,0.0026158674384224407,0.007476515742864036,0.9999686289828753,21.006465043548275,0.017667636581282606,-27.58166259665975,11.587096726392307,-173.3113555908203,5356.25390625,True
1599563987.52266,0.0,10,0.5,0.5,18.571517640304567,-0.2,-0.02275,-0.001,0.08089760826557234,10,1,100,-0.06189320821129354,-10,-1,-100,15026.34325549414,0.002937693377276509,0.007461255818290286,0.9999678492927836,20.575204563957758,0.01708771751911318,-26.151100365633727,11.215834135737246,-174.9244384765625,5356.25390625,True
1599563987.5714967,0.0,10,0.5,0.5,18.644801024627686,-0.2,-0.02275,-0.001,0.08234923761547405,10,1,100,-0.030250858803033003,-10,-1,-100,15026.34325549414,0.002937693377276509,0.007461255818290286,0.9999678492927836,20.575204563957758,0.01708771751911318,-26.151100365633727,11.215834135737246,-174.9244384765625,5356.25390625,True
1599563987.6223993,0.0,10,0.5,0.5,19.191750329208375,-0.2,-0.02275,-0.001,0.08532609096746577,10,1,100,-0.09123209092682227,-10,-1,-100,15027.20458919229,0.0034877810675841125,0.007488910828468911,0.9999658752166636,19.832377976696755,0.01617237982636445,-23.540472533959978,10.47334016535865,-177.32244873046875,5356.25390625,True
1599563987.6682363,0.0,10,0.5,0.5,19.327592263412477,-0.2,-0.02275,-0.001,0.08380834018394281,10,1,100,-0.04958225374836976,-10,-1,-100,15027.372558301897,0.0036055431170505287,0.007500681675575267,0.9999653693169744,19.675859861755434,0.015991571935589338,-22.941293257956872,10.287721509732062,-177.74954223632812,5356.25390625,True
1599563987.7210972,0.0,10,0.5,0.5,19.510563260269166,-0.2,-0.02275,-0.001,0.08831884571493619,10,1,100,-0.061436154525936704,-10,-1,-100,15027.77099877689,0.003816572418034709,0.0075528040037959755,0.9999641938222879,19.40157946944439,0.015682342267142088,-21.806150001462644,9.91648824370198,-178.39646911621094,5356.25390625,True
1599563987.7829297,0.0,10,0.5,0.5,19.647724993896485,-0.2,-0.02275,-0.001,0.09515094733513411,10,1,100,-0.06904364505275319,-10,-1,-100,15028.337410941604,0.004074099205185284,0.007662593839443657,0.9999623424766146,19.09216068605902,0.015335778457401486,-20.254686081839974,9.35964482513645,-178.84938049316406,5356.25390625,True
1599563987.8347912,0.0,10,0.5,0.5,19.678963308334353,-0.2,-0.02275,-0.001,0.09535861374217332,10,1,100,-0.05790335484905968,-10,-1,-100,15028.735851917998,0.004203698936162945,0.0077644266974163665,0.9999610205369579,18.956442751740276,0.015171681872021683,-19.313819488148553,8.988417548918731,-178.80621337890625,5356.25390625,True
1599563987.8816657,0.0,10,0.5,0.5,19.706284605789186,-0.2,-0.02275,-0.001,0.08518876182478059,10,1,100,-0.04521834744806767,-10,-1,-100,15028.735851917998,0.004203698936162945,0.0077644266974163665,0.9999610205369579,18.956442751740276,0.015171681872021683,-19.313819488148553,8.988417548918731,-178.80621337890625,5356.25390625,True
1599563987.9355528,0.0,10,0.5,0.5,19.610965327072144,-0.2,-0.02275,-0.001,0.10626865242081987,10,1,100,-0.05960754020617251,-10,-1,-100,15029.241715987679,0.004332391294909277,0.007955874131219565,0.9999589663843591,18.85915527577051,0.01500545405549916,-18.025319302267828,8.431574580097204,-178.22390747070312,5356.25390625,True
1599563987.9933987,0.0,10,0.5,0.5,19.38516604270935,-0.2,-0.02275,-0.001,0.11243287138974206,10,1,100,-0.052918620272851255,-10,-1,-100,15029.744651784073,0.004386693144063386,0.008185558272603822,0.9999568758496667,18.885760987682914,0.014910609620910507,-16.859471292159,7.8747240323867524,-177.02064514160156,5356.25390625,True
1599563988.040313,0.0,10,0.5,0.5,19.286447175216676,-0.2,-0.02275,-0.001,0.09921273356393542,10,1,100,-0.04727292670227793,-10,-1,-100,15029.850121389492,0.004383124132920417,0.00827353438223696,0.9999561674651851,18.920749430588685,0.014890169843990057,-16.492829111939233,7.689104523664594,-176.48153686523438,5356.25390625,True
1599563988.0881848,0.0,10,0.5,0.5,18.882256633377075,-0.2,-0.02275,-0.001,0.1218656881394056,10,1,100,-0.0406111452978576,-10,-1,-100,15030.291533899144,0.00431800390024513,0.00855871017934959,0.9999540506055182,19.095978978440716,0.01484813069722121,-15.440743359113185,7.132234920439115,-174.45033264160156,5356.25390625,True
1599563988.138051,0.0,10,0.5,0.5,18.883209246826173,-0.2,-0.02275,-0.001,0.09345785386424854,10,1,100,-0.04726119961768317,-10,-1,-100,15030.291533899144,0.00431800390024513,0.00855871017934959,0.9999540506055182,19.095978978440716,0.01484813069722121,-15.440743359113185,7.132234920439115,-174.45033264160156,5356.25390625,True
1599563988.1909091,0.0,10,0.5,0.5,18.1382418636322,-0.2,-0.02275,-0.001,0.1399026360655437,10,1,100,-0.022223885815931026,-10,-1,-100,15030.836463509942,0.004089637208563146,0.0089799629272242,0.9999513163816167,19.55154399746011,0.014872916809082799,-14.164002590068343,6.389707974938618,-170.7765350341797,5356.25390625,True
1599563988.2387881,0.0,10,0.5,0.5,18.126052069854737,-0.2,-0.02275,-0.001,0.0979252894032476,10,1,100,-0.0451089643932807,-10,-1,-100,15030.836463509942,0.004089637208563146,0.0089799629272242,0.9999513163816167,19.55154399746011,0.014872916809082799,-14.164002590068343,6.389707974938618,-170.7765350341797,5356.25390625,True
1599563988.284666,0.0,10,0.5,0.5,17.656325637054444,-0.2,-0.02275,-0.001,0.12329394440345709,10,1,100,-0.026491353534203423,-10,-1,-100,15031.110880891676,0.00392013796003469,0.009209289646386624,0.9999499094967623,19.828980160526385,0.014887900323598068,-13.53062400918932,6.018426922740995,-168.5258331298828,5356.25390625,True
1599563988.3330846,0.0,10,0.5,0.5,16.564088071441653,-0.2,-0.02275,-0.001,0.15081710137105622,10,1,100,0.010342703978652779,-10,-1,-100,15031.531786077656,0.0034313326305693568,0.009666572912778872,0.9999473902783588,20.4353030983159,0.014916833721032138,-12.224338432496324,5.275828345727501,-163.1974639892578,5356.25390625,True
1599563988.3889365,0.0,10,0.5,0.5,15.915316890335085,-0.2,-0.02275,-0.001,0.12981021302399404,10,1,100,-0.003977640247982667,-10,-1,-100,15031.739796915208,0.003117851247939006,0.009889584037057293,0.9999462361203075,20.742643908564258,0.014932825446537025,-11.535128190903738,4.9045126895590645,-160.11990356445312,5356.25390625,True
1599563988.444302,0.0,10,0.5,0.5,15.875883095932007,-0.2,-0.02275,-0.001,0.10772161633011601,10,1,100,-0.03521719374219533,-10,-1,-100,15031.739796915208,0.003117851247939006,0.009889584037057293,0.9999462361203075,20.742643908564258,0.014932825446537025,-11.535128190903738,4.9045126895590645,-160.11990356445312,5356.25390625,True
1599563988.4942029,0.0,10,0.5,0.5,14.431478118515015,-0.2,-0.02275,-0.001,0.15126307556625498,10,1,100,0.04865306342383847,-10,-1,-100,15032.096247556969,0.0023564984919268537,0.01028365756656234,0.9999443451022217,21.296207411734056,0.014963455516315258,-10.05005409858562,4.161856046826275,-153.1387176513672,5356.25390625,True
1599563988.5585072,0.0,10,0.5,0.5,13.599453190994264,-0.2,-0.02275,-0.001,0.13245291695611944,10,1,100,0.021689288538916572,-10,-1,-100,15032.245663725887,0.001911330480553402,0.010468997424843916,0.9999433718509827,21.505732240065022,0.014970449359951355,-9.24357337089737,3.790518611561276,-149.23486328125,5356.25390625,True
1599563988.6123683,0.0,10,0.5,0.5,12.701502103805542,-0.2,-0.02275,-0.001,0.1275171099606714,10,1,100,0.030620890158493404,-10,-1,-100,15032.391173464595,0.0014276829951744446,0.010590621356920724,0.9999428985999849,21.641476579914034,0.014960729717628147,-8.390795330491834,3.4191760346025144,-145.05641174316406,5356.25390625,True
1599563988.663745,0.0,10,0.5,0.5,11.743587110519409,-0.2,-0.02275,-0.001,0.12762178258285523,10,1,100,0.03977443007366729,-10,-1,-100,15032.537659324822,0.0009074170282420578,0.01070029294521261,0.9999423385001874,21.679394375026533,0.014918703647113002,-7.4927256143084096,3.0478273051981244,-140.60256958007812,5356.25390625,True
1599563988.713612,0.0,10,0.5,0.5,10.72056884689331,-0.2,-0.02275,-0.001,0.12383170701333089,10,1,100,0.048459617363113106,-10,-1,-100,15032.623597649042,0.0003585922528285651,0.010763592263240591,0.9999420065649743,21.599182238246847,0.014825547643585249,-6.555552782588353,2.6764699300857626,-135.87387084960938,5356.25390625,True
1599563988.7664711,0.0,10,0.5,0.5,10.645893984603882,-0.2,-0.02275,-0.001,0.11768013814413436,10,1,100,-0.006049755682662703,-10,-1,-100,15032.623597649042,0.0003585922528285651,0.010763592263240591,0.9999420065649743,21.599182238246847,0.014825547643585249,-6.555552782588353,2.6764699300857626,-135.87387084960938,5356.25390625,True
1599563988.8302996,0.0,10,0.5,0.5,8.499819624328612,-0.2,-0.02275,-0.001,0.11631625148122528,10,1,100,0.12239868244109753,-10,-1,-100,15032.791567071574,-0.000805728961973133,0.010749571812363221,0.99994189706537,21.025342423563835,0.014414365660852677,-4.610619369168433,1.9337161705251558,-125.59192657470703,5356.25390625,True
1599563988.872188,0.0,10,0.5,0.5,7.861211972999573,-0.2,-0.02275,-0.001,0.11499814304185524,10,1,100,0.040513088820151213,-10,-1,-100,15032.833558387356,-0.0011154920634915211,0.010723442887420451,0.9999418800360832,20.77664366717577,0.01424584376572577,-4.118582599284228,1.74801697616588,-122.84956359863281,5356.25390625,True
1599563988.9250467,0.0,10,0.5,0.5,7.207146329689026,-0.2,-0.02275,-0.001,0.11331067646889721,10,1,100,0.044446705462783315,-10,-1,-100,15032.874574438785,-0.0014287215573557468,0.010683387923195913,0.9999419103013905,20.480154276266116,0.014044779438102152,-3.628533385379008,1.562312645470897,-120.03853607177734,5356.25390625,True
1599563988.9759111,0.0,10,0.5,0.5,5.947345190811157,-0.2,-0.02275,-0.001,0.1032359926012241,10,1,100,0.08062573753323829,-10,-1,-100,15032.895081911702,-0.0020382426862316384,0.01055466464429827,0.999942220641272,19.738143079932023,0.013537099201517754,-2.665711741673501,1.1908874382259063,-114.21054077148438,5356.25390625,True
1599563989.0327625,0.0,10,0.5,0.5,3.3401122287750242,-0.2,-0.02275,-0.001,0.07352737115268353,10,1,100,0.15765829335308168,-10,-1,-100,15032.999572127126,-0.0032879614072681427,0.010166960486125278,0.9999429094824653,17.845202783769775,0.012183846923156124,-0.9066127986675304,0.44797342218199754,-101.7298583984375,5356.25390625,True
1599563989.0806313,0.0,10,0.5,0.5,3.235637756347656,-0.2,-0.02275,-0.001,0.11228611726193895,10,1,100,0.03325086723935074,-10,-1,-100,15032.999572127126,-0.0032879614072681427,0.010166960486125278,0.9999429094824653,17.845202783769775,0.012183846923156124,-0.9066127986675304,0.44797342218199754,-101.7298583984375,5356.25390625,True
1599563989.1304977,0.0,10,0.5,0.5,1.1010847900390626,-0.2,-0.02275,-0.001,0.06677458453127239,10,1,100,0.1291162344358564,-10,-1,-100,15033.001522197039,-0.004154738116429265,0.009753493858518054,0.9999438021752701,16.123457080975456,0.010963065113515668,0.19975648871442173,-0.10924104323095651,-91.64787292480469,5356.25390625,True
1599563989.192334,0.0,10,0.5,0.5,0.2865273246765136,-0.2,-0.02275,-0.001,0.09103138417901256,10,1,100,0.07244164730490855,-10,-1,-100,15032.97906102927,-0.004422418495283848,0.0095988924915804,0.9999441501791927,15.486626454394278,0.010526503366231614,0.5180912450189007,-0.2949780067475165,-88.14968872070312,5356.25390625,True
1599563989.2402403,0.0,10,0.5,0.5,-1.2769488990783693,-0.2,-0.02275,-0.001,0.06693734877444074,10,1,100,0.10726106334116489,-10,-1,-100,15032.939020051155,-0.00497745913500532,0.009240310382007908,0.9999449192653581,16.377602572500766,0.011129520169100808,1.2378921008808295,-0.6664481591312463,-80.94747924804688,5356.25390625,True
1599563989.291072,0.0,10,0.5,0.5,-2.8977141181945805,-0.2,-0.02275,-0.001,0.062454578528841016,10,1,100,0.1038038987402808,-10,-1,-100,15032.896048819763,-0.005445761809846046,0.008874958990964948,0.9999457879211346,17.8035498989941,0.012112686775251293,2.095769956790947,-1.0379193615169182,-73.46981811523438,5356.25390625,True
1599563989.3419325,0.0,10,0.5,0.5,-4.570277698516846,-0.2,-0.02275,-0.001,0.05358950457629479,10,1,100,0.10732286394905746,-10,-1,-100,15032.85405413888,-0.005898205421542243,0.008463946720695724,0.9999467849734376,18.9544838772453,0.012899783855652228,3.0299083493982235,-1.4094049673098565,-65.81771850585938,5356.25390625,True
1599563989.395788,0.0,10,0.5,0.5,-6.219275557518006,-0.2,-0.02275,-0.001,0.0492121318154078,10,1,100,0.10584885421086404,-10,-1,-100,15032.813035639585,-0.006291488183228329,0.008052582745435336,0.9999477851805905,19.807880035111413,0.0134603340786337,4.00102713585199,-1.780911510398632,-58.252227783203125,5356.25390625,True
1599563989.4466527,0.0,10,0.5,0.5,-7.829984343910218,-0.2,-0.02275,-0.001,0.04343284439585292,10,1,100,0.10570602736660312,-10,-1,-100,15032.706587170134,-0.006643014089704456,0.0076285045733317436,0.9999488368320544,20.335061806505625,0.01380336823694916,4.964520356104135,-2.152435597752914,-50.9322509765625,5356.25390625,True
1599563989.4965534,0.0,10,0.5,0.5,-10.75842645378113,-0.2,-0.02275,-0.001,-0.006017958884644459,10,1,100,0.13354518840004892,-10,-1,-100,15032.497597082402,-0.0072109261117755796,0.006796203371914742,0.9999509058770527,20.532264022179703,0.013957673137239236,6.743551460115895,-2.895519027683186,-37.108642578125,5356.25390625,True
1599563989.5449076,0.0,10,0.5,0.5,-12.226337910842895,-0.2,-0.02275,-0.001,0.03338484989558547,10,1,100,0.10186746444249699,-10,-1,-100,15032.392125637736,-0.007434528020021089,0.006401190051603543,0.9999518751215193,20.23406150817776,0.013803561421139546,7.498591374377192,-3.267067872597935,-30.6094970703125,5356.25390625,True
1599563989.5958047,0.0,10,0.5,0.5,-12.381637587356568,-0.2,-0.02275,-0.001,0.0725096048832532,10,1,100,0.07992193027922131,-10,-1,-100,15032.392125637736,-0.007434528020021089,0.006401190051603543,0.9999518751215193,20.23406150817776,0.013803561421139546,7.498591374377192,-3.267067872597935,-30.6094970703125,5356.25390625,True
1599563989.6455913,0.0,10,0.5,0.5,-13.794484749221802,-0.2,-0.02275,-0.001,0.03328589884487105,10,1,100,0.10236331506050927,-10,-1,-100,15032.226108064293,-0.007634771002930295,0.006048034333467816,0.9999525646511609,19.725387338160605,0.01353493875379051,8.141674995681328,-3.6386151951765977,-24.3853759765625,5356.25390625,True
1599563989.6944606,0.0,10,0.5,0.5,-15.136940828704835,-0.2,-0.02275,-0.001,0.030401615808190174,10,1,100,0.10041614171631781,-10,-1,-100,15032.05911379354,-0.007795944836185559,0.005704131525306465,0.9999533419753409,19.192843411094294,0.01326955354050203,8.731065800291656,-4.01015999181171,-18.43682861328125,5356.25390625,True
1599563989.7429502,0.0,10,0.5,0.5,-17.51496107788086,-0.2,-0.02275,-0.001,-0.0010346345832318027,10,1,100,0.11120713485091178,-10,-1,-100,15031.724149273825,-0.00803749959824038,0.005109249206116196,0.999954646057889,17.78958642917118,0.012503402539826604,9.592970263557753,-4.753253682932096,-7.365325927734375,5356.25390625,True
1599563989.8057845,0.0,10,0.5,0.5,-18.700990725708007,-0.2,-0.02275,-0.001,0.03051311396047857,10,1,100,0.09748478021894297,-10,-1,-100,15031.492702569696,-0.008129564303033012,0.004859000321955038,0.9999551491442574,16.94254655202064,0.01197109032531329,9.850744161609766,-5.124813262714282,-2.242431640625,5356.25390625,True
1599563989.8576424,0.0,10,0.5,0.5,-19.832313578033446,-0.2,-0.02275,-0.001,0.03175918904680564,10,1,100,0.09852232230915756,-10,-1,-100,15031.323756132391,-0.008220251869579915,0.004646480163201513,0.9999554178468627,16.26004842038509,0.011488178449360434,10.139774587966945,-5.496385743064181,2.6053466796875,5356.25390625,True
1599563989.9045172,0.0,10,0.5,0.5,-20.902190467834473,-0.2,-0.02275,-0.001,0.03259943705312689,10,1,100,0.09733108106708868,-10,-1,-100,15031.09524006222,-0.008289754694741892,0.004464389061262587,0.9999556736162911,17.365171515455337,0.012191719451647539,11.56150320872482,-5.867964943127694,7.17779541015625,5356.25390625,True
1599563989.9614687,0.0,10,0.5,0.5,-21.91023520736694,-0.2,-0.02275,-0.001,0.034628854673650414,10,1,100,0.09815555464247572,-10,-1,-100,15030.803247819422,-0.008358617689654924,0.004320562941217571,0.999955732143273,18.322054331509605,0.012722025661833336,12.971643692486689,-6.239547047203526,11.475128173828125,5356.25390625,True
1599563990.0123308,0.0,10,0.5,0.5,-22.85635263519287,-0.2,-0.02275,-0.001,0.03661341283553381,10,1,100,0.09862724121114357,-10,-1,-100,15030.570826272713,-0.008423948832381978,0.004210860580495691,0.9999556518862428,19.146843693794974,0.013104764535609182,14.363564686078803,-6.611129607593291,15.497207641601562,5356.25390625,True
1599563990.0601902,0.0,10,0.5,0.5,-22.972008864974974,-0.2,-0.02275,-0.001,0.047325114628579905,10,1,100,0.09221542921049879,-10,-1,-100,15030.570826272713,-0.008423948832381978,0.004210860580495691,0.9999556518862428,19.146843693794974,0.013104764535609182,14.363564686078803,-6.611129607593291,15.497207641601562,5356.25390625,True
1599563990.1070786,0.0,10,0.5,0.5,-24.52782742996216,-0.2,-0.02275,-0.001,0.03493716414074305,10,1,100,0.10617043548574163,-10,-1,-100,15029.98391349928,-0.008549913052327494,0.004100234057398181,0.9999550425231487,20.44701606160221,0.013523341238022154,17.06503428444463,-7.354286305095894,22.715744018554688,5356.25390625,True
1599563990.1629205,0.0,10,0.5,0.5,-25.28440552177429,-0.2,-0.02275,-0.001,0.04553034359164,10,1,100,0.10032730538808665,-10,-1,-100,15029.691922513535,-0.008610292628633548,0.00409805790049424,0.9999545333575389,20.946715292508923,0.013604910846132716,18.36643211132179,-7.725856592574123,25.91217041015625,5356.25390625,True
1599563990.2117972,0.0,10,0.5,0.5,-25.395636013412474,-0.2,-0.02275,-0.001,0.04555296163873672,10,1,100,0.09438689992005155,-10,-1,-100,15029.691922513535,-0.008610292628633548,0.00409805790049424,0.9999545333575389,20.946715292508923,0.013604910846132716,18.36643211132179,-7.725856592574123,25.91217041015625,5356.25390625,True
1599563990.2691255,0.0,10,0.5,0.5,-26.61555552940369,-0.2,-0.02275,-0.001,0.05754791330425819,10,1,100,0.10995628553403311,-10,-1,-100,15029.040559720248,-0.00875109218167661,0.004208562982566992,0.9999528520801617,21.709272315999332,0.013617977821162083,20.86857084002702,-8.468974569356545,31.479461669921875,5356.25390625,True
1599563990.3294802,0.0,10,0.5,0.5,-27.17488863334656,-0.2,-0.02275,-0.001,0.0583892194234834,10,1,100,0.10437503943463583,-10,-1,-100,15028.684117324301,-0.008827704453918112,0.004317489191192949,0.9999517142948244,21.996958700742262,0.013585655936589357,22.07424412284968,-8.840521032257081,33.850250244140625,5356.25390625,True
1599563990.3773813,0.0,10,0.5,0.5,-27.67586809120178,-0.2,-0.02275,-0.001,0.06447276765114246,10,1,100,0.10597867052950766,-10,-1,-100,15028.329628640087,-0.008911295765772053,0.004472310283950504,0.9999502923888264,22.237185276878744,0.013545090683312087,23.25474341906273,-9.212058792613579,35.94596862792969,5356.25390625,True
1599563990.4387102,0.0,10,0.5,0.5,-28.115541904449465,-0.2,-0.02275,-0.001,0.06998660372261395,10,1,100,0.10758733646294863,-10,-1,-100,15027.970258321846,-0.009001283881492197,0.004663340850633704,0.9999486137500244,22.4405652078598,0.013505981797771353,24.415610357658156,-9.583587742088927,37.76646423339844,5356.25390625,True
1599563990.4895709,0.0,10,0.5,0.5,-28.49393193778992,-0.2,-0.02275,-0.001,0.07675551693177074,10,1,100,0.10928591370505134,-10,-1,-100,15027.553271227633,-0.009097886025996217,0.00489835971152952,0.9999466158460633,22.616312429025335,0.013475187375079871,25.562597151684752,-9.955107732469807,39.31184387207031,5356.25390625,True
1599563990.5449665,0.0,10,0.5,0.5,-28.690289640808107,-0.2,-0.02275,-0.001,0.06805351373739627,10,1,100,0.10532885547169646,-10,-1,-100,15027.344288998516,-0.009149060838572698,0.005032378831694755,0.9999454834385054,22.696343226705977,0.013464232902113982,26.132694574966838,-10.140864406436682,39.98136901855469,5356.25390625,True
1599563990.5958307,0.0,10,0.5,0.5,-29.066106983184817,-0.2,-0.02275,-0.001,0.10636736250580275,10,1,100,0.11816005624924628,-10,-1,-100,15026.716370385722,-0.009311571482523415,0.005501775276783938,0.999941510842174,22.915596573095122,0.013452145037729044,27.83823353618614,-10.698121225440307,41.57731628417969,5356.25390625,True
1599563990.6496572,0.0,10,0.5,0.5,-29.26857579650879,-0.2,-0.02275,-0.001,0.09976403830522601,10,1,100,0.11514364327364093,-10,-1,-100,15026.294503754587,-0.009431079565745707,0.005867295538954054,0.9999383128879917,23.05151523697319,0.013461197557910193,28.97805241709499,-11.069614808689977,42.29737854003906,5356.25390625,True
1599563990.699553,0.0,10,0.5,0.5,-29.4018933631897,-0.2,-0.02275,-0.001,0.11033116845528211,10,1,100,0.11624306292895392,-10,-1,-100,15025.814044742263,-0.009548916941438439,0.006294045086398709,0.9999345994522321,23.18454922551988,0.01348193749360479,30.1258093632347,-11.441099539497978,42.74259948730469,5356.25390625,True
1599563990.7494204,0.0,10,0.5,0.5,-29.439737368392944,-0.2,-0.02275,-0.001,0.06787581242940702,10,1,100,0.10455318779096129,-10,-1,-100,15025.814044742263,-0.009548916941438439,0.006294045086398709,0.9999345994522321,23.18454922551988,0.01348193749360479,30.1258093632347,-11.441099539497978,42.74259948730469,5356.25390625,True
1599563990.8022523,0.0,10,0.5,0.5,-29.49117489471436,-0.2,-0.02275,-0.001,0.1781055933724197,10,1,100,0.13210975515587461,-10,-1,-100,15024.849224876496,-0.009798577895380555,0.007294137652075275,0.9999253889301645,23.465921498340272,0.013551355369740885,32.47686646591382,-12.184041907609972,42.808013916015625,5356.25390625,True
1599563990.85511,0.0,10,0.5,0.5,-29.51688193664551,-0.2,-0.02275,-0.001,0.07840489427171396,10,1,100,0.10724840833303334,-10,-1,-100,15024.849224876496,-0.009798577895380555,0.007294137652075275,0.9999253889301645,23.465921498340272,0.013551355369740885,32.47686646591382,-12.184041907609972,42.808013916015625,5356.25390625,True
1599563991.3159094,0.0,10,0.5,0.5,-29.329409133911135,-0.2,-0.02275,-0.001,0.21377288073900397,10,1,100,0.13438815181527058,-10,-1,-100,15023.88441293058,-0.010044420223908656,0.008522049666813473,0.9999132383821316,23.76260708702952,0.013616608473903911,34.8988801272184,-12.926947277073163,41.77392578125,5356.25390625,True
1599563991.3587658,0.0,10,0.5,0.5,-29.25716595115662,-0.2,-0.02275,-0.001,0.12767467172718872,10,1,100,0.11744303357385213,-10,-1,-100,15023.611960442853,-0.010112836607232091,0.00885194074430182,0.9999096827618057,23.834447506213273,0.013623682729689831,35.50889781666603,-13.112667763469947,41.34339904785156,5356.25390625,True
1599563991.4036777,0.0,10,0.5,0.5,-29.16540269050598,-0.2,-0.02275,-0.001,0.13339707239900248,10,1,100,0.11791164465024231,-10,-1,-100,15023.339510021964,-0.010178282917560816,0.009200055730040745,0.9999058763360751,23.90469890368684,0.01362512078524234,36.11961360469017,-13.2983860007016,40.84423828125,5356.25390625,True
1599563991.4515443,0.0,10,0.5,0.5,-28.92737896957398,-0.2,-0.02275,-0.001,0.18337862061241123,10,1,100,0.12306736215333952,-10,-1,-100,15022.794610420708,-0.010283667543440936,0.0099669909771812,0.9998974473778383,24.037794871574857,0.013606208427378096,37.33864172992892,-13.669815924880677,39.64021301269531,5356.25390625,True
1599563991.4993863,0.0,10,0.5,0.5,-28.630517878723143,-0.2,-0.02275,-0.001,0.19636507505259232,10,1,100,0.12457922652896275,-10,-1,-100,15022.250689899782,-0.010392184509742285,0.010777777503905546,0.9998879147250415,24.157433969799232,0.013551042200079154,38.54771638545153,-14.041237307710501,38.161163330078125,5356.25390625,True
1599563991.5582912,0.0,10,0.5,0.5,-27.864049780654906,-0.2,-0.02275,-0.001,0.317329368203646,10,1,100,0.13036542333721723,-10,-1,-100,15021.097429733956,-0.010542455710975627,0.012609735191185328,0.9998649164792164,24.32945237922783,0.013296420120712487,40.884048212520774,-14.784058128580849,34.37919616699219,5356.25390625,True
1599563991.6071777,0.0,10,0.5,0.5,-27.84981788291931,-0.2,-0.02275,-0.001,0.1348078434408909,10,1,100,0.11544944082840611,-10,-1,-100,15021.097429733956,-0.010542455710975627,0.012609735191185328,0.9998649164792164,24.32945237922783,0.013296420120712487,40.884048212520774,-14.784058128580849,34.37919616699219,5356.25390625,True
1599563991.6603165,0.0,10,0.5,0.5,-27.367913927841187,-0.2,-0.02275,-0.001,0.24774356873170447,10,1,100,0.11893091401776518,-10,-1,-100,15020.489067642251,-0.010573202250179312,0.0136306820664611,0.9998511948788078,24.36588990471649,0.013081714768955815,41.97818127679332,-15.155460104973628,32.076324462890625,5356.25390625,True
1599563991.7052038,0.0,10,0.5,0.5,-26.82797179107666,-0.2,-0.02275,-0.001,0.2695440694448316,10,1,100,0.11053691673002666,-10,-1,-100,15019.8816855459,-0.010523913414740729,0.014750332289576538,0.9998358239950127,24.360967273436717,0.012802580383294033,43.00271263333484,-15.526858574335321,29.499313354492188,5356.25390625,True
1599563991.7630568,0.0,10,0.5,0.5,-25.59866040916443,-0.2,-0.02275,-0.001,0.423158625735711,10,1,100,0.0957396678586567,-10,-1,-100,15018.54096080875,-0.010343925542311963,0.017157913736291747,0.999799284456932,24.25146002006751,0.012078956366827424,44.867200972700225,-16.269652542244494,23.521148681640625,5356.25390625,True
1599563991.8099508,0.0,10,0.5,0.5,-25.225885680770876,-0.2,-0.02275,-0.001,0.25481141557968334,10,1,100,0.10337970727426618,-10,-1,-100,15018.268526450382,-0.010249259336930506,0.017807227889992398,0.9997889053784894,24.192040858808735,0.011864204690041688,45.27069873817618,-16.45535173105937,21.8551025390625,5356.25390625,True
1599563991.862475,0.0,10,0.5,0.5,-24.471130202865602,-0.2,-0.02275,-0.001,0.33999507668908413,10,1,100,0.08277277060326271,-10,-1,-100,15017.597687015543,-0.009975677144926403,0.019163469332330107,0.9997665964157081,24.01176106270983,0.011396996209731468,45.95285527216559,-16.82675291736704,18.3172607421875,5356.25390625,True
1599563991.9133055,0.0,10,0.5,0.5,-23.252137004089356,-0.2,-0.02275,-0.001,0.441121577886314,10,1,100,0.04849825784453627,-10,-1,-100,15016.526498021558,-0.009415504272081801,0.02130637381025918,0.9997286565435441,23.562918241278105,0.010638570611392733,46.59537333248816,-17.38386615054182,12.495635986328125,5356.25390625,True
1599563991.9612126,0.0,10,0.5,0.5,-22.3443742805481,-0.2,-0.02275,-0.001,0.39270012365614815,10,1,100,0.045045747459994866,-10,-1,-100,15015.857626795652,-0.008875563182950404,0.022803268008029356,0.9997005728448589,23.12583564658483,0.01013353202187265,46.7140320342197,-17.755285116745657,8.27130126953125,5356.25390625,True
1599563992.0140703,0.0,10,0.5,0.5,-21.372881557846068,-0.2,-0.02275,-0.001,0.4121552304248009,10,1,100,0.022654787605158405,-10,-1,-100,15015.12333194539,-0.008182433561751067,0.02432927617932559,0.9996705127698814,22.565613179746297,0.009667919778514032,46.54199018491112,-18.12671314410483,3.77203369140625,5356.25390625,True
1599563992.077214,0.0,10,0.5,0.5,-21.299145555496217,-0.2,-0.02275,-0.001,0.26090956316271957,10,1,100,0.09174677463029302,-10,-1,-100,15015.12333194539,-0.008182433561751067,0.02432927617932559,0.9996705127698814,22.565613179746297,0.009667919778514032,46.54199018491112,-18.12671314410483,3.77203369140625,5356.25390625,True
1599563992.1270814,0.0,10,0.5,0.5,-19.254919900512697,-0.2,-0.02275,-0.001,0.6022743251236204,10,1,100,-0.10434377285488783,-10,-1,-100,15013.656711775926,-0.006401937695657809,0.027421938068980925,0.9996034476262484,21.298307105706307,0.009098628757951034,45.740673614423564,-18.869591224090325,-6.05181884765625,5356.25390625,True
1599563992.1789448,0.0,10,0.5,0.5,-19.172763193893434,-0.2,-0.02275,-0.001,0.2944893564458665,10,1,100,0.07329176195290618,-10,-1,-100,15013.656711775926,-0.006401937695657809,0.027421938068980925,0.9996034476262484,21.298307105706307,0.009098628757951034,45.740673614423564,-18.869591224090325,-6.05181884765625,5356.25390625,True
1599563992.2308042,0.0,10,0.5,0.5,-16.88982308998108,-0.2,-0.02275,-0.001,0.626463689950935,10,1,100,-0.19093744671876706,-10,-1,-100,15012.063161516911,-0.004003646039146708,0.030427349049933803,0.9995289626860179,23.350440328480076,0.010651228884128654,52.13614187331572,-19.612392421686906,-16.978179931640625,5356.25390625,True
1599563992.2806711,0.0,10,0.5,0.5,-16.795013153839115,-0.2,-0.02275,-0.001,0.327490293531683,10,1,100,0.048239692194783634,-10,-1,-100,15012.063161516911,-0.004003646039146708,0.030427349049933803,0.9995289626860179,23.350440328480076,0.010651228884128654,52.13614187331572,-19.612392421686906,-16.978179931640625,5356.25390625,True
1599563992.331504,0.0,10,0.5,0.5,-15.521787490081786,-0.2,-0.02275,-0.001,0.4938157150478789,10,1,100,-0.10256629437201872,-10,-1,-100,15011.266393500031,-0.002638446415360473,0.03192733521343227,0.999486710200132,24.28624365742429,0.011615881743115654,55.25975188223657,-19.983736312158204,-22.854248046875,5356.25390625,True
1599563992.387351,0.0,10,0.5,0.5,-13.54955516281128,-0.2,-0.02275,-0.001,0.5559495359250021,10,1,100,-0.2344793586015201,-10,-1,-100,15010.071240757592,-0.00020506509430621975,0.03384297545429251,0.9994271413968642,25.40674006245177,0.013052989424039665,59.432205417745195,-20.540678194412912,-32.189544677734375,5356.25390625,True
1599563992.4432306,0.0,10,0.5,0.5,-12.790854023742677,-0.2,-0.02275,-0.001,0.4353649465423621,10,1,100,-0.08710595805216662,-10,-1,-100,15009.673835962778,0.0006584591816120514,0.03447489803693967,0.9994053471123959,25.75084434941485,0.01351326042309303,60.78546769531513,-20.726306624583845,-35.43896484375,5356.25390625,True
1599563992.4990864,0.0,10,0.5,0.5,-9.932361888885499,-0.2,-0.02275,-0.001,0.5859031028122144,10,1,100,-0.4162703704378087,-10,-1,-100,15007.957253439236,0.004426726850994777,0.03640593041977513,0.9993272798836512,26.628820179121732,0.014816524639934828,65.1263463710014,-21.46874860906257,-49.133941650390625,5356.25390625,True
1599563992.5439332,0.0,10,0.5,0.5,-8.355566169738768,-0.2,-0.02275,-0.001,0.47905880204154916,10,1,100,-0.26330619982684267,-10,-1,-100,15007.097002364113,0.0064497483721212496,0.03717773652224518,0.9992878547510816,26.726589402466676,0.015021279694715745,66.50423109980804,-21.83994341702231,-56.3970947265625,5356.25390625,True
1599563992.595823,0.0,10,0.5,0.5,-6.7098630432128905,-0.2,-0.02275,-0.001,0.4576984872785784,10,1,100,-0.2861591362159303,-10,-1,-100,15006.177174492623,0.008483310829469865,0.03767351333542466,0.9992540917255911,26.53958974646078,0.014874397698050823,67.17019417916451,-22.211136628811673,-63.939788818359375,5356.25390625,True
1599563992.6456945,0.0,10,0.5,0.5,-4.991447858428955,-0.2,-0.02275,-0.001,0.4455016336043487,10,1,100,-0.3099418596947222,-10,-1,-100,15005.315929708653,0.010533059872874695,0.03800120791658928,0.9992221789204814,26.04518337381584,0.014411783914143246,67.02971283850603,-22.582340882963233,-71.76025390625,5356.25390625,True
1599563992.701512,0.0,10,0.5,0.5,-3.2218766960144043,-0.2,-0.02275,-0.001,0.42589804879862503,10,1,100,-0.32759642613450324,-10,-1,-100,15004.395103260176,0.012541568700360248,0.03811128015591635,0.9991947955125725,25.22825676562921,0.013723301696364753,66.00400028121207,-22.95356709227495,-79.85928344726562,5356.25390625,True
1599563992.7583587,0.0,10,0.5,0.5,-1.378210289001465,-0.2,-0.02275,-0.001,0.4058183000711084,10,1,100,-0.3408213175820747,-10,-1,-100,15003.472311035614,0.014470490732692293,0.03801908507406632,0.9991722344361287,24.08335224478578,0.012936203631076896,64.03720239192369,-23.324822037882903,-88.23666381835938,5356.25390625,True
1599563992.8122528,0.0,10,0.5,0.5,0.5152506774902345,-0.2,-0.02275,-0.001,0.38617029691078375,10,1,100,-0.34988690408082124,-10,-1,-100,15002.487981919316,0.016289675969553812,0.0377497515745414,0.9991544438738523,22.61293388281528,0.012175828920729628,61.09373317249336,-23.69610626764257,-96.89201354980469,5356.25390625,True
1599563992.8641248,0.0,10,0.5,0.5,0.6883992992401123,-0.2,-0.02275,-0.001,0.41383588711573627,10,1,100,-0.16999771259553936,-10,-1,-100,15002.487981919316,0.016289675969553812,0.0377497515745414,0.9991544438738523,22.61293388281528,0.012175828920729628,61.09373317249336,-23.69610626764257,-96.89201354980469,5356.25390625,True
1599563992.9139714,0.0,10,0.5,0.5,4.460746875000001,-0.2,-0.02275,-0.001,0.3081119833975621,10,1,100,-0.5242399665751434,-10,-1,-100,15000.582762096892,0.019492852712654836,0.036783332071320625,0.9991331318572383,24.78848301644616,0.014225728000428811,69.0907274409776,-24.43860220573499,-114.8219223022461,5356.25390625,True
1599563992.966802,0.0,10,0.5,0.5,6.412765273475648,-0.2,-0.02275,-0.001,0.32889005897796986,10,1,100,-0.36059656328774836,-10,-1,-100,14999.599371429416,0.020899257069400393,0.03609098743128997,0.9991299523486329,25.94804237046986,0.01550668335840093,73.43176379954849,-24.809766838147926,-123.68739318847656,5356.25390625,True
1599563993.0177004,0.0,10,0.5,0.5,7.479442519187928,-0.2,-0.02275,-0.001,0.3639185643164017,10,1,100,-0.28610051074757936,-10,-1,-100,14999.07202719897,0.021482168917996827,0.035778554998525704,0.9991288262385366,26.3751877398898,0.016043517241605354,75.2042135520379,-24.995331878294884,-128.03952026367188,5356.25390625,True
1599563993.0666263,0.0,10,0.5,0.5,10.199433072471619,-0.2,-0.02275,-0.001,0.2783099728346168,10,1,100,-0.4021615360481333,-10,-1,-100,14997.563228517538,0.02305168406302862,0.03471683593292492,0.9991313032653238,27.26650199204519,0.01717179660374965,79.49388377999055,-25.551977687190075,-140.70037841796875,5356.25390625,True
1599563993.115488,0.0,10,0.5,0.5,12.006393514060974,-0.2,-0.02275,-0.001,0.30290146795203227,10,1,100,-0.33687988916424083,-10,-1,-100,14996.51829058025,0.02386995382712131,0.03397743301125464,0.9991375077286695,27.442673179716188,0.01738430863670559,81.18100469862826,-25.923053742514195,-148.79904174804688,5356.25390625,True
1599563993.1654053,0.0,10,0.5,0.5,13.763391948509218,-0.2,-0.02275,-0.001,0.30572214118066443,10,1,100,-0.32812916576883716,-10,-1,-100,14995.468465361511,0.024520295542704042,0.033334251093927555,0.9991434245444973,27.291032786814192,0.01718521882461645,81.90013378180056,-26.29413163211543,-156.62014770507812,5356.25390625,True
1599563993.212277,0.0,10,0.5,0.5,13.94862710094452,-0.2,-0.02275,-0.001,0.3695736372311065,10,1,100,-0.26449371777754704,-10,-1,-100,14995.468465361511,0.024520295542704042,0.033334251093927555,0.9991434245444973,27.291032786814192,0.01718521882461645,81.90013378180056,-26.29413163211543,-156.62014770507812,5356.25390625,True
1599563993.2611487,0.0,10,0.5,0.5,17.10041108226776,-0.2,-0.02275,-0.001,0.24145313026041004,10,1,100,-0.3575402452030065,-10,-1,-100,14993.370762109174,0.025355283313078816,0.03217386196606849,0.9991606238309744,26.179603412630968,0.016027086396363282,80.80766586650903,-27.036335869838332,-171.43185424804688,5356.25390625,True
1599563993.3100147,0.0,10,0.5,0.5,17.984318446159364,-0.2,-0.02275,-0.001,0.3297023122846358,10,1,100,-0.28720182092629676,-10,-1,-100,14992.784810986253,0.02546502761764908,0.031926541889242294,0.999165766172674,25.7657535607247,0.01568130322678632,80.08267043540214,-27.221901075033813,-174.96145629882812,5356.25390625,True
1599563993.3698952,0.0,10,0.5,0.5,18.853879644966128,-0.2,-0.02275,-0.001,0.3296595497987112,10,1,100,-0.2855766724986691,-10,-1,-100,14992.259407805512,0.025541679861872616,0.03170661053287853,0.9991708129435878,25.308668386206033,0.01534503695962706,79.20481827486773,-27.407472254053545,-178.42156982421875,5356.25390625,True
1599563993.422724,0.0,10,0.5,0.5,-50.682059147834785,-0.2,-0.02275,-0.001,0.2893775564316281,10,1,100,-0.28816501501596214,-10,-1,-100,14990.036706784973,0.025626483194149115,0.031145966761066773,0.9991862749826073,24.14451118096545,0.01490461824692983,77.63430217201551,-28.149796620959705,168.43394470214844,5356.25390625,True
1599563993.472081,0.0,10,0.5,0.5,-50.35404362258912,-0.2,-0.02275,-0.001,0.33746017529346556,10,1,100,-0.2752676053347425,-10,-1,-100,14989.451735740528,0.02558075192595167,0.031078530199354838,0.9991895466284417,24.75507994122932,0.015486301618798876,80.12903486918944,-28.33536425846622,165.32167053222656,5356.25390625,True
1599563993.525907,0.0,10,0.5,0.5,-49.16532331542969,-0.2,-0.02275,-0.001,0.34303169167865066,10,1,100,-0.25370668661551965,-10,-1,-100,14987.752498613321,0.02533891378936419,0.031072431162420158,0.9991958984451608,26.31342234023978,0.017331703774853043,86.86827657697071,-28.892000687692523,156.12103271484375,5356.25390625,True
1599563993.5782692,0.0,10,0.5,0.5,-48.53715753097534,-0.2,-0.02275,-0.001,0.36214735895566147,10,1,100,-0.24985472661642394,-10,-1,-100,14986.578666711692,0.025080536988046187,0.03124494367121246,0.9991970377054639,27.17841138533387,0.0185894218937671,90.89110370678044,-29.263037555290953,149.7338104248047,5356.25390625,True
1599563993.638083,0.0,10,0.5,0.5,-47.86703569145203,-0.2,-0.02275,-0.001,0.3789818825897721,10,1,100,-0.2421838679259085,-10,-1,-100,14985.40191392554,0.0247740694960933,0.031557970614298936,0.9991948458490515,27.89041226051902,0.01976034350288543,94.4700218054924,-29.634034316601145,143.08084106445312,5356.25390625,True
1599563993.681992,0.0,10,0.5,0.5,-47.145955399703986,-0.2,-0.02275,-0.001,0.39904303859364715,10,1,100,-0.23466685736297827,-10,-1,-100,14984.166577924974,0.02442630430222861,0.0320271142193191,0.9991884805245294,28.536956613372887,0.020816015355064586,97.88562659341373,-30.004994854423085,136.1566619873047,5356.25390625,True
1599563993.7328298,0.0,10,0.5,0.5,-46.372492719268806,-0.2,-0.02275,-0.001,0.4208043772283735,10,1,100,-0.22859454572437093,-10,-1,-100,14982.991800658987,0.024055036739491983,0.032652627063175496,0.9991772421113959,28.97223394827365,0.02156894427578649,100.62323852269425,-30.37592761359037,128.9603729248047,5356.25390625,True
1599563993.7847173,0.0,10,0.5,0.5,-47.02938469276429,-0.2,-0.02275,-0.001,0.3581849304396587,10,1,100,-0.2656747761177124,-10,-1,-100,14982.991800658987,0.024055036739491983,0.032652627063175496,0.9991772421113959,28.97223394827365,0.02156894427578649,100.62323852269425,-30.37592761359037,128.9603729248047,5356.25390625,True
1599563993.8485186,0.0,10,0.5,0.5,-44.65586316070557,-0.2,-0.02275,-0.001,0.5511386984753902,10,1,100,-0.18182831721689746,-10,-1,-100,14980.5192481532,0.023293978246369654,0.03440631698613932,0.9991364250836354,29.094340596193405,0.02191057741975715,103.54861212507284,-31.117758067788916,113.75184631347656,5356.25390625,True
1599563993.8924048,0.0,10,0.5,0.5,-43.71737949714661,-0.2,-0.02275,-0.001,0.4978323809718935,10,1,100,-0.2225305241996289,-10,-1,-100,14979.283001030562,0.022974100633711712,0.03551372332507747,0.9991050826392897,28.732214955854193,0.021513024977466634,103.49625918650928,-31.488682088794636,105.73933410644531,5356.25390625,True
1599563993.9422667,0.0,10,0.5,0.5,-44.3718580657959,-0.2,-0.02275,-0.001,0.3874724583572987,10,1,100,-0.254261527542607,-10,-1,-100,14979.283001030562,0.022974100633711712,0.03551372332507747,0.9991050826392897,28.732214955854193,0.021513024977466634,103.49625918650928,-31.488682088794636,105.73933410644531,5356.25390625,True
1599563994.0021422,0.0,10,0.5,0.5,-40.844471372222905,-0.2,-0.02275,-0.001,0.6928629911090761,10,1,100,-0.20109722210627956,-10,-1,-100,14976.6816735717,0.02249320002298186,0.03828603020776271,0.9990136314603802,27.076988831435706,0.020043603741024547,99.86787056726118,-32.23060372958724,88.89974975585938,5356.25390625,True
1599563994.0459933,0.0,10,0.5,0.5,-39.80702103309632,-0.2,-0.02275,-0.001,0.5009739918052574,10,1,100,-0.24300198443324952,-10,-1,-100,14976.031358044827,0.02243977689974806,0.03905531147107057,0.9989850544720812,26.465376451996427,0.019634280181600513,98.18299351656687,-32.41610415915929,84.51950073242188,5356.25390625,True
1599563994.093896,0.0,10,0.5,0.5,-36.92545097312927,-0.2,-0.02275,-0.001,0.7110574978012334,10,1,100,-0.25065902532604345,-10,-1,-100,14974.080459875753,0.02246345546573329,0.04165725096466963,0.9988794054392179,26.472449230764735,0.020245793404813917,99.92322589034892,-32.972613904823106,70.97195434570312,5356.25390625,True
1599563994.151743,0.0,10,0.5,0.5,-35.82472794036866,-0.2,-0.02275,-0.001,0.5533605571845814,10,1,100,-0.25775785187221767,-10,-1,-100,14973.434082606225,0.022551895386614458,0.042579576219341525,0.9988385213353822,27.281030011772152,0.02121576679420809,103.5641309408668,-33.15808954941053,66.31977844238281,5356.25390625,True
1599563994.2095525,0.0,10,0.5,0.5,-33.74364158210755,-0.2,-0.02275,-0.001,0.6790803485481699,10,1,100,-0.2849982016002019,-10,-1,-100,14972.070067974506,0.022881955015951267,0.044550941276344014,0.9987450274049127,28.674392199538115,0.023137543247960843,110.09122558549585,-33.5289921023519,56.81178283691406,5356.25390625,True
1599563994.2614172,0.0,10,0.5,0.5,-32.59660488243103,-0.2,-0.02275,-0.001,0.597851987998574,10,1,100,-0.2799758063482056,-10,-1,-100,14971.418838672573,0.02313775503968138,0.04559326638947993,0.998692093866604,29.243978769684983,0.024027596754988167,112.90906408024871,-33.7144211882723,51.95588684082031,5356.25390625,True
1599563994.3152704,0.0,10,0.5,0.5,-28.384717512893676,-0.2,-0.02275,-0.001,0.9661707640762593,10,1,100,-0.4285747542818681,-10,-1,-100,14968.694872339838,0.024722033934923695,0.04987742296637671,0.9984493295687836,30.676742325144343,0.026559692606789264,121.08847850592396,-34.45603209797826,31.8486328125,5356.25390625,True
1599563994.3731155,0.0,10,0.5,0.5,-26.080606114196776,-0.2,-0.02275,-0.001,0.7789181183506153,10,1,100,-0.39925822238730624,-10,-1,-100,14967.269466778962,0.02589516718865212,0.05205415507886502,0.9983084719941513,30.799081112294655,0.026941897388737465,122.90138871813558,-34.82680825989421,21.384506225585938,5356.25390625,True
1599563994.4319587,0.0,10,0.5,0.5,-25.88093454208374,-0.2,-0.02275,-0.001,0.5630096909110568,10,1,100,-0.2822050159086921,-10,-1,-100,14967.269466778962,0.02589516718865212,0.05205415507886502,0.9983084719941513,30.799081112294655,0.026941897388737465,122.90138871813558,-34.82680825989421,21.384506225585938,5356.25390625,True
1599563994.4888062,0.0,10,0.5,0.5,-21.316482951354985,-0.2,-0.02275,-0.001,1.017168075115885,10,1,100,-0.6613277670710745,-10,-1,-100,14964.483204371645,0.02933908213871474,0.05616783090640547,0.9979901768206575,29.525653834807706,0.025958809100668414,120.37419471534933,-35.56841566507159,-0.36944580078125,5356.25390625,True
1599563994.5616145,0.0,10,0.5,0.5,-19.96909742469788,-0.2,-0.02275,-0.001,0.7143115923897616,10,1,100,-0.42692261430650696,-10,-1,-100,14963.769561770838,0.03033317163045287,0.05713551899067628,0.9979055221655523,28.88579096071856,0.02549196784856537,118.39118551711832,-35.75384092960992,-5.9801025390625,5356.25390625,True
1599563994.6334217,0.0,10,0.5,0.5,-18.617208559799195,-0.2,-0.02275,-0.001,0.7208278604520726,10,1,100,-0.4463430647105619,-10,-1,-100,14962.99440134014,0.031406311652426695,0.058057338332595375,0.997819116400425,28.122597163015147,0.024992066014674255,115.8725505301725,-35.939277443208766,-11.659942626953125,5356.25390625,True
1599563994.6822972,0.0,10,0.5,0.5,-13.696731075668337,-0.2,-0.02275,-0.001,0.9362772870804519,10,1,100,-0.888788759813056,-10,-1,-100,14960.08221764071,0.03639597568719587,0.06083671249745116,0.9974839484253766,29.05947053377485,0.027537089293517898,122.25154339484168,-36.68098571634791,-35.07958984375,5356.25390625,True
1599563994.7521114,0.0,10,0.5,0.5,-12.267025458145142,-0.2,-0.02275,-0.001,0.7171222337098018,10,1,100,-0.5391499862412599,-10,-1,-100,14959.37051982386,0.03774083366795018,0.06135366174255707,0.9974023048222957,29.72425646198912,0.028730203514824162,125.69195614853794,-36.866367815244914,-41.108734130859375,5356.25390625,True
1599563994.8868449,0.0,10,0.5,0.5,-8.307952618408205,-0.2,-0.02275,-0.001,0.7587275733465932,10,1,100,-0.8498947681497013,-10,-1,-100,14957.170916805626,0.041774576269365996,0.06218477861160308,0.9971900210524275,30.822865663192985,0.03128973062748319,132.33913845211208,-37.42243500649145,-59.61968994140625,5356.25390625,True
1599563994.950674,0.0,10,0.5,0.5,-2.90392737159729,-0.2,-0.02275,-0.001,0.6732141589917914,10,1,100,-1.027947633818668,-10,-1,-100,14954.132454013452,0.04704310230286787,0.06214691396447829,0.996957726089935,30.286067064454,0.03167886331912726,132.65846087470783,-38.16381464899379,-85.2796630859375,5356.25390625,True
1599563995.0308063,0.0,10,0.5,0.5,0.04596094131469754,-0.2,-0.02275,-0.001,0.6180027244774463,10,1,100,-0.749660857762134,-10,-1,-100,14952.58089942846,0.049281059508025464,0.06159552065552989,0.9968838292443812,28.99977713881809,0.030631452888278763,128.2827216132579,-38.534553562229995,-98.53009796142578,5356.25390625,True
1599563995.0928996,0.0,10,0.5,0.5,0.3293221189498903,-0.2,-0.02275,-0.001,0.6743138651412015,10,1,100,-0.528321039803685,-10,-1,-100,14952.58089942846,0.049281059508025464,0.06159552065552989,0.9968838292443812,28.99977713881809,0.030631452888278763,128.2827216132579,-38.534553562229995,-98.53009796142578,5356.25390625,True
1599563995.1582377,0.0,10,0.5,0.5,4.6928057075500496,-0.2,-0.02275,-0.001,0.5479694331278546,10,1,100,-0.83869070306081,-10,-1,-100,14950.256852216087,0.05208134199916353,0.06043826094124795,0.9968122944817465,27.361953318984117,0.0298166631743436,122.82016059035176,-39.090739951676085,-118.88172912597656,5356.25390625,True
1599563995.2180772,0.0,10,0.5,0.5,7.736435341644288,-0.2,-0.02275,-0.001,0.5565956739091922,10,1,100,-0.7229297668394288,-10,-1,-100,14948.643609971856,0.05355087559381239,0.05945700511185618,0.996793443129651,29.23212316662002,0.03284508745915701,132.4838018900511,-39.46146142840648,-132.53782653808594,5356.25390625,True
1599563995.2770376,0.0,10,0.5,0.5,12.094439193344117,-0.2,-0.02275,-0.001,0.5013792491647768,10,1,100,-0.7435235237635085,-10,-1,-100,14946.251984729199,0.05505202047602563,0.058059996701818564,0.9967940167479398,30.660040027933178,0.03576170195742131,140.95078628478188,-40.01742357207707,-152.79144287109375,5356.25390625,True
1599563995.3438601,0.0,10,0.5,0.5,15.058730860519411,-0.2,-0.02275,-0.001,0.5483931419443138,10,1,100,-0.6657823601419447,-10,-1,-100,14944.63865541853,0.0556874881098002,0.057216547647315485,0.9968074891087765,30.745686492832526,0.03635893008034267,142.67923965800517,-40.38803816927243,-165.97825622558594,5356.25390625,True
