Timestamp,Input Throttle,horizon,dT,dt,Input Roll,Roll P,Roll I,Roll D,Input Pitch,Pitch P,Pitch I,Pitch D,Input Yaw,Yaw P,Yaw I,Yaw D,Altitude,Direction X,Direction Y,Direction Z,Drag X,Drag Y,Drag Z,Vertical Velocity,Roll,Mass,Has Fuel
1599560589.6622949,0.0,10,0.5,0.5,-5.849973419189453,-0.1005,-0.001,-0.001,-0.00029910785164592946,10,1,100,0.1749909038124458,-10,-1,-100,14993.944126598188,-0.016811990515420556,-7.452499195152669e-05,0.9998586657227784,28.644426328128436,0.027275080709976227,-87.50340384883346,27.008978578181797,-31.79132080078125,5356.25390625,True
1599560589.6918197,0.0,10,0.5,0.5,-5.855920126342774,-0.1005,-0.001,-0.001,-0.0002217955372440317,10,1,100,0.17776553564973735,-10,-1,-100,14995.009559584432,-0.016884394437638645,-6.969856575637771e-05,0.9998574460224738,28.49917277531674,0.02760241949745291,-85.86397278935145,26.637047502083597,-31.790069580078125,5356.25390625,True
1599560589.7263565,0.0,10,0.5,0.5,-5.861739868164063,-0.1005,-0.001,-0.001,-0.0007114080133345676,10,1,100,0.17221358287169236,-10,-1,-100,14995.009559584432,-0.016884394437638645,-6.969856575637771e-05,0.9998574460224738,28.49917277531674,0.02760241949745291,-85.86397278935145,26.637047502083597,-31.790069580078125,5356.25390625,True
1599560589.7603145,0.0,10,0.5,0.5,-5.863543359375,-0.1005,-0.001,-0.001,0.003496537241945031,10,1,100,0.18005436489174914,-10,-1,-100,14996.077922269935,-0.016940324824695853,-3.1381155648602835e-05,0.9998565019091773,28.35405788723005,0.027923738805581008,-84.23714318608432,26.26513216757975,-31.82965087890625,5356.25390625,True
1599560589.7912347,0.0,10,0.5,0.5,-5.8594445007324225,-0.1005,-0.001,-0.001,0.0035898108218499355,10,1,100,0.17829439198914493,-10,-1,-100,14996.609173141187,-0.01695977058215628,4.3293234990994595e-06,0.9998561727383882,28.284968243519923,0.02808488362277045,-83.43852246928385,26.079180240714017,-31.927734375,5356.25390625,True
1599560589.8242521,0.0,10,0.5,0.5,-5.795351733398437,-0.1005,-0.001,-0.001,0.016243267934967998,10,1,100,0.18202923767074947,-10,-1,-100,14998.14921399206,-0.016995983712787478,0.00015182088800399384,0.9998555463105921,28.10651068983415,0.028577009655892265,-81.14319983356512,25.521346500868088,-32.61737060546875,5356.25390625,True
1599560589.858184,0.0,10,0.5,0.5,-5.720525115966797,-0.1005,-0.001,-0.001,0.01916118389024444,10,1,100,0.17876722350768914,-10,-1,-100,14999.151166897966,-0.01698379917214003,0.0003122926181582255,0.9998557161105802,28.012289983637697,0.028905386214650258,-79.69583405397174,25.149474016292285,-33.41790771484375,5356.25390625,True
1599560589.8964474,0.0,10,0.5,0.5,-5.617854635620118,-0.1005,-0.001,-0.001,0.026327642489346985,10,1,100,0.17651670407142792,-10,-1,-100,15000.153118195129,-0.01693682323197439,0.0005230417304555881,0.9998564249161761,27.93486083091415,0.02922272284242638,-78.3033887074166,24.777614146138827,-34.493072509765625,5356.25390625,True
1599560589.9257843,0.0,10,0.5,0.5,-5.624480493164063,-0.1005,-0.001,-0.001,0.005305035432656283,10,1,100,0.1829079804111891,-10,-1,-100,15000.153118195129,-0.01693682323197439,0.0005230417304555881,0.9998564249161761,27.93486083091415,0.02922272284242638,-78.3033887074166,24.777614146138827,-34.493072509765625,5356.25390625,True
1599560589.9577885,0.0,10,0.5,0.5,-5.414040127563476,-0.1005,-0.001,-0.001,0.04999462599270727,10,1,100,0.16911499721282164,-10,-1,-100,15001.625769317267,-0.01679603536359653,0.0009288352430647283,0.9998585052201917,27.840449103182852,0.029649324163825153,-76.28633019145568,24.21984599877228,-36.621063232421875,5356.25390625,True
1599560589.9904575,0.0,10,0.5,0.5,-5.42150601196289,-0.1005,-0.001,-0.001,0.009508158256099717,10,1,100,0.18487338758696756,-10,-1,-100,15001.625769317267,-0.01679603536359653,0.0009288352430647283,0.9998585052201917,27.840449103182852,0.029649324163825153,-76.28633019145568,24.21984599877228,-36.621063232421875,5356.25390625,True
1599560590.0270417,0.0,10,0.5,0.5,-5.242162121582032,-0.1005,-0.001,-0.001,0.04615005955035836,10,1,100,0.1692820365494292,-10,-1,-100,15002.56521711545,-0.016654310313393293,0.0012610312909807013,0.9998605121456035,27.783326062353673,0.029877110946639193,-74.96383809142634,23.848014572350866,-38.38323974609375,5356.25390625,True
1599560590.0581017,0.0,10,0.5,0.5,-5.036489086914062,-0.1005,-0.001,-0.001,0.05294740413716392,10,1,100,0.1621289277821286,-10,-1,-100,15003.556421035668,-0.01646065026452784,0.0016236119854600572,0.9998631960808387,27.722171784942972,0.030037214625989433,-73.63536515921811,23.476194288203164,-40.420440673828125,5356.25390625,True
1599560590.0920112,0.0,10,0.5,0.5,-4.923825772094727,-0.1005,-0.001,-0.001,0.03949371249284253,10,1,100,0.16949989912778243,-10,-1,-100,15003.964620431187,-0.016351989727040748,0.0018293851377190803,0.9998646237276247,27.687401784828822,0.030085263927375892,-72.96198170325134,23.29028860020992,-41.5419921875,5356.25390625,True
1599560590.1260445,0.0,10,0.5,0.5,-4.3988232421875,-0.1005,-0.001,-0.001,0.1165452984085812,10,1,100,0.11767276556140824,-10,-1,-100,15005.833742421237,-0.015782586510628766,0.002715228996921846,0.9998717605245827,27.490469772891103,0.029997684940132878,-70.1353404868039,22.546697714857043,-46.715911865234375,5356.25390625,True
1599560590.1609538,0.0,10,0.5,0.5,-4.402518344116212,-0.1005,-0.001,-0.001,0.02823200245564691,10,1,100,0.17449536879545366,-10,-1,-100,15005.833742421237,-0.015782586510628766,0.002715228996921846,0.9998717605245827,27.490469772891103,0.029997684940132878,-70.1353404868039,22.546697714857043,-46.715911865234375,5356.25390625,True
1599560590.191869,0.0,10,0.5,0.5,-4.2523772888183595,-0.1005,-0.001,-0.001,0.05522501754198789,10,1,100,0.15526836722385107,-10,-1,-100,15006.239010607824,-0.01560889867561616,0.0029582896721532023,0.9998737974386318,27.419677220397283,0.02989204981285449,-69.3792829327378,22.360808982225894,-48.181243896484375,5356.25390625,True
1599560590.224806,0.0,10,0.5,0.5,-3.587626159667969,-0.1005,-0.001,-0.001,0.1427556245619248,10,1,100,0.08083802660203779,-10,-1,-100,15008.040744393365,-0.01477561109313051,0.003972581261586594,0.9998829431063141,27.002214061674035,0.02906434202701498,-66.05630827530783,21.617298444573137,-54.73040771484375,5356.25390625,True
1599560590.2583883,0.0,10,0.5,0.5,-3.5921515899658205,-0.1005,-0.001,-0.001,0.04167141957169878,10,1,100,0.16395066363671842,-10,-1,-100,15008.040744393365,-0.01477561109313051,0.003972581261586594,0.9998829431063141,27.002214061674035,0.02906434202701498,-66.05630827530783,21.617298444573137,-54.73040771484375,5356.25390625,True
1599560590.2945535,0.0,10,0.5,0.5,-3.0182084381103516,-0.1005,-0.001,-0.001,0.1265189731346522,10,1,100,0.07917835990401897,-10,-1,-100,15009.316114892019,-0.014006918524777645,0.004740786712585142,0.9998906596097326,26.497796411198944,0.027982654767445925,-63.15427439790356,21.05972313027971,-60.365081787109375,5356.25390625,True
1599560590.3255193,0.0,10,0.5,0.5,-2.6053087982177736,-0.1005,-0.001,-0.001,0.11023644976202099,10,1,100,0.09117313687354558,-10,-1,-100,15010.123718175804,-0.013419686086760573,0.005287666954223975,0.9998959708907292,26.041495852590394,0.02704248446695347,-60.974004868144505,20.688040697065436,-64.46517944335938,5356.25390625,True
1599560590.3586178,0.0,10,0.5,0.5,-2.60662448425293,-0.1005,-0.001,-0.001,0.05598430876925365,10,1,100,0.14955874574756922,-10,-1,-100,15010.123718175804,-0.013419686086760573,0.005287666954223975,0.9998959708907292,26.041495852590394,0.02704248446695347,-60.974004868144505,20.688040697065436,-64.46517944335938,5356.25390625,True
1599560590.3919513,0.0,10,0.5,0.5,-1.9272329498291016,-0.1005,-0.001,-0.001,0.1369048650339752,10,1,100,0.04382647766736854,-10,-1,-100,15011.331704451353,-0.012461424217146596,0.006019647796936677,0.9999042337878569,25.136055556651666,0.025344203736548727,-57.2721966753683,20.130579621545714,-71.13299560546875,5356.25390625,True
1599560590.427855,0.0,10,0.5,0.5,-1.930829510498047,-0.1005,-0.001,-0.001,0.06414638434385266,10,1,100,0.13925274202402804,-10,-1,-100,15011.331704451353,-0.012461424217146596,0.006019647796936677,0.9999042337878569,25.136055556651666,0.025344203736548727,-57.2721966753683,20.130579621545714,-71.13299560546875,5356.25390625,True
1599560590.458773,0.0,10,0.5,0.5,-1.441761981201172,-0.1005,-0.001,-0.001,0.11913483586285893,10,1,100,0.059753740084058954,-10,-1,-100,15012.135400546249,-0.0117422428954286,0.006515733481055627,0.9999098284090363,24.360629959059512,0.02406638605921712,-54.483626274738185,19.75898605726916,-75.9222412109375,5356.25390625,True
1599560590.4916883,0.0,10,0.5,0.5,-0.6619120880126954,-0.1005,-0.001,-0.001,0.1404661778488569,10,1,100,0.007176901288040008,-10,-1,-100,15013.282840179978,-0.010614143471734975,0.007157186753323623,0.999918053960493,22.899621495529423,0.022039899218847303,-49.77556240921421,19.201672491064553,-83.6239013671875,5356.25390625,True
1599560590.525627,0.0,10,0.5,0.5,-0.39134512939453125,-0.1005,-0.001,-0.001,0.09807117892090074,10,1,100,0.07637144105378321,-10,-1,-100,15013.681270697387,-0.010222338396282886,0.007350878867170926,0.9999207310470126,22.346766051536697,0.021378500018451152,-48.10534400622293,19.01592149368209,-86.3291015625,5356.25390625,True
1599560590.5616958,0.0,10,0.5,0.5,0.17850890197753908,-0.1005,-0.001,-0.001,0.11783234132768497,10,1,100,0.027578680217933763,-10,-1,-100,15014.420514293364,-0.009427478283981749,0.007702616275098315,0.99992589343197,21.184408211602722,0.02015443046342549,-44.71489645131127,18.644446937530613,-91.9324951171875,5356.25390625,True
1599560590.5916154,0.0,10,0.5,0.5,0.17662571716308595,-0.1005,-0.001,-0.001,0.0830316040362973,10,1,100,0.10652987816713257,-10,-1,-100,15014.420514293364,-0.009427478283981749,0.007702616275098315,0.99992589343197,21.184408211602722,0.02015443046342549,-44.71489645131127,18.644446937530613,-91.9324951171875,5356.25390625,True
1599560590.7891977,0.0,10,0.5,0.5,0.7683585830688476,-0.1005,-0.001,-0.001,0.11766444689930086,10,1,100,0.015385976007985067,-10,-1,-100,15015.153899840545,-0.008603759294179635,0.008014069360204245,0.9999308726198514,22.156388569300265,0.021166202777641953,-45.83739264220452,18.272976119028915,-97.72572326660156,5356.25390625,True
1599560590.8151274,0.0,10,0.5,0.5,1.3589619262695314,-0.1005,-0.001,-0.001,0.11503964644447448,10,1,100,0.006778357930858861,-10,-1,-100,15015.895098397741,-0.007781584738413472,0.008270370994667925,0.9999355218725703,23.10195145147819,0.022323132672732133,-46.82462372899055,17.901493037093317,-103.56474304199219,5356.25390625,True
1599560590.84405,0.0,10,0.5,0.5,1.357032862854004,-0.1005,-0.001,-0.001,0.08970775340215088,10,1,100,0.0884320033726404,-10,-1,-100,15015.895098397741,-0.007781584738413472,0.008270370994667925,0.9999355218725703,23.10195145147819,0.022323132672732133,-46.82462372899055,17.901493037093317,-103.56474304199219,5356.25390625,True
1599560590.8811584,0.0,10,0.5,0.5,1.9477304016113282,-0.1005,-0.001,-0.001,0.11295799641603196,10,1,100,-0.004806223697729706,-10,-1,-100,15016.57282151177,-0.006939090038999514,0.008479025291120986,0.9999399757783181,23.869276149162754,0.02341995264076355,-47.37846652934201,17.52999465057568,-109.34590148925781,5356.25390625,True
1599560590.9715345,0.0,10,0.5,0.5,2.231749602508545,-0.1005,-0.001,-0.001,0.10182782117402128,10,1,100,0.03381847378999167,-10,-1,-100,15016.967347049387,-0.006529339684128062,0.008565291806156231,0.9999420000677861,24.179574074864778,0.023915808366515804,-47.48704665145412,17.344239833777614,-112.1634292602539,5356.25390625,True
1599560591.000422,0.0,10,0.5,0.5,2.7853533401489257,-0.1005,-0.001,-0.001,0.10826114389072831,10,1,100,-0.018233802610374245,-10,-1,-100,15017.641164530301,-0.005689029652907978,0.008699886440877228,0.9999459719992496,24.682723177152067,0.02478524587670836,-47.43919480892645,16.972721145971185,-117.60498809814453,5356.25390625,True
1599560591.0243561,0.0,10,0.5,0.5,3.3088813331604006,-0.1005,-0.001,-0.001,0.10544078216675867,10,1,100,-0.023344498261471378,-10,-1,-100,15018.313030589372,-0.004884153494282037,0.008794619954078571,0.9999493985720016,25.096680437231118,0.025507915014920494,-47.181167972826984,16.601193234371024,-122.77544403076172,5356.25390625,True
1599560591.0532775,0.0,10,0.5,0.5,4.042553960418701,-0.1005,-0.001,-0.001,0.10264114071557907,10,1,100,-0.07515446940936042,-10,-1,-100,15019.260283821495,-0.0036866572396207836,0.008853801468159292,0.9999540083213627,25.410451381012265,0.02608276818259687,-46.17047671845711,16.043897562117312,-130.01611328125,5356.25390625,True
1599560591.0782115,0.0,10,0.5,0.5,4.270682152557374,-0.1005,-0.001,-0.001,0.09742751240224738,10,1,100,0.0019248926296725755,-10,-1,-100,15019.596217662678,-0.0033046872822441826,0.008858839930292397,0.9999552989994381,25.443204100642266,0.02613858907324135,-45.69570926120039,15.858134424836345,-132.29197692871094,5356.25390625,True
1599560591.102148,0.0,10,0.5,0.5,4.272442237091065,-0.1005,-0.001,-0.001,0.09703928855445629,10,1,100,0.039509609267158914,-10,-1,-100,15019.596217662678,-0.0033046872822441826,0.008858839930292397,0.9999552989994381,25.443204100642266,0.02613858907324135,-45.69570926120039,15.858134424836345,-132.29197692871094,5356.25390625,True
1599560591.1260848,0.0,10,0.5,0.5,4.5004918571472174,-0.1005,-0.001,-0.001,0.09668969000696523,10,1,100,-0.0025740986729163445,-10,-1,-100,15019.87160532584,-0.0029276742927905326,0.00885461064926503,0.9999565113511112,25.444271647663,0.026129677585820653,-45.16330341539794,15.672373506602746,-134.49900817871094,5356.25390625,True
1599560591.1591458,0.0,10,0.5,0.5,5.1320718498229985,-0.1005,-0.001,-0.001,0.09075556630938907,10,1,100,-0.0852437456071891,-10,-1,-100,15020.81495652534,-0.0018385530438859976,0.008796055140817584,0.9999596237532115,25.281758333278,0.025748303861896117,-43.28204366958098,15.11511147055921,-140.7069854736328,5356.25390625,True
1599560591.1951194,0.0,10,0.5,0.5,5.325630327606202,-0.1005,-0.001,-0.001,0.09330035349953839,10,1,100,-0.014857223428810573,-10,-1,-100,15021.083509000018,-0.0014937230480439774,0.008765479394733855,0.999960466799781,25.180314710639298,0.025518128687691977,-42.579562718800894,14.929366339007169,-142.63853454589844,5356.25390625,True
1599560591.2261698,0.0,10,0.5,0.5,5.327606157684327,-0.1005,-0.001,-0.001,0.09640743894791791,10,1,100,0.018996989986354497,-10,-1,-100,15021.083509000018,-0.0014937230480439774,0.008765479394733855,0.999960466799781,25.180314710639298,0.025518128687691977,-42.579562718800894,14.929366339007169,-142.63853454589844,5356.25390625,True
1599560591.259146,0.0,10,0.5,0.5,5.702046344757081,-0.1005,-0.001,-0.001,0.08934877451059872,10,1,100,-0.053972638176180254,-10,-1,-100,15021.690927444957,-0.0008353131256490756,0.008701049305209487,0.9999617962667224,24.92034474440145,0.024934816294245488,-41.09325973598021,14.557891781306884,-146.2947998046875,5356.25390625,True
1599560591.2918658,0.0,10,0.5,0.5,6.044968186950683,-0.1005,-0.001,-0.001,0.08494151533028492,10,1,100,-0.058676548068075284,-10,-1,-100,15022.2924867142,-0.00019917222132600926,0.008602287088094433,0.9999629798083928,24.624972318922964,0.024249293758649138,-39.57191655286774,14.186439900272614,-149.6757354736328,5356.25390625,True
1599560591.3278606,0.0,10,0.5,0.5,6.205893981170655,-0.1005,-0.001,-0.001,0.08825161757014936,10,1,100,-0.029269688869145223,-10,-1,-100,15022.562993340194,0.00010681182858506703,0.008542683819582045,0.9999635049062502,24.47482715640523,0.023886314243333,-38.81665445422869,14.00072261375938,-151.26292419433594,5356.25390625,True
1599560591.3598075,0.0,10,0.5,0.5,6.508348922729493,-0.1005,-0.001,-0.001,0.08164754631034923,10,1,100,-0.06286682540820736,-10,-1,-100,15023.107912943116,0.000685870419474913,0.008428691051422143,0.9999642427351727,24.145308701707947,0.023110076467917524,-37.279927448025816,13.629305678525702,-154.2303466796875,5356.25390625,True
1599560591.3925014,0.0,10,0.5,0.5,6.907118444824219,-0.1005,-0.001,-0.001,0.0731382124659026,10,1,100,-0.09374330937579674,-10,-1,-100,15023.91455193609,0.0014890076039354985,0.008248090145797023,0.9999648753157795,23.61083872750158,0.021890130045827745,-34.96720729311926,13.072223836092986,-158.16448974609375,5356.25390625,True
1599560591.426088,0.0,10,0.5,0.5,7.136990089416504,-0.1005,-0.001,-0.001,0.0777062760496368,10,1,100,-0.06777478155436081,-10,-1,-100,15024.395020724507,0.0019786968869900863,0.008125990582157676,0.9999650259062505,23.254704936820048,0.021088671505413627,-33.46304163059218,12.700863336770674,-160.4425048828125,5356.25390625,True
1599560591.462118,0.0,10,0.5,0.5,7.340722271728516,-0.1005,-0.001,-0.001,0.07882477398978902,10,1,100,-0.0690555021866508,-10,-1,-100,15024.874513103277,0.002430708800815771,0.008025825368621594,0.9999648382727654,22.90000042890186,0.02031071470313649,-31.990750965679908,12.329522553358538,-162.44442749023438,5356.25390625,True
1599560591.493031,0.0,10,0.5,0.5,7.341514891052247,-0.1005,-0.001,-0.001,0.0887584168153329,10,1,100,-0.024390149113442942,-10,-1,-100,15024.874513103277,0.002430708800815771,0.008025825368621594,0.9999648382727654,22.90000042890186,0.02031071470313649,-31.990750965679908,12.329522553358538,-162.44442749023438,5356.25390625,True
1599560591.5279095,0.0,10,0.5,0.5,7.5188944610595705,-0.1005,-0.001,-0.001,0.07756822415109228,10,1,100,-0.07073908365640502,-10,-1,-100,15025.41259961424,0.0028481816040747884,0.007924796553285039,0.9999645421019384,22.556464210264757,0.019571517343502404,-30.56333749587053,11.958199613127064,-164.17059326171875,5356.25390625,True
1599560591.559824,0.0,10,0.5,0.5,7.729606901550294,-0.1005,-0.001,-0.001,0.07367723933247178,10,1,100,-0.09076594204049522,-10,-1,-100,15026.09033650218,0.0034058174972091525,0.007798343843574756,0.9999637924647437,22.07973839100571,0.0185559139450653,-28.526046122500965,11.401244071441962,-166.24237060546875,5356.25390625,True
1599560591.5967164,0.0,10,0.5,0.5,7.785976364135743,-0.1005,-0.001,-0.001,0.08293114531235135,10,1,100,-0.05402361358554971,-10,-1,-100,15026.296391772572,0.003574283922699749,0.007768392466883549,0.9999634376180563,21.93466998667639,0.018244866334593678,-27.877850681476964,11.215598767521685,-166.79489135742188,5356.25390625,True
1599560591.6266313,0.0,10,0.5,0.5,7.787473852539063,-0.1005,-0.001,-0.001,0.08583301729763947,10,1,100,-0.03761793074132497,-10,-1,-100,15026.296391772572,0.003574283922699749,0.007768392466883549,0.9999634376180563,21.93466998667639,0.018244866334593678,-27.877850681476964,11.215598767521685,-166.79489135742188,5356.25390625,True
1599560591.6605947,0.0,10,0.5,0.5,7.943501823425294,-0.1005,-0.001,-0.001,0.07554094988303109,10,1,100,-0.10255077132058638,-10,-1,-100,15027.17823181185,0.00416115205874392,0.007675586303679119,0.9999618843678187,21.441460900474453,0.017140907441361302,-25.44913342490808,10.473043116310462,-168.31524658203125,5356.25390625,True
1599560591.6947541,0.0,10,0.5,0.5,7.943686700439454,-0.1005,-0.001,-0.001,0.08473485645188379,10,1,100,-0.04426939173918514,-10,-1,-100,15027.17823181185,0.00416115205874392,0.007675586303679119,0.9999618843678187,21.441460900474453,0.017140907441361302,-25.44913342490808,10.473043116310462,-168.31524658203125,5356.25390625,True
1599560591.729661,0.0,10,0.5,0.5,7.966173910522461,-0.1005,-0.001,-0.001,0.08256130503153518,10,1,100,-0.05841145662656103,-10,-1,-100,15027.381358134327,0.004286556938048002,0.00765651138599208,0.9999615008904159,21.34235064344729,0.016898745096776666,-24.883052381592424,10.28740925886096,-168.52291870117188,5356.25390625,True
1599560591.7605767,0.0,10,0.5,0.5,7.981281713867188,-0.1005,-0.001,-0.001,0.08152790637745565,10,1,100,-0.09175990205578491,-10,-1,-100,15028.141127961571,0.004701185832831827,0.00763031381738478,0.9999598377749045,21.051347520682675,0.01605041760024522,-22.774191860365864,9.54488624756686,-168.66360473632812,5356.25390625,True
1599560591.7940667,0.0,10,0.5,0.5,7.981963137817383,-0.1005,-0.001,-0.001,0.08409809556170832,10,1,100,-0.05056926147198654,-10,-1,-100,15028.141127961571,0.004701185832831827,0.00763031381738478,0.9999598377749045,21.051347520682675,0.01605041760024522,-22.774191860365864,9.54488624756686,-168.66360473632812,5356.25390625,True
1599560591.827976,0.0,10,0.5,0.5,7.919760867309571,-0.1005,-0.001,-0.001,0.08682852660137944,10,1,100,-0.07491543507474928,-10,-1,-100,15028.6850761869,0.004920450613736928,0.007655495473701097,0.9999585904200283,20.968652470754837,0.015538938035174895,-21.362480548055036,8.987999886825506,-168.04464721679688,5356.25390625,True
1599560591.8629103,0.0,10,0.5,0.5,7.844065243530274,-0.1005,-0.001,-0.001,0.08699416998731421,10,1,100,-0.06468397673495278,-10,-1,-100,15029.02785188763,0.005024505573458942,0.007680230401037992,0.999957883315457,20.976167114260207,0.015246333052876301,-20.488186562385945,8.616741502555001,-167.28726196289062,5356.25390625,True
1599560591.893865,0.0,10,0.5,0.5,7.740236300659181,-0.1005,-0.001,-0.001,0.09017409608806515,10,1,100,-0.0616545016949116,-10,-1,-100,15029.37258024083,0.005089581832870049,0.007731847450580402,0.9999571564280979,21.02562537345749,0.014982535080806866,-19.65235668778317,8.245480512067754,-166.2537841796875,5356.25390625,True
1599560591.9278858,0.0,10,0.5,0.5,7.741270919799805,-0.1005,-0.001,-0.001,0.08500574149452467,10,1,100,-0.055315252187366985,-10,-1,-100,15029.37258024083,0.005089581832870049,0.007731847450580402,0.9999571564280979,21.02562537345749,0.014982535080806866,-19.65235668778317,8.245480512067754,-166.2537841796875,5356.25390625,True
1599560591.9598029,0.0,10,0.5,0.5,7.678268719482423,-0.1005,-0.001,-0.001,0.08811969382575352,10,1,100,-0.05761949885505102,-10,-1,-100,15029.567893731408,0.005109151986294295,0.007760189330879122,0.9999568370822463,21.06491899291221,0.01486008048590108,-19.24614852586596,8.059848505485908,-165.63360595703125,5356.25390625,True
1599560591.9960825,0.0,10,0.5,0.5,7.53187221069336,-0.1005,-0.001,-0.001,0.09274257749662168,10,1,100,-0.0570609331787542,-10,-1,-100,15029.851098512183,0.005120469830474006,0.007827988349191309,0.999956250736561,21.16949980432326,0.014631754803720922,-18.45135173742096,7.688580913365535,-164.18630981445312,5356.25390625,True
1599560592.0270016,0.0,10,0.5,0.5,7.448957241821289,-0.1005,-0.001,-0.001,0.09019707114542466,10,1,100,-0.05520255555570319,-10,-1,-100,15029.992700666771,0.005112992330635344,0.00786634430624104,0.9999559879998132,21.23326978597476,0.014525162917821785,-18.06037977430235,7.502945053103533,-163.35922241210938,5356.25390625,True
1599560592.0599136,0.0,10,0.5,0.5,7.260388702392579,-0.1005,-0.001,-0.001,0.09578918054170033,10,1,100,-0.05125296584270905,-10,-1,-100,15030.26711611799,0.005069423933143985,0.007951877299886428,0.9999555333055533,21.379444504216256,0.014325993844076023,-17.28537926876137,7.1316685774993305,-161.49813842773438,5356.25390625,True
1599560592.0948124,0.0,10,0.5,0.5,7.044653318786621,-0.1005,-0.001,-0.001,0.09761806089357855,10,1,100,-0.046530904591904176,-10,-1,-100,15030.542507449281,0.00498617677223989,0.008045992237386678,0.9999551990214922,21.543603128815537,0.014144608138790891,-16.51176703626407,6.760385582415921,-159.3612518310547,5356.25390625,True
1599560592.1308074,0.0,10,0.5,0.5,6.926916206359864,-0.1005,-0.001,-0.001,0.09368675864685906,10,1,100,-0.048825174881406926,-10,-1,-100,15030.680202875868,0.004931095455014004,0.008095434270671272,0.9999550731115787,21.629534683311068,0.014060367381911814,-16.122617792942865,6.5747415422487485,-158.18939208984375,5356.25390625,True
1599560592.1607263,0.0,10,0.5,0.5,6.5282362167358405,-0.1005,-0.001,-0.001,0.10562960010284492,10,1,100,-0.029590368027184646,-10,-1,-100,15031.095242718002,0.00470595064102283,0.00824853002284506,0.9999549068738182,21.886731050836016,0.01383244111554406,-14.932938406774873,6.017799795470483,-154.26028442382812,5356.25390625,True
1599560592.1937943,0.0,10,0.5,0.5,6.383861549377442,-0.1005,-0.001,-0.001,0.09603434598254235,10,1,100,-0.041674495065052906,-10,-1,-100,15031.173367731506,0.004611324237713941,0.00829993927413744,0.9999549223324121,21.967351005889974,0.01376490810490906,-14.525742536117368,5.832149488192559,-152.812744140625,5356.25390625,True
1599560592.2266994,0.0,10,0.5,0.5,6.229942066955568,-0.1005,-0.001,-0.001,0.09668570239194495,10,1,100,-0.0396563157572245,-10,-1,-100,15031.30715666071,0.004507328769485371,0.008352033007331354,0.999954962751827,22.04266240746943,0.013701841864652732,-14.111736705662569,5.646497805110914,-151.29629516601562,5356.25390625,True
1599560592.2636352,0.0,10,0.5,0.5,5.901151770019532,-0.1005,-0.001,-0.001,0.10218302021579961,10,1,100,-0.023881391390081923,-10,-1,-100,15031.518093416584,0.004269908352361179,0.008448802758127455,0.9999551918034211,22.1693195425311,0.01358847762036868,-13.259829839003741,5.275190986632864,-148.05677795410156,5356.25390625,True
1599560592.2935548,0.0,10,0.5,0.5,5.356916160583496,-0.1005,-0.001,-0.001,0.1074447016084674,10,1,100,-0.0005413825088608909,-10,-1,-100,15031.80129516439,0.003842634868310366,0.008583956948504938,0.9999557739422154,22.26741554298757,0.013442928976275704,-11.91269730371233,4.718223013586871,-142.6808624267578,5356.25390625,True
1599560592.3285255,0.0,10,0.5,0.5,5.164131971740723,-0.1005,-0.001,-0.001,0.09833912415693039,10,1,100,-0.025413191953131194,-10,-1,-100,15031.874536672607,0.0036814631660466155,0.008623297537818108,0.9999560418181047,22.265995353656297,0.013396464944827045,-11.443334706914035,4.532565055918935,-140.75115966796875,5356.25390625,True
1599560592.360497,0.0,10,0.5,0.5,4.751039875793458,-0.1005,-0.001,-0.001,0.10121170803030735,10,1,100,-0.00323201119219603,-10,-1,-100,15032.082542314078,0.003334604526766002,0.008684453100416574,0.9999567294073262,22.195703792958554,0.01329472022966263,-10.472915636026508,4.161245466595666,-136.68536376953125,5356.25390625,True
1599560592.396444,0.0,10,0.5,0.5,4.53562328338623,-0.1005,-0.001,-0.001,0.09744656192148157,10,1,100,-0.017543669300055374,-10,-1,-100,15032.154807439772,0.0031510011900404106,0.008705076730158422,0.9999571454970568,22.121827855412647,0.013235091241455029,-9.972441540934065,3.97558324967605,-134.54925537109375,5356.25390625,True
1599560592.4273632,0.0,10,0.5,0.5,4.311258366394044,-0.1005,-0.001,-0.001,0.09770526749263887,10,1,100,-0.014344432206276868,-10,-1,-100,15032.228048414923,0.0029567491128401624,0.008725492626543103,0.9999575608060113,22.019266150242228,0.01316693662338009,-9.462732930015521,3.789919053409256,-132.34426879882812,5356.25390625,True
1599560592.4622703,0.0,10,0.5,0.5,3.8422069519042967,-0.1005,-0.001,-0.001,0.09758902705369835,10,1,100,0.011232868677239858,-10,-1,-100,15032.37160040543,0.00254948033249833,0.008742378073457758,0.9999585346281389,21.71700677620686,0.01299391243062874,-8.418560352544626,3.4185827287586066,-127.72796630859375,5356.25390625,True
1599560592.4942372,0.0,10,0.5,0.5,3.34729271774292,-0.1005,-0.001,-0.001,0.09494744999649365,10,1,100,0.01859271284154032,-10,-1,-100,15032.51515214832,0.002114493417168947,0.008733126012130322,0.9999596298989499,21.27304590394627,0.0127569235474242,-7.350798526222221,3.0472329909225633,-122.83649444580078,5356.25390625,True
1599560592.529837,0.0,10,0.5,0.5,2.824635469055176,-0.1005,-0.001,-0.001,0.09150403977644839,10,1,100,0.02568239281619782,-10,-1,-100,15032.598157154862,0.0016569550009397612,0.008692970776205618,0.999960842612954,20.67555756792327,0.012438092547083295,-6.273754388388283,2.675865413915735,-117.66992950439453,5356.25390625,True
1599560592.5607398,0.0,10,0.5,0.5,2.5536203369140624,-0.1005,-0.001,-0.001,0.09171676757012008,10,1,100,0.005704401339655465,-10,-1,-100,15032.666514536832,0.0014253148807334085,0.008658042603941932,0.9999615026468563,20.308728178580832,0.012237085444658256,-5.73484344259623,2.490173623620705,-114.98355102539062,5356.25390625,True
1599560592.5936832,0.0,10,0.5,0.5,1.9863974067687988,-0.1005,-0.001,-0.001,0.08490421715135868,10,1,100,0.03503559679120931,-10,-1,-100,15032.748542373534,0.0009508875527032821,0.008564079252989286,0.9999628754905906,19.480908576011828,0.011769760837348427,-4.680676097122123,2.1187719088349635,-109.40445709228516,5356.25390625,True
1599560592.6284766,0.0,10,0.5,0.5,1.6945060707092288,-0.1005,-0.001,-0.001,0.08764999461714722,10,1,100,0.014174317916131527,-10,-1,-100,15032.759282811894,0.0007122552631762905,0.008503514841362357,0.9999635908010764,19.036789976921543,0.011508777573213861,-4.17308460537958,1.9330607933955712,-106.51179504394531,5356.25390625,True
1599560592.6634104,0.0,10,0.5,0.5,0.4495751380920411,-0.1005,-0.001,-0.001,0.05696000579049103,10,1,100,0.09585351489799,-10,-1,-100,15032.907712251064,-0.00024437553658774783,0.00816952951610204,0.9999665989762271,16.908506583599074,0.010196526242302491,-2.2820922339289376,1.1901450691657645,-94.25360107421875,5356.25390625,True
1599560592.694327,0.0,10,0.5,0.5,0.45718357620239264,-0.1005,-0.001,-0.001,0.09031316151435113,10,1,100,0.0005830187918495935,-10,-1,-100,15032.907712251064,-0.00024437553658774783,0.00816952951610204,0.9999665989762271,16.908506583599074,0.010196526242302491,-2.2820922339289376,1.1901450691657645,-94.25360107421875,5356.25390625,True
1599560592.7280812,0.0,10,0.5,0.5,-0.21102844161987308,-0.1005,-0.001,-0.001,0.06565528602580203,10,1,100,0.05319539988776807,-10,-1,-100,15032.929192564101,-0.0007194162919475942,0.007945835124010061,0.9999681725656977,15.650794453899897,0.00943010648023528,-1.4530329079586108,0.8186652081628099,-87.7120361328125,5356.25390625,True
1599560592.7609696,0.0,10,0.5,0.5,-0.549323217010498,-0.1005,-0.001,-0.001,0.07507024502780624,10,1,100,0.029712341961256227,-10,-1,-100,15032.934073408367,-0.000934270617959176,0.007828757341768435,0.9999689183654141,15.866005267502851,0.009556512285139518,-1.1388201242442106,0.632925134920665,-84.36077880859375,5356.25390625,True
1599560592.7970428,0.0,10,0.5,0.5,-1.5897328330993654,-0.1005,-0.001,-0.001,0.04177606164367928,10,1,100,0.08004045014808439,-10,-1,-100,15032.94871586305,-0.0015835836980946888,0.007420463813770144,0.9999712140754152,17.7637586702515,0.010725791626301611,-0.15252461810730367,0.07571138086859897,-74.12469482421875,5356.25390625,True
1599560592.8275774,0.0,10,0.5,0.5,-2.276397069549561,-0.1005,-0.001,-0.001,0.049123559265902984,10,1,100,0.0594709438480167,-10,-1,-100,15032.963360262103,-0.0019831154736440005,0.0071172850523916285,0.9999727053807524,18.760378025028167,0.011356360628570006,0.6292717624164381,-0.295764414263578,-67.31149291992188,5356.25390625,True
1599560592.8614817,0.0,10,0.5,0.5,-2.275136367797852,-0.1005,-0.001,-0.001,0.07927985130778063,10,1,100,0.019927527182166824,-10,-1,-100,15032.963360262103,-0.0019831154736440005,0.0071172850523916285,0.9999727053807524,18.760378025028167,0.011356360628570006,0.6292717624164381,-0.295764414263578,-67.31149291992188,5356.25390625,True
1599560592.8944874,0.0,10,0.5,0.5,-2.9523742988586426,-0.1005,-0.001,-0.001,0.04549435026272793,10,1,100,0.06032234286561394,-10,-1,-100,15032.91355167341,-0.0023470319157893526,0.006811576575367344,0.9999740465960825,19.577309073270097,0.011854352998225178,1.4814915539274787,-0.667248844129614,-60.688812255859375,5356.25390625,True
1599560592.9303918,0.0,10,0.5,0.5,-3.596750580596924,-0.1005,-0.001,-0.001,0.03987870916300905,10,1,100,0.061896322958822914,-10,-1,-100,15032.91745458392,-0.0026887445487720064,0.006484287100828345,0.999975362033258,20.11558688366216,0.012179420482366516,2.3697846195214263,-1.038746140315068,-54.328521728515625,5356.25390625,True
1599560592.9608192,0.0,10,0.5,0.5,-3.908271815490723,-0.1005,-0.001,-0.001,0.05309373313122204,10,1,100,0.04582113369961948,-10,-1,-100,15032.861788848182,-0.002849945556307592,0.006308778516551337,0.9999760382748956,20.28934226640286,0.012285296983627389,2.8177209202565727,-1.224499962579868,-51.250946044921875,5356.25390625,True
1599560592.9947248,0.0,10,0.5,0.5,-4.80598514099121,-0.1005,-0.001,-0.001,0.01558131573332356,10,1,100,0.07752687030360457,-10,-1,-100,15032.75240872649,-0.0032814875315402762,0.0058101984966139,0.9999777364686728,20.481140104610244,0.012414852328146302,4.138986815565493,-1.781780025959978,-42.43060302734375,5356.25390625,True
1599560593.028634,0.0,10,0.5,0.5,-4.802347097778321,-0.1005,-0.001,-0.001,0.06520338462511849,10,1,100,0.0346763839798314,-10,-1,-100,15032.75240872649,-0.0032814875315402762,0.0058101984966139,0.9999777364686728,20.481140104610244,0.012414852328146302,4.138986815565493,-1.781780025959978,-42.43060302734375,5356.25390625,True
1599560593.0645897,0.0,10,0.5,0.5,-5.369394219970704,-0.1005,-0.001,-0.001,0.027606109766298126,10,1,100,0.06289718761380071,-10,-1,-100,15032.696742144646,-0.003535279280944586,0.005470549935187795,0.9999787872169151,20.390269809970945,0.012380937949227473,4.979966350314228,-2.153312005807244,-36.894989013671875,5356.25390625,True
1599560593.0945127,0.0,10,0.5,0.5,-6.15930403442383,-0.1005,-0.001,-0.001,0.00766683495577454,10,1,100,0.07445133944722829,-10,-1,-100,15032.521933866665,-0.00386847692162603,0.00498276264033096,0.9999801032834487,19.967491454775075,0.01218452624527145,6.1391110035955245,-2.7106178655354074,-29.108154296875,5356.25390625,True
1599560593.1285205,0.0,10,0.5,0.5,-6.406499279785157,-0.1005,-0.001,-0.001,0.03792408371399819,10,1,100,0.05192100023163974,-10,-1,-100,15032.460409476305,-0.0039638951418277495,0.0048169728107189955,0.999980541964815,19.76086303485302,0.0120881553228934,6.492054737471161,-2.8963867438304725,-26.65045166015625,5356.25390625,True
1599560593.1624134,0.0,10,0.5,0.5,-6.651270172119141,-0.1005,-0.001,-0.001,0.03740402774106816,10,1,100,0.05300019967611018,-10,-1,-100,15032.402791131986,-0.004058285962921105,0.00466389381222971,0.9999808890221611,19.527418982515783,0.011979681074659163,6.826926672237416,-3.0821553074218913,-24.261474609375,5356.25390625,True
1599560593.1984134,0.0,10,0.5,0.5,-7.338670510864258,-0.1005,-0.001,-0.001,0.0031175749212907777,10,1,100,0.07132860491886828,-10,-1,-100,15032.220171379275,-0.0043088311474953405,0.004215266416368895,0.9999818325865633,18.83957436985712,0.011681426209994468,7.777736155043734,-3.639459925059691,-17.5079345703125,5356.25390625,True
1599560593.2293644,0.0,10,0.5,0.5,-7.758930163574219,-0.1005,-0.001,-0.001,0.016223837790833542,10,1,100,0.0618414145149484,-10,-1,-100,15032.040482570883,-0.004448238024641873,0.00392920937225129,0.9999823870909853,18.36081872372784,0.01147858011352029,8.354168746003417,-4.0109976378099095,-13.3499755859375,5356.25390625,True
1599560593.262243,0.0,10,0.5,0.5,-8.153592971801759,-0.1005,-0.001,-0.001,0.01612545226918758,10,1,100,0.06307962525450486,-10,-1,-100,15031.91645782208,-0.00458431782321755,0.003670883433950428,0.9999827541737458,17.829150000866374,0.011239420791696323,8.863997151555695,-4.38253991787747,-9.46734619140625,5356.25390625,True
1599560593.2949018,0.0,10,0.5,0.5,-8.154196459960938,-0.1005,-0.001,-0.001,0.041676705732586,10,1,100,0.04966120272438174,-10,-1,-100,15031.91645782208,-0.00458431782321755,0.003670883433950428,0.9999827541737458,17.829150000866374,0.011239420791696323,8.863997151555695,-4.38253991787747,-9.46734619140625,5356.25390625,True
1599560593.3318207,0.0,10,0.5,0.5,-8.344933108520507,-0.1005,-0.001,-0.001,0.02761479316920779,10,1,100,0.056398475312328666,-10,-1,-100,15031.791457478656,-0.004643989053774422,0.0035454459516311722,0.9999829314436685,17.549078815022803,0.011105244625986535,9.094750746749828,-4.568314088191304,-7.62933349609375,5356.25390625,True
1599560593.3627431,0.0,10,0.5,0.5,-9.022906323242188,-0.1005,-0.001,-0.001,-0.009844868919274032,10,1,100,0.07365888686769621,-10,-1,-100,15031.416456102277,-0.0048539098215819795,0.0030929283601229076,0.9999834365396274,16.570336488926127,0.010581375351464159,9.985180625848075,-5.3114373098954,-0.965972900390625,5356.25390625,True
1599560593.3967204,0.0,10,0.5,0.5,-9.172001333618164,-0.1005,-0.001,-0.001,0.024192371766581566,10,1,100,0.05812103891238651,-10,-1,-100,15031.293409194448,-0.004902064245185997,0.0029934484378381643,0.9999835043802402,16.335351481315964,0.010430808038050668,10.18810039634245,-5.497225600511632,0.527740478515625,5356.25390625,True
1599560593.429458,0.0,10,0.5,0.5,-9.318870666503907,-0.1005,-0.001,-0.001,0.023392423453749644,10,1,100,0.05838678880396379,-10,-1,-100,15031.167432519374,-0.0049470143702364956,0.002897991797914789,0.9999835642111125,16.347848908870173,0.010426062955765317,10.54070466436509,-5.683016392318089,1.95257568359375,5356.25390625,True
1599560593.464391,0.0,10,0.5,0.5,-9.458190835571289,-0.1005,-0.001,-0.001,0.023107922941689445,10,1,100,0.05952567486119311,-10,-1,-100,15031.044385382207,-0.004997251141303933,0.002810521912277006,0.999983564088736,16.710871011762492,0.010632800232612377,11.127266258464564,-5.868808551498985,3.308624267578125,5356.25390625,True
1599560593.495282,0.0,10,0.5,0.5,-9.714125860595704,-0.1005,-0.001,-0.001,0.013368196073675887,10,1,100,0.06328144963390181,-10,-1,-100,15030.796338297194,-0.005076124925663068,0.002644284909168391,0.9999836202223804,17.37141560141168,0.010969312876109395,12.300043565962616,-6.240396608695255,5.813995361328125,5356.25390625,True
1599560593.5282269,0.0,10,0.5,0.5,-10.043663604736327,-0.1005,-0.001,-0.001,0.006930668083948783,10,1,100,0.0680330788010726,-10,-1,-100,15030.418408624828,-0.005190099686634069,0.002436473387256732,0.9999835630962521,18.214017049150556,0.011300926640976124,14.049628070868279,-6.797784466939554,9.05572509765625,5356.25390625,True
1599560593.5621033,0.0,10,0.5,0.5,-10.138779656982422,-0.1005,-0.001,-0.001,0.021102008824873425,10,1,100,0.060653323668478164,-10,-1,-100,15030.290479020681,-0.005225823269457631,0.002378001276826459,0.9999835178047105,18.45915609939898,0.011370516170487642,14.628279617572352,-6.983581164292241,9.99859619140625,5356.25390625,True
1599560593.5981476,0.0,10,0.5,0.5,-10.310607266235351,-0.1005,-0.001,-0.001,0.015864384997555464,10,1,100,0.06544602068467202,-10,-1,-100,15029.976026438293,-0.005301162331040071,0.0022786402399100703,0.9999833525997306,18.901538750401592,0.011456011033030837,15.776745704158985,-7.355174155399031,11.677764892578125,5356.25390625,True
1599560593.629063,0.0,10,0.5,0.5,-10.311042608642579,-0.1005,-0.001,-0.001,0.025661264369790313,10,1,100,0.05798379897721023,-10,-1,-100,15029.976026438293,-0.005301162331040071,0.0022786402399100703,0.9999833525997306,18.901538750401592,0.011456011033030837,15.776745704158985,-7.355174155399031,11.677764892578125,5356.25390625,True
1599560593.6619744,0.0,10,0.5,0.5,-10.455640594482423,-0.1005,-0.001,-0.001,0.016929724913402826,10,1,100,0.06584727817882088,-10,-1,-100,15029.660597004695,-0.005371996828774875,0.0022005282841193116,0.9999831495207018,19.284903769694207,0.011477300168806093,16.910947662877756,-7.726765943350545,13.08154296875,5356.25390625,True
1599560593.695886,0.0,10,0.5,0.5,-10.570842327880861,-0.1005,-0.001,-0.001,0.01861703381984661,10,1,100,0.0668232975719144,-10,-1,-100,15029.343215291738,-0.005444602905039182,0.0021460792395203944,0.9999828751749223,19.614861769279,0.011442551766589138,18.028578690626023,-8.09835542415089,14.2099609375,5356.25390625,True
1599560593.7308166,0.0,10,0.5,0.5,-10.657809132385253,-0.1005,-0.001,-0.001,0.02026280189941719,10,1,100,0.06717407992136123,-10,-1,-100,15029.026809756178,-0.005513260365653108,0.00211240240799075,0.9999825707062134,19.895748498134527,0.011358501839377672,19.127053874970652,-8.469942118086623,15.062942504882812,5356.25390625,True
1599560593.7627313,0.0,10,0.5,0.5,-10.691217204284667,-0.1005,-0.001,-0.001,0.022739184479473457,10,1,100,0.06443687928607877,-10,-1,-100,15028.838333574473,-0.005550236963962776,0.0021051006264459914,0.9999823815552933,20.018975281846064,0.011299804313918372,19.668332975819464,-8.655734228760336,15.38616943359375,5356.25390625,True
1599560593.7957351,0.0,10,0.5,0.5,-10.736894486999514,-0.1005,-0.001,-0.001,0.02367196913792339,10,1,100,0.06881009320956054,-10,-1,-100,15028.5160691489,-0.005623060159372557,0.0021076633139107273,0.9999819693123468,20.232849816272083,0.0111522952749675,20.733244677537964,-9.027315694061746,15.826141357421875,5356.25390625,True
1599560593.8287437,0.0,10,0.5,0.5,-10.754411268615723,-0.1005,-0.001,-0.001,0.026243346889846843,10,1,100,0.0695314231061066,-10,-1,-100,15028.135210795794,-0.005695251691515441,0.0021340081535310335,0.9999815048876509,20.40507117443594,0.010968363153805906,21.771954489956542,-9.398893470874725,15.99072265625,5356.25390625,True
1599560593.8656418,0.0,10,0.5,0.5,-10.744020310974122,-0.1005,-0.001,-0.001,0.02893739440483959,10,1,100,0.07023953969447863,-10,-1,-100,15027.751423103851,-0.005766754938116125,0.002182913236736371,0.9999809895329435,20.536621670667685,0.010751766514918512,22.780283183161128,-9.770467741452768,15.87994384765625,5356.25390625,True
1599560593.8956635,0.0,10,0.5,0.5,-10.7287125289917,-0.1005,-0.001,-0.001,0.027820999013894156,10,1,100,0.06710445755519226,-10,-1,-100,15027.561970750685,-0.005802732910803706,0.0022174538635058283,0.9999807054084239,20.58712847854959,0.010632260655809323,23.27142715826933,-9.956253509934106,15.7213134765625,5356.25390625,True
1599560593.9298055,0.0,10,0.5,0.5,-10.63922465057373,-0.1005,-0.001,-0.001,0.03981757321198644,10,1,100,0.07514568765438634,-10,-1,-100,15026.920371636748,-0.005908017787202046,0.0023580601509273747,0.9999797672343929,20.67561737461539,0.010233642223970753,24.68271336565753,-10.513606375960425,14.83245849609375,5356.25390625,True
1599560593.9627442,0.0,10,0.5,0.5,-10.545353260803223,-0.1005,-0.001,-0.001,0.03953674875640776,10,1,100,0.07210886304050869,-10,-1,-100,15026.476037561195,-0.005975572127932412,0.0024832588990680495,0.9999790627623082,20.67927330989509,0.009938926834852334,25.56165969138545,-10.885171970530388,13.895751953125,5356.25390625,True
1599560593.997757,0.0,10,0.5,0.5,-10.423505586242676,-0.1005,-0.001,-0.001,0.044103860086229504,10,1,100,0.0720681965312179,-10,-1,-100,15026.030727051082,-0.006036002369605654,0.002638409119776899,0.9999783025009645,20.658656045669673,0.00963706542568316,26.410099746527667,-11.256735883686424,12.683868408203125,5356.25390625,True
1599560594.028644,0.0,10,0.5,0.5,-10.424677702331543,-0.1005,-0.001,-0.001,0.02863262609891033,10,1,100,0.06609157291797683,-10,-1,-100,15026.030727051082,-0.006036002369605654,0.002638409119776899,0.9999783025009645,20.658656045669673,0.00963706542568316,26.410099746527667,-11.256735883686424,12.683868408203125,5356.25390625,True
1599560594.062586,0.0,10,0.5,0.5,-10.352541496276855,-0.1005,-0.001,-0.001,0.038205144449152593,10,1,100,0.06928826690172993,-10,-1,-100,15025.829556522076,-0.00606452558812653,0.0027249844412515953,0.9999778977503382,20.63388816310622,0.00948289015296267,26.814959303421208,-11.442517500146623,11.97467041015625,5356.25390625,True
1599560594.096096,0.0,10,0.5,0.5,-10.188026049804689,-0.1005,-0.001,-0.001,0.05094365108520819,10,1,100,0.07207573422845319,-10,-1,-100,15025.320769624203,-0.006115295248640745,0.0029189369919806786,0.9999770412218767,20.545436935496827,0.00916866612500834,27.569488960259502,-11.81408040416191,10.349884033203125,5356.25390625,True
1599560594.1320443,0.0,10,0.5,0.5,-9.996288534545899,-0.1005,-0.001,-0.001,0.05560355613075205,10,1,100,0.07228126769566874,-10,-1,-100,15024.868623736198,-0.006162804282187738,0.0031368804145433943,0.9999760896264692,20.40014368459121,0.008852982380381996,28.23809085263705,-12.185643716043899,8.449798583984375,5356.25390625,True
1599560594.1636996,0.0,10,0.5,0.5,-9.890548886108398,-0.1005,-0.001,-0.001,0.04713000288970171,10,1,100,0.06958257652272443,-10,-1,-100,15024.610812395462,-0.0061809700800920415,0.003257042844590285,0.9999755933425463,20.304197421364186,0.008697462752432968,28.535126292148025,-12.371425697294182,7.396575927734375,5356.25390625,True
1599560594.195746,0.0,10,0.5,0.5,-9.393294192504884,-0.1005,-0.001,-0.001,0.09515558517666362,10,1,100,0.07216356629508244,-10,-1,-100,15023.58738069702,-0.006220506423036867,0.003801856679340694,0.9999734252397063,19.745170079021648,0.0081242630565908,29.422136877001098,-13.114557201983995,2.49560546875,5356.25390625,True
1599560594.2284825,0.0,10,0.5,0.5,-9.396856729125977,-0.1005,-0.001,-0.001,0.04083609604588311,10,1,100,0.068255307149092,-10,-1,-100,15023.58738069702,-0.006220506423036867,0.003801856679340694,0.9999734252397063,19.745170079021648,0.0081242630565908,29.422136877001098,-13.114557201983995,2.49560546875,5356.25390625,True
1599560594.2645063,0.0,10,0.5,0.5,-8.949117532348634,-0.1005,-0.001,-0.001,0.09311859095625072,10,1,100,0.06633009039767626,-10,-1,-100,15022.751448104507,-0.006202624658467421,0.00427571172142055,0.9999716224656685,19.144405047012828,0.007802455575734789,29.743892660986635,-13.671909341331128,-1.902587890625,5356.25390625,True
1599560594.2984116,0.0,10,0.5,0.5,-8.951842221069336,-0.1005,-0.001,-0.001,0.04592485190531447,10,1,100,0.0681477275417474,-10,-1,-100,15022.751448104507,-0.006202624658467421,0.00427571172142055,0.9999716224656685,19.144405047012828,0.007802455575734789,29.743892660986635,-13.671909341331128,-1.902587890625,5356.25390625,True
1599560594.3294501,0.0,10,0.5,0.5,-8.61773280029297,-0.1005,-0.001,-0.001,0.08410540775738723,10,1,100,0.0652718442011674,-10,-1,-100,15022.229967062362,-0.006176273853070752,0.004621178181146345,0.999970248734186,19.854029064768902,0.008153035852544331,31.68807533338673,-14.043466589573947,-5.178741455078125,5356.25390625,True
1599560594.3633244,0.0,10,0.5,0.5,-8.442480490112304,-0.1005,-0.001,-0.001,0.06957073945812102,10,1,100,0.06416147167675645,-10,-1,-100,15021.913563004695,-0.006142096760230532,0.004801302733575222,0.9999696106079667,20.21299885332348,0.008366586583640222,32.689536399401504,-14.22923869990324,-6.9200439453125,5356.25390625,True
1599560594.3993142,0.0,10,0.5,0.5,-8.067828372192384,-0.1005,-0.001,-0.001,0.09324759991659604,10,1,100,0.05934096302196277,-10,-1,-100,15021.333488386008,-0.006067107420431639,0.005178330245756884,0.9999681870456755,20.926668160436982,0.00886668074034139,34.731191501273926,-14.60076777976813,-10.609039306640625,5356.25390625,True
1599560594.4292705,0.0,10,0.5,0.5,-7.455213113403321,-0.1005,-0.001,-0.001,0.12129435857229706,10,1,100,0.047392612612451965,-10,-1,-100,15020.427244398277,-0.005890311578862269,0.005773822748424308,0.9999659830216093,22.088073731896692,0.00983349661499172,38.06418078366922,-15.158015468744974,-16.65875244140625,5356.25390625,True
1599560594.463145,0.0,10,0.5,0.5,-7.01426405029297,-0.1005,-0.001,-0.001,0.10750641805320613,10,1,100,0.04749255237639183,-10,-1,-100,15019.850100165233,-0.005730701160443913,0.006187239304533464,0.9999644379346688,22.813042201211786,0.010552417987991235,40.28143524332286,-15.529478833320518,-21.03607177734375,5356.25390625,True
1599560594.496199,0.0,10,0.5,0.5,-7.015692782592774,-0.1005,-0.001,-0.001,0.06646979833128955,10,1,100,0.0634103839060531,-10,-1,-100,15019.850100165233,-0.005730701160443913,0.006187239304533464,0.9999644379346688,22.813042201211786,0.010552417987991235,40.28143524332286,-15.529478833320518,-21.03607177734375,5356.25390625,True
1599560594.5321424,0.0,10,0.5,0.5,-6.540580871582032,-0.1005,-0.001,-0.001,0.11191234986395457,10,1,100,0.04054495031612679,-10,-1,-100,15019.203619965818,-0.005523242917735172,0.006597689594412289,0.9999629814546573,23.470362803599162,0.011283850476257525,42.43802606584127,-15.900912126111301,-25.68896484375,5356.25390625,True
1599560594.5630898,0.0,10,0.5,0.5,-6.295802026367188,-0.1005,-0.001,-0.001,0.09403723419720789,10,1,100,0.04853055821662963,-10,-1,-100,15018.879402821884,-0.005407874826645708,0.006805783503772549,0.9999622173866166,23.811107064765146,0.011660335058917073,43.55939274257882,-16.086617191307482,-28.11865234375,5356.25390625,True
1599560594.5956395,0.0,10,0.5,0.5,-5.780973419189453,-0.1005,-0.001,-0.001,0.1197260015435017,10,1,100,0.03151371515859858,-10,-1,-100,15018.229992808308,-0.005149034926578995,0.007225763191044155,0.9999606371180977,24.41546749070545,0.012357600357292196,45.70122553161995,-16.458004200237383,-33.18463134765625,5356.25390625,True
1599560594.6295872,0.0,10,0.5,0.5,-4.959152954101563,-0.1005,-0.001,-0.001,0.1441509828768227,10,1,100,0.0050453619619078155,-10,-1,-100,15017.20167845115,-0.00467406234266833,0.007826926326621603,0.9999584453193516,25.078935704639637,0.013145113373180433,48.53995526325643,-17.015033454209984,-41.30047607421875,5356.25390625,True
1599560594.8514464,0.0,10,0.5,0.5,-4.674762725830078,-0.1005,-0.001,-0.001,0.10607539585293574,10,1,100,0.032914214647623743,-10,-1,-100,15016.874532124843,-0.0044970118929067784,0.008024068190924672,0.9999576947119826,25.22162999181445,0.01330931392173148,49.35153273276836,-17.200698672311105,-44.14349365234375,5356.25390625,True
1599560594.8793628,0.0,10,0.5,0.5,-4.378133264160156,-0.1005,-0.001,-0.001,0.10715241627208255,10,1,100,0.02971311939654837,-10,-1,-100,15016.487815374276,-0.004308482674441195,0.008209985625910817,0.9999570156327052,25.319268537473874,0.01341434128721922,50.080106372075186,-17.386359824381504,-47.055572509765625,5356.25390625,True
1599560594.9152987,0.0,10,0.5,0.5,-3.7648754028320317,-0.1005,-0.001,-0.001,0.12652736666210285,10,1,100,0.0042544531293489535,-10,-1,-100,15015.841334565659,-0.003907316977121388,0.008552038585905374,0.9999557967780703,25.365491376815882,0.013431219258961912,51.24875438788051,-17.75767444246873,-53.086669921875,5356.25390625,True
1599560595.0094218,0.0,10,0.5,0.5,-3.4501000366210937,-0.1005,-0.001,-0.001,0.1114709736810868,10,1,100,0.020686209123336977,-10,-1,-100,15015.455594049883,-0.0036939639344517367,0.00872305251485469,0.9999551304860004,25.30675089776475,0.013338281415542531,51.66756875001703,-17.94333029123918,-56.205474853515625,5356.25390625,True
1599560595.0423357,0.0,10,0.5,0.5,-2.457566918945312,-0.1005,-0.001,-0.001,0.1433186318627748,10,1,100,-0.03370291642454905,-10,-1,-100,15014.351106234011,-0.0030075567067207355,0.009165362770309023,0.999953474281651,24.889742780308264,0.012732488775904778,52.40276095232535,-18.500304795310356,-65.97589111328125,5356.25390625,True
1599560595.0717704,0.0,10,0.5,0.5,-1.4081360626220703,-0.1005,-0.001,-0.001,0.13806331028033064,10,1,100,-0.04680843911010893,-10,-1,-100,15013.255406693905,-0.0022668846065999385,0.009516979966821855,0.9999521430181003,23.90778843199462,0.011691351811450224,51.860534980829314,-19.05731326737039,-76.36709594726562,5356.25390625,True
1599560595.0967035,0.0,10,0.5,0.5,-1.0474107910156252,-0.1005,-0.001,-0.001,0.11272505178586986,10,1,100,-0.00011838058920148053,-10,-1,-100,15012.861853042967,-0.0020211503353655034,0.009603257122190888,0.9999518450425335,23.467090866226936,0.011307602800277181,51.403892133173244,-19.24299404520432,-79.96890258789062,5356.25390625,True
1599560595.1216338,0.0,10,0.5,0.5,-0.6730008026123047,-0.1005,-0.001,-0.001,0.11274317341870538,10,1,100,-0.00325144320917653,-10,-1,-100,15012.470252199564,-0.001772456876409307,0.009679123307799624,0.9999515853123158,22.95719110100802,0.010922121266118774,50.775581531013714,-19.42868112822378,-83.63967895507812,5356.25390625,True
1599560595.1495621,0.0,10,0.5,0.5,-0.6711194763183594,-0.1005,-0.001,-0.001,0.10544388883823451,10,1,100,0.02125436089141946,-10,-1,-100,15012.470252199564,-0.001772456876409307,0.009679123307799624,0.9999515853123158,22.95719110100802,0.010922121266118774,50.775581531013714,-19.42868112822378,-83.63967895507812,5356.25390625,True
1599560595.1760073,0.0,10,0.5,0.5,0.4922961723327637,-0.1005,-0.001,-0.001,0.12404105321377204,10,1,100,-0.06222399284441109,-10,-1,-100,15011.245643929928,-0.0010166323679473655,0.00984595811110746,0.99995101058377,21.02623935531176,0.009883914362179936,47.84800713182683,-19.985777429404042,-95.05219268798828,5356.25390625,True
1599560595.2009687,0.0,10,0.5,0.5,0.8835524360656739,-0.1005,-0.001,-0.001,0.11088213906163544,10,1,100,-0.014362523024155381,-10,-1,-100,15010.858925382141,-0.0007679483858703985,0.009876164138381991,0.9999509346148882,21.86878069694162,0.010361970774735592,50.23116371775868,-20.171471156609282,-98.96641540527344,5356.25390625,True
1599560595.2298934,0.0,10,0.5,0.5,1.2872656242370606,-0.1005,-0.001,-0.001,0.11012021915067863,10,1,100,-0.01754565213774853,-10,-1,-100,15010.468300532433,-0.0005163245588650694,0.00989501389494336,0.9999509098495631,22.69130988140287,0.010891240327250624,52.60386451127756,-20.357153325744896,-102.92843627929688,5356.25390625,True
1599560595.2640615,0.0,10,0.5,0.5,2.089178338623047,-0.1005,-0.001,-0.001,0.10901761029912502,10,1,100,-0.04414403513498433,-10,-1,-100,15009.626503211446,-4.9219559899514e-05,0.009900594476558633,0.9999509867020713,24.12474521531882,0.011987195760843845,56.954840168218354,-20.72847981860449,-110.81304168701172,5356.25390625,True
1599560595.2969751,0.0,10,0.5,0.5,2.4801341651916506,-0.1005,-0.001,-0.001,0.10720293510514325,10,1,100,-0.023498229972859143,-10,-1,-100,15009.230995521531,0.00018422484912510576,0.009887944725453908,0.9999510961093604,24.711811225056632,0.01251095825271145,58.867286198526664,-20.914124489184466,-114.68563079833984,5356.25390625,True
1599560595.3328588,0.0,10,0.5,0.5,2.8689048797607426,-0.1005,-0.001,-0.001,0.1061141386588705,10,1,100,-0.0253547531607682,-10,-1,-100,15008.778846642468,0.0004097988965070453,0.009865487809292042,0.9999512509193382,25.20951481871236,0.012994307334658017,60.589965422712744,-21.099757816124594,-118.49642181396484,5356.25390625,True
1599560595.3638132,0.0,10,0.5,0.5,3.989910377502442,-0.1005,-0.001,-0.001,0.09622023653399879,10,1,100,-0.0718157844917508,-10,-1,-100,15007.48392267432,0.001034132537496625,0.009754491388883346,0.9999518890764891,26.358713332182386,0.014153412303951108,65.03676163392097,-21.656600489656757,-129.526611328125,5356.25390625,True
1599560595.3977213,0.0,10,0.5,0.5,3.9841961395263676,-0.1005,-0.001,-0.001,0.10734362971707455,10,1,100,-0.009712522107202482,-10,-1,-100,15007.48392267432,0.001034132537496625,0.009754491388883346,0.9999518890764891,26.358713332182386,0.014153412303951108,65.03676163392097,-21.656600489656757,-129.526611328125,5356.25390625,True
1599560595.431161,0.0,10,0.5,0.5,4.700754632568359,-0.1005,-0.001,-0.001,0.09504247455873073,10,1,100,-0.05151886553128222,-10,-1,-100,15006.63724133186,0.0014114126751038388,0.009642525219928682,0.9999525136833468,26.844105884220753,0.014580108273239852,67.37849211027684,-22.027793851703,-136.5374755859375,5356.25390625,True
1599560595.4670901,0.0,10,0.5,0.5,5.044334268188477,-0.1005,-0.001,-0.001,0.10012477364222996,10,1,100,-0.03271058685472439,-10,-1,-100,15006.183138817432,0.001580515839913041,0.009586973783536136,0.9999527948375132,26.98066979730247,0.014659857446980945,68.29635097266726,-22.213384502443038,-139.939453125,5356.25390625,True
1599560595.4980073,0.0,10,0.5,0.5,5.71619804840088,-0.1005,-0.001,-0.001,0.09051220697028559,10,1,100,-0.051088669902155985,-10,-1,-100,15005.281769753085,0.0018982713149741281,0.009449169280274566,0.9999535538043391,27.060505756649473,0.014564022654292385,69.65237782480426,-22.584561063776764,-146.53684997558594,5356.25390625,True
1599560595.5300407,0.0,10,0.5,0.5,6.666692613983155,-0.1005,-0.001,-0.001,0.08036785032829331,10,1,100,-0.0632151953592993,-10,-1,-100,15003.911649364745,0.0022947311567464907,0.009232031752228512,0.9999547508755803,26.759256051354328,0.013899534135320286,70.58978694416363,-23.14133293706852,-155.9156036376953,5356.25390625,True
1599560595.5639493,0.0,10,0.5,0.5,6.966322423553467,-0.1005,-0.001,-0.001,0.09345445075285516,10,1,100,-0.03616339707375538,-10,-1,-100,15003.452663776116,0.002406439501632224,0.00915418866912462,0.9999552039360238,26.563693169923337,0.013582675677755122,70.6410286882837,-23.326929172484995,-158.90391540527344,5356.25390625,True
1599560595.6028457,0.0,10,0.5,0.5,7.8368189201354985,-0.1005,-0.001,-0.001,0.07764675276906038,10,1,100,-0.05596904557381579,-10,-1,-100,15002.022972722538,0.002685386834201169,0.008940389362110054,0.9999564281185479,25.75110027434911,0.012519263178383281,70.13058104305337,-23.883742689273376,-167.45452880859375,5356.25390625,True
1599560595.637753,0.0,10,0.5,0.5,7.833932455444336,-0.1005,-0.001,-0.001,0.09893066295907206,10,1,100,-0.028347772956331323,-10,-1,-100,15002.022972722538,0.002685386834201169,0.008940389362110054,0.9999564281185479,25.75110027434911,0.012519263178383281,70.13058104305337,-23.883742689273376,-167.45452880859375,5356.25390625,True
1599560595.6646821,0.0,10,0.5,0.5,8.382787874603272,-0.1005,-0.001,-0.001,0.08275954045843054,10,1,100,-0.043399921600949104,-10,-1,-100,15001.048360534129,0.0028199507655294435,0.008794240571525443,0.9999573536958714,25.061284558306184,0.011831195988971708,69.32370138966384,-24.254973875601586,-172.8099822998047,5356.25390625,True
1599560595.6977258,0.0,10,0.5,0.5,8.644128395080568,-0.1005,-0.001,-0.001,0.090383070405853,10,1,100,-0.03637475499622937,-10,-1,-100,15000.533711257507,0.002876225414085857,0.008731656713459426,0.9999577418563275,24.683126107935973,0.011522140187662667,68.80569895148265,-24.440595853240904,-175.38401794433594,5356.25390625,True
1599560595.733637,0.0,10,0.5,0.5,-27.392339689636234,-0.1005,-0.001,-0.001,0.08293452284250957,10,1,100,-0.039851348826246455,-10,-1,-100,14999.555193778826,0.0029573149540676703,0.008607978077983037,0.99995857764293,23.877587118136994,0.011007191755003068,67.5822666290368,-24.811850902530225,179.67489624023438,5356.25390625,True
1599560595.7645562,0.0,10,0.5,0.5,-26.827957723999027,-0.1005,-0.001,-0.001,0.08909352995033246,10,1,100,-0.03512679760681383,-10,-1,-100,14999.040543865878,0.002986333904404867,0.008552576213358256,0.9999589667831005,23.45658593360037,0.010810011473865256,66.89288093900099,-24.997483222125204,177.30796813964844,5356.25390625,True
1599560595.7974734,0.0,10,0.5,0.5,-26.174628103637694,-0.1005,-0.001,-0.001,0.07882202554480112,10,1,100,-0.036286908205315486,-10,-1,-100,14997.54054117261,0.0030218294817620597,0.00840982443183687,0.9999600709026379,24.49683773890814,0.01155278127091568,71.4334495029696,-25.554346176779166,170.5386962890625,5356.25390625,True
1599560595.831528,0.0,10,0.5,0.5,-25.741652519226072,-0.1005,-0.001,-0.001,0.08501681319939142,10,1,100,-0.031056247321170988,-10,-1,-100,14996.497570774867,0.0030052364407383314,0.008337436472178885,0.9999607270823228,25.391991766537565,0.012344909906677838,75.13180900201452,-25.92554689709082,165.9003448486328,5356.25390625,True
1599560595.86646,0.0,10,0.5,0.5,-25.777534590148925,-0.1005,-0.001,-0.001,0.09214443588438036,10,1,100,-0.03282624793612024,-10,-1,-100,14996.497570774867,0.0030052364407383314,0.008337436472178885,0.9999607270823228,25.391991766537565,0.012344909906677838,75.13180900201452,-25.92554689709082,165.9003448486328,5356.25390625,True
1599560595.8973808,0.0,10,0.5,0.5,-25.312767935180663,-0.1005,-0.001,-0.001,0.08637223413223616,10,1,100,-0.027904941526368195,-10,-1,-100,14995.458506630035,0.002959851377664229,0.008285775179232164,0.9999612918555905,26.26015871550532,0.013259123535688115,78.82608595432424,-26.296710634671868,161.00430297851562,5356.25390625,True
1599560595.931374,0.0,10,0.5,0.5,-24.825078092956545,-0.1005,-0.001,-0.001,0.08812089537607071,10,1,100,-0.024290642876972034,-10,-1,-100,14994.415536741144,0.002885231867260506,0.008255496754669907,0.9999617603740685,27.05231049706604,0.014228339412547222,82.36347974325807,-26.667836331695337,155.8360595703125,5356.25390625,True
1599560595.9648192,0.0,10,0.5,0.5,-24.58984680328369,-0.1005,-0.001,-0.001,0.09060507031002694,10,1,100,-0.026442247028849505,-10,-1,-100,14993.892098979559,0.002836774309153226,0.008251176952292404,0.9999619346707258,27.412074165304645,0.014711369994961705,84.0463413705831,-26.853385091600607,153.14907836914062,5356.25390625,True
1599560596.0007708,0.0,10,0.5,0.5,-24.05821931304932,-0.1005,-0.001,-0.001,0.09194841883752972,10,1,100,-0.018831207808659087,-10,-1,-100,14992.78955929773,0.0027233930929858293,0.008260088675299078,0.999962176317253,28.120727320757585,0.01566436981527334,87.42457572219465,-27.224454286849625,147.56903076171875,5356.25390625,True
