Timestamp,Input Throttle,horizon,dT,dt,Input Roll,Roll P,Roll I,Roll D,Input Pitch,Pitch P,Pitch I,Pitch D,Input Yaw,Yaw P,Yaw I,Yaw D,Altitude,Direction X,Direction Y,Direction Z,Drag X,Drag Y,Drag Z,Vertical Velocity,Roll,Mass,Has Fuel
1599558402.4040182,0.0,10,0.5,0.5,-0.05835331726074219,-0.001,-0.001,-0.2505,-0.0005197695872883897,10,1,100,0.17112369043999143,-10,-1,-100,14994.048618925619,-0.016775342099686414,-7.670710995715068e-05,0.9998592811058253,28.64902773654956,0.027034359154229522,-87.51362258051246,27.009297996429584,-31.79193115234375,5356.25390625,True
1599558402.4199758,0.0,10,0.5,0.5,-0.06432820739746094,-0.001,-0.001,-0.2505,-0.00028479707453360964,10,1,100,0.17716199628565818,-10,-1,-100,14995.07694204792,-0.0168456242913121,-7.225306690229966e-05,0.9998580997930309,28.503858604158523,0.027363268741600354,-85.87434104912482,26.6373667606304,-31.790740966796875,5356.25390625,True
1599558402.468597,0.0,10,0.5,0.5,-0.07000449523925782,-0.001,-0.001,-0.2505,-0.0004596670279231648,10,1,100,0.17586309936091915,-10,-1,-100,14995.62772498955,-0.01688239483502754,-6.972797909515623e-05,0.9998574797853159,28.431320951765397,0.027525463853127673,-85.05940872737466,26.451407159631398,-31.790130615234375,5356.25390625,True
1599558402.5010843,0.0,10,0.5,0.5,-0.07534255676269531,-0.001,-0.001,-0.2505,0.0031065531389668807,10,1,100,0.17581792584658285,-10,-1,-100,14996.160929603968,-0.01690006430206122,-3.494887231775711e-05,0.9998571831042484,28.35883382312925,0.02768616429202534,-84.2476697798429,26.265451323655647,-31.79144287109375,5356.25390625,True
1599558402.535915,0.0,10,0.5,0.5,-0.0781611083984375,-0.001,-0.001,-0.2505,0.007659287012878658,10,1,100,0.17973397037730726,-10,-1,-100,14997.189251865144,-0.01693636416391473,3.8088758944819844e-05,0.9998565687728185,28.21598835950258,0.028004604086686494,-82.63954798570292,25.893551615525308,-31.8046875,5356.25390625,True
1599558402.5680604,0.0,10,0.5,0.5,-0.07406642456054688,-0.001,-0.001,-0.2505,0.020289538616944894,10,1,100,0.17967335002672508,-10,-1,-100,14998.754682415281,-0.016953416249536345,0.00021927244853054212,0.99985625646743,28.00812112649764,0.02847457419382992,-80.26817295915141,25.335730844315073,-31.8572998046875,5356.25390625,True
1599558402.6018863,0.0,10,0.5,0.5,-0.07813954467773437,-0.001,-0.001,-0.2505,0.022582373246927107,10,1,100,0.17675548673232744,-10,-1,-100,14999.712689352455,-0.016926979919016438,0.0004046295062005547,0.9998566465377845,27.874327058386772,0.028782128236238175,-78.7152891094736,24.963869298441764,-31.9166259765625,5356.25390625,True
1599558402.6356251,0.0,10,0.5,0.5,-0.09880908813476563,-0.001,-0.001,-0.2505,0.004087130430545903,10,1,100,0.18109181777621985,-10,-1,-100,14999.712689352455,-0.016926979919016438,0.0004046295062005547,0.9998566465377845,27.874327058386772,0.028782128236238175,-78.7152891094736,24.963869298441764,-31.9166259765625,5356.25390625,True
1599558402.6713142,0.0,10,0.5,0.5,-0.08457755432128906,-0.001,-0.001,-0.2505,0.030123609219084864,10,1,100,0.17621151913894872,-10,-1,-100,15000.72733536968,-0.016867225404205776,0.0006409569229089084,0.9998575327922407,27.744375467411757,0.02908417777765216,-77.18430805737866,24.592022796979794,-31.996307373046875,5356.25390625,True
1599558402.7006743,0.0,10,0.5,0.5,-0.09839554748535156,-0.001,-0.001,-0.2505,0.021584712407315687,10,1,100,0.17915978763902032,-10,-1,-100,15001.206826124922,-0.016824371717647457,0.0007775910062432294,0.9998581578746726,27.680856554110044,0.029232921892054918,-76.42692330966267,24.406105225429393,-32.043792724609375,5356.25390625,True
1599558402.73516,0.0,10,0.5,0.5,-0.054285772705078124,-0.001,-0.001,-0.2505,0.08215409614953911,10,1,100,0.15677919400852772,-10,-1,-100,15003.111113815918,-0.01656665899530119,0.0014517276696526039,0.9998617095861339,27.43632468149918,0.029810526520206625,-73.44953486841587,23.66247109270884,-32.289520263671875,5356.25390625,True
1599558402.7686677,0.0,10,0.5,0.5,-0.09659515991210937,-0.001,-0.001,-0.2505,0.03692260281834403,10,1,100,0.17298708839117338,-10,-1,-100,15003.590602866141,-0.016479908908559895,0.0016519943017597074,0.9998628323511144,27.377580961770725,0.029950116719199286,-72.71793213738752,23.476571641842867,-32.3658447265625,5356.25390625,True
1599558402.803918,0.0,10,0.5,0.5,-0.07279109802246093,-0.001,-0.001,-0.2505,0.06384764677679808,10,1,100,0.15846063294856677,-10,-1,-100,15004.53395524493,-0.016269318976028433,0.002077260505689691,0.9998654880776954,27.262900637307926,0.03022280670376804,-71.2694404378625,23.10478344468062,-32.536285400390625,5356.25390625,True
1599558402.834874,0.0,10,0.5,0.5,-0.0669431671142578,-0.001,-0.001,-0.2505,0.07421755348642928,10,1,100,0.1526141364180526,-10,-1,-100,15005.424572882475,-0.01602528095604879,0.0025561862170910645,0.9998683194712708,27.151744369160713,0.03048610880872204,-69.83960931425396,22.733009567992415,-32.72900390625,5356.25390625,True
1599558402.8681536,0.0,10,0.5,0.5,-0.08873048400878907,-0.001,-0.001,-0.2505,0.05394971140529013,10,1,100,0.16132840802884227,-10,-1,-100,15005.889412593213,-0.015883444119207217,0.0028049645402734038,0.999869915727461,27.09748045415535,0.03061402161319541,-69.13153310494963,22.54712781183405,-32.833953857421875,5356.25390625,True
1599558402.8851078,0.0,10,0.5,0.5,-0.11491752014160156,-0.001,-0.001,-0.2505,0.029348566665189063,10,1,100,0.175406799708529,-10,-1,-100,15005.889412593213,-0.015883444119207217,0.0028049645402734038,0.999869915727461,27.09748045415535,0.03061402161319541,-69.13153310494963,22.54712781183405,-32.833953857421875,5356.25390625,True
1599558402.9010677,0.0,10,0.5,0.5,-0.02808274841308593,-0.001,-0.001,-0.2505,0.11842035397265796,10,1,100,0.12144117143341171,-10,-1,-100,15007.241938170162,-0.015393820200460996,0.003612357432076082,0.9998749827720558,26.939371507429872,0.030981382302923258,-67.03257073262317,21.98950352021227,-33.1788330078125,5356.25390625,True
1599558402.9363375,0.0,10,0.5,0.5,-0.1143487548828125,-0.001,-0.001,-0.2505,0.03800183758497768,10,1,100,0.17025024733617827,-10,-1,-100,15007.241938170162,-0.015393820200460996,0.003612357432076082,0.9998749827720558,26.939371507429872,0.030981382302923258,-67.03257073262317,21.98950352021227,-33.1788330078125,5356.25390625,True
1599558402.9684448,0.0,10,0.5,0.5,-0.08256245422363281,-0.001,-0.001,-0.2505,0.07014337899629292,10,1,100,0.1497853063122719,-10,-1,-100,15007.65208980476,-0.01520916906362417,0.0039016371467917883,0.9998767216032028,26.888152670843265,0.031098081676905285,-66.3409845410435,21.803635678819305,-33.304718017578125,5356.25390625,True
1599558403.0033598,0.0,10,0.5,0.5,-0.04612497253417969,-0.001,-0.001,-0.2505,0.10693817595168989,10,1,100,0.12319050880125523,-10,-1,-100,15008.526104003657,-0.014801040831254705,0.0044961526050152365,0.9998803497429399,26.787869759838937,0.031322194143338304,-64.96945839005171,21.431910326803298,-33.574462890625,5356.25390625,True
1599558403.0373151,0.0,10,0.5,0.5,-0.07761552124023438,-0.001,-0.001,-0.2505,0.08305628241662663,10,1,100,0.13998155546890753,-10,-1,-100,15008.937231911463,-0.014584500435976025,0.004816132569809822,0.9998820416499653,26.738669100621795,0.03142933687208928,-64.28909990492423,21.24605279330025,-33.717315673828125,5356.25390625,True
1599558403.073419,0.0,10,0.5,0.5,-0.036252374267578116,-0.001,-0.001,-0.2505,0.12359626717411126,10,1,100,0.10957704898478735,-10,-1,-100,15009.740933793946,-0.01411304288910279,0.005472510212963707,0.9998854302630773,26.642256073139777,0.03163357847067988,-62.93924396000173,20.874347770570473,-34.02349853515625,5356.25390625,True
1599558403.1043305,0.0,10,0.5,0.5,-0.07237564086914064,-0.001,-0.001,-0.2505,0.09436199269227019,10,1,100,0.12808807198215877,-10,-1,-100,15010.205773232155,-0.013854878842848188,0.005799977833349408,0.9998871949321996,26.59497115153061,0.03173033897061639,-62.269493508894705,20.688500273976945,-34.184173583984375,5356.25390625,True
1599558403.138321,0.0,10,0.5,0.5,-0.02875453796386719,-0.001,-0.001,-0.2505,0.13761478895578882,10,1,100,0.0934359508353971,-10,-1,-100,15011.010452035,-0.013307359917767244,0.006487498620343251,0.9998904072615509,26.501745717468705,0.03191246653466728,-60.93900442914031,20.31681540834079,-34.516998291015625,5356.25390625,True
1599558403.1716063,0.0,10,0.5,0.5,-0.024689309692382824,-0.001,-0.001,-0.2505,0.14552108296603836,10,1,100,0.08156711982785808,-10,-1,-100,15011.830756957992,-0.012704187814023559,0.007180818997336966,0.9998935140556287,26.410120165465266,0.03207887460866246,-59.619909462043026,19.945143939261015,-34.86395263671875,5356.25390625,True
1599558403.2075443,0.0,10,0.5,0.5,0.02658584899902343,-0.001,-0.001,-0.2505,0.1950202179501353,10,1,100,0.03178995698430277,-10,-1,-100,15012.974301104317,-0.01170622010868351,0.008257124335862075,0.9998973868895095,26.279971466430375,0.03230412478172171,-57.671601360278586,19.38766153747563,-35.41259765625,5356.25390625,True
1599558403.2380433,0.0,10,0.5,0.5,-0.015189489746093743,-0.001,-0.001,-0.2505,0.16612354008551528,10,1,100,0.05028210868995463,-10,-1,-100,15013.763357918593,-0.01097088468661714,0.00896793015411964,0.9998996029191851,26.20748176652188,0.03244971594753393,-56.41250633937477,19.016022877490666,-35.79193115234375,5356.25390625,True
1599558403.2722692,0.0,10,0.5,0.5,-0.062058154296875,-0.001,-0.001,-0.2505,0.13323364570212706,10,1,100,0.08045047880154024,-10,-1,-100,15014.103199251695,-0.010580676699856531,0.009310249519302947,0.9999006793349333,26.17147217838204,0.03251628193010952,-55.785724507924144,18.830208441691966,-35.98236083984375,5356.25390625,True
1599558403.304513,0.0,10,0.5,0.5,-0.10948043823242187,-0.001,-0.001,-0.2505,0.09957149839251896,10,1,100,0.1189899631275407,-10,-1,-100,15014.103199251695,-0.010580676699856531,0.009310249519302947,0.9999006793349333,26.17147217838204,0.03251628193010952,-55.785724507924144,18.830208441691966,-35.98236083984375,5356.25390625,True
1599558403.3409812,0.0,10,0.5,0.5,0.08337271423339845,-0.001,-0.001,-0.2505,0.25134478694317164,10,1,100,-0.06753931438587665,-10,-1,-100,15015.573894824716,-0.008889163715519798,0.010685089767606598,0.9999034011468793,26.027637194222898,0.03274101460386334,-53.29401136309193,18.08698343724959,-36.74810791015625,5356.25390625,True
1599558403.371227,0.0,10,0.5,0.5,-0.005113418579101567,-0.001,-0.001,-0.2505,0.1905325581653401,10,1,100,-0.0008391479203605917,-10,-1,-100,15016.309245003038,-0.007963164222278128,0.011376479788845456,0.9999035772129147,25.955988094490355,0.03282927046453299,-52.057677419064426,17.715390425449563,-37.15771484375,5356.25390625,True
1599558403.4031832,0.0,10,0.5,0.5,-0.10737591552734375,-0.001,-0.001,-0.2505,0.12204959076335786,10,1,100,0.09109866778243662,-10,-1,-100,15016.309245003038,-0.007963164222278128,0.011376479788845456,0.9999035772129147,25.955988094490355,0.03282927046453299,-52.057677419064426,17.715390425449563,-37.15771484375,5356.25390625,True
1599558403.4352267,0.0,10,0.5,0.5,-0.054648751831054686,-0.001,-0.001,-0.2505,0.15457610389489948,10,1,100,0.03720659273161007,-10,-1,-100,15016.648112131981,-0.007478827066058636,0.011666808117699578,0.9999039717563185,25.920328900966478,0.03286738714162971,-51.442075546081846,17.52959882151491,-37.366119384765625,5356.25390625,True
1599558403.4703076,0.0,10,0.5,0.5,-0.0040109619140625,-0.001,-0.001,-0.2505,0.19243936408933027,10,1,100,-0.025540957421740257,-10,-1,-100,15017.314129029517,-0.006473884696989359,0.012269620936348742,0.9999037679792032,25.848643309779842,0.03293142977483231,-50.214611608647296,17.158025250999255,-37.773773193359375,5356.25390625,True
1599558403.4853125,0.0,10,0.5,0.5,-0.05380328063964843,-0.001,-0.001,-0.2505,0.168125416080906,10,1,100,0.016834944172446242,-10,-1,-100,15017.709637829801,-0.0059517484443469635,0.012591340223847756,0.9999030127176448,25.81251003799133,0.03295743927333099,-49.602559127690185,16.972243329704042,-37.98052978515625,5356.25390625,True
1599558403.5022225,0.0,10,0.5,0.5,0.05851167297363283,-0.001,-0.001,-0.2505,0.23019390752964847,10,1,100,-0.11184402139163052,-10,-1,-100,15018.697926305118,-0.004313408927152885,0.013443152660902236,0.9999003331082368,25.70347784042056,0.03301243008502342,-47.774249159452,16.414917211054693,-38.631805419921875,5356.25390625,True
1599558403.535406,0.0,10,0.5,0.5,-0.10431095275878907,-0.001,-0.001,-0.2505,0.1455312666567045,10,1,100,0.051250649209624265,-10,-1,-100,15018.697926305118,-0.004313408927152885,0.013443152660902236,0.9999003331082368,25.70347784042056,0.03301243008502342,-47.774249159452,16.414917211054693,-38.631805419921875,5356.25390625,True
1599558403.5693376,0.0,10,0.5,0.5,-0.04838197631835939,-0.001,-0.001,-0.2505,0.17465398255320422,10,1,100,-0.01206534165233069,-10,-1,-100,15018.985039060586,-0.003743861260916444,0.013703836239500613,0.9998990890960847,25.666883105413273,0.03302316520489859,-47.167376805963706,16.22914824139771,-38.853057861328125,5356.25390625,True
1599558403.6042206,0.0,10,0.5,0.5,0.06580330200195311,-0.001,-0.001,-0.2505,0.23038935289596993,10,1,100,-0.15138952982332254,-10,-1,-100,15019.956732551917,-0.0019657224131824262,0.014443512326142282,0.999893754799518,25.555508579084126,0.03303257708128861,-45.35307135414405,15.671860633104059,-39.52630615234375,5356.25390625,True
1599558403.635562,0.0,10,0.5,0.5,-0.10249100036621095,-0.001,-0.001,-0.2505,0.15693507051248692,10,1,100,0.025562859521411827,-10,-1,-100,15019.956732551917,-0.0019657224131824262,0.014443512326142282,0.999893754799518,25.555508579084126,0.03303257708128861,-45.35307135414405,15.671860633104059,-39.52630615234375,5356.25390625,True
1599558403.6697204,0.0,10,0.5,0.5,0.015853973388671866,-0.001,-0.001,-0.2505,0.20668712326447208,10,1,100,-0.1118005098331691,-10,-1,-100,15020.55342492112,-0.0007232585475065427,0.014892386967016205,0.9998888406755514,25.47983778388927,0.033019931941766285,-44.14879337353291,15.300351498158708,-39.995758056640625,5356.25390625,True
1599558403.7032123,0.0,10,0.5,0.5,-0.041923623657226565,-0.001,-0.001,-0.2505,0.18088522600017393,10,1,100,-0.057082051443380716,-10,-1,-100,15020.879603866953,-9.776820559451716e-05,0.015062695840700543,0.9998865463818325,25.441608518293815,0.033007921629585456,-43.548341019730564,15.114601642165718,-40.23248291015625,5356.25390625,True
1599558403.723157,0.0,10,0.5,0.5,0.13670756835937498,-0.001,-0.001,-0.2505,0.23198495794301302,10,1,100,-0.2830552688409646,-10,-1,-100,15022.06811329408,0.002518010994288374,0.015678714001664974,0.9998739108247032,25.28416093354374,0.03292117771450661,-41.15505986788434,14.371633851680087,-41.17730712890625,5356.25390625,True
1599558403.771786,0.0,10,0.5,0.5,-0.03950086669921874,-0.001,-0.001,-0.2505,0.1839938860719043,10,1,100,-0.09683942075910451,-10,-1,-100,15022.324958918383,0.0031940327042919592,0.015798800852909863,0.9998700895849889,25.243635505935497,0.03289009647564499,-40.55896380836886,14.18589974162934,-41.416229248046875,5356.25390625,True
1599558403.8046997,0.0,10,0.5,0.5,-0.03822995910644532,-0.001,-0.001,-0.2505,0.18359175076177575,10,1,100,-0.10537098094839797,-10,-1,-100,15022.595477219787,0.0038773685174694488,0.015901106596752628,0.9998660514400809,25.202631736331252,0.03285533792346745,-39.96379549675505,14.000168752431549,-41.657806396484375,5356.25390625,True
1599558403.8367913,0.0,10,0.5,0.5,-0.038564700317382815,-0.001,-0.001,-0.2505,0.17804697037543216,10,1,100,-0.11117743614082436,-10,-1,-100,15022.864042304805,0.004542433288505755,0.01594069584548574,0.9998626208213712,25.16117144823297,0.03281695991234719,-39.369618992498246,13.814440782977469,-41.8956298828125,5356.25390625,True
1599558403.873491,0.0,10,0.5,0.5,0.01771357116699218,-0.001,-0.001,-0.2505,0.18178407739127672,10,1,100,-0.196430652805811,-10,-1,-100,15023.445118408184,0.005914016102569859,0.01600838927794663,0.9998543673386961,25.07622228368417,0.03272934497778191,-38.18335225613285,13.442994093937457,-42.35498046875,5356.25390625,True
1599558403.9056726,0.0,10,0.5,0.5,-0.039049243164062504,-0.001,-0.001,-0.2505,0.17664090437245833,10,1,100,-0.13696016098084313,-10,-1,-100,15023.6990360145,0.006610971076010498,0.016020840610360864,0.999849802584153,25.03275585569063,0.03268040304939183,-37.59138088395106,13.257275333950464,-42.5853271484375,5356.25390625,True
1599558403.939583,0.0,10,0.5,0.5,0.14012485656738283,-0.001,-0.001,-0.2505,0.15274875505349095,10,1,100,-0.37445360822666995,-10,-1,-100,15024.737172272056,0.009394184361066843,0.015812852278409683,0.9998308371934781,24.85350333936159,0.032453564028912966,-35.23394656663705,12.51442965755471,-43.52569580078125,5356.25390625,True
1599558403.9727437,0.0,10,0.5,0.5,-0.09503755187988282,-0.001,-0.001,-0.2505,0.17368452224383576,10,1,100,-0.09726827039846035,-10,-1,-100,15024.737172272056,0.009394184361066843,0.015812852278409683,0.9998308371934781,24.85350333936159,0.032453564028912966,-35.23394656663705,12.51442965755471,-43.52569580078125,5356.25390625,True
1599558404.0080056,0.0,10,0.5,0.5,0.08471578063964844,-0.001,-0.001,-0.2505,0.1307077592324491,10,1,100,-0.32731335244101967,-10,-1,-100,15025.446198728634,0.011475176100749883,0.015420909578349561,0.9998152408726491,24.71245656741323,0.03225158856116274,-33.47650292008518,11.957325472120694,-44.23883056640625,5356.25390625,True
1599558404.0369284,0.0,10,0.5,0.5,0.021550640869140616,-0.001,-0.001,-0.2505,0.12879394362424643,10,1,100,-0.2723948307060749,-10,-1,-100,15025.902281822637,0.012856637998645642,0.015046719234028214,0.9998041323677674,24.61458048980602,0.03210246465280493,-32.30961316208429,11.585936510329429,-44.6962890625,5356.25390625,True
1599558404.069859,0.0,10,0.5,0.5,-0.09259633178710938,-0.001,-0.001,-0.2505,0.16621138039571393,10,1,100,-0.13554408153692293,-10,-1,-100,15025.902281822637,0.012856637998645642,0.015046719234028214,0.9998041323677674,24.61458048980602,0.03210246465280493,-32.30961316208429,11.585936510329429,-44.6962890625,5356.25390625,True
1599558404.103329,0.0,10,0.5,0.5,-0.035202563476562504,-0.001,-0.001,-0.2505,0.1399029380047062,10,1,100,-0.2091194577339348,-10,-1,-100,15026.156202078797,0.013516106303159971,0.014808126116625995,0.9997989969345417,24.56449836250245,0.032023984565315654,-31.727747245461103,11.400245946534556,-44.923095703125,5356.25390625,True
1599558404.13896,0.0,10,0.5,0.5,0.019607687377929672,-0.001,-0.001,-0.2505,0.10347810730641842,10,1,100,-0.2878542873850615,-10,-1,-100,15026.597636415274,0.01482201041900245,0.014260989071490711,0.9997884437208913,24.48429615554516,0.031888871938503656,-30.595216755104317,11.028872323698549,-45.36553955078125,5356.25390625,True
1599558404.1698804,0.0,10,0.5,0.5,0.02259297790527344,-0.001,-0.001,-0.2505,0.09056149979274705,10,1,100,-0.3049996084817043,-10,-1,-100,15026.983408304863,0.016155112859827337,0.013647659068993678,0.9997763518559653,24.400888044949813,0.031744608718924164,-29.465479391634943,10.657508332835306,-45.816619873046875,5356.25390625,True
1599558404.2029164,0.0,10,0.5,0.5,0.02758074951171874,-0.001,-0.001,-0.2505,0.07195030609395472,10,1,100,-0.312743593590066,-10,-1,-100,15027.421916063991,0.017426867052861138,0.01292297824834962,0.9997646227677366,24.315053703357616,0.03159230569225574,-28.3398481843527,10.28615360898226,-46.2841796875,5356.25390625,True
1599558404.2359152,0.0,10,0.5,0.5,0.08864526977539064,-0.001,-0.001,-0.2505,0.005371534882650214,10,1,100,-0.38763855391685,-10,-1,-100,15027.995206669555,0.01925340427590782,0.011661720864960978,0.9997466232452381,24.179568322681693,0.031346413144166814,-26.65735943956449,9.729137430628262,-46.991119384765625,5356.25390625,True
1599558404.271837,0.0,10,0.5,0.5,-0.029210736083984376,-0.001,-0.001,-0.2505,0.08002447402320186,10,1,100,-0.2705381451071364,-10,-1,-100,15028.195418237941,0.0198378503684075,0.011197749162926682,0.9997405013834563,24.132394890363667,0.03125984390789347,-26.098111402514007,9.543469247274537,-47.224884033203125,5356.25390625,True
1599558404.303752,0.0,10,0.5,0.5,0.028488543701171876,-0.001,-0.001,-0.2505,0.015889159648124707,10,1,100,-0.3348440728089794,-10,-1,-100,15028.562637857627,0.020944270098871835,0.01019710394231797,0.9997286414928878,24.034908873498292,0.031080206186188137,-24.982242057349538,9.172138505705783,-47.6856689453125,5356.25390625,True
1599558404.3366673,0.0,10,0.5,0.5,0.028628509521484366,-0.001,-0.001,-0.2505,-0.003882871095916382,10,1,100,-0.3440646097208985,-10,-1,-100,15028.936693285941,0.022023429202367946,0.009112785960760667,0.9997159224990877,23.932949945556725,0.030892296883829863,-23.87002775678528,8.800814215629803,-48.143524169921875,5356.25390625,True
1599558404.3701613,0.0,10,0.5,0.5,-0.028025546264648434,-0.001,-0.001,-0.2505,0.040582054453587105,10,1,100,-0.2910183670813907,-10,-1,-100,15029.121279647923,0.022512655042367415,0.008537003594901869,0.999710107947581,23.88055153307152,0.030795872281373995,-23.315719791560493,8.615154255762075,-48.37274169921875,5356.25390625,True
1599558404.4060643,0.0,10,0.5,0.5,-0.027712664794921876,-0.001,-0.001,-0.2505,0.031777237134112506,10,1,100,-0.29513868811108124,-10,-1,-100,15029.30684219033,0.0229860850725971,0.00793943920997967,0.9997042588676246,23.826955246716917,0.030697483229755414,-22.762450363545405,8.429495582383606,-48.600830078125,5356.25390625,True
1599558404.4369829,0.0,10,0.5,0.5,0.08740407714843751,-0.001,-0.001,-0.2505,-0.11940785704454665,10,1,100,-0.3946897479751148,-10,-1,-100,15029.793216558523,0.02431227705604807,0.006028250076629905,0.999686237469219,23.65899477456257,0.030392294015226248,-21.10964398257301,7.8725263993830445,-49.2841796875,5356.25390625,True
1599558404.471096,0.0,10,0.5,0.5,-0.08333889160156249,-0.001,-0.001,-0.2505,0.07083306868643023,10,1,100,-0.26315016670530655,-10,-1,-100,15029.793216558523,0.02431227705604807,0.006028250076629905,0.999686237469219,23.65899477456257,0.030392294015226248,-21.10964398257301,7.8725263993830445,-49.2841796875,5356.25390625,True
1599558404.504011,0.0,10,0.5,0.5,-0.02479993286132813,-0.001,-0.001,-0.2505,-0.004408903303920991,10,1,100,-0.30828815718903163,-10,-1,-100,15029.907490094192,0.024713994908957346,0.00535171645762204,0.9996802376693246,23.60069445387126,0.03028759396958833,-20.56136091021858,7.686871807473704,-49.515380859375,5356.25390625,True
1599558404.5399153,0.0,10,0.5,0.5,0.15299781494140624,-0.001,-0.001,-0.2505,-0.2555706008512426,10,1,100,-0.42294731771400895,-10,-1,-100,15030.509115572553,0.026113768159966366,0.00246093950137685,0.9996559482588288,23.354550388454175,0.029854207483816463,-18.382358887487584,6.944258972470424,-50.451141357421875,5356.25390625,True
1599558404.5703437,0.0,10,0.5,0.5,0.040926596069335935,-0.001,-0.001,-0.2505,-0.13778804812456785,10,1,100,-0.3456133987277673,-10,-1,-100,15030.755242050858,0.026675356487275,0.0009132218738936954,0.9996437322276801,23.223376917511825,0.02962897163940257,-17.30223179190484,6.57295405119807,-50.9359130859375,5356.25390625,True
1599558404.6062477,0.0,10,0.5,0.5,-0.02025558471679688,-0.001,-0.001,-0.2505,-0.06928477577151575,10,1,100,-0.3121667393966287,-10,-1,-100,15030.867562265601,0.0268750835616258,0.0001387342330195443,0.9996387900818816,23.155504732332187,0.029514059570297124,-16.764622408230125,6.387301528083258,-51.173919677734375,5356.25390625,True
1599558404.639157,0.0,10,0.5,0.5,0.03494011535644531,-0.001,-0.001,-0.2505,-0.169758627725149,10,1,100,-0.33287811091637826,-10,-1,-100,15031.156653974904,0.027238541340130415,-0.0014686904446900705,0.9996278831715527,23.014522174546737,0.02927924491902712,-15.694338335015635,6.015995291656011,-51.628875732421875,5356.25390625,True
1599558404.67457,0.0,10,0.5,0.5,-0.022242575073242184,-0.001,-0.001,-0.2505,-0.1016333365818582,10,1,100,-0.31471118947664917,-10,-1,-100,15031.270925533609,0.027398081606372294,-0.0023000595100443424,0.999621955966625,22.941948658872143,0.029160387286849027,-15.162239624308333,5.830341403578678,-51.85308837890625,5356.25390625,True
1599558404.7044926,0.0,10,0.5,0.5,0.03463462219238281,-0.001,-0.001,-0.2505,-0.20341920157593962,10,1,100,-0.32004766956817055,-10,-1,-100,15031.503375128726,0.027586745619784192,-0.003970800300793689,0.9996115266497683,22.792020486258014,0.028919004850668308,-14.104186104108036,5.459031065997876,-52.30108642578125,5356.25390625,True
1599558404.738402,0.0,10,0.5,0.5,0.03582083740234375,-0.001,-0.001,-0.2505,-0.22649735912210522,10,1,100,-0.3103621713026672,-10,-1,-100,15031.664534721524,0.027665595565401872,-0.005688086266534877,0.9996010506680333,22.63524691281637,0.028672902586436035,-13.0547259878372,5.0877163663302705,-52.750457763671875,5356.25390625,True
1599558404.7723086,0.0,10,0.5,0.5,-0.019957589721679693,-0.001,-0.001,-0.2505,-0.15012955635035025,10,1,100,-0.3007962432655219,-10,-1,-100,15031.77782905614,0.027646060251541347,-0.006542613914304989,0.9995963633165822,22.55426855365653,0.02854813570497597,-12.533475639585939,4.90205697489487,-52.974609375,5356.25390625,True
1599558404.807217,0.0,10,0.5,0.5,-0.019786529541015632,-0.001,-0.001,-0.2505,-0.160980922203461,10,1,100,-0.2977527468011987,-10,-1,-100,15031.892099768622,0.027597602013632937,-0.007406677952768885,0.9995916733770849,22.471329669603445,0.028422137054164718,-12.014566357226188,4.716395985047995,-53.19708251953125,5356.25390625,True
1599558404.840127,0.0,10,0.5,0.5,0.03573540649414063,-0.001,-0.001,-0.2505,-0.2682404808678596,10,1,100,-0.28321670145142547,-10,-1,-100,15032.056186645408,0.027418416544211368,-0.009155064041022051,0.9995821203065874,22.30045833139126,0.028167525384287864,-10.984704909746721,4.345068605445465,-53.63787841796875,5356.25390625,True
1599558404.8730404,0.0,10,0.5,0.5,0.0373482940673828,-0.001,-0.001,-0.2505,-0.2894113429306331,10,1,100,-0.26814829137584384,-10,-1,-100,15032.21441402752,0.027116076551654423,-0.010923780339551376,0.9995726033738308,22.12260072081556,0.02790909698772646,-9.966008218150868,3.973733113345579,-54.081695556640625,5356.25390625,True
1599558404.9059517,0.0,10,0.5,0.5,-0.017182815551757803,-0.001,-0.001,-0.2505,-0.21155070967594675,10,1,100,-0.2766094732023288,-10,-1,-100,15032.315012323437,0.02691723065830553,-0.011811712381498224,0.9995678797081788,22.03085011999674,0.027778250525209224,-9.461036416635098,3.7880619244829186,-54.30548095703125,5356.25390625,True
1599558404.9428542,0.0,10,0.5,0.5,0.03855473022460937,-0.001,-0.001,-0.2505,-0.3160790112814856,10,1,100,-0.24033712072301305,-10,-1,-100,15032.406832899316,0.02640649311983909,-0.013557612493995355,0.9995593470447739,21.8418824322412,0.027513438201476986,-8.460509869745435,3.416711911780653,-54.7486572265625,5356.25390625,True
1599558404.973771,0.0,10,0.5,0.5,0.09273619384765626,-0.001,-0.001,-0.2505,-0.43239367350802876,10,1,100,-0.18260469163083148,-10,-1,-100,15032.61292199057,0.02541777199352412,-0.01618974921039131,0.9995458113000074,21.546366884474445,0.02711102874124434,-6.985512744738738,2.8596655978875063,-55.404083251953125,5356.25390625,True
1599558405.0076797,0.0,10,0.5,0.5,-0.01651539001464844,-0.001,-0.001,-0.2505,-0.26397470673,10,1,100,-0.23715986582094872,-10,-1,-100,15032.644183459925,0.025016545979826672,-0.017038136473891276,0.9995418322075051,21.449221121572492,0.026981219266894448,-6.502519825270619,2.6739772154928025,-55.621002197265625,5356.25390625,True
1599558405.0395954,0.0,10,0.5,0.5,0.03620808105468748,-0.001,-0.001,-0.2505,-0.36319547147322084,10,1,100,-0.1778834753757388,-10,-1,-100,15032.734048250597,0.02411508381389667,-0.018698006322953393,0.9995343152149383,21.254584463763404,0.02672531252883823,-5.5486658928764125,2.3025906859931164,-56.045196533203125,5356.25390625,True
1599558405.0755,0.0,10,0.5,0.5,0.035295123291015626,-0.001,-0.001,-0.2505,-0.3824447509203609,10,1,100,-0.1559143118224962,-10,-1,-100,15032.827819197671,0.023099009141481636,-0.020368583993418263,0.9995256657849185,21.066755941101448,0.026483114729007714,-4.612629188796807,1.9311903409349132,-56.46258544921875,5356.25390625,True
1599558405.110406,0.0,10,0.5,0.5,-0.06888958740234374,-0.001,-0.001,-0.2505,-0.21685503364656214,10,1,100,-0.25706512042160773,-10,-1,-100,15032.827819197671,0.023099009141481636,-0.020368583993418263,0.9995256657849185,21.066755941101448,0.026483114729007714,-4.612629188796807,1.9311903409349132,-56.46258544921875,5356.25390625,True
1599558405.1423213,0.0,10,0.5,0.5,0.034743984985351556,-0.001,-0.001,-0.2505,-0.3900735271542449,10,1,100,-0.12993005884115616,-10,-1,-100,15032.902057749452,0.021947369537213948,-0.02193072850705255,0.9995185621675802,20.87493404769618,0.026240587058504194,-3.6916420689214138,1.5597758012099487,-56.873260498046875,5356.25390625,True
1599558405.1732044,0.0,10,0.5,0.5,0.03422517395019531,-0.001,-0.001,-0.2505,-0.4051159300479197,10,1,100,-0.10462977214286312,-10,-1,-100,15032.97922534449,0.020675558411055586,-0.023474405317976867,0.9995106170418395,20.681520662601102,0.025999913964127774,-2.7865349146522784,1.1883468783405204,-57.278778076171875,5356.25390625,True
1599558405.2091105,0.0,10,0.5,0.5,0.036944274902343754,-0.001,-0.001,-0.2505,-0.4136358577436184,10,1,100,-0.07809170257080114,-10,-1,-100,15032.99877730105,0.019284241171286652,-0.024942184178526276,0.9995028791808717,20.486663015095353,0.025760288826554324,-1.897523582033409,0.8169031694874054,-57.692047119140625,5356.25390625,True
1599558405.2389383,0.0,10,0.5,0.5,-0.06621858520507812,-0.001,-0.001,-0.2505,-0.26825981207257493,10,1,100,-0.2164402430096577,-10,-1,-100,15032.99877730105,0.019284241171286652,-0.024942184178526276,0.9995028791808717,20.486663015095353,0.025760288826554324,-1.897523582033409,0.8169031694874054,-57.692047119140625,5356.25390625,True
1599558405.2728784,0.0,10,0.5,0.5,0.03640707397460938,-0.001,-0.001,-0.2505,-0.42070639823500655,10,1,100,-0.05008719029495762,-10,-1,-100,15033.006610559067,0.01777887977341394,-0.02631612544200563,0.9994955592576302,20.292542080529785,0.025523113822042812,-1.0249022697181092,0.44544476907589825,-58.0987548828125,5356.25390625,True
1599558405.3056328,0.0,10,0.5,0.5,0.03444713134765626,-0.001,-0.001,-0.2505,-0.4263425539019084,10,1,100,-0.022687764729200144,-10,-1,-100,15033.013465965516,0.016169127009610432,-0.02760480208491505,0.9994881361144812,20.10137286756571,0.025289767860602278,-0.16859735240177437,0.07397174642638094,-58.494720458984375,5356.25390625,True
1599558405.3411107,0.0,10,0.5,0.5,-0.01448316955566406,-0.001,-0.001,-0.2505,-0.37023199768364834,10,1,100,-0.08867089621232743,-10,-1,-100,15033.041796624311,0.015313969915075594,-0.028255853019326226,0.9994834111157574,20.033336145950596,0.025207480823350358,0.25388713612287345,-0.11176983649151584,-58.693328857421875,5356.25390625,True
1599558405.3730805,0.0,10,0.5,0.5,0.13626414184570312,-0.001,-0.001,-0.2505,-0.5511092756418772,10,1,100,0.226822820323512,-10,-1,-100,15032.998872672673,0.011677250202504246,-0.030481858471551708,0.9994671070784813,19.9393347494549,0.025095179767642806,1.9325593452229544,-0.8547588879019281,-59.48931884765625,5356.25390625,True
1599558405.4070818,0.0,10,0.5,0.5,-0.0627869384765625,-0.001,-0.001,-0.2505,-0.3296871156341888,10,1,100,-0.1356053675724835,-10,-1,-100,15032.998872672673,0.011677250202504246,-0.030481858471551708,0.9994671070784813,19.9393347494549,0.025095179767642806,1.9325593452229544,-0.8547588879019281,-59.48931884765625,5356.25390625,True
1599558405.4390802,0.0,10,0.5,0.5,-0.013278744506835936,-0.001,-0.001,-0.2505,-0.3867512438994791,10,1,100,-0.02721156007649919,-10,-1,-100,15032.957868434372,0.010702235369758005,-0.030991429388074226,0.9994623521987079,19.920584246575302,0.025070202511111514,2.3503456906453697,-1.0405114118643959,-59.684967041015625,5356.25390625,True
1599558405.475189,0.0,10,0.5,0.5,0.034648672485351556,-0.001,-0.001,-0.2505,-0.43128114028002845,10,1,100,0.09392957777606162,-10,-1,-100,15032.913946245564,0.008725844972030617,-0.031849835783468186,0.9994545750508577,19.88843257067371,0.02502219969334336,3.1844451276581363,-1.4120217895892175,-60.069122314453125,5356.25390625,True
1599558405.5061145,0.0,10,0.5,0.5,0.08326083068847656,-0.001,-0.001,-0.2505,-0.4767155424623061,10,1,100,0.24753635949017605,-10,-1,-100,15032.810468205716,0.005544720708118483,-0.03303422788341393,0.9994388404802046,19.856192896897735,0.02495514570244896,4.434190382195804,-1.9692998003581108,-60.643768310546875,5356.25390625,True
1599558405.5390213,0.0,10,0.5,0.5,-0.06035149230957031,-0.001,-0.001,-0.2505,-0.35923231472427525,10,1,100,-0.06906298313074372,-10,-1,-100,15032.810468205716,0.005544720708118483,-0.03303422788341393,0.9994388404802046,19.856192896897735,0.02495514570244896,4.434190382195804,-1.9692998003581108,-60.643768310546875,5356.25390625,True
1599558405.5721173,0.0,10,0.5,0.5,0.12956645202636718,-0.001,-0.001,-0.2505,-0.4700032320818135,10,1,100,0.4141376173876181,-10,-1,-100,15032.610326680238,0.0011644784492817102,-0.034033879819659836,0.9994200013079396,19.843466731004327,0.024867421066419235,6.103699508750564,-2.712357615924916,-61.397735595703125,5356.25390625,True
1599558405.6064446,0.0,10,0.5,0.5,-0.05893178405761719,-0.001,-0.001,-0.2505,-0.3709472080213364,10,1,100,-0.02207463222385868,-10,-1,-100,15032.610326680238,0.0011644784492817102,-0.034033879819659836,0.9994200013079396,19.843466731004327,0.024867421066419235,6.103699508750564,-2.712357615924916,-61.397735595703125,5356.25390625,True
1599558405.6397333,0.0,10,0.5,0.5,0.07849201660156249,-0.001,-0.001,-0.2505,-0.4178914214569143,10,1,100,0.3573690866879804,-10,-1,-100,15032.440446717781,-0.0022699059032585253,-0.034453629256003586,0.9994037197040445,19.887217316860543,0.02483535687281234,7.374363790484498,-3.2696643777133625,-61.942840576171875,5356.25390625,True
1599558405.6713672,0.0,10,0.5,0.5,0.02821156921386718,-0.001,-0.001,-0.2505,-0.3843608387867339,10,1,100,0.27013887446944035,-10,-1,-100,15032.25199592684,-0.004582308810023948,-0.03452416996734073,0.999393358059796,19.930036198265917,0.024813301279636935,8.230277318936032,-3.6412076953218704,-62.28448486328125,5356.25390625,True
1599558405.7063494,0.0,10,0.5,0.5,-0.015273629760742188,-0.001,-0.001,-0.2505,-0.3727774288002878,10,1,100,0.164631160207259,-10,-1,-100,15032.210015863879,-0.005707244705858957,-0.03447729568963588,0.9993891851725216,19.95375650220024,0.024799577187215868,8.660620067462599,-3.82698067750561,-62.450439453125,5356.25390625,True
1599558405.7448022,0.0,10,0.5,0.5,0.023410787963867183,-0.001,-0.001,-0.2505,-0.35501261967969305,10,1,100,0.3026611774388476,-10,-1,-100,15032.0088666667,-0.00796892795426126,-0.03426955222951872,0.9993808553185558,20.00994833533127,0.02477148428042258,9.528535505528808,-4.198529352796548,-62.76837158203125,5356.25390625,True
1599558405.7737653,0.0,10,0.5,0.5,0.02262136840820312,-0.001,-0.001,-0.2505,-0.33878826807085427,10,1,100,0.33134303628337525,-10,-1,-100,15031.856545394403,-0.01026788764398018,-0.03392975707500643,0.9993714735113073,20.073884398586866,0.024737401254521337,10.405290354300657,-4.570080895439078,-63.080596923828125,5356.25390625,True
1599558405.8061292,0.0,10,0.5,0.5,-0.01641515197753906,-0.001,-0.001,-0.2505,-0.34613354808596175,10,1,100,0.22581744854295122,-10,-1,-100,15031.762805877137,-0.011379463725162854,-0.03368495645496266,0.999367715865364,20.1084834579224,0.02471771372715756,10.847143421992186,-4.7558576617981725,-63.235015869140625,5356.25390625,True
1599558405.8398774,0.0,10,0.5,0.5,0.021456964111328122,-0.001,-0.001,-0.2505,-0.30448886577910567,10,1,100,0.3604450461625748,-10,-1,-100,15031.560678239679,-0.013595597133055325,-0.03308215412425009,0.9993601607113898,20.18447983816943,0.024674782184749545,11.739252812865756,-5.127412737741032,-63.53814697265625,5356.25390625,True
1599558405.874775,0.0,10,0.5,0.5,0.02142016906738281,-0.001,-0.001,-0.2505,-0.28324698107253476,10,1,100,0.3857867732197548,-10,-1,-100,15031.34194863832,-0.015823242915439958,-0.032341000393323625,0.9993516321481634,20.268334207320205,0.024625599307163105,12.642774789299976,-5.498969452107719,-63.838775634765625,5356.25390625,True
1599558405.905692,0.0,10,0.5,0.5,-0.016059249877929685,-0.001,-0.001,-0.2505,-0.3094161257492615,10,1,100,0.2826479363886859,-10,-1,-100,15031.25016176328,-0.016891324234031217,-0.03190575579635171,0.9993481404959356,20.312649862773885,0.024597988637256964,13.09876859911463,-5.684748323627053,-63.9879150390625,5356.25390625,True
1599558405.9388337,0.0,10,0.5,0.5,-0.05315965270996094,-0.001,-0.001,-0.2505,-0.3527277730441224,10,1,100,0.17764538479789124,-10,-1,-100,15031.25016176328,-0.016891324234031217,-0.03190575579635171,0.9993481404959356,20.312649862773885,0.024597988637256964,13.09876859911463,-5.684748323627053,-63.9879150390625,5356.25390625,True
1599558405.9718025,0.0,10,0.5,0.5,0.09401748657226562,-0.001,-0.001,-0.2505,-0.12133825334080967,10,1,100,0.6423490735397654,-10,-1,-100,15030.756060075364,-0.02109948885651797,-0.02980414936634278,0.9993330397072552,20.509171798953357,0.024471539359385414,14.955766792219379,-6.427865768004791,-64.57208251953125,5356.25390625,True
1599558406.0068622,0.0,10,0.5,0.5,-0.014936416625976563,-0.001,-0.001,-0.2505,-0.26332308038270336,10,1,100,0.33875831776290716,-10,-1,-100,15030.594937636517,-0.022148059294486072,-0.029188596021160664,0.9993285192226835,20.56201351809033,0.024434695196406713,15.428058452678933,-6.613645445557442,-64.71966552734375,5356.25390625,True
1599558406.0387452,0.0,10,0.5,0.5,0.02317047424316406,-0.001,-0.001,-0.2505,-0.17717371678331234,10,1,100,0.4498172909363482,-10,-1,-100,15030.304920336464,-0.024094963311957027,-0.02785067656004262,0.9993216562039188,20.670389602482135,0.024352783684023906,16.381560863667758,-6.985204534799093,-65.0172119140625,5356.25390625,True
1599558406.071826,0.0,10,0.5,0.5,0.02251202087402343,-0.001,-0.001,-0.2505,-0.14794316637849578,10,1,100,0.4720199606671614,-10,-1,-100,15030.031504688319,-0.026050002399387016,-0.0263746780636457,0.9993126506414451,20.786951368504948,0.024265359569657998,17.351178004490638,-7.356763209636496,-65.3099365234375,5356.25390625,True
1599558406.1048892,0.0,10,0.5,0.5,-0.05056133728027344,-0.001,-0.001,-0.2505,-0.29475352860160076,10,1,100,0.27832415936867505,-10,-1,-100,15030.031504688319,-0.026050002399387016,-0.0263746780636457,0.9993126506414451,20.786951368504948,0.024265359569657998,17.351178004490638,-7.356763209636496,-65.3099365234375,5356.25390625,True
1599558406.1378477,0.0,10,0.5,0.5,0.05947794189453125,-0.001,-0.001,-0.2505,-0.024069868955476692,10,1,100,0.5764874486058071,-10,-1,-100,15029.579389527324,-0.028746230379037847,-0.0239207857750549,0.9993004804596559,20.969501970244675,0.024115489305816598,18.831243105283434,-7.914099284701828,-65.74658203125,5356.25390625,True
1599558406.1719675,0.0,10,0.5,0.5,0.023992663574218753,-0.001,-0.001,-0.2505,-0.06875533193712113,10,1,100,0.5026633748322794,-10,-1,-100,15029.221991847968,-0.03051043081109392,-0.022105082604059946,0.9992899874084545,21.09720560564064,0.024004304908275945,19.836631904781843,-8.285654878619724,-66.03939819335938,5356.25390625,True
1599558406.2058678,0.0,10,0.5,0.5,-0.011292092895507817,-0.001,-0.001,-0.2505,-0.14421149486412627,10,1,100,0.42053063490415554,-10,-1,-100,15029.058919365983,-0.031352210992091005,-0.021150387631146572,0.9992845940816659,21.16158552302714,0.02394394505728812,20.34393794826246,-8.471431989060845,-66.18975830078125,5356.25390625,True
1599558406.2388473,0.0,10,0.5,0.5,-0.01120596618652344,-0.001,-0.001,-0.2505,-0.13302325425731565,10,1,100,0.41929396397139984,-10,-1,-100,15028.878268551314,-0.03209210599535726,-0.02019094511640175,0.999280952719549,21.226525558393053,0.023880799687977693,20.85455393095469,-8.65720855163784,-66.33892822265625,5356.25390625,True
1599558406.273826,0.0,10,0.5,0.5,-0.011297555541992188,-0.001,-0.001,-0.2505,-0.11823921188053409,10,1,100,0.4290470367999855,-10,-1,-100,15028.697617569822,-0.03283958322243979,-0.01919497409109931,0.999276295497606,21.293490528164924,0.023816396935690518,21.369986652372596,-8.842984491927954,-66.4862060546875,5356.25390625,True
1599558406.3053415,0.0,10,0.5,0.5,0.06285794372558592,-0.001,-0.001,-0.2505,0.13309921137018466,10,1,100,0.5912954243118068,-10,-1,-100,15028.176174802938,-0.034979594898087364,-0.016016206385549875,0.9992596805004098,21.4998817713519,0.023609477383520875,22.939382652442454,-9.400308318382177,-66.9267578125,5356.25390625,True
1599558406.3387363,0.0,10,0.5,0.5,-0.010155352783203127,-0.001,-0.001,-0.2505,-0.06143106332942026,10,1,100,0.4496547225556169,-10,-1,-100,15027.997478647158,-0.03562479903630928,-0.0149074090986657,0.9992540431980186,21.569567339466516,0.02353517050876208,23.469384186662857,-9.586081315497506,-67.07431030273438,5356.25390625,True
1599558406.3716097,0.0,10,0.5,0.5,-0.009657208251953132,-0.001,-0.001,-0.2505,-0.04622781866230252,10,1,100,0.45384638086169327,-10,-1,-100,15027.763118495932,-0.03623720265589188,-0.013774183147181285,0.9992482859741636,21.63977784077729,0.023458250016833316,24.00295917842836,-9.771853430692918,-67.22232055664062,5356.25390625,True
1599558406.4066863,0.0,10,0.5,0.5,0.027659585571289058,-0.001,-0.001,-0.2505,0.09539861840154526,10,1,100,0.5126402944319535,-10,-1,-100,15027.39205553825,-0.03731738494311121,-0.01146926148471762,0.999237643817527,21.781601616183792,0.023296937585186212,25.0807694797529,-10.143394743526656,-67.51724243164062,5356.25390625,True
1599558406.4384992,0.0,10,0.5,0.5,-0.009471475219726563,-0.001,-0.001,-0.2505,-0.0017405800939585409,10,1,100,0.46225085949357125,-10,-1,-100,15027.158672519145,-0.03783103999337647,-0.010270512156599711,0.9992313690997998,21.853994881088674,0.023213658140266342,25.625981390560256,-10.329163969233951,-67.6624755859375,5356.25390625,True
1599558406.4717371,0.0,10,0.5,0.5,0.027511901855468757,-0.001,-0.001,-0.2505,0.14970989593180906,10,1,100,0.5118345809766158,-10,-1,-100,15026.728040423011,-0.03873805020019621,-0.007818557681628313,0.9992188116836404,21.99912996218213,0.023039208093795133,26.726161303903165,-10.700698893600563,-67.9532470703125,5356.25390625,True
1599558406.50605,0.0,10,0.5,0.5,0.02724814758300781,-0.001,-0.001,-0.2505,0.1780812691488985,10,1,100,0.49942053830475674,-10,-1,-100,15026.315962192253,-0.039440666527723475,-0.005346224973402071,0.9992076119117502,22.144832663050025,0.022855323321348146,27.839537417088735,-11.07222912986164,-68.24093627929688,5356.25390625,True
1599558406.540963,0.0,10,0.5,0.5,-0.00879317321777344,-0.001,-0.001,-0.2505,0.07315563381021528,10,1,100,0.4645694475798205,-10,-1,-100,15026.067931212368,-0.039754462150051906,-0.004067754521394114,0.9992011990146498,22.218289199954206,0.022760273623063328,28.401700973441162,-11.257992322628375,-68.38330078125,5356.25390625,True
1599558406.5720227,0.0,10,0.5,0.5,0.09725564880371093,-0.001,-0.001,-0.2505,0.5120518760202516,10,1,100,0.5182149675072536,-10,-1,-100,15025.142212109175,-0.04051977903227445,0.0010689275158773115,0.9991781647439767,22.510898301630178,0.022357222487328823,30.680331920937956,-12.00103153785056,-68.94589233398438,5356.25390625,True
1599558406.6052582,0.0,10,0.5,0.5,-0.008813168334960944,-0.001,-0.001,-0.2505,0.1454218987626268,10,1,100,0.4530199553543437,-10,-1,-100,15024.909805150004,-0.0406151782028713,0.0023863115086617637,0.99917201362775,22.583977001191634,0.02225168577533627,31.257770797053897,-12.186787632192019,-69.08346557617188,5356.25390625,True
1599558406.639108,0.0,10,0.5,0.5,0.025592813110351567,-0.001,-0.001,-0.2505,0.2969399405194639,10,1,100,0.4449378303960475,-10,-1,-100,15024.411786466837,-0.04062136213562898,0.004941750712982729,0.9991623912248383,22.728464159435795,0.022034053774802786,32.41972523746704,-12.55829513736067,-69.35626220703125,5356.25390625,True
1599558406.6744668,0.0,10,0.5,0.5,-0.04249979248046875,-0.001,-0.001,-0.2505,0.04349181579722059,10,1,100,0.4448836138440333,-10,-1,-100,15024.411786466837,-0.04062136213562898,0.004941750712982729,0.9991623912248383,22.728464159435795,0.022034053774802786,32.41972523746704,-12.55829513736067,-69.35626220703125,5356.25390625,True
1599558406.7054608,0.0,10,0.5,0.5,0.024448663330078127,-0.001,-0.001,-0.2505,0.334574492578286,10,1,100,0.4310781953986821,-10,-1,-100,15023.912789596594,-0.040491316001490044,0.007569912174800007,0.9991512146607906,22.872553319263474,0.021810448173748085,33.593574540437174,-12.929796022562364,-69.62155151367188,5356.25390625,True
1599558406.7388535,0.0,10,0.5,0.5,0.05724331970214843,-0.001,-0.001,-0.2505,0.49780149969973375,10,1,100,0.38285234336107543,-10,-1,-100,15023.111067645252,-0.03993080803070768,0.011423628027263438,0.9991371433855862,23.08325867753963,0.021461374352386577,35.369387891409424,-13.487034084501811,-70.01522827148438,5356.25390625,True
1599558406.7727277,0.0,10,0.5,0.5,0.024684005737304685,-0.001,-0.001,-0.2505,0.3882781104332635,10,1,100,0.37211400887981055,-10,-1,-100,15022.54565967177,-0.03932125826826894,0.013910527182069572,0.9991297893075339,23.22505448111756,0.02122564632178378,36.57055159374325,-13.858516594856429,-70.27688598632812,5356.25390625,True
1599558406.8136213,0.0,10,0.5,0.5,-0.00843316955566406,-0.001,-0.001,-0.2505,0.2742138705852166,10,1,100,0.392431144200822,-10,-1,-100,15022.295668920618,-0.03895046860690211,0.015112414197512296,0.9991268567766686,23.30011123597976,0.02111076045440679,37.18237657162292,-14.044254855392374,-70.40478515625,5356.25390625,True
1599558406.8465352,0.0,10,0.5,0.5,0.02174257202148438,-0.001,-0.001,-0.2505,0.4189958290246219,10,1,100,0.3343593158318407,-10,-1,-100,15021.672636548756,-0.03808526827648088,0.017500392041110147,0.9991212381982059,23.447812238148728,0.020877532006655573,38.411820984438364,-14.415725159838958,-70.65118408203125,5356.25390625,True
1599558406.8784459,0.0,10,0.5,0.5,-0.03973933410644531,-0.001,-0.001,-0.2505,0.18248270636628805,10,1,100,0.4207438090488393,-10,-1,-100,15021.672636548756,-0.03808526827648088,0.017500392041110147,0.9991212381982059,23.447812238148728,0.020877532006655573,38.411820984438364,-14.415725159838958,-70.65118408203125,5356.25390625,True
1599558406.908366,0.0,10,0.5,0.5,0.05218272094726563,-0.001,-0.001,-0.2505,0.5665479110746163,10,1,100,0.24334492258607912,-10,-1,-100,15020.788863421767,-0.036474068575795396,0.020972286496129037,0.9991145107146892,23.661025339941684,0.020517950829186345,40.265796292102436,-14.972914108507803,-71.01577758789062,5356.25390625,True
1599558406.9502537,0.0,10,0.5,0.5,-0.038940963745117185,-0.001,-0.001,-0.2505,0.22134880147075256,10,1,100,0.4040603216089794,-10,-1,-100,15020.788863421767,-0.036474068575795396,0.020972286496129037,0.9991145107146892,23.661025339941684,0.020517950829186345,40.265796292102436,-14.972914108507803,-71.01577758789062,5356.25390625,True
1599558407.0130856,0.0,10,0.5,0.5,0.0220012451171875,-0.001,-0.001,-0.2505,0.4687071892599247,10,1,100,0.2624598187202742,-10,-1,-100,15020.221487678937,-0.03519055592192269,0.02320410277149654,0.9991112022134853,23.797173680486743,0.020273232986720575,41.50674792385917,-15.344361854198612,-71.25732421875,5356.25390625,True
1599558407.043005,0.0,10,0.5,0.5,0.11247800292968752,-0.001,-0.001,-0.2505,0.8101245843443087,10,1,100,-0.036760900429575805,-10,-1,-100,15018.624813532573,-0.03130847497723405,0.028320219020726387,0.9991084748860947,24.112531106490064,0.019646051106218275,44.61466289120073,-16.272939786536597,-71.85690307617188,5356.25390625,True
1599558407.0786865,0.0,10,0.5,0.5,-0.037466436767578125,-0.001,-0.001,-0.2505,0.30085080625209853,10,1,100,0.35051590532344834,-10,-1,-100,15018.624813532573,-0.03130847497723405,0.028320219020726387,0.9991084748860947,24.112531106490064,0.019646051106218275,44.61466289120073,-16.272939786536597,-71.85690307617188,5356.25390625,True
1599558407.109604,0.0,10,0.5,0.5,0.05708494873046875,-0.001,-0.001,-0.2505,0.6007877635979434,10,1,100,0.048458852116689655,-10,-1,-100,15017.6170031972,-0.0285708498035583,0.03102805471764686,0.9991100872085824,24.282568003903236,0.019262169264025752,46.47572559893082,-16.830056356650026,-72.23196411132812,5356.25390625,True
1599558407.1415179,0.0,10,0.5,0.5,0.02148557739257812,-0.001,-0.001,-0.2505,0.5185972632338991,10,1,100,0.10112615833828234,-10,-1,-100,15016.912896619295,-0.026571220573346772,0.03272471496000109,0.999111136594938,24.38751274898184,0.019004887104627645,47.71238910535345,-17.20145447551014,-72.46310424804688,5356.25390625,True
1599558407.1744323,0.0,10,0.5,0.5,0.02021610107421875,-0.001,-0.001,-0.2505,0.5105987985781832,10,1,100,0.07331789766891914,-10,-1,-100,15016.202926221304,-0.024512164392246558,0.034177316240018484,0.9991151409379387,24.486541566812182,0.018747139621997734,48.946452591317595,-17.572842134835685,-72.68740844726562,5356.25390625,True
1599558407.2103348,0.0,10,0.5,0.5,-0.008412554931640625,-0.001,-0.001,-0.2505,0.4424507085356849,10,1,100,0.1594508948422718,-10,-1,-100,15015.88456030609,-0.02343644811483562,0.034861003037791126,0.9991173321321973,24.53396855663732,0.01861844271663622,49.56253970431749,-17.758531998224967,-72.79608154296875,5356.25390625,True
1599558407.241252,0.0,10,0.5,0.5,0.018397622680664062,-0.001,-0.001,-0.2505,0.5112013388515699,10,1,100,0.0222948549098404,-10,-1,-100,15015.1765368731,-0.021224968245223248,0.03609175984682277,0.9991230582836874,24.623667262170677,0.01836083062331295,50.7903614091919,-18.1299034311102,-73.01007080078125,5356.25390625,True
1599558407.2751617,0.0,10,0.5,0.5,-0.008176776123046875,-0.001,-0.001,-0.2505,0.4524797754033635,10,1,100,0.11552422428725384,-10,-1,-100,15014.788832666818,-0.020077399267216904,0.036659896034771745,0.9991260931741222,24.666179572226667,0.01823217475420048,51.40238009683421,-18.31558509968835,-73.11660766601562,5356.25390625,True
1599558407.310068,0.0,10,0.5,0.5,-0.0076529266357421855,-0.001,-0.001,-0.2505,0.4550568699918388,10,1,100,0.10010754745928283,-10,-1,-100,15014.40015143517,-0.01890890919723738,0.037185550147767275,0.9991294650910755,24.7067638395156,0.018103333151184068,52.012226454808975,-18.50126402867841,-73.22396850585938,5356.25390625,True
1599558407.3509607,0.0,10,0.5,0.5,-0.0072710205078124965,-0.001,-0.001,-0.2505,0.45497374852886346,10,1,100,0.08716935773870475,-10,-1,-100,15014.02709436731,-0.017744993917413066,0.03764792254296195,0.9991334991476715,24.745573773810506,0.017974508038403957,52.62010442658812,-18.686940188382184,-73.33154296875,5356.25390625,True
1599558407.4167829,0.0,10,0.5,0.5,0.07450056457519531,-0.001,-0.001,-0.2505,0.5779113748830924,10,1,100,-0.33765310780165925,-10,-1,-100,15012.527050095727,-0.012840726305391752,0.03917274512383967,0.999149944596612,24.900713041058417,0.017472126558933643,55.06870920171642,-19.429617288159676,-73.76300048828125,5356.25390625,True
1599558407.4506917,0.0,10,0.5,0.5,0.02227140502929687,-0.001,-0.001,-0.2505,0.48524065044387255,10,1,100,-0.1305591271347979,-10,-1,-100,15011.698902592063,-0.010281762617500063,0.0397066204060055,0.9991584807493807,24.977113071425357,0.017228002752202983,56.30076930373362,-19.80093926410663,-73.98431396484375,5356.25390625,True
1599558407.4846013,0.0,10,0.5,0.5,0.05182505798339844,-0.001,-0.001,-0.2505,0.48500302905431114,10,1,100,-0.30498001841586264,-10,-1,-100,15010.517228540033,-0.006388902719006788,0.04017945010317362,0.9991720541085272,25.075612182221978,0.01686104943306039,58.124358355946576,-20.357901570372064,-74.3214111328125,5356.25390625,True
1599558407.5474336,0.0,10,0.5,0.5,0.021302008056640627,-0.001,-0.001,-0.2505,0.44864920980203693,10,1,100,-0.20448970474020023,-10,-1,-100,15009.670524172601,-0.0037836528875048797,0.040270486566137124,0.9991816510938107,25.132870027375837,0.016617825235385172,59.32764872251526,-20.729196132454472,-74.53497314453125,5356.25390625,True
1599558407.5783505,0.0,10,0.5,0.5,-0.005999960327148439,-0.001,-0.001,-0.2505,0.4378249423100219,10,1,100,-0.08722459846704006,-10,-1,-100,15009.28183886921,-0.0025020063410644573,0.04024798476289823,0.9991865890246898,25.159057748720564,0.016496558726205566,59.92543713014365,-20.914839447566802,-74.6383056640625,5356.25390625,True
1599558407.6122603,0.0,10,0.5,0.5,0.04252156066894531,-0.001,-0.001,-0.2505,0.40136257010010434,10,1,100,-0.38002232458271346,-10,-1,-100,15007.976130776224,0.0013049151585227924,0.039890533677570096,0.9992032038175959,25.232580513145603,0.016136907744933374,61.713686402049454,-21.471753191327206,-74.93338012695312,5356.25390625,True
1599558407.6441743,0.0,10,0.5,0.5,0.016781280517578122,-0.001,-0.001,-0.2505,0.3877967210721932,10,1,100,-0.2792120474107022,-10,-1,-100,15007.12746605731,0.003826803671789864,0.039437679944618255,0.9992147041423297,25.275869762206856,0.015898926770891792,62.897262440752044,-21.843015644905485,-75.12408447265625,5356.25390625,True
1599558407.6810763,0.0,10,0.5,0.5,-0.030778756713867185,-0.001,-0.001,-0.2505,0.4334166863771569,10,1,100,-0.02952837327569638,-10,-1,-100,15007.12746605731,0.003826803671789864,0.039437679944618255,0.9992147041423297,25.275869762206856,0.015898926770891792,62.897262440752044,-21.843015644905485,-75.12408447265625,5356.25390625,True
1599558407.711994,0.0,10,0.5,0.5,0.03941954956054687,-0.001,-0.001,-0.2505,0.32222719039041386,10,1,100,-0.4252974641524589,-10,-1,-100,15005.808080276009,0.007402973404361335,0.03842434108663891,0.9992340896891139,25.33102396492415,0.015542732411491678,64.6552491133806,-22.399889548944657,-75.40240478515625,5356.25390625,True
1599558407.7528844,0.0,10,0.5,0.5,-0.007255886840820316,-0.001,-0.001,-0.2505,0.37787513537016015,10,1,100,-0.2001272114140674,-10,-1,-100,15005.350055072224,0.008583114606712206,0.03800788817834732,0.9992405769282343,25.347223372015037,0.015424211990062647,65.23736610643127,-22.585508941868625,-75.4931640625,5356.25390625,True
1599558407.8097317,0.0,10,0.5,0.5,0.016398904418945315,-0.001,-0.001,-0.2505,0.31535846445345855,10,1,100,-0.3399500610600765,-10,-1,-100,15004.433028169791,0.010903152416063875,0.037060634011898234,0.9992535367333097,25.375977096098833,0.015186908139621402,66.39440850631205,-22.956740067260604,-75.6767578125,5356.25390625,True
1599558407.8466332,0.0,10,0.5,0.5,0.03873253784179688,-0.001,-0.001,-0.2505,0.22194219889435768,10,1,100,-0.47859484246568873,-10,-1,-100,15003.0423506496,0.014251099456687817,0.03535217518378173,0.9992733008912281,25.411012331228967,0.01482980158781612,68.11355557532114,-23.5135676313222,-75.94766235351562,5356.25390625,True
1599558407.8935075,0.0,10,0.5,0.5,0.04031267700195312,-0.001,-0.001,-0.2505,0.16903616808218055,10,1,100,-0.4944131037388978,-10,-1,-100,15001.598940312047,0.01741618744876222,0.03332202546467623,0.9992929095283729,25.434943369581042,0.014468734442775084,69.80754450889123,-24.070372591039362,-76.22299194335938,5356.25390625,True
1599558407.952353,0.0,10,0.5,0.5,0.016424847412109377,-0.001,-0.001,-0.2505,0.20596778294248638,10,1,100,-0.3945101152366614,-10,-1,-100,15000.6125787528,0.019363690191384286,0.0318184107866181,0.999306077354274,25.445897363477766,0.014225351945229047,70.92510343168948,-24.441563631331455,-76.4014892578125,5356.25390625,True
1599558408.0231643,0.0,10,0.5,0.5,0.03541763610839843,-0.001,-0.001,-0.2505,0.08308801105619545,10,1,100,-0.4987453529630539,-10,-1,-100,14999.136940507684,0.022060697261208923,0.029342083221943992,0.999325956727106,25.46158353420848,0.01385859213998284,72.60178255531932,-24.998332137352357,-76.654052734375,5356.25390625,True
1599558408.0760217,0.0,10,0.5,0.5,0.03167345581054687,-0.001,-0.001,-0.2505,0.030503073210091713,10,1,100,-0.49546656713706816,-10,-1,-100,14997.624191221432,0.024460384995720293,0.026622745911403817,0.9993462457857127,25.479633625870502,0.013489021145632744,74.28822675646536,-25.555078819105347,-76.88992309570312,5356.25390625,True
1599558408.110927,0.0,10,0.5,0.5,0.029410995483398438,-0.001,-0.001,-0.2505,-0.018433454956566564,10,1,100,-0.4817247672321494,-10,-1,-100,14996.024526323192,0.026495943419015733,0.023717805180094188,0.9993675153314596,25.498178302521133,0.013113576706369982,75.97933685413905,-26.111804005258946,-77.11508178710938,5356.25390625,True
1599558408.1469154,0.0,10,0.5,0.5,-0.026792156982421877,-0.001,-0.001,-0.2505,0.27048863069794393,10,1,100,-0.280435838877328,-10,-1,-100,14996.024526323192,0.026495943419015733,0.023717805180094188,0.9993675153314596,25.498178302521133,0.013113576706369982,75.97933685413905,-26.111804005258946,-77.11508178710938,5356.25390625,True
1599558408.1818213,0.0,10,0.5,0.5,0.042222525024414065,-0.001,-0.001,-0.2505,-0.18108490318623138,10,1,100,-0.521095297919639,-10,-1,-100,14993.895543767372,0.028663148374175627,0.01962688203093307,0.9993964225606493,25.53090094347444,0.012602892840267593,78.26375962991665,-26.854071210098187,-77.38870239257812,5356.25390625,True
1599558408.2137375,0.0,10,0.5,0.5,-0.026120806884765625,-0.001,-0.001,-0.2505,0.2261276658243098,10,1,100,-0.30650081990063094,-10,-1,-100,14993.895543767372,0.028663148374175627,0.01962688203093307,0.9993964225606493,25.53090094347444,0.012602892840267593,78.26375962991665,-26.854071210098187,-77.38870239257812,5356.25390625,True
1599558408.2456496,0.0,10,0.5,0.5,0.00816953125,-0.001,-0.001,-0.2505,-0.01974226335552906,10,1,100,-0.4123738600018436,-10,-1,-100,14992.82421689888,0.029607375980761685,0.017408410862159458,0.999410001210108,25.55221494407374,0.012342406994865494,79.42407823690235,-27.225190786531225,-77.5242919921875,5356.25390625,True
1599558408.2845461,0.0,10,0.5,0.5,0.008190542602539062,-0.001,-0.001,-0.2505,-0.03994404663664455,10,1,100,-0.39905106619650965,-10,-1,-100,14991.752891432028,0.03032764456709625,0.015225831972673068,0.9994240381418449,25.572855325147582,0.012075920651570158,80.58451601283602,-27.596300997928378,-77.65869140625,5356.25390625,True
1599558408.31746,0.0,10,0.5,0.5,-0.00767554016113281,-0.001,-0.001,-0.2505,0.048640172609556095,10,1,100,-0.3672330019918979,-10,-1,-100,14991.15619458165,0.030678564020894465,0.01406527710557009,0.9994303345854373,25.583842502669768,0.01194052264245378,81.16767284901074,-27.78185266764246,-77.72879028320312,5356.25390625,True
1599558408.3503706,0.0,10,0.5,0.5,0.027444140625000002,-0.001,-0.001,-0.2505,-0.21296024716455092,10,1,100,-0.4173826157633036,-10,-1,-100,14989.470599623397,0.03144143057993096,0.010649547726947416,0.9994488599104502,25.616108852781892,0.011524383117684903,82.91836108764805,-28.33849417404693,-77.93765258789062,5356.25390625,True
1599558408.3773005,0.0,10,0.5,0.5,-0.007046331787109374,-0.001,-0.001,-0.2505,-0.0037744003854192076,10,1,100,-0.3648285699539995,-10,-1,-100,14988.926639885176,0.03164620181679905,0.009465273138064065,0.9994543143710933,25.62826767048425,0.01138268750866005,83.50763686499094,-28.52403689934754,-78.0079345703125,5356.25390625,True
1599558408.4132037,0.0,10,0.5,0.5,-0.0067255340576171906,-0.001,-0.001,-0.2505,-0.018180875949262876,10,1,100,-0.3638880958728302,-10,-1,-100,14988.327993003768,0.031815093627254334,0.008275761743120513,0.9994595097276628,25.640952062824205,0.011239658288022217,84.09926863184096,-28.709577343463934,-78.07867431640625,5356.25390625,True
1599558408.5234258,0.0,10,0.5,0.5,-0.006382415771484375,-0.001,-0.001,-0.2505,-0.03254259586247424,10,1,100,-0.36249631378753777,-10,-1,-100,14987.785988096264,0.03194929297359145,0.007080505734113801,0.9994644111308001,25.65405646443664,0.011094547662465473,84.69294335181856,-28.895115629333308,-78.1500244140625,5356.25390625,True
1599558408.5894997,0.0,10,0.5,0.5,0.046797158813476555,-0.001,-0.001,-0.2505,-0.43899716514775294,10,1,100,-0.3689747597217484,-10,-1,-100,14985.432428068947,0.03212522975188658,0.0023139926410106018,0.9994811729349613,25.714685523098723,0.010497906964453184,87.10221967067355,-29.63724658427302,-78.43212890625,5356.25390625,True
1599558408.64934,0.0,10,0.5,0.5,0.03067097473144531,-0.001,-0.001,-0.2505,-0.36355821564958263,10,1,100,-0.3285128322414865,-10,-1,-100,14983.623811570229,0.031912219040213526,-0.0013139344367915904,0.9994898117801027,25.76907947046084,0.010031672246189251,88.94804059016106,-30.19382182987435,-78.64846801757812,5356.25390625,True
