Timestamp,Input Throttle,horizon,dT,dt,Input Roll,Roll P,Roll I,Roll D,Input Pitch,Pitch P,Pitch I,Pitch D,Input Yaw,Yaw P,Yaw I,Yaw D,Altitude,Direction X,Direction Y,Direction Z,Drag X,Drag Y,Drag Z,Vertical Velocity,Roll,Mass,Has Fuel
1599563855.1364617,0.0,10,0.5,0.5,-11.642086311340332,-0.2,-0.0155,-0.37525,-0.00028642690721888666,10,1,100,0.17493756098326302,-10,-1,-100,14994.547641888843,-0.01680972007682646,-7.452471260856629e-05,0.9998587038962085,28.57652763265376,0.027199585971221175,-86.6927150797544,26.823330390237608,-31.79168701171875,5356.25390625,True
1599563855.18074,0.0,10,0.5,0.5,-11.73293879699707,-0.2,-0.0155,-0.37525,0.00010430683800607054,10,1,100,0.18188273996634896,-10,-1,-100,14996.118936267216,-0.0169197615967392,-6.673374501445184e-05,0.9998568483608624,28.358856827649944,0.027686102036332386,-84.24773851776925,26.2654513719333,-31.78985595703125,5356.25390625,True
1599563855.2256205,0.0,10,0.5,0.5,-11.822477416992188,-0.2,-0.0155,-0.37525,-0.0006814632959068202,10,1,100,0.17257056413474858,-10,-1,-100,14996.118936267216,-0.0169197615967392,-6.673374501445184e-05,0.9998568483608624,28.358856827649944,0.027686102036332386,-84.24773851776925,26.2654513719333,-31.78985595703125,5356.25390625,True
1599563855.2735283,0.0,10,0.5,0.5,-11.607558013916018,-0.2,-0.0155,-0.37525,0.016876691408387292,10,1,100,0.18162439077845088,-10,-1,-100,14998.17558155011,-0.01698668751023037,9.294651024732597e-05,0.9998557114946017,28.093483550450596,0.028331299450144298,-81.10211404242082,25.52166656089096,-32.3203125,5356.25390625,True
1599563855.3283458,0.0,10,0.5,0.5,-11.514294277954104,-0.2,-0.0155,-0.37525,0.015558721865595572,10,1,100,0.17720298779749175,-10,-1,-100,14999.202925419784,-0.0169918922340225,0.00022604434054151985,0.9998556018257154,27.989842383437704,0.028659770056151137,-79.62859198945478,25.149795364993555,-32.98388671875,5356.25390625,True
1599563855.3742237,0.0,10,0.5,0.5,-11.312185496520998,-0.2,-0.0155,-0.37525,0.02258707907135327,10,1,100,0.17466150940131647,-10,-1,-100,15000.169721021317,-0.016958072277291916,0.0004107310296426374,0.9998561171911983,27.904610882162903,0.028982600541536875,-78.21531901079265,24.77793679144994,-33.921722412109375,5356.25390625,True
1599563855.423093,0.0,10,0.5,0.5,-11.05347233581543,-0.2,-0.0155,-0.37525,0.029871126946138145,10,1,100,0.17251758739332004,-10,-1,-100,15001.134562274558,-0.016892420232666606,0.0006444732449329317,0.999857105186996,27.834250053693264,0.02928850418470373,-76.85019545044395,24.40609028364158,-35.13433837890625,5356.25390625,True
1599563855.469967,0.0,10,0.5,0.5,-10.737888455200197,-0.2,-0.0155,-0.37525,0.03736260143422984,10,1,100,0.1691915649347147,-10,-1,-100,15002.101355042076,-0.016787143242262943,0.0009244845966840938,0.9998586585862996,27.773728560598183,0.029563309379705867,-75.517661791516,24.034255300042496,-36.621795654296875,5356.25390625,True
1599563855.525818,0.0,10,0.5,0.5,-11.378793014526368,-0.2,-0.0155,-0.37525,0.009453914718782043,10,1,100,0.18139797829930734,-10,-1,-100,15002.101355042076,-0.016787143242262943,0.0009244845966840938,0.9998586585862996,27.773728560598183,0.029563309379705867,-75.517661791516,24.034255300042496,-36.621795654296875,5356.25390625,True
1599563855.5716958,0.0,10,0.5,0.5,-10.447749415588381,-0.2,-0.0155,-0.37525,0.045101182145182994,10,1,100,0.1668809922053076,-10,-1,-100,15003.065216969,-0.016639909602097252,0.0012477102236543897,0.9998607686211276,27.716752511384776,0.02979012601045078,-74.19962728684152,23.662431378151076,-38.384124755859375,5356.25390625,True
1599563855.6205683,0.0,10,0.5,0.5,-10.017133073425294,-0.2,-0.0155,-0.37525,0.05278562522829036,10,1,100,0.16227732463762373,-10,-1,-100,15004.030053872033,-0.016449082124420318,0.0016102759941795852,0.9998634080255595,27.655755847742334,0.02994957434680737,-72.87571171430626,23.2906186999677,-40.42138671875,5356.25390625,True
1599563855.6684382,0.0,10,0.5,0.5,-8.713890667724609,-0.2,-0.0155,-0.37525,0.08548133464443072,10,1,100,0.14071445129143348,-10,-1,-100,15005.41578269552,-0.016079904330614472,0.0022355833250703224,0.9998682107377527,27.537040789929833,0.03001526547375112,-70.82931783790592,22.732921905235003,-43.99261474609375,5356.25390625,True
1599563855.7163086,0.0,10,0.5,0.5,-8.467748165893555,-0.2,-0.0155,-0.37525,0.07292347088151224,10,1,100,0.14343802637938852,-10,-1,-100,15006.318116811919,-0.015769811434559772,0.0026877891216080204,0.9998720362311151,27.424330912378803,0.029910345636313552,-69.3883849326818,22.36114056731082,-46.71722412109375,5356.25390625,True
1599563855.7682035,0.0,10,0.5,0.5,-8.62401794128418,-0.2,-0.0155,-0.37525,0.05408435815752813,10,1,100,0.15520683882475506,-10,-1,-100,15006.738034138922,-0.015595943415069903,0.002925116527454597,0.9998740971953893,27.353481612862108,0.029805063041935573,-68.63509271997043,22.17525549255406,-48.18267822265625,5356.25390625,True
1599563855.8210578,0.0,10,0.5,0.5,-7.344559249877931,-0.2,-0.0155,-0.37525,0.08293548557520941,10,1,100,0.12946911037137357,-10,-1,-100,15007.575912569533,-0.01520516654240761,0.003400576991096581,0.9998786121257647,27.175179394833602,0.029477476910272978,-67.0471298381942,21.80349790720379,-51.320068359375,5356.25390625,True
1599563855.867903,0.0,10,0.5,0.5,-5.489514579772949,-0.2,-0.0155,-0.37525,0.11822462956771906,10,1,100,0.0927733466948838,-10,-1,-100,15008.898158244556,-0.014517941284466176,0.004150738237384331,0.9998859938777749,26.789874999485825,0.028667227931474103,-64.40999090941311,21.24589849250261,-56.542022705078125,5356.25390625,True
1599563855.9147804,0.0,10,0.5,0.5,-6.33351932220459,-0.2,-0.0155,-0.37525,0.0716310129189588,10,1,100,0.13288840672842067,-10,-1,-100,15009.32100376056,-0.014260091714817777,0.004405724667013791,0.9998886134837438,26.622538161597603,0.02830833331266733,-63.449050829970616,21.06004337109654,-58.4202880859375,5356.25390625,True
1599563855.969632,0.0,10,0.5,0.5,-4.722364134216309,-0.2,-0.0155,-0.37525,0.10101514405939291,10,1,100,0.09736115693152109,-10,-1,-100,15010.157903278363,-0.013705101042909099,0.0049012396575699,0.9998940684168611,26.218225996044925,0.027458144572984875,-61.38528157360846,20.688353416685302,-62.383575439453125,5356.25390625,True
1599563856.0185032,0.0,10,0.5,0.5,-3.7311994506835937,-0.2,-0.0155,-0.37525,0.10404678713315313,10,1,100,0.08622167878459353,-10,-1,-100,15010.935232341057,-0.013102097941837644,0.005375652990508833,0.9998997136635493,25.707249780465368,0.026440558899594152,-59.110333199802035,20.316693883637452,-66.62252807617188,5356.25390625,True
1599563856.064379,0.0,10,0.5,0.5,0.07698063964843671,-0.2,-0.0155,-0.37525,0.15839470083680796,10,1,100,-0.004020691288834893,-10,-1,-100,15012.55043632572,-0.01173687816319645,0.006296963264673975,0.9999112930378502,24.298784344295075,0.024004752602301217,-53.833280072313336,19.573482278314152,-75.92691040039062,5356.25390625,True
1599563856.114755,0.0,10,0.5,0.5,-3.3562975097656254,-0.2,-0.0155,-0.37525,0.06676859872439574,10,1,100,0.13201098343139442,-10,-1,-100,15012.55043632572,-0.01173687816319645,0.006296963264673975,0.9999112930378502,24.298784344295075,0.024004752602301217,-53.833280072313336,19.573482278314152,-75.92691040039062,5356.25390625,True
1599563856.1775851,0.0,10,0.5,0.5,1.1039945129394528,-0.2,-0.0155,-0.37525,0.13214003270843291,10,1,100,0.00896204525565554,-10,-1,-100,15013.685178331332,-0.010622535274290846,0.006886988403373863,0.9999198623565182,22.843885534844915,0.021988224532789258,-49.1730775659047,19.016178535376156,-83.58489990234375,5356.25390625,True
1599563856.2244608,0.0,10,0.5,0.5,-0.21339936981201169,-0.2,-0.0155,-0.37525,0.09235828506131044,10,1,100,0.07833677254591931,-10,-1,-100,15014.104117296636,-0.010245136867975716,0.0070574940916923725,0.9999226114793595,22.30719457090218,0.021342432896879704,-47.55014185985742,18.830430611867794,-86.18359375,5356.25390625,True
1599563856.2713354,0.0,10,0.5,0.5,1.9467945430755615,-0.2,-0.0155,-0.37525,0.11360824336477189,10,1,100,0.024290535470150712,-10,-1,-100,15014.81796993548,-0.009415740411151868,0.007401708242949681,0.9999282767016822,21.12495486318299,0.020092256830865744,-44.14431303974468,18.458962082499813,-91.52767181396484,5356.25390625,True
1599563856.3240285,0.0,10,0.5,0.5,3.0688121498107908,-0.2,-0.0155,-0.37525,0.10863831868246719,10,1,100,0.01965682584403719,-10,-1,-100,15015.53182297782,-0.008625237365623628,0.007665379436330378,0.999933421402887,21.970752497463955,0.020967052523812715,-44.990457054763645,18.087499863318097,-96.84744262695312,5356.25390625,True
1599563856.3739223,0.0,10,0.5,0.5,7.113724289321899,-0.2,-0.0155,-0.37525,0.12840833498903556,10,1,100,-0.08609081107507094,-10,-1,-100,15016.959531995934,-0.00695123783331223,0.008080930849058693,0.9999431878107862,23.547907088615485,0.02304291835286986,-46.244590364359645,17.34454533250386,-107.2265625,5356.25390625,True
1599563856.4257543,0.0,10,0.5,0.5,3.2975205936431884,-0.2,-0.0155,-0.37525,0.08724621297737148,10,1,100,0.08055247181095346,-10,-1,-100,15016.959531995934,-0.00695123783331223,0.008080930849058693,0.9999431878107862,23.547907088615485,0.02304291835286986,-46.244590364359645,17.34454533250386,-107.2265625,5356.25390625,True
1599563856.4763634,0.0,10,0.5,0.5,8.821973499679565,-0.2,-0.0155,-0.37525,0.11388239289697855,10,1,100,-0.09773036146690751,-10,-1,-100,15018.322791616432,-0.005337129216133044,0.008319736842707808,0.9999511473220071,24.53617512298205,0.024776919651565785,-46.12596510679645,16.601546886414777,-116.69862365722656,5356.25390625,True
1599563856.5252328,0.0,10,0.5,0.5,7.840186194610596,-0.2,-0.0155,-0.37525,0.09511344674170012,10,1,100,-0.028540088006967265,-10,-1,-100,15018.974149818183,-0.004506367479084856,0.008363098692627073,0.9999548745980493,24.894072262577662,0.02546792318281859,-45.7536843852952,16.2300365769468,-121.02442169189453,5356.25390625,True
1599563856.5746105,0.0,10,0.5,0.5,8.631070338439942,-0.2,-0.0155,-0.37525,0.09516858830949942,10,1,100,-0.02632757398467086,-10,-1,-100,15019.62550893065,-0.003779057600573518,0.008400303983440837,0.9999575759084169,25.126086559321575,0.025956921416148804,-45.125085818695986,15.858524468737635,-125.07451629638672,5356.25390625,True
1599563856.623442,0.0,10,0.5,0.5,7.187451127243042,-0.2,-0.0155,-0.37525,0.09165839329999971,10,1,100,0.045607631810200625,-10,-1,-100,15019.62550893065,-0.003779057600573518,0.008400303983440837,0.9999575759084169,25.126086559321575,0.025956921416148804,-45.125085818695986,15.858524468737635,-125.07451629638672,5356.25390625,True
1599563856.670316,0.0,10,0.5,0.5,9.435146878433228,-0.2,-0.0155,-0.37525,0.09104482132929814,10,1,100,-0.03655981764273525,-10,-1,-100,15020.213393063052,-0.0030393151696946675,0.008392813928508307,0.9999601608252504,25.24846077816166,0.026241535796450492,-44.284550749904305,15.487014638943501,-128.84942626953125,5356.25390625,True
1599563856.7167034,0.0,10,0.5,0.5,10.101787044525148,-0.2,-0.0155,-0.37525,0.0886535402406047,10,1,100,-0.04004792147409299,-10,-1,-100,15020.800301811076,-0.002342005852342093,0.008362896936376854,0.9999622877706036,25.27860781788359,0.02633359935348997,-43.27573582538505,15.115511029469786,-132.3488006591797,5356.25390625,True
1599563856.7755456,0.0,10,0.5,0.5,12.410951406860352,-0.2,-0.0155,-0.37525,0.07566234034680955,10,1,100,-0.11624875208605945,-10,-1,-100,15021.97705043084,-0.001022538131926997,0.008216411123727682,0.9999657219145137,25.126759857214836,0.026016404342938493,-40.90493858579113,14.372537214470093,-138.52133178710938,5356.25390625,True
1599563856.822421,0.0,10,0.5,0.5,11.705124690628052,-0.2,-0.0155,-0.37525,0.07952184899614306,10,1,100,-0.0523118320330368,-10,-1,-100,15022.563961371081,-0.0004118969341036839,0.008117588006421669,0.9999669670073476,24.973725298631077,0.025657596367755765,-39.606747666959826,14.001072051709901,-141.1942138671875,5356.25390625,True
1599563856.8692951,0.0,10,0.5,0.5,11.480077197647095,-0.2,-0.0155,-0.37525,0.08498294829947207,10,1,100,-0.0233654938111365,-10,-1,-100,15022.85692813946,-0.00012738377485569283,0.008076984067473656,0.9999673725185976,24.883809725813343,0.025440427318347874,-38.94149354950875,13.815345531300009,-142.42709350585938,5356.25390625,True
1599563856.916171,0.0,10,0.5,0.5,11.7415654460907,-0.2,-0.0155,-0.37525,0.08429111241161016,10,1,100,-0.025956289601688616,-10,-1,-100,15023.089349453687,0.00014861373704890327,0.008033785566523613,0.9999677175806367,24.786684087925416,0.025202413899350788,-38.26887731551549,13.629623386682557,-143.59104919433594,5356.25390625,True
1599563856.9685483,0.0,10,0.5,0.5,12.581499538040163,-0.2,-0.0155,-0.37525,0.07653599763164978,10,1,100,-0.05813225600874274,-10,-1,-100,15023.67626206961,0.0006855749410532453,0.007924056017917147,0.9999683691613576,24.60596102666238,0.024706626293993703,-36.95617864729605,13.258191510011462,-145.71246337890625,5356.25390625,True
1599563857.020412,0.0,10,0.5,0.5,13.795227531814577,-0.2,-0.0155,-0.37525,0.06224007075700569,10,1,100,-0.11052929248799905,-10,-1,-100,15024.6645419891,0.001644582999816626,0.007694698621073406,0.9999690430007759,24.243064694915656,0.02362108388581979,-34.374166624726726,12.515377158355111,-149.1280517578125,5356.25390625,True
1599563857.0662894,0.0,10,0.5,0.5,12.94909705734253,-0.2,-0.0155,-0.37525,0.07916547703468359,10,1,100,-0.03903597563780164,-10,-1,-100,15024.895986038726,0.0018608774905279945,0.007640666862895762,0.9999690781943488,24.151228089111502,0.02333688073499605,-33.73661015867965,12.329683519452171,-149.80950927734375,5356.25390625,True
1599563857.1141589,0.0,10,0.5,0.5,13.084114408493043,-0.2,-0.0155,-0.37525,0.0783590869642761,10,1,100,-0.040856089431462274,-10,-1,-100,15025.187002414488,0.002068928121034243,0.007584906843112876,0.9999690938847117,24.060639030527884,0.023051423001004396,-33.104615084093176,12.143993534327688,-150.42210388183594,5356.25390625,True
1599563857.1660206,0.0,10,0.5,0.5,13.47910830078125,-0.2,-0.0155,-0.37525,0.07389433275551444,10,1,100,-0.06302196189681104,-10,-1,-100,15025.64989341225,0.0024542566387052685,0.0074943685115399904,0.9999689050490342,23.886910425122277,0.02248372473011286,-31.861934748633004,11.772623834963271,-151.4400634765625,5356.25390625,True
1599563857.212895,0.0,10,0.5,0.5,13.827708043670654,-0.2,-0.0155,-0.37525,0.05954985310892526,10,1,100,-0.09944199287124421,-10,-1,-100,15026.511222819798,0.0031306523256206843,0.007282473345520164,0.9999685818054425,23.58613247120468,0.021395651737313833,-29.47850521509913,11.029921202971387,-152.64923095703125,5356.25390625,True
1599563857.2607696,0.0,10,0.5,0.5,13.405433613586426,-0.2,-0.0155,-0.37525,0.08063132735182224,10,1,100,-0.032349689997498904,-10,-1,-100,15026.511222819798,0.0031306523256206843,0.007282473345520164,0.9999685818054425,23.58613247120468,0.021395651737313833,-29.47850521509913,11.029921202971387,-152.64923095703125,5356.25390625,True
1599563857.3086748,0.0,10,0.5,0.5,13.48793253479004,-0.2,-0.0155,-0.37525,0.06349763797471572,10,1,100,-0.09112351144489653,-10,-1,-100,15027.372552621993,0.0036611841656356194,0.007127561567344839,0.9999678962829802,23.368679173152476,0.020414488408147156,-27.24244594337313,10.287257044274037,-152.75457763671875,5356.25390625,True
1599563857.3715074,0.0,10,0.5,0.5,13.466319757080079,-0.2,-0.0155,-0.37525,0.07888981314834055,10,1,100,-0.03847763555337695,-10,-1,-100,15027.372552621993,0.0036611841656356194,0.007127561567344839,0.9999678962829802,23.368679173152476,0.020414488408147156,-27.24244594337313,10.287257044274037,-152.75457763671875,5356.25390625,True
1599563857.4223647,0.0,10,0.5,0.5,13.274789347839356,-0.2,-0.0155,-0.37525,0.06917644940791601,10,1,100,-0.06277372554512936,-10,-1,-100,15027.771967284847,0.0038786135583420128,0.00704012137197746,0.9999676960021923,23.293968931824935,0.019972842724324293,-26.176215086140306,9.915935481231033,-152.393798828125,5356.25390625,True
1599563857.4712048,0.0,10,0.5,0.5,13.057332733917239,-0.2,-0.0155,-0.37525,0.07248734784165388,10,1,100,-0.06085617654004251,-10,-1,-100,15028.169428811176,0.004055453470009496,0.006991632693036138,0.9999673346512067,23.240753969758803,0.019565609470017262,-25.139421589325238,9.54461902112008,-151.7567138671875,5356.25390625,True
1599563857.5230694,0.0,10,0.5,0.5,12.780857095336914,-0.2,-0.0155,-0.37525,0.0698931009930925,10,1,100,-0.05982255039278331,-10,-1,-100,15028.567867337377,0.00420375689879671,0.00692481567112518,0.9999671871395865,23.206767112980607,0.019193311338078247,-24.126996810553496,9.173306473213486,-150.84422302246094,5356.25390625,True
1599563857.5749283,0.0,10,0.5,0.5,11.599931612396242,-0.2,-0.0155,-0.37525,0.06649921593471993,10,1,100,-0.06613644962588774,-10,-1,-100,15029.241695786128,0.004393650759905145,0.0068339193169936014,0.9999669961452572,23.17978360805114,0.01855474465690074,-22.14960432657874,8.430689570513369,-148.19146728515625,5356.25390625,True
1599563857.6267889,0.0,10,0.5,0.5,11.591940855407715,-0.2,-0.0155,-0.37525,0.07108906669673998,10,1,100,-0.052353587466801195,-10,-1,-100,15029.576656537247,0.004438680274676228,0.006793745590661351,0.9999670710269758,23.175245526412642,0.018288751371160202,-21.17065031536198,8.059383662113598,-146.45147705078125,5356.25390625,True
1599563857.6766553,0.0,10,0.5,0.5,11.079159217071533,-0.2,-0.0155,-0.37525,0.07137225771123988,10,1,100,-0.049307205150803474,-10,-1,-100,15029.851070310455,0.004449767492364832,0.0067605177225388054,0.9999672469483124,23.166567406369257,0.01805753868231226,-20.188382651297555,7.688079175323088,-144.43572998046875,5356.25390625,True
1599563857.728774,0.0,10,0.5,0.5,10.506594187164307,-0.2,-0.0155,-0.37525,0.07067470547213293,10,1,100,-0.04610292812759884,-10,-1,-100,15030.185053791502,0.004428902889276558,0.0067246363227891565,0.9999675815172827,23.144189264779616,0.01785897187644491,-19.195399054061326,7.316775986022089,-142.14434814453125,5356.25390625,True
1599563857.777644,0.0,10,0.5,0.5,11.350152652740478,-0.2,-0.0155,-0.37525,0.07420706174482472,10,1,100,-0.04831921349279187,-10,-1,-100,15030.185053791502,0.004428902889276558,0.0067246363227891565,0.9999675815172827,23.144189264779616,0.01785897187644491,-19.195399054061326,7.316775986022089,-142.14434814453125,5356.25390625,True
1599563857.8265128,0.0,10,0.5,0.5,8.221949807739257,-0.2,-0.0155,-0.37525,0.0660477507775259,10,1,100,-0.03333232499881587,-10,-1,-100,15030.73290236306,0.004291478220637089,0.006650967893107105,0.9999686734297063,23.012438427981262,0.017540199822361012,-17.15001300382614,6.574173170316807,-136.7346649169922,5356.25390625,True
1599563857.873387,0.0,10,0.5,0.5,8.433361141967774,-0.2,-0.0155,-0.37525,0.0685201748938584,10,1,100,-0.034362638616712994,-10,-1,-100,15031.004384672502,0.00417534019653209,0.006606906443248478,0.9999694571943152,22.876016767545206,0.017401300038080728,-16.085916177008176,6.202873046713783,-133.61647033691406,5356.25390625,True
1599563857.9222624,0.0,10,0.5,0.5,7.621595814514161,-0.2,-0.0155,-0.37525,0.06700637724172032,10,1,100,-0.03068368023091701,-10,-1,-100,15031.21434354561,0.004035847683810403,0.006553562105743104,0.9999703809399553,22.671867886902124,0.017256608064197862,-14.988450050212634,5.831572306024842,-130.22280883789062,5356.25390625,True
1599563857.9820967,0.0,10,0.5,0.5,8.860702257537842,-0.2,-0.0155,-0.37525,0.07229215506563426,10,1,100,-0.04464865491563254,-10,-1,-100,15031.21434354561,0.004035847683810403,0.006553562105743104,0.9999703809399553,22.671867886902124,0.017256608064197862,-14.988450050212634,5.831572306024842,-130.22280883789062,5356.25390625,True
1599563858.4084723,0.0,10,0.5,0.5,4.447565225219728,-0.2,-0.0155,-0.37525,0.05663614575197402,10,1,100,-0.0050421205486938375,-10,-1,-100,15031.635235937545,0.0036758061039165956,0.006411632994334641,0.9999726893329799,21.99396570688331,0.01687579186647538,-12.689285222348284,5.088962842157315,-122.60914611816406,5356.25390625,True
1599563858.449365,0.0,10,0.5,0.5,4.833320366287232,-0.2,-0.0155,-0.37525,0.06066384178360045,10,1,100,-0.016728153895141193,-10,-1,-100,15031.844216569792,0.003455212198794365,0.006319688477593361,0.9999740611866927,21.482440254038526,0.016590366172620552,-11.49007193244897,4.717648887285037,-118.38922882080078,5356.25390625,True
1599563858.4942434,0.0,10,0.5,0.5,3.784777645874024,-0.2,-0.0155,-0.37525,0.05756939922402318,10,1,100,-0.014027535086820704,-10,-1,-100,15031.99265020166,0.0032309743309358882,0.006208438739868222,0.9999755077467077,20.83856592233862,0.016210020354183265,-10.268614673823784,4.346324511507413,-113.89401245117188,5356.25390625,True
1599563858.5441108,0.0,10,0.5,0.5,2.67688695526123,-0.2,-0.0155,-0.37525,0.05447736340626548,10,1,100,-0.008953856456294769,-10,-1,-100,15032.201630472206,0.0029820952870995283,0.0060797252952755655,0.9999770717611642,20.14681812138363,0.015782966133777606,-9.079696710793602,3.974985133679888,-109.12346649169922,5356.25390625,True
1599563858.5989642,0.0,10,0.5,0.5,1.5096823524475103,-0.2,-0.0155,-0.37525,0.050924556677727786,10,1,100,-0.00539278426056573,-10,-1,-100,15032.347133950796,0.002724802474746451,0.005931033732138501,0.9999786989183028,19.38022357161714,0.015275493319853665,-7.918345958642553,3.6036260688770896,-104.07762908935547,5356.25390625,True
1599563858.6478336,0.0,10,0.5,0.5,3.3441294231414798,-0.2,-0.0155,-0.37525,0.06571435273236914,10,1,100,-0.030951655454420447,-10,-1,-100,15032.347133950796,0.002724802474746451,0.005931033732138501,0.9999786989183028,19.38022357161714,0.015275493319853665,-7.918345958642553,3.6036260688770896,-104.07762908935547,5356.25390625,True
1599563858.6937444,0.0,10,0.5,0.5,-2.9951765750885,-0.2,-0.0155,-0.37525,0.02617768682663723,10,1,100,0.027874896999944717,-10,-1,-100,15032.579547135276,0.0021915648164472497,0.005572330953532439,0.9999820729250097,17.29218486514943,0.013727920686001132,-5.609037810673132,2.8608300926007963,-93.16011047363281,5356.25390625,True
1599563858.7425795,0.0,10,0.5,0.5,1.0340817260742188,-0.2,-0.0155,-0.37525,0.061940100993285986,10,1,100,-0.02523887748955644,-10,-1,-100,15032.579547135276,0.0021915648164472497,0.005572330953532439,0.9999820729250097,17.29218486514943,0.013727920686001132,-5.609037810673132,2.8608300926007963,-93.16011047363281,5356.25390625,True
1599563858.7934437,0.0,10,0.5,0.5,-5.78051893081665,-0.2,-0.0155,-0.37525,0.013670429888658478,10,1,100,0.03461287212721098,-10,-1,-100,15032.74848304619,0.0016492614339130775,0.005134456284844658,0.9999854585419637,17.149068168324668,0.013589247871327684,-4.118215125514501,2.1179406591549643,-81.42279052734375,5356.25390625,True
1599563858.839321,0.0,10,0.5,0.5,-4.85377654724121,-0.2,-0.0155,-0.37525,0.028588879630878347,10,1,100,0.011501347188063386,-10,-1,-100,15032.833439356764,0.001368532754919624,0.004873300770804037,0.9999871889467864,18.16895844266996,0.014379605223873843,-3.597948976862649,1.7464871369414032,-75.50875854492188,5356.25390625,True
1599563858.8891928,0.0,10,0.5,0.5,-6.097286381530761,-0.2,-0.0155,-0.37525,0.027115662872476444,10,1,100,0.011453605563885791,-10,-1,-100,15032.915466659586,0.0011161837114443632,0.004624021297813399,0.9999886862164791,19.04148091947436,0.015067252372158852,-2.968802225450143,1.3750403685684578,-69.63662719726562,5356.25390625,True
1599563858.9490273,0.0,10,0.5,0.5,-3.9758764976501464,-0.2,-0.0155,-0.37525,0.0518648490018881,10,1,100,-0.013525336544393057,-10,-1,-100,15032.915466659586,0.0011161837114443632,0.004624021297813399,0.9999886862164791,19.04148091947436,0.015067252372158852,-2.968802225450143,1.3750403685684578,-69.63662719726562,5356.25390625,True
1599563858.9959028,0.0,10,0.5,0.5,-10.377560393142701,-0.2,-0.0155,-0.37525,-0.009694305688055634,10,1,100,0.0413471300864583,-10,-1,-100,15032.959404529305,0.0006194694952433054,0.004065934134431892,0.999991542182812,20.143745165551458,0.015932763310540148,-1.4439099592372246,0.6321529567373565,-58.63946533203125,5356.25390625,True
1599563859.042777,0.0,10,0.5,0.5,-9.26371524848938,-0.2,-0.0155,-0.37525,0.012351546750520019,10,1,100,0.01762481918086418,-10,-1,-100,15032.980885618366,0.00038594258405291997,0.0037609467395316068,0.9999928531384331,20.37403612759642,0.016121081122240505,-0.6022781029015394,0.26069659335678663,-53.5509033203125,5356.25390625,True
1599563859.0976298,0.0,10,0.5,0.5,-10.209287108612061,-0.2,-0.0155,-0.37525,0.0118448120771018,10,1,100,0.018773920168063087,-10,-1,-100,15033.001390291378,0.00016555915827171278,0.0034811867730964036,0.999993926945967,20.428352726559638,0.016175013547358837,0.2566065165956792,-0.11077515500282908,-48.73748779296875,5356.25390625,True
1599563859.1455355,0.0,10,0.5,0.5,-11.098925205612183,-0.2,-0.0155,-0.37525,0.006329602857079213,10,1,100,0.020440883384208828,-10,-1,-100,15032.959395687561,-4.761703684300528e-05,0.0031789483988451427,0.9999949459970762,20.45161683400876,0.016208923959078633,1.1184330423783053,-0.4822615029811055,-44.200164794921875,5356.25390625,True
1599563859.1948876,0.0,10,0.5,0.5,-11.940658531188966,-0.2,-0.0155,-0.37525,0.003604844748736756,10,1,100,0.021627619801795776,-10,-1,-100,15032.918377486058,-0.0002496817093693672,0.002881917607934786,0.99999581609622,20.388235137616547,0.01617657722476698,1.973892140282645,-0.8537598835013194,-39.938446044921875,5356.25390625,True
1599563859.2427912,0.0,10,0.5,0.5,-12.71691940689087,-0.2,-0.0155,-0.37525,0.0007727926160533971,10,1,100,0.023045877132897026,-10,-1,-100,15032.87735987897,-0.00044405079965260155,0.0025885895180333385,0.9999965510056494,20.23817439157528,0.016078219516954564,2.8120274824790874,-1.225268728367851,-35.952392578125,5356.25390625,True
1599563859.3035297,0.0,10,0.5,0.5,-12.396845069885254,-0.2,-0.0155,-0.37525,0.013815968005904851,10,1,100,0.014262049536855758,-10,-1,-100,15032.856850546668,-0.0005385009802950759,0.002443214432062944,0.9999968703550692,20.134542634702672,0.01600740903240471,3.221798450843996,-1.4110262488892906,-34.062744140625,5356.25390625,True
1599563859.352397,0.0,10,0.5,0.5,-12.808543104553223,-0.2,-0.0155,-0.37525,0.012207813833459724,10,1,100,0.015212166818824802,-10,-1,-100,15032.834389561554,-0.0006310133357932184,0.002298882263115613,0.999997158477218,20.022678631894905,0.015931142509772525,3.6257263805574054,-1.5967854616939012,-32.24200439453125,5356.25390625,True
1599563859.405291,0.0,10,0.5,0.5,-14.168215887451174,-0.2,-0.0155,-0.37525,-0.004920376870259386,10,1,100,0.026012783061208272,-10,-1,-100,15032.729896286619,-0.000811485128367095,0.0020143007563184915,0.9999976420393948,19.766457024497484,0.015758071074125357,4.412228772366875,-1.9683074319207396,-28.8072509765625,5356.25390625,True
1599563859.4511669,0.0,10,0.5,0.5,-14.759840539550781,-0.2,-0.0155,-0.37525,-0.00811733714064376,10,1,100,0.026944842094092765,-10,-1,-100,15032.686926309601,-0.0009822712320606496,0.0017288994936280639,0.9999980230229296,19.473380564172615,0.015565679307216869,5.167409075759686,-2.339832048834127,-25.648223876953125,5356.25390625,True
1599563859.4980073,0.0,10,0.5,0.5,-16.07117155151367,-0.2,-0.0155,-0.37525,-0.025519627939992413,10,1,100,0.03743475100614166,-10,-1,-100,15032.500401047175,-0.0012309864483065938,0.0013138730855555831,0.9999983792036261,18.999012713387426,0.01527163909381211,6.242544066223012,-2.897122468072462,-21.42645263671875,5356.25390625,True
1599563859.5464194,0.0,10,0.5,0.5,-15.274894804382324,-0.2,-0.0155,-0.37525,0.0009589514521690049,10,1,100,0.021666739496898152,-10,-1,-100,15032.415440996294,-0.0013120633984974657,0.001179792582735592,0.9999984432883382,18.862611128903556,0.015196824221231987,6.5952172138322025,-3.082887026563997,-20.156982421875,5356.25390625,True
1599563859.602237,0.0,10,0.5,0.5,-16.80327166900635,-0.2,-0.0155,-0.37525,-0.0288263995241171,10,1,100,0.04041432226768615,-10,-1,-100,15032.226963420282,-0.0015546586456940126,0.0007894718023482683,0.999998479884229,18.495837337157766,0.01502119037681537,7.63635603136766,-3.6401860482554866,-16.761962890625,5356.25390625,True
1599563859.648148,0.0,10,0.5,0.5,-17.175115226745604,-0.2,-0.0155,-0.37525,-0.030930244259027066,10,1,100,0.042520483851023916,-10,-1,-100,15031.975987821235,-0.0017927828686267024,0.0004179558816521998,0.9999983056197982,18.202842399307393,0.014923209283471682,8.666403460309787,-4.197497116348688,-13.987060546875,5356.25390625,True
1599563859.6959863,0.0,10,0.5,0.5,-16.180663433837893,-0.2,-0.0155,-0.37525,0.005945248558860486,10,1,100,0.0188825781409333,-10,-1,-100,15031.975987821235,-0.0017927828686267024,0.0004179558816521998,0.9999983056197982,18.202842399307393,0.014923209283471682,8.666403460309787,-4.197497116348688,-13.987060546875,5356.25390625,True
1599563859.7458525,0.0,10,0.5,0.5,-17.087028355407714,-0.2,-0.0155,-0.37525,-0.01902250664654761,10,1,100,0.037698677488447574,-10,-1,-100,15031.808019760065,-0.00196243549800478,0.000193216254081474,0.9999980557553076,18.040620873932355,0.014891247867908774,9.349777640999278,-4.569046566717976,-12.48138427734375,5356.25390625,True
1599563859.7932816,0.0,10,0.5,0.5,-17.81507747039795,-0.2,-0.0155,-0.37525,-0.043552487142288064,10,1,100,0.057851059717331677,-10,-1,-100,15031.411537409876,-0.002298488286158022,-0.00023191470888596097,0.9999973315800229,17.88398938479514,0.014972489098445162,10.776890598418344,-5.312169026293194,-10.29681396484375,5356.25390625,True
1599563859.8381147,0.0,10,0.5,0.5,-17.24727652435303,-0.2,-0.0155,-0.37525,-0.011774394839532312,10,1,100,0.03427234387990802,-10,-1,-100,15031.326576339896,-0.0023880388702245156,-0.00032707371870316875,0.9999970951423494,17.873026926465105,0.015017134520277683,11.147190035624309,-5.497954746753357,-9.9228515625,5356.25390625,True
1599563859.8934927,0.0,10,0.5,0.5,-17.549244639587403,-0.2,-0.0155,-0.37525,-0.031215777154604024,10,1,100,0.05610783113782207,-10,-1,-100,15030.949625839945,-0.0026663556257801543,-0.0005879345159632652,0.9999962724333935,17.90318020402603,0.015206909639001055,12.298788294678737,-6.055323286290484,-9.214111328125,5356.25390625,True
1599563859.9483342,0.0,10,0.5,0.5,-17.370292427062985,-0.2,-0.0155,-0.37525,-0.01474282813475739,10,1,100,0.038409894134670546,-10,-1,-100,15030.804118067841,-0.0027567942758044365,-0.0006729609448626728,0.999995973596338,17.935088405753064,0.015290223337614197,12.699037052094214,-6.241116270056088,-9.11566162109375,5356.25390625,True
1599563859.9967234,0.0,10,0.5,0.5,-17.353444746398925,-0.2,-0.0155,-0.37525,-0.022819262000202255,10,1,100,0.05069880103031918,-10,-1,-100,15030.573651052662,-0.0029491153630199136,-0.0008214963149675505,0.9999953139202103,18.03305410136204,0.015490067211634265,13.529286293203668,-6.612706682304365,-9.125274658203125,5356.25390625,True
1599563860.042601,0.0,10,0.5,0.5,-17.070710409545903,-0.2,-0.0155,-0.37525,-0.029324207584674737,10,1,100,0.06460312578325057,-10,-1,-100,15030.132248740061,-0.0032487937319563478,-0.0010137230936485319,0.9999942088356196,18.264589330431534,0.015878589981699717,14.85921926935665,-7.170100477390531,-9.65618896484375,5356.25390625,True
1599563860.0950067,0.0,10,0.5,0.5,-16.88460108032227,-0.2,-0.0155,-0.37525,-0.021585072021015776,10,1,100,0.057738609288266546,-10,-1,-100,15029.839281825814,-0.003457063253459198,-0.0011161248276194478,0.9999934014677451,18.47371896869683,0.016201192836000588,15.809169825867178,-7.541699645956494,-10.354339599609375,5356.25390625,True
1599563860.1418524,0.0,10,0.5,0.5,-16.596519422912596,-0.2,-0.0155,-0.37525,-0.020183627921858835,10,1,100,0.06075657591988273,-10,-1,-100,15029.54436219472,-0.0036721057836512404,-0.0011947445515734286,0.9999925440844898,18.72373862527087,0.016577136207928223,16.813636939503393,-7.913299510627768,-11.32781982421875,5356.25390625,True
1599563860.1957107,0.0,10,0.5,0.5,-16.96593970031738,-0.2,-0.0155,-0.37525,-0.012482925569783322,10,1,100,0.03944025519218093,-10,-1,-100,15029.54436219472,-0.0036721057836512404,-0.0011947445515734286,0.9999925440844898,18.72373862527087,0.016577136207928223,16.813636939503393,-7.913299510627768,-11.32781982421875,5356.25390625,True
1599563860.2436097,0.0,10,0.5,0.5,-16.25163101196289,-0.2,-0.0155,-0.37525,-0.01939095271589936,10,1,100,0.06354464251494522,-10,-1,-100,15029.188896224368,-0.003889528102117257,-0.0012560787070533693,0.9999916468838249,19.01093791411614,0.017007507814816546,17.874320125650897,-8.28489840052878,-12.57672119140625,5356.25390625,True
1599563860.2944791,0.0,10,0.5,0.5,-15.843319619750975,-0.2,-0.0155,-0.37525,-0.017428301960181698,10,1,100,0.0664354127078555,-10,-1,-100,15028.894953056471,-0.004111712581927263,-0.0012926772097457595,0.9999907113594981,19.3498040668784,0.017509544178845107,19.010172359115952,-8.65649473430381,-14.1009521484375,5356.25390625,True
1599563860.3453088,0.0,10,0.5,0.5,-14.180525340270997,-0.2,-0.0155,-0.37525,-0.015445019936312945,10,1,100,0.09407722578511948,-10,-1,-100,15028.120544255362,-0.004563339296733515,-0.0013069544097028894,0.9999887338388538,20.16247621291162,0.018723090392863503,21.51220331354026,-9.39967048223785,-17.975555419921875,5356.25390625,True
1599563860.3981674,0.0,10,0.5,0.5,-14.965791329956057,-0.2,-0.0155,-0.37525,-0.01285324894466338,10,1,100,0.06153487671386433,-10,-1,-100,15027.972107058624,-0.00467609195461278,-0.0012954813272934662,0.99998822787679,20.37833045491812,0.01905663317330095,22.17307408762972,-9.58545943962583,-19.11627197265625,5356.25390625,True
1599563860.4440618,0.0,10,0.5,0.5,-13.172505809020999,-0.2,-0.0155,-0.37525,-0.005010385360508627,10,1,100,0.0870627015544804,-10,-1,-100,15027.344182347297,-0.005008838472755137,-0.00121310926814592,0.9999867198633478,21.088340216549536,0.020155346248404354,24.28256374293504,-10.142809202202573,-22.95111083984375,5356.25390625,True
1599563860.4879453,0.0,10,0.5,0.5,-12.921406222534179,-0.2,-0.0155,-0.37525,-0.004642201499012049,10,1,100,0.07823137528078623,-10,-1,-100,15026.92523994844,-0.005229003210217378,-0.0011343874080679242,0.9999856852428618,21.572229744932628,0.020922731819088887,25.751699665259952,-10.514358773569164,-25.851898193359375,5356.25390625,True
1599563860.553769,0.0,10,0.5,0.5,-13.984000410461427,-0.2,-0.0155,-0.37525,-0.012545676616121658,10,1,100,0.05644289031928191,-10,-1,-100,15026.92523994844,-0.005229003210217378,-0.0011343874080679242,0.9999856852428618,21.572229744932628,0.020922731819088887,25.751699665259952,-10.514358773569164,-25.851898193359375,5356.25390625,True
1599563860.6036353,0.0,10,0.5,0.5,-12.132011341857911,-0.2,-0.0155,-0.37525,0.00034211063913899484,10,1,100,0.07920393265759126,-10,-1,-100,15026.506297077634,-0.005434121586494498,-0.0010171160109160825,0.9999847177820287,22.04171724195125,0.02168404401434583,27.244105631138762,-10.88589275797105,-29.0277099609375,5356.25390625,True
1599563860.6525054,0.0,10,0.5,0.5,-9.165939726257324,-0.2,-0.0155,-0.37525,0.02158751251654995,10,1,100,0.10177963907668107,-10,-1,-100,15025.603958615335,-0.00582402920661721,-0.0007174556408167662,0.9999827828223864,22.874368943018144,0.02305874588699463,30.20808253776551,-11.628908618636196,-36.2052001953125,5356.25390625,True
1599563860.7033684,0.0,10,0.5,0.5,-9.518855235290529,-0.2,-0.0155,-0.37525,0.012469703996675439,10,1,100,0.0815371398724504,-10,-1,-100,15025.123491966398,-0.0059925116653967,-0.0005283601899169348,0.9999819051560132,23.200955414968963,0.023590610830130306,31.62082173863123,-12.000390085740582,-40.20672607421875,5356.25390625,True
1599563860.7572265,0.0,10,0.5,0.5,-8.515439518737793,-0.2,-0.0155,-0.37525,0.016790856320766736,10,1,100,0.08046732678552726,-10,-1,-100,15024.64009589958,-0.00613384250360444,-0.00031777783557230947,0.9999811373187937,23.4410155573813,0.023959304185714063,32.93977054171503,-12.371855603255664,-44.4835205078125,5356.25390625,True
1599563860.8083563,0.0,10,0.5,0.5,-10.070851091003417,-0.2,-0.0155,-0.37525,-0.004173549026547692,10,1,100,0.06655867440490203,-10,-1,-100,15024.64009589958,-0.00613384250360444,-0.00031777783557230947,0.9999811373187937,23.4410155573813,0.023959304185714063,32.93977054171503,-12.371855603255664,-44.4835205078125,5356.25390625,True
1599563860.8552308,0.0,10,0.5,0.5,-4.628261405944825,-0.2,-0.0155,-0.37525,0.04788096370273785,10,1,100,0.09147131152775156,-10,-1,-100,15023.613732575439,-0.006358482722974275,0.00015455873526285598,0.9999797726999576,23.59613790329511,0.0240679408002596,35.15500505041646,-13.114752625365425,-53.8629150390625,5356.25390625,True
1599563860.910084,0.0,10,0.5,0.5,-8.092253796386718,-0.2,-0.0155,-0.37525,0.0007934579337178817,10,1,100,0.06918680393339217,-10,-1,-100,15023.613732575439,-0.006358482722974275,0.00015455873526285598,0.9999797726999576,23.59613790329511,0.0240679408002596,35.15500505041646,-13.114752625365425,-53.8629150390625,5356.25390625,True
1599563860.9599512,0.0,10,0.5,0.5,-2.0094366302490245,-0.2,-0.0155,-0.37525,0.05838255633709322,10,1,100,0.0816263046929978,-10,-1,-100,15022.521938177873,-0.006470039647363088,0.0006767777752366714,0.9999788400555306,23.22719503544303,0.023239941143448115,36.572387362378535,-13.857638692068798,-64.343505859375,5356.25390625,True
1599563861.0098178,0.0,10,0.5,0.5,-2.6261353897094737,-0.2,-0.0155,-0.37525,0.037209432851269306,10,1,100,0.07307151234922406,-10,-1,-100,15021.915493616136,-0.006492355828978059,0.000957321337120484,0.9999784661939713,22.770374288584996,0.022451927948928394,36.817781234129505,-14.229092982784326,-69.99667358398438,5356.25390625,True
1599563861.0556946,0.0,10,0.5,0.5,-4.679062176513672,-0.2,-0.0155,-0.37525,0.009364247537406894,10,1,100,0.07096622944960303,-10,-1,-100,15021.915493616136,-0.006492355828978059,0.000957321337120484,0.9999784661939713,22.770374288584996,0.022451927948928394,36.817781234129505,-14.229092982784326,-69.99667358398438,5356.25390625,True
1599563861.1065593,0.0,10,0.5,0.5,-1.2000239212036137,-0.2,-0.0155,-0.37525,0.038106663652592576,10,1,100,0.06847002218009812,-10,-1,-100,15021.369595234515,-0.006468514533238232,0.0012167144756720007,0.9999783387282036,22.185665389943534,0.02153129170494604,36.81264655148202,-14.600561818385206,-75.92559814453125,5356.25390625,True
1599563861.1584232,0.0,10,0.5,0.5,3.9441639450073236,-0.2,-0.0155,-0.37525,0.0706185077406216,10,1,100,0.05761254038755452,-10,-1,-100,15020.153775407816,-0.0063471958908636805,0.001746057883804018,0.9999783319583426,20.364643272185475,0.019305181538166228,35.51835527070161,-15.343553897483595,-88.60934448242188,5356.25390625,True
1599563861.223898,0.0,10,0.5,0.5,1.1889863597869872,-0.2,-0.0155,-0.37525,0.031187514977468918,10,1,100,0.06445936691212592,-10,-1,-100,15019.819789781352,-0.00629867448739724,0.001866576035600263,0.9999784210639772,19.769293390358172,0.018715627903881822,34.899408163378666,-15.529312458849304,-91.9525375366211,5356.25390625,True
1599563861.271769,0.0,10,0.5,0.5,5.860223873138428,-0.2,-0.0155,-0.37525,0.056360228017918776,10,1,100,0.0502446263893663,-10,-1,-100,15018.876430638484,-0.006125060876928116,0.002202803622850469,0.9999788154183333,21.34098524151349,0.020426821868128397,39.03260007164013,-16.086556371653753,-102.11431884765625,5356.25390625,True
1599563861.3206394,0.0,10,0.5,0.5,5.885391271209716,-0.2,-0.0155,-0.37525,0.046278827423068464,10,1,100,0.05146188756898665,-10,-1,-100,15018.268030866166,-0.005978304315976984,0.002414524531798905,0.9999792147583823,22.58373719702834,0.02194924602883272,42.264275257581296,-16.458004957132054,-108.6315689086914,5356.25390625,True
1599563861.7505765,0.0,10,0.5,0.5,5.356202837753296,-0.2,-0.0155,-0.37525,0.035351680886773554,10,1,100,0.0579243031047707,-10,-1,-100,15017.931115387473,-0.005903779891062745,0.002505176478360829,0.9999794345254357,23.105095254166272,0.022647520080947666,43.73041150186175,-16.643714301027067,-111.7901611328125,5356.25390625,True
1599563861.801443,0.0,10,0.5,0.5,9.475177883911133,-0.2,-0.0155,-0.37525,0.05336541975734911,10,1,100,0.03816294727125524,-10,-1,-100,15016.86470764794,-0.005656795090683215,0.002749211676110448,0.9999802210566276,24.344571360034017,0.024442587894580644,47.62671053856496,-17.200786314996094,-120.85482788085938,5356.25390625,True
1599563861.8483157,0.0,10,0.5,0.5,9.455895738983155,-0.2,-0.0155,-0.37525,0.043918797131121956,10,1,100,0.04292410065453442,-10,-1,-100,15016.192831338034,-0.005476184564397355,0.002882824692970903,0.9999808501788452,24.991851835900448,0.02539297151766154,49.954221428004296,-17.572126449172394,-126.55390930175781,5356.25390625,True
1599563861.8951895,0.0,10,0.5,0.5,10.533693358612062,-0.2,-0.0155,-0.37525,0.042639025463755434,10,1,100,0.041563614164663726,-10,-1,-100,15015.458454676089,-0.005300528622486807,0.002990651286851862,0.9999814800291066,25.434381426563988,0.026023287868619873,51.918920913769725,-17.943441706310775,-131.97755432128906,5356.25390625,True
1599563861.9425747,0.0,10,0.5,0.5,8.594540930175782,-0.2,-0.0155,-0.37525,0.032059699070632636,10,1,100,0.05901002563506932,-10,-1,-100,15015.458454676089,-0.005300528622486807,0.002990651286851862,0.9999814800291066,25.434381426563988,0.026023287868619873,51.918920913769725,-17.943441706310775,-131.97755432128906,5356.25390625,True
1599563861.999423,0.0,10,0.5,0.5,11.65206563720703,-0.2,-0.0155,-0.37525,0.041612823331941565,10,1,100,0.03876518744256201,-10,-1,-100,15014.724077447783,-0.005117568118197188,0.0030756493892730966,0.9999821752798347,25.69460391064269,0.026331603182635364,53.54157476483266,-18.31474001276236,-137.12567138671875,5356.25390625,True
1599563862.0482922,0.0,10,0.5,0.5,12.618051708221437,-0.2,-0.0155,-0.37525,0.04007033152246288,10,1,100,0.0371020768878577,-10,-1,-100,15013.989700632752,-0.00493734933326844,0.0031372077978302298,0.999982890108023,25.79766629484141,0.02634144979783183,54.852507317709026,-18.686028677838223,-141.99826049804688,5356.25390625,True
1599563862.1071346,0.0,10,0.5,0.5,13.516851227569582,-0.2,-0.0155,-0.37525,0.03789267740204833,10,1,100,0.03468751354630782,-10,-1,-100,15013.258253171924,-0.004752845177098758,0.0031721084500474675,0.999983673962082,25.82864139513628,0.026151114934540892,56.016262471931825,-19.05731297844406,-146.59536743164062,5356.25390625,True
1599563862.165491,0.0,10,0.5,0.5,15.545966612625122,-0.2,-0.0155,-0.37525,0.036326682662274914,10,1,100,0.024653675303920784,-10,-1,-100,15012.061960697873,-0.004495302714113981,0.0031884131522338824,0.9999848130222174,25.67973502348345,0.025481119258384092,57.331543163110425,-19.614240571556383,-152.97430419921875,5356.25390625,True
1599563862.2133632,0.0,10,0.5,0.5,14.375002798843385,-0.2,-0.0155,-0.37525,0.034188400261450244,10,1,100,0.04103486747795314,-10,-1,-100,15011.665475837654,-0.004411574729494309,0.003182900669187323,0.9999852034663993,25.589318133970774,0.025182659926687608,57.67408851679275,-19.79988487957968,-154.96282958984375,5356.25390625,True
1599563862.264228,0.0,10,0.5,0.5,16.894516555023195,-0.2,-0.0155,-0.37525,0.03015512210596207,10,1,100,0.0232067565172569,-10,-1,-100,15010.468206614256,-0.004174808943457808,0.0031405246321520234,0.9999863539445528,25.23145399824779,0.02415726603513273,58.478703519267654,-20.356826573092313,-160.5150146484375,5356.25390625,True
1599563862.317062,0.0,10,0.5,0.5,15.871940522003174,-0.2,-0.0155,-0.37525,0.03205994431813742,10,1,100,0.03860961343472036,-10,-1,-100,15010.069768626825,-0.004101165083535752,0.003118739938454444,0.9999867268649888,25.09137816769498,0.023793295466547695,58.688401181445776,-20.542476865674484,-162.22793579101562,5356.25390625,True
1599563862.3698897,0.0,10,0.5,0.5,17.145126891326903,-0.2,-0.0155,-0.37525,0.027397780243724832,10,1,100,0.030295194256649234,-10,-1,-100,15009.20941496105,-0.003960044700176097,0.0030562164269053085,0.9999874887152962,24.79262612641481,0.023064773270234998,59.04600360003996,-20.913782106478358,-165.44711303710938,5356.25390625,True
1599563862.418759,0.0,10,0.5,0.5,19.22534915466309,-0.2,-0.0155,-0.37525,0.01602424366962768,10,1,100,0.01704769967527282,-10,-1,-100,15007.490661243442,-0.003712699982622281,0.0028958234550652707,0.9999889149712392,24.172443555860795,0.02172267377025219,59.630431570444216,-21.656407227372046,-171.0584716796875,5356.25390625,True
1599563862.4666312,0.0,10,0.5,0.5,18.556382149505616,-0.2,-0.0155,-0.37525,0.020999953621068233,10,1,100,0.02984454019862997,-10,-1,-100,15006.631284394884,-0.003605619542912845,0.002795331596434502,0.9999895927603335,23.876602898240062,0.02115692021706665,59.919473961567675,-22.027724398508845,-173.45068359375,5356.25390625,True
1599563862.5165346,0.0,10,0.5,0.5,17.72298797912598,-0.2,-0.0155,-0.37525,0.031029607515103374,10,1,100,0.040383093261616196,-10,-1,-100,15006.631284394884,-0.003605619542912845,0.002795331596434502,0.9999895927603335,23.876602898240062,0.02115692021706665,59.919473961567675,-22.027724398508845,-173.45068359375,5356.25390625,True
1599563862.5793638,0.0,10,0.5,0.5,19.546138557434084,-0.2,-0.0155,-0.37525,0.012266592176570657,10,1,100,0.024389478752126346,-10,-1,-100,15005.30999211932,-0.003461597546076832,0.002625013564077694,0.9999905632785828,23.480318584046337,0.02047833497873128,60.428735330744146,-22.584701295540427,-176.52212524414062,5356.25390625,True
1599563862.6242106,0.0,10,0.5,0.5,19.857242798614504,-0.2,-0.0155,-0.37525,0.006984749636519939,10,1,100,0.025958607293566107,-10,-1,-100,15003.927177742007,-0.0033462748555000833,0.0024226278699653646,0.9999914666229883,23.166262795343943,0.020018592320285914,61.105092406793425,-23.141674871398337,-178.97349548339844,5356.25390625,True
1599563862.6710846,0.0,10,0.5,0.5,-187.36055469970702,-0.2,-0.0155,-0.37525,0.011016212451336025,10,1,100,0.02968977074458351,-10,-1,-100,15003.003348640515,-0.0032766344139137414,0.0022759718832525587,0.9999920417777853,23.01346788255364,0.019832986100777918,61.68579340884232,-23.512985922171843,179.73681640625,5356.25390625,True
1599563862.719953,0.0,10,0.5,0.5,-53.27021240005494,-0.2,-0.0155,-0.37525,0.02559056699571849,10,1,100,0.03653194807319767,-10,-1,-100,15003.003348640515,-0.0032766344139137414,0.0022759718832525587,0.9999920417777853,23.01346788255364,0.019832986100777918,61.68579340884232,-23.512985922171843,179.73681640625,5356.25390625,True
1599563862.770856,0.0,10,0.5,0.5,-52.61892276229859,-0.2,-0.0155,-0.37525,-0.010655748311696873,10,1,100,0.02418987378977143,-10,-1,-100,15001.032642664155,-0.0031654655025331216,0.0019472844066269052,0.9999930939319491,23.452386778523742,0.020237289431663186,64.86848728265508,-24.255578401514228,177.70278930664062,5356.25390625,True
1599563862.8186352,0.0,10,0.5,0.5,-53.565023559570314,-0.2,-0.0155,-0.37525,0.012114718576176405,10,1,100,0.03303535677014356,-10,-1,-100,15000.572680229554,-0.003145733922409509,0.001856566617971091,0.9999933287369884,23.624134984368762,0.02041716948574121,65.84902006237573,-24.441217236573745,177.1092987060547,5356.25390625,True
1599563862.8694994,0.0,10,0.5,0.5,-53.059583835601806,-0.2,-0.0155,-0.37525,-0.009905956380968056,10,1,100,0.02823073709538919,-10,-1,-100,14999.062913769041,-0.0030849863354003907,0.0015750553771467497,0.9999940010119407,24.19735208314696,0.021084386167848187,69.00065707780203,-24.99810895491425,174.92916870117188,5356.25390625,True
1599563862.9191551,0.0,10,0.5,0.5,-53.90850032043457,-0.2,-0.0155,-0.37525,0.007000204490349384,10,1,100,0.03286017882417065,-10,-1,-100,14998.600998276146,-0.003072642597803547,0.0014741749489091058,0.9999941928209815,24.407142777035737,0.02135306774763387,70.12154765738993,-25.183730680616975,174.06561279296875,5356.25390625,True
1599563862.9700534,0.0,10,0.5,0.5,-54.23112685546875,-0.2,-0.0155,-0.37525,0.005675488271763195,10,1,100,0.03279548253032808,-10,-1,-100,14998.077561205486,-0.0030614147403940466,0.0013717150017115152,0.9999943730530395,24.625564413252967,0.021646242005425163,71.27650574406178,-25.369347518892916,173.13320922851562,5356.25390625,True
1599563863.0179253,0.0,10,0.5,0.5,-53.92658440704346,-0.2,-0.0155,-0.37525,-0.007539024046583581,10,1,100,0.030749915959152392,-10,-1,-100,14997.030685076606,-0.0030331062691951933,0.0011597318619057558,0.9999947276302852,25.08436645846001,0.02230659591364998,73.67928935580039,-25.740565992338215,171.06170654296875,5356.25390625,True
1599563863.0657973,0.0,10,0.5,0.5,-53.88766651000977,-0.2,-0.0155,-0.37525,-0.011071433764290817,10,1,100,0.03204815420276095,-10,-1,-100,14995.981856176979,-0.0030196939278415115,0.0009363940098618439,0.9999950022949318,25.56630657721647,0.023064793814252964,76.19072848805054,-26.111762557455883,168.7144775390625,5356.25390625,True
1599563863.1136093,0.0,10,0.5,0.5,-52.12727682037354,-0.2,-0.0155,-0.37525,-0.04146010647231993,10,1,100,0.03178154442795196,-10,-1,-100,14993.884198949672,-0.003005478895583751,0.00045863404661640103,0.99999537836503,26.67409098478139,0.024947345079964878,81.77980015634694,-26.85408081110844,163.19287109375,5356.25390625,True
1599563863.1634755,0.0,10,0.5,0.5,-52.90359199447632,-0.2,-0.0155,-0.37525,-0.02197513789727482,10,1,100,0.03342060868854922,-10,-1,-100,14992.77287106379,-0.0030077665376820498,0.00020322833418763488,0.9999954560090255,27.244132174212165,0.026007043863195304,84.69625162580682,-27.225197972080473,160.0185546875,5356.25390625,True
1599563863.220896,0.0,10,0.5,0.5,-54.06419092025757,-0.2,-0.0155,-0.37525,0.003358158990695305,10,1,100,0.03316495769109618,-10,-1,-100,14992.77287106379,-0.0030077665376820498,0.00020322833418763488,0.9999954560090255,27.244132174212165,0.026007043863195304,84.69625162580682,-27.225197972080473,160.0185546875,5356.25390625,True
1599563863.2697647,0.0,10,0.5,0.5,-49.90581211624145,-0.2,-0.0155,-0.37525,-0.05757386511101228,10,1,100,0.033540591557193564,-10,-1,-100,14990.55119147338,-0.0030114258163522365,-0.0003488148453287387,0.9999954048108202,28.40624647440997,0.028259732414496603,90.74699072500302,-27.967341710096434,152.84286499023438,5356.25390625,True
1599563863.316674,0.0,10,0.5,0.5,-52.55995679244995,-0.2,-0.0155,-0.37525,-0.0025991570845704873,10,1,100,0.0331592597215568,-10,-1,-100,14990.55119147338,-0.0030114258163522365,-0.0003488148453287387,0.9999954048108202,28.40624647440997,0.028259732414496603,90.74699072500302,-27.967341710096434,152.84286499023438,5356.25390625,True
1599563863.3685303,0.0,10,0.5,0.5,-49.01031336364746,-0.2,-0.0155,-0.37525,-0.051901751949795204,10,1,100,0.03493368782382164,-10,-1,-100,14988.851972677629,-0.0030276790791965145,-0.0007950153609550544,0.9999951005429822,29.204377933047883,0.029842544968139224,95.17710983995752,-28.523867913346116,146.73764038085938,5356.25390625,True
1599563863.4218729,0.0,10,0.5,0.5,-47.38896326980591,-0.2,-0.0155,-0.37525,-0.059616825556997,10,1,100,0.03673277822741256,-10,-1,-100,14987.155686007347,-0.0030588622375023245,-0.0012686346163734471,0.9999945169489791,29.83669299872177,0.031062742336615008,99.15945591494545,-29.080331335560075,140.0124969482422,5356.25390625,True
1599563863.4687476,0.0,10,0.5,0.5,-47.08248232803345,-0.2,-0.0155,-0.37525,-0.050433267875110044,10,1,100,0.03541447464572062,-10,-1,-100,14985.979906573193,-0.0030752385128197716,-0.001613217224586393,0.9999939702009586,30.129910679131537,0.03155987003241013,101.4280145857873,-29.451278341892404,135.1844940185547,5356.25390625,True
1599563863.5186133,0.0,10,0.5,0.5,-48.83536991882325,-0.2,-0.0155,-0.37525,-0.01627350027644524,10,1,100,0.03377822949121848,-10,-1,-100,14985.979906573193,-0.0030752385128197716,-0.001613217224586393,0.9999939702009586,30.129910679131537,0.03155987003241013,101.4280145857873,-29.451278341892404,135.1844940185547,5356.25390625,True
1599563863.571473,0.0,10,0.5,0.5,-42.749738278198244,-0.2,-0.0155,-0.37525,-0.09803911262254573,10,1,100,0.04004927067451606,-10,-1,-100,14983.569754349883,-0.003132209676082818,-0.0023540201103814046,0.9999923238964712,30.30395152056965,0.03154904935828235,104.61855283912588,-30.193131385276207,124.70205688476562,5356.25390625,True
1599563863.6173842,0.0,10,0.5,0.5,-43.362471949005126,-0.2,-0.0155,-0.37525,-0.06702585919241758,10,1,100,0.039305307569925535,-10,-1,-100,14982.331475921092,-0.003177136054690909,-0.0027425473261754835,0.9999911920815372,30.138066289373423,0.030993950105841182,105.3421904792771,-30.564053414676977,119.0478515625,5356.25390625,True
1599563863.6652224,0.0,10,0.5,0.5,-42.00450676345826,-0.2,-0.0155,-0.37525,-0.07686393507750444,10,1,100,0.039516606956682666,-10,-1,-100,14981.094174942235,-0.00321974306861505,-0.003182280774604716,0.9999897531193226,29.7740213020042,0.030097363930619105,105.3513970499913,-30.934984080910745,113.11776733398438,5356.25390625,True
1599563863.7150886,0.0,10,0.5,0.5,-44.157074649810795,-0.2,-0.0155,-0.37525,-0.03322914114546043,10,1,100,0.03527710321736186,-10,-1,-100,14981.094174942235,-0.00321974306861505,-0.003182280774604716,0.9999897531193226,29.7740213020042,0.030097363930619105,105.3513970499913,-30.934984080910745,113.11776733398438,5356.25390625,True
1599563863.7649896,0.0,10,0.5,0.5,-36.786815704345706,-0.2,-0.0155,-0.37525,-0.1355224177872982,10,1,100,0.05044125924208825,-10,-1,-100,14978.619575677207,-0.003357406326538987,-0.00410914191761343,0.9999859212886246,28.371732857928848,0.027572541178634277,102.83556120928678,-31.676904882843523,100.43186950683594,5356.25390625,True
1599563863.8178482,0.0,10,0.5,0.5,-37.579706381225584,-0.2,-0.0155,-0.37525,-0.09688171834077469,10,1,100,0.04700712912579382,-10,-1,-100,14977.321730539668,-0.003451020850403356,-0.004597045391678152,0.9999834786779014,27.30308613695746,0.026156115656913653,100.14074966579597,-32.04790798032222,93.67610168457031,5356.25390625,True
1599563863.8676841,0.0,10,0.5,0.5,-35.97812743759156,-0.2,-0.0155,-0.37525,-0.10952467778093711,10,1,100,0.050992036559632886,-10,-1,-100,14976.022909990512,-0.0035719517623749096,-0.0051516679716054215,0.9999803505458082,26.300487223400584,0.02508885784557474,97.59962703599629,-32.41893939503331,86.64442443847656,5356.25390625,True
1599563863.921537,0.0,10,0.5,0.5,-34.32049237518311,-0.2,-0.0155,-0.37525,-0.11586223099607143,10,1,100,0.055217822899253186,-10,-1,-100,14974.720185285201,-0.0037198104011790713,-0.005709523843849024,0.9999767819044878,27.855697953593936,0.026776570356134604,104.5747791813549,-32.789933296109155,79.33781433105469,5356.25390625,True
1599563863.9694092,0.0,10,0.5,0.5,-32.60667980575562,-0.2,-0.0155,-0.37525,-0.126122267265947,10,1,100,0.060803363051563405,-10,-1,-100,14973.419415254379,-0.003904404121327787,-0.006305901430862553,0.999972495239545,29.275076857672186,0.0285799465432636,111.16867534412546,-33.160867087686995,71.75576782226562,5356.25390625,True
1599563864.02127,0.0,10,0.5,0.5,-35.35352823257447,-0.2,-0.0155,-0.37525,-0.06695377698522167,10,1,100,0.04242690759754264,-10,-1,-100,14973.419415254379,-0.003904404121327787,-0.006305901430862553,0.999972495239545,29.275076857672186,0.0285799465432636,111.16867534412546,-33.160867087686995,71.75576782226562,5356.25390625,True
1599563864.0681455,0.0,10,0.5,0.5,-30.735337104797367,-0.2,-0.0155,-0.37525,-0.13601792897603987,10,1,100,0.06752632183678473,-10,-1,-100,14972.059076725505,-0.00413182682749498,-0.0069294912815006495,0.9999674545492204,30.45299668177044,0.03026164873678715,116.95776641165689,-33.531741743586046,63.898529052734375,5356.25390625,True
1599563864.1140227,0.0,10,0.5,0.5,-24.07527556228638,-0.2,-0.0155,-0.37525,-0.21701064022991548,10,1,100,0.10931561551319088,-10,-1,-100,14969.331570731243,-0.0047175686691130194,-0.008228529001505861,0.9999550169164227,32.097986925019484,0.0325661335515203,126.04943320054811,-34.273342194886254,47.35920715332031,5356.25390625,True
1599563864.1708713,0.0,10,0.5,0.5,-30.170538706207278,-0.2,-0.0155,-0.37525,-0.08765546639692733,10,1,100,0.05089547461282919,-10,-1,-100,14969.331570731243,-0.0047175686691130194,-0.008228529001505861,0.9999550169164227,32.097986925019484,0.0325661335515203,126.04943320054811,-34.273342194886254,47.35920715332031,5356.25390625,True
1599563864.222732,0.0,10,0.5,0.5,-19.922186382293702,-0.2,-0.0155,-0.37525,-0.23674201622581595,10,1,100,0.14685787883332685,-10,-1,-100,14966.604074436938,-0.005588592502389818,-0.009579273774289484,0.9999385006828166,32.2925507255134,0.032104446324573356,129.6063150657153,-35.01484837246466,29.720916748046875,5356.25390625,True
1599563864.2686117,0.0,10,0.5,0.5,-26.411689738464354,-0.2,-0.0155,-0.37525,-0.10230723824742215,10,1,100,0.059992380449024454,-10,-1,-100,14966.604074436938,-0.005588592502389818,-0.009579273774289484,0.9999385006828166,32.2925507255134,0.032104446324573356,129.6063150657153,-35.01484837246466,29.720916748046875,5356.25390625,True
1599563864.3164816,0.0,10,0.5,0.5,-15.524769882965089,-0.2,-0.0155,-0.37525,-0.2457145513997772,10,1,100,0.18584226902766732,-10,-1,-100,14963.756471934728,-0.006730654047490343,-0.010878003773986643,0.9999181803177627,30.62188375729417,0.028989782513269818,125.55571862172887,-35.756434583595535,10.98590087890625,5356.25390625,True
1599563864.3678885,0.0,10,0.5,0.5,-16.80179557495117,-0.2,-0.0155,-0.37525,-0.18532513919279436,10,1,100,0.14370863374545045,-10,-1,-100,14962.265291996417,-0.00738287728301877,-0.011503962791482117,0.9999065716171268,29.044634781399886,0.027051518659112518,120.35032344948941,-36.12730144975586,1.20733642578125,5356.25390625,True
1599563864.4137437,0.0,10,0.5,0.5,-17.467457421112062,-0.2,-0.0155,-0.37525,-0.1530206371908236,10,1,100,0.12203461551822084,-10,-1,-100,14961.553393308539,-0.007775306490051031,-0.011773564339351108,0.9999004589416554,28.672481945719266,0.026664106432281356,119.43144330158901,-36.31274700946105,-3.784088134765625,5356.25390625,True
1599563864.4586122,0.0,10,0.5,0.5,-10.361704554748535,-0.2,-0.0155,-0.37525,-0.20775165650933453,10,1,100,0.21833406048356407,-10,-1,-100,14959.350320658414,-0.009003822999684505,-0.012510698612586198,0.9998811997390568,31.647427581243583,0.02996950681749664,133.88701812226194,-36.86896104852998,-19.168609619140625,5356.25390625,True
1599563864.5174544,0.0,10,0.5,0.5,-9.897459033203125,-0.2,-0.0155,-0.37525,-0.1794813516510817,10,1,100,0.193407364189675,-10,-1,-100,14957.861098805559,-0.009889414024971984,-0.012918177183014232,0.9998676513361712,33.02364366058328,0.0318379657467294,141.1442212798072,-37.239672113871535,-29.766357421875,5356.25390625,True
1599563864.568319,0.0,10,0.5,0.5,-7.464150573730469,-0.2,-0.0155,-0.37525,-0.16911640359413543,10,1,100,0.20705327705401141,-10,-1,-100,14956.371876982506,-0.010813109610451255,-0.01318837428674734,0.9998545611458823,33.907226999489104,0.03303194530047148,146.3934395606129,-37.610322763458655,-40.635986328125,5356.25390625,True
1599563864.6181858,0.0,10,0.5,0.5,-4.971287586975099,-0.2,-0.0155,-0.37525,-0.16386306435761983,10,1,100,0.21821028167855003,-10,-1,-100,14954.882653876324,-0.011748186291307347,-0.0133805604943498,0.9998414577920451,34.25214710323136,0.03323619562978209,149.37047978058825,-37.980938674506355,-51.77838134765625,5356.25390625,True
1599563864.6720757,0.0,10,0.5,0.5,-2.432622829437257,-0.2,-0.0155,-0.37525,-0.153956991451254,10,1,100,0.22715828039814337,-10,-1,-100,14953.331905631814,-0.012673209973516284,-0.013460536355300671,0.9998290872494131,33.87264300958655,0.032240655832799656,149.1882121491354,-38.35155833668929,-63.19287109375,5356.25390625,True
1599563864.7169218,0.0,10,0.5,0.5,0.17822355346679597,-0.2,-0.0155,-0.37525,-0.1441516938240296,10,1,100,0.23357474589537672,-10,-1,-100,14951.780178182642,-0.01356523969704071,-0.013439346243777791,0.9998176674996806,32.737673156325684,0.030302232483593376,145.61509216309884,-38.72221997792331,-74.87957763671875,5356.25390625,True
1599563865.1338437,0.0,10,0.5,0.5,-4.04508231048584,-0.2,-0.0155,-0.37525,-0.14665671222326646,10,1,100,0.1451694382623993,-10,-1,-100,14951.780178182642,-0.01356523969704071,-0.013439346243777791,0.9998176674996806,32.737673156325684,0.030302232483593376,145.61509216309884,-38.72221997792331,-74.87957763671875,5356.25390625,True
1599563865.1786864,0.0,10,0.5,0.5,2.996489328002929,-0.2,-0.0155,-0.37525,-0.1349524025945707,10,1,100,0.23834266363700954,-10,-1,-100,14950.230400650878,-0.014405017521178393,-0.013329434272181022,0.9998073922772315,30.85006924769198,0.027919459529975897,138.56516928420115,-39.092952184244815,-86.838623046875,5356.25390625,True
