Timestamp,Input Throttle,horizon,dT,dt,Input Roll,Roll P,Roll I,Roll D,Input Pitch,Pitch P,Pitch I,Pitch D,Input Yaw,Yaw P,Yaw I,Yaw D,Altitude,Direction X,Direction Y,Direction Z,Drag X,Drag Y,Drag Z,Vertical Velocity,Roll,Mass,Has Fuel
1599558359.9603255,0.0,10,0.5,0.5,-0.05835045623779297,-0.001,-0.001,-0.12575,-0.00029373715563827123,10,1,100,0.17492929921138714,-10,-1,-100,14994.598424469004,-0.01680906499658687,-7.495705934423884e-05,0.9998587148769469,28.57648088687144,0.027199651469216345,-86.69257564245385,26.823330318795215,-31.791534423828125,5356.25390625,True
1599558359.9942665,0.0,10,0.5,0.5,-0.06426526641845705,-0.001,-0.001,-0.12575,7.127152758547241e-05,10,1,100,0.18183770526778875,-10,-1,-100,14996.16092948441,-0.01691875725842561,-6.742671546276353e-05,0.9998568653094645,28.358907278423544,0.027686277981494513,-84.24789076215706,26.265451380721988,-31.7896728515625,5356.25390625,True
1599558360.0361218,0.0,10,0.5,0.5,-0.06977484436035157,-0.001,-0.001,-0.12575,0.0035272231871832874,10,1,100,0.1789037325719435,-10,-1,-100,14997.18925297365,-0.01697642432899094,-2.9101908923748767e-05,0.9998558897011512,28.21407256058406,0.0280031690084157,-82.63393943504335,25.89355178631053,-31.790283203125,5356.25390625,True
1599558360.062054,0.0,10,0.5,0.5,-0.07400541534423828,-0.001,-0.001,-0.12575,0.007928396191315254,10,1,100,0.17911227483453623,-10,-1,-100,14998.219528917223,-0.01701531166432027,4.577594424830412e-05,0.9998552280573069,28.07145660729131,0.028315634679097,-81.03854077785881,25.521667521100035,-31.803436279296875,5356.25390625,True
1599558360.095877,0.0,10,0.5,0.5,-0.08147907104492189,-0.001,-0.001,-0.12575,0.0004451884685347965,10,1,100,0.17692507246803507,-10,-1,-100,14998.219528917223,-0.01701531166432027,4.577594424830412e-05,0.9998552280573069,28.07145660729131,0.028315634679097,-81.03854077785881,25.521667521100035,-31.803436279296875,5356.25390625,True
1599558360.127388,0.0,10,0.5,0.5,-0.08077323760986328,-0.001,-0.001,-0.12575,0.020738127440548978,10,1,100,0.18062873241826427,-10,-1,-100,14999.713670421974,-0.017033512835082063,0.00023021559313548005,0.9998548926925735,27.86395983256294,0.02877671191237902,-78.68601483187503,24.96386988197296,-31.85491943359375,5356.25390625,True
1599558360.162019,0.0,10,0.5,0.5,-0.08969650268554688,-0.001,-0.001,-0.12575,0.011910259617747825,10,1,100,0.17946021891084032,-10,-1,-100,15000.2478495643,-0.017023951492220673,0.0003174253704682336,0.9998550316504512,27.79671523769886,0.028928186875701645,-77.91302179606284,24.777944908455762,-31.8814697265625,5356.25390625,True
1599558360.1929052,0.0,10,0.5,0.5,-0.08476716003417968,-0.001,-0.001,-0.12575,0.0405484334644819,10,1,100,0.17352556260286084,-10,-1,-100,15001.687299769139,-0.016945831621826668,0.0006567654526769846,0.9998561933847211,27.60079863691341,0.02937472741282709,-75.62688639726618,24.220192338139896,-31.9925537109375,5356.25390625,True
1599558360.2288432,0.0,10,0.5,0.5,-0.09844832153320313,-0.001,-0.001,-0.12575,0.022030705600433527,10,1,100,0.1784796472381802,-10,-1,-100,15002.166790287476,-0.016904445389406088,0.0007963163964184302,0.9998567925489495,27.53746295387175,0.02952066417240843,-74.875667496311,24.034282198183192,-32.04058837890625,5356.25390625,True
1599558360.2607553,0.0,10,0.5,0.5,-0.09587980651855468,-0.001,-0.001,-0.12575,0.04264986727626355,10,1,100,0.17171913413670548,-10,-1,-100,15003.111122116912,-0.016789994654110876,0.0011099038910578189,0.9998584220742793,27.413744274336405,0.029807614551150486,-73.38909240991019,23.662473064974176,-32.15423583984375,5356.25390625,True
1599558360.297622,0.0,10,0.5,0.5,-0.09842917633056641,-0.001,-0.001,-0.12575,0.05165138678138301,10,1,100,0.1685587832131139,-10,-1,-100,15004.0544760708,-0.01664195443666975,0.001475806423602842,0.9998604239332248,27.29395264157572,0.03008738794249324,-71.92322311812512,23.29067835959431,-32.292510986328125,5356.25390625,True
1599558360.3275435,0.0,10,0.5,0.5,-0.11576717834472657,-0.001,-0.001,-0.12575,0.015216209875175407,10,1,100,0.1833460939012348,-10,-1,-100,15004.0544760708,-0.01664195443666975,0.001475806423602842,0.9998604239332248,27.29395264157572,0.03008738794249324,-71.92322311812512,23.29067835959431,-32.292510986328125,5356.25390625,True
1599558360.360493,0.0,10,0.5,0.5,-0.1057178482055664,-0.001,-0.001,-0.12575,0.03748879142142576,10,1,100,0.17362946119306522,-10,-1,-100,15004.533965211944,-0.016553873050978895,0.0016768814984423309,0.9998615690961685,27.235528255327782,0.030224355811037235,-71.19789492897307,23.104786383098897,-32.37139892578125,5356.25390625,True
1599558360.3934085,0.0,10,0.5,0.5,-0.09309461212158203,-0.001,-0.001,-0.12575,0.06479545457316183,10,1,100,0.1590776400980578,-10,-1,-100,15005.426536441082,-0.01634189391883079,0.002106368519305498,0.999864243642509,27.121530553364362,0.03049186444849201,-69.76190485229624,22.733013006859498,-32.548797607421875,5356.25390625,True
1599558360.4284594,0.0,10,0.5,0.5,-0.08922986907958985,-0.001,-0.001,-0.12575,0.07589185788655117,10,1,100,0.15359293034940552,-10,-1,-100,15006.298599370872,-0.01609993681711339,0.0025958143933255007,0.9998670180489606,27.011310400215173,0.03075015512663966,-68.34500957945208,22.361253716630305,-32.75469970703125,5356.25390625,True
1599558360.4595,0.0,10,0.5,0.5,-0.1005602264404297,-0.001,-0.001,-0.12575,0.055428830148995134,10,1,100,0.1623328641535402,-10,-1,-100,15006.77808755287,-0.015960261918178075,0.0028524194462303783,0.9998685582329339,26.957600062740077,0.030875537786800997,-67.64353028907905,22.175379283100096,-32.86883544921875,5356.25390625,True
1599558360.4944897,0.0,10,0.5,0.5,-0.08321673889160155,-0.001,-0.001,-0.12575,0.08989510352613639,10,1,100,0.1419707995647728,-10,-1,-100,15007.654055949533,-0.015649150741899816,0.003396642703342374,0.9998717752289057,26.852794134152383,0.03111817028777597,-66.25375827269337,21.803640900914047,-33.11810302734375,5356.25390625,True
1599558360.52647,0.0,10,0.5,0.5,-0.0796410186767578,-0.001,-0.001,-0.12575,0.09949684510016452,10,1,100,0.13357701495193455,-10,-1,-100,15008.52709388209,-0.015291265085848616,0.003975880390178195,0.9998751770032083,26.751206461051947,0.0313489815168743,-64.88055084387776,21.431916184353383,-33.39263916015625,5356.25390625,True
1599558360.562407,0.0,10,0.5,0.5,-0.05575095672607422,-0.001,-0.001,-0.12575,0.14533308150241825,10,1,100,0.10110532803139036,-10,-1,-100,15009.740947395912,-0.014672221487011649,0.004916135786469883,0.999880271595337,26.604295713439107,0.03167092876045726,-62.84957595679828,20.874354452988584,-33.852386474609375,5356.25390625,True
1599558360.5934293,0.0,10,0.5,0.5,-0.09242948760986328,-0.001,-0.001,-0.12575,0.08747057967303648,10,1,100,0.13718372889581817,-10,-1,-100,15010.20773998287,-0.014439469335838654,0.0052411453852042635,0.999882009099249,26.556646777899243,0.03177132081341638,-62.17976748608605,20.68850723161275,-34.0177001953125,5356.25390625,True
1599558360.6263802,0.0,10,0.5,0.5,-0.06912450408935547,-0.001,-0.001,-0.12575,0.1275674533172415,10,1,100,0.10446723162596055,-10,-1,-100,15011.010465288651,-0.013932590609881109,0.005897370015824522,0.9998855454229717,26.463040619581193,0.031960874172551515,-60.85000766291961,20.316822945977478,-34.364105224609375,5356.25390625,True
1599558360.6594183,0.0,10,0.5,0.5,-0.11247777709960938,-0.001,-0.001,-0.12575,0.0623871466144378,10,1,100,0.15488416783903616,-10,-1,-100,15011.010465288651,-0.013932590609881109,0.005897370015824522,0.9998855454229717,26.463040619581193,0.031960874172551515,-60.85000766291961,20.316822945977478,-34.364105224609375,5356.25390625,True
1599558360.6929018,0.0,10,0.5,0.5,-0.017358973693847646,-0.001,-0.001,-0.12575,0.21258493098765396,10,1,100,0.025733125479254437,-10,-1,-100,15012.565135055222,-0.012760953282816538,0.00725878481595174,0.9998922282497797,26.28136852257241,0.032293139417724825,-58.22619906779939,19.57349396386753,-35.1129150390625,5356.25390625,True
1599558360.7261014,0.0,10,0.5,0.5,-0.11124765625,-0.001,-0.001,-0.12575,0.07700164130668308,10,1,100,0.14251756620889533,-10,-1,-100,15012.565135055222,-0.012760953282816538,0.00725878481595174,0.9998922282497797,26.28136852257241,0.032293139417724825,-58.22619906779939,19.57349396386753,-35.1129150390625,5356.25390625,True
1599558360.759013,0.0,10,0.5,0.5,-0.08551591796875001,-0.001,-0.001,-0.12575,0.11730539777636492,10,1,100,0.10669421074217117,-10,-1,-100,15012.975287614507,-0.012438541815515422,0.007620498587224624,0.9998935996788786,26.241074802192568,0.03237119777030537,-57.586229507743184,19.387669922562246,-35.31390380859375,5356.25390625,True
1599558360.7939198,0.0,10,0.5,0.5,-0.0011250411987304698,-0.001,-0.001,-0.12575,0.23841865070425144,10,1,100,-0.019340635976185933,-10,-1,-100,15014.498711712193,-0.011002997688712613,0.00904579096573176,0.999898548707651,26.098448931722693,0.03265993267659742,-55.08229327782409,18.644405741096847,-36.177093505859375,5356.25390625,True
1599558360.8288264,0.0,10,0.5,0.5,-0.07991952819824219,-0.001,-0.001,-0.12575,0.13715941884785823,10,1,100,0.08076380737515285,-10,-1,-100,15014.839529567864,-0.010612504571385382,0.009415342500662399,0.9998993579717498,26.063315157745905,0.032721014542101766,-54.46111278582337,18.458597767205617,-36.409210205078125,5356.25390625,True
1599558360.8597426,0.0,10,0.5,0.5,-0.07851505432128907,-0.001,-0.001,-0.12575,0.14047777013405277,10,1,100,0.0746631782969129,-10,-1,-100,15015.233082227525,-0.010206629333258912,0.009775993726112639,0.9999001223443872,26.028330593576964,0.03277746465214065,-53.84170319793945,18.272792982333396,-36.647979736328125,5356.25390625,True
1599558360.8936534,0.0,10,0.5,0.5,-0.07756007232666016,-0.001,-0.001,-0.12575,0.14105409912823919,10,1,100,0.06822311192036329,-10,-1,-100,15015.572924343753,-0.009783728182223115,0.010103825000709157,0.9999010908000908,25.9934851808227,0.032829222434133006,-53.224034512534544,18.086991416903548,-36.88983154296875,5356.25390625,True
1599558360.9265656,0.0,10,0.5,0.5,-0.04475449676513672,-0.001,-0.001,-0.12575,0.18868616034539265,10,1,100,0.013727718123163299,-10,-1,-100,15016.309250667691,-0.00890830400431129,0.010830156089394442,0.999901670085037,25.923790634662943,0.032918321247476755,-51.99303969559456,17.71539788818225,-37.386199951171875,5356.25390625,True
1599558360.9625008,0.0,10,0.5,0.5,-0.007414122009277338,-0.001,-0.001,-0.12575,0.23193585810900483,10,1,100,-0.05506495846613714,-10,-1,-100,15017.314134019078,-0.007492104205699197,0.011878555230864639,0.9999013792870766,25.81869987634305,0.03301510990940913,-50.156355495538186,17.158031382931885,-38.17059326171875,5356.25390625,True
1599558361.031286,0.0,10,0.5,0.5,-0.036513117980957036,-0.001,-0.001,-0.12575,0.19932511444188533,10,1,100,-0.025332422240453567,-10,-1,-100,15018.033863349468,-0.006480800614834583,0.012529746612304604,0.999900497386226,25.747920716632333,0.03305467695821053,-48.93782048452814,16.786469737863026,-38.716217041015625,5356.25390625,True
1599558361.0661926,0.0,10,0.5,0.5,-0.06963734741210938,-0.001,-0.001,-0.12575,0.16805171680669886,10,1,100,0.017501151207034507,-10,-1,-100,15018.373708922532,-0.005957604190839413,0.012831405729115168,0.9998999259822555,25.712176897667522,0.0330669054067313,-48.33009555533961,16.600693720815674,-38.992767333984375,5356.25390625,True
1599558361.1020968,0.0,10,0.5,0.5,0.037829380798339834,-0.001,-0.001,-0.12575,0.26104781786653275,10,1,100,-0.17470273522041707,-10,-1,-100,15019.633485418162,-0.0037408478824960414,0.013945994371384022,0.9998957522152564,25.565315982506224,0.0330659498564731,-45.90708619264773,15.85762135501405,-40.1119384765625,5356.25390625,True
1599558361.1290247,0.0,10,0.5,0.5,-0.02917556152343749,-0.001,-0.001,-0.12575,0.20498532776466827,10,1,100,-0.08392981536761746,-10,-1,-100,15020.2829077387,-0.00255902333302781,0.014443518491106547,0.9998924122990324,25.489330504400897,0.03303600225203195,-44.700265637655754,15.486104255286374,-40.689697265625,5356.25390625,True
1599558361.1624496,0.0,10,0.5,0.5,-0.10129114990234375,-0.001,-0.001,-0.12575,0.155915217782804,10,1,100,0.033264687730956935,-10,-1,-100,15020.2829077387,-0.00255902333302781,0.014443518491106547,0.9998924122990324,25.489330504400897,0.03303600225203195,-44.700265637655754,15.486104255286374,-40.689697265625,5356.25390625,True
1599558361.1953614,0.0,10,0.5,0.5,-0.06379893493652344,-0.001,-0.001,-0.12575,0.17660884967976573,10,1,100,-0.033100791903624076,-10,-1,-100,15020.55342002248,-0.001963377131218605,0.014626735392419495,0.9998910959509545,25.45068831933891,0.033013658187041536,-44.098101020552306,15.300350390333248,-40.98193359375,5356.25390625,True
1599558361.2302692,0.0,10,0.5,0.5,-0.026298579406738284,-0.001,-0.001,-0.12575,0.19822718088893213,10,1,100,-0.10952225936363547,-10,-1,-100,15021.150109548587,-0.0007350028139739214,0.014985088865612999,0.9998874471071997,25.371643638434524,0.032954072013589866,-42.895620047826306,14.928852131703266,-41.564117431640625,5356.25390625,True
1599558361.2622733,0.0,10,0.5,0.5,-0.02326365356445312,-0.001,-0.001,-0.12575,0.20142617872818563,10,1,100,-0.12885905276966253,-10,-1,-100,15021.744847962284,0.0005488795721948686,0.015335211007837125,0.9998822580857011,25.290187078201683,0.03287496581640141,-41.69574138560933,14.557366473475193,-42.161773681640625,5356.25390625,True
1599558361.2962444,0.0,10,0.5,0.5,0.020224661254882814,-0.001,-0.001,-0.12575,0.20354896398587502,10,1,100,-0.21695650830112576,-10,-1,-100,15022.595456516254,0.0025075380574030547,0.015668046106740663,0.9998741043671886,25.163778071914727,0.032720028587958964,-39.901939799396914,14.00016147286034,-43.093658447265625,5356.25390625,True
1599558361.3287616,0.0,10,0.5,0.5,-0.09638910217285157,-0.001,-0.001,-0.12575,0.1707492430972558,10,1,100,-0.022232243986478602,-10,-1,-100,15022.595456516254,0.0025075380574030547,0.015668046106740663,0.9998741043671886,25.163778071914727,0.032720028587958964,-39.901939799396914,14.00016147286034,-43.093658447265625,5356.25390625,True
1599558361.3640938,0.0,10,0.5,0.5,0.024648767089843746,-0.001,-0.001,-0.12575,0.18969323847944586,10,1,100,-0.243818142716955,-10,-1,-100,15023.445092293434,0.004512864734713656,0.015836819254873413,0.9998644054109411,25.030928473296377,0.03252069090329047,-38.11411762753649,13.442984285820845,-44.044708251953125,5356.25390625,True
1599558361.3942974,0.0,10,0.5,0.5,-0.09441289672851563,-0.001,-0.001,-0.12575,0.1731466309304278,10,1,100,-0.04438484152084967,-10,-1,-100,15023.445092293434,0.004512864734713656,0.015836819254873413,0.9998644054109411,25.030928473296377,0.03252069090329047,-38.11411762753649,13.442984285820845,-44.044708251953125,5356.25390625,True
1599558361.4272058,0.0,10,0.5,0.5,-0.01164088745117188,-0.001,-0.001,-0.12575,0.1805687350147007,10,1,100,-0.19866526631542047,-10,-1,-100,15023.954877815093,0.005905895442913797,0.015901560734252477,0.9998561200318935,24.938260186038633,0.03236358250969918,-36.925382087629416,13.07154800368789,-44.693756103515625,5356.25390625,True
1599558361.4605377,0.0,10,0.5,0.5,-0.05101722412109375,-0.001,-0.001,-0.12575,0.17002176603242414,10,1,100,-0.13388172416765715,-10,-1,-100,15024.225396168884,0.006574575936911159,0.01586275730079196,0.9998525630722092,24.89079214829633,0.032278040022277084,-36.332254337301045,12.88583449857058,-45.023406982421875,5356.25390625,True
1599558361.495567,0.0,10,0.5,0.5,-0.008122824096679679,-0.001,-0.001,-0.12575,0.16415770225281423,10,1,100,-0.22028127866374128,-10,-1,-100,15024.737137210555,0.007959614518445944,0.015772881564368048,0.9998439181911716,24.7929824211659,0.03209281974988011,-35.14785646178386,12.51441621732124,-45.685455322265625,5356.25390625,True
1599558361.527452,0.0,10,0.5,0.5,0.03745235900878904,-0.001,-0.001,-0.12575,0.13900055845843784,10,1,100,-0.3097368314737161,-10,-1,-100,15025.446157668484,0.01002241040188509,0.015461266530330833,0.9998302358535744,24.639106096455343,0.031781142850582526,-33.37683914980999,11.957310494386732,-46.697906494140625,5356.25390625,True
1599558361.5608623,0.0,10,0.5,0.5,-0.045771751403808604,-0.001,-0.001,-0.12575,0.15489668845996463,10,1,100,-0.18099543324413808,-10,-1,-100,15025.698123971233,0.01071640686880351,0.01532173174382187,0.9998251863001816,24.59737047432501,0.03168344371266386,-32.803519703702904,11.771614113643327,-47.041259765625,5356.25390625,True
1599558361.5938478,0.0,10,0.5,0.5,-0.04460604858398437,-0.001,-0.001,-0.12575,0.1497616726384304,10,1,100,-0.1872601869330099,-10,-1,-100,15025.902238718932,0.011393854681643837,0.015147893936910494,0.9998203445543454,24.556314692153574,0.03158364071264945,-32.23282834188194,11.585920350672328,-47.38677978515625,5356.25390625,True
1599558361.6289206,0.0,10,0.5,0.5,0.00030419311523437187,-0.001,-0.001,-0.12575,0.12117248957223536,10,1,100,-0.267552799919809,-10,-1,-100,15026.341718700482,0.012729790106733719,0.014730128190999222,0.9998104699228325,24.470694624076174,0.031370987456962575,-31.092109149024893,11.214540837526812,-48.07977294921875,5356.25390625,True
1599558361.6602519,0.0,10,0.5,0.5,0.04700789794921874,-0.001,-0.001,-0.12575,0.07864826784728385,10,1,100,-0.3560199930100323,-10,-1,-100,15026.9823861724,0.014739231110318067,0.01396460996804918,0.9997938511186778,24.333201055578353,0.031021018196497635,-29.383441286587693,10.657490517341257,-49.1318359375,5356.25390625,True
1599558361.6943748,0.0,10,0.5,0.5,0.005518957519531256,-0.001,-0.001,-0.12575,0.08463598128976581,10,1,100,-0.29597128578460896,-10,-1,-100,15027.422845302615,0.016008978599660977,0.013324666647697788,0.9997830593998496,24.235640980844305,0.030768524546042182,-28.246992861256945,10.286135611992323,-49.843505859375,5356.25390625,True
1599558361.727403,0.0,10,0.5,0.5,-0.03817553100585938,-0.001,-0.001,-0.12575,0.10959551470415463,10,1,100,-0.23903267925246255,-10,-1,-100,15027.62500855152,0.01663521979071234,0.012972088617152036,0.9997774724304521,24.184809928101284,0.030636579196896954,-27.679468279485274,10.100461554527348,-50.20025634765625,5356.25390625,True
1599558361.7630215,0.0,10,0.5,0.5,-0.08242135009765625,-0.001,-0.001,-0.12575,0.14456684469495776,10,1,100,-0.17762079565292624,-10,-1,-100,15027.62500855152,0.01663521979071234,0.012972088617152036,0.9997774724304521,24.184809928101284,0.030636579196896954,-27.679468279485274,10.100461554527348,-50.20025634765625,5356.25390625,True
1599558361.796932,0.0,10,0.5,0.5,0.0987232940673828,-0.001,-0.001,-0.12575,-0.03552661296239182,10,1,100,-0.438173680121721,-10,-1,-100,15028.380925298436,0.01899412844556702,0.011337538522191676,0.9997553117162474,23.967633667302454,0.030074929384192848,-25.415853269554404,9.357786048188022,-51.62506103515625,5356.25390625,True
1599558361.8290021,0.0,10,0.5,0.5,-0.0337436996459961,-0.001,-0.001,-0.12575,0.07671187047964072,10,1,100,-0.2668694316207619,-10,-1,-100,15028.563557577902,0.01956998900678196,0.010876047575135828,0.9997493321425215,23.909922739156812,0.029927056495505616,-24.852055169900602,9.172121892340861,-51.988311767578125,5356.25390625,True
1599558361.860677,0.0,10,0.5,0.5,0.01447163848876952,-0.001,-0.001,-0.12575,0.013467229018034335,10,1,100,-0.3253017569962766,-10,-1,-100,15028.935658227885,0.02061414667994719,0.009886010731787936,0.9997386277164991,23.7903026299052,0.029623207809759338,-23.727490241977595,8.800798345066799,-52.72412109375,5356.25390625,True
1599558361.8968434,0.0,10,0.5,0.5,-0.07745376281738281,-0.001,-0.001,-0.12575,0.11191338777296916,10,1,100,-0.22194516330755998,-10,-1,-100,15028.935658227885,0.02061414667994719,0.009886010731787936,0.9997386277164991,23.7903026299052,0.029623207809759338,-23.727490241977595,8.800798345066799,-52.72412109375,5356.25390625,True
1599558361.9292634,0.0,10,0.5,0.5,0.06358081665039061,-0.001,-0.001,-0.12575,-0.06771296345171404,10,1,100,-0.38745842748696724,-10,-1,-100,15029.423007325502,0.022109814772658942,0.008257985467029029,0.9997214420861168,23.59820991157924,0.02914770317456564,-22.04752122611586,8.243823493203854,-53.83233642578125,5356.25390625,True
1599558361.9631743,0.0,10,0.5,0.5,0.01910975646972657,-0.001,-0.001,-0.12575,-0.03584018241821227,10,1,100,-0.33902584576273,-10,-1,-100,15029.793153794948,0.023019475059366547,0.00707397860707084,0.9997099892442097,23.461925887675843,0.028819942751425798,-20.93356635412161,7.8725123449937975,-54.57586669921875,5356.25390625,True
1599558361.996083,0.0,10,0.5,0.5,0.022034664916992186,-0.001,-0.001,-0.12575,-0.05580446206647026,10,1,100,-0.337649182179967,-10,-1,-100,15030.09201156476,0.02382456957384595,0.005823075419019166,0.9996991955969983,23.31892902762769,0.028484643162181033,-19.825285677137597,7.5012044495635175,-55.33148193359375,5356.25390625,True
1599558362.03199,0.0,10,0.5,0.5,-0.07236398620605469,-0.001,-0.001,-0.12575,0.0684717032837941,10,1,100,-0.25804826457837954,-10,-1,-100,15030.09201156476,0.02382456957384595,0.005823075419019166,0.9996991955969983,23.31892902762769,0.028484643162181033,-19.825285677137597,7.5012044495635175,-55.33148193359375,5356.25390625,True
1599558362.0654109,0.0,10,0.5,0.5,0.07100677947998046,-0.001,-0.001,-0.12575,-0.15110372430115215,10,1,100,-0.3726137584798091,-10,-1,-100,15030.50611555297,0.024858968981155142,0.0038337547966366355,0.9996836169435575,23.08973070559365,0.027967896662250868,-18.173692754573644,6.944246067870772,-56.458282470703125,5356.25390625,True
1599558362.09533,0.0,10,0.5,0.5,-0.07006258544921876,-0.001,-0.001,-0.12575,0.04691450455504938,10,1,100,-0.26999619266793423,-10,-1,-100,15030.50611555297,0.024858968981155142,0.0038337547966366355,0.9996836169435575,23.08973070559365,0.027967896662250868,-18.173692754573644,6.944246067870772,-56.458282470703125,5356.25390625,True
1599558362.131237,0.0,10,0.5,0.5,0.07494403076171874,-0.001,-0.001,-0.12575,-0.1880321388040643,10,1,100,-0.3629893635401922,-10,-1,-100,15030.869436906069,0.02569688530800254,0.0017061837968451617,0.9996683245068431,22.842839469812542,0.027439237598053768,-16.538030334394403,6.387287817320189,-57.597381591796875,5356.25390625,True
1599558362.1686518,0.0,10,0.5,0.5,0.02811246032714844,-0.001,-0.001,-0.12575,-0.13917272459584135,10,1,100,-0.3267087672062416,-10,-1,-100,15031.156570759951,0.026122710404952953,0.00022496061231434535,0.9996587184603664,22.66701290741065,0.02708102142093526,-15.45713870127034,6.015980008518323,-58.353302001953125,5356.25390625,True
1599558362.2324796,0.0,10,0.5,0.5,0.028537854003906238,-0.001,-0.001,-0.12575,-0.1549385457020451,10,1,100,-0.3137145981444597,-10,-1,-100,15031.384132098872,0.026385738300347884,-0.0012552487591675023,0.9996510476985948,22.48292692528143,0.026720377569888983,-14.385677627770006,5.644668761341314,-59.101593017578125,5356.25390625,True
1599558362.2693808,0.0,10,0.5,0.5,0.07482870025634765,-0.001,-0.001,-0.12575,-0.2601659301862983,10,1,100,-0.31047777161059065,-10,-1,-100,15031.664433370577,0.026590181971653193,-0.0035473778108342517,0.9996401244114711,22.190961129446933,0.026176531755888955,-12.798253505974568,5.087692635918976,-60.20416259765625,5356.25390625,True
1599558362.302293,0.0,10,0.5,0.5,0.028803762817382797,-0.001,-0.001,-0.12575,-0.20137748939998526,10,1,100,-0.28751092932023,-10,-1,-100,15031.891987513169,0.026561817619935008,-0.005084478951980612,0.9996342420698243,21.985364015983553,0.02581293523749588,-11.754496631935842,4.716366927755371,-60.92901611328125,5356.25390625,True
1599558362.3651252,0.0,10,0.5,0.5,-0.06163689880371094,-0.001,-0.001,-0.12575,-0.049001621727250165,10,1,100,-0.2907925647767761,-10,-1,-100,15031.891987513169,0.026561817619935008,-0.005084478951980612,0.9996342420698243,21.985364015983553,0.02581293523749588,-11.754496631935842,4.716366927755371,-60.92901611328125,5356.25390625,True
1599558362.4419227,0.0,10,0.5,0.5,0.11873369140625001,-0.001,-0.001,-0.12575,-0.3862593297983942,10,1,100,-0.24177349171962303,-10,-1,-100,15032.21525200631,0.0261129693716331,-0.008139404973028239,0.9996258614688203,21.547753353546337,0.02508815052379689,-9.706778166736598,3.973689043430913,-62.3470458984375,5356.25390625,True
1599558362.5007625,0.0,10,0.5,0.5,0.07446698608398436,-0.001,-0.001,-0.12575,-0.3376496849064301,10,1,100,-0.21644958403428577,-10,-1,-100,15032.40471636597,0.025472627803493946,-0.01046201142006091,0.9996207738686863,21.197287149074636,0.024551541257272935,-8.210532312668578,3.416652256475537,-63.39910888671875,5356.25390625,True
1599558362.5336738,0.0,10,0.5,0.5,0.16182636108398438,-0.001,-0.001,-0.12575,-0.5059454612144954,10,1,100,-0.0917655580055769,-10,-1,-100,15032.688905721763,0.023755509724715865,-0.014088628804855676,0.9996185203847106,20.58124021574392,0.023687175330274344,-5.805803495580894,2.488192956830211,-65.125732421875,5356.25390625,True
1599558362.568582,0.0,10,0.5,0.5,-0.01330026397705078,-0.001,-0.001,-0.12575,-0.22097096195606555,10,1,100,-0.21606756635068475,-10,-1,-100,15032.733826667885,0.023325514691924443,-0.014778583358136563,0.9996186842182792,20.46189538165314,0.023528492455105684,-5.341381480012854,2.302490784174829,-65.45022583007812,5356.25390625,True
1599558362.600496,0.0,10,0.5,0.5,-0.05320611572265625,-0.001,-0.001,-0.12575,-0.1538367404434541,10,1,100,-0.2589137242009038,-10,-1,-100,15032.733826667885,0.023325514691924443,-0.014778583358136563,0.9996186842182792,20.46189538165314,0.023528492455105684,-5.341381480012854,2.302490784174829,-65.45022583007812,5356.25390625,True
1599558362.665322,0.0,10,0.5,0.5,0.02704547729492187,-0.001,-0.001,-0.12575,-0.29515176724841674,10,1,100,-0.15395555992302773,-10,-1,-100,15032.82757184375,0.022373505353594732,-0.016048279268040786,0.9996208676246848,20.228596978755284,0.023226073241921497,-4.428749061824264,1.9310760331131829,-66.07717895507812,5356.25390625,True
1599558362.706215,0.0,10,0.5,0.5,0.10458842620849611,-0.001,-0.001,-0.12575,-0.44393279778843175,10,1,100,-0.001621580341544332,-10,-1,-100,15032.978922712966,0.02012659632714638,-0.018540309245698983,0.9996255184084477,19.760165268507482,0.02265428539474523,-2.662014131091282,1.1882059881476885,-67.30487060546875,5356.25390625,True
1599558362.7780209,0.0,10,0.5,0.5,0.0696457763671875,-0.001,-0.001,-0.12575,-0.3804948648324186,10,1,100,-0.01117959466717186,-10,-1,-100,15033.028715553228,0.01817653292603831,-0.02021336887080038,0.9996304484006485,19.40748967225145,0.022254621973965116,-1.3885129451583238,0.6310201013203409,-68.24072265625,5356.25390625,True
1599558362.8368654,0.0,10,0.5,0.5,0.06633354187011718,-0.001,-0.001,-0.12575,-0.3704209263593041,10,1,100,0.02658195843232372,-10,-1,-100,15033.01112227561,0.016068109941440666,-0.021627600006537,0.9996369654834034,19.065497396005817,0.02188497560313602,-0.15955479790555005,0.07380988049137294,-69.13671875,5356.25390625,True
1599558362.8677814,0.0,10,0.5,0.5,0.06021739959716796,-0.001,-0.001,-0.12575,-0.3601186494735135,10,1,100,0.06568048925706302,-10,-1,-100,15032.993523101322,0.01380546031856199,-0.02280456841183169,0.9996446173140445,18.9030063991736,0.021720957638786533,1.0361211152535723,-0.48341681905279255,-69.97091674804688,5356.25390625,True
1599558362.9056804,0.0,10,0.5,0.5,-0.009983192443847655,-0.001,-0.001,-0.12575,-0.27996154119279054,10,1,100,-0.07331081132745551,-10,-1,-100,15032.970077753416,0.013023660082441883,-0.02312972953276588,0.9996476378653621,18.867080029133874,0.021685969848578807,1.4315186755479414,-0.6691610593907786,-70.237548828125,5356.25390625,True
1599558362.9336061,0.0,10,0.5,0.5,0.05478788299560547,-0.001,-0.001,-0.12575,-0.334310957702983,10,1,100,0.11151555661833162,-10,-1,-100,15032.936848241254,0.010644592258542985,-0.023905788588653498,0.9996575443258576,18.769969696071584,0.02158313249718002,2.610171106877929,-1.2263986849491786,-71.00686645507812,5356.25390625,True
1599558362.9715044,0.0,10,0.5,0.5,-0.009900079345703128,-0.001,-0.001,-0.12575,-0.2794598583618853,10,1,100,-0.03569109100694286,-10,-1,-100,15032.911448050174,0.009833525611178257,-0.02410042884802445,0.9996611781515753,18.740506249593917,0.021547464407235706,3.000812942058769,-1.412145978795592,-71.25375366210938,5356.25390625,True
1599558363.0054133,0.0,10,0.5,0.5,0.02143252563476563,-0.001,-0.001,-0.12575,-0.29631409448484647,10,1,100,0.0662860538080979,-10,-1,-100,15032.845998976496,0.008181783691722257,-0.024421493230349353,0.9996682695194551,18.684358060133665,0.021470092212315998,3.7789680576696085,-1.7836434195306836,-71.74105834960938,5356.25390625,True
1599558363.035335,0.0,10,0.5,0.5,0.021829446411132818,-0.001,-0.001,-0.12575,-0.28948975091744295,10,1,100,0.08960749670717547,-10,-1,-100,15032.769807749894,0.006481954039498101,-0.024642564172875404,0.9996753114400774,18.63450239612654,0.0213858645972465,4.553977859543885,-2.1551450818785174,-72.22268676757812,5356.25390625,True
1599558363.0682566,0.0,10,0.5,0.5,-0.007554220581054687,-0.001,-0.001,-0.12575,-0.2759933538289377,10,1,100,0.015830900186493344,-10,-1,-100,15032.69069670979,0.005622663015530002,-0.024711875982717457,0.9996788028392063,18.61478551250289,0.021343906476012184,4.941310383374681,-2.3408977680366534,-72.46334838867188,5356.25390625,True
1599558363.107152,0.0,10,0.5,0.5,-0.00683740234375,-0.001,-0.001,-0.12575,-0.27366228439718854,10,1,100,0.024810908182545353,-10,-1,-100,15032.652601744165,0.0047750809595385885,-0.024745819181635535,0.9996823710733623,18.5955720705285,0.02129844587251026,5.327970504930502,-2.526651833095428,-72.70272827148438,5356.25390625,True
1599558363.2028992,0.0,10,0.5,0.5,0.053905096435546876,-0.001,-0.001,-0.12575,-0.2679904648498362,10,1,100,0.2285333182874504,-10,-1,-100,15032.477771221078,0.002166485830745083,-0.02471947326664337,0.9996920795827907,18.543337309826306,0.02114318997394512,6.485076857213533,-3.083923425383088,-73.41519165039062,5356.25390625,True
1599558363.2677214,0.0,10,0.5,0.5,0.11522985534667969,-0.001,-0.001,-0.12575,-0.2110343442567683,10,1,100,0.453862013140737,-10,-1,-100,15032.117385188583,-0.002238852378555897,-0.0241736430618082,0.9997052678270468,18.5056166506696,0.020862389986439956,8.421717318049451,-4.012742862289416,-74.60177612304688,5356.25390625,True
1599558363.301632,0.0,10,0.5,0.5,0.054543367004394536,-0.001,-0.001,-0.12575,-0.1944962967823365,10,1,100,0.298363290067169,-10,-1,-100,15031.872252116213,-0.004813437847869809,-0.023524773313958417,0.9997116663601617,18.504503802036307,0.02067786370541687,9.591279437445165,-4.5700534796822,-75.2958984375,5356.25390625,True
1599558363.338534,0.0,10,0.5,0.5,-0.0038645568847656304,-0.001,-0.001,-0.12575,-0.2296782580643905,10,1,100,0.13518562804788323,-10,-1,-100,15031.763848795206,-0.00565361053055583,-0.0232540730049299,0.9997136013762392,18.507947918183646,0.020614402016306405,9.983204128168511,-4.755826685007455,-75.51953125,5356.25390625,True
1599558363.382415,0.0,10,0.5,0.5,0.02292734375,-0.001,-0.001,-0.12575,-0.1891360733123319,10,1,100,0.22594959028872105,-10,-1,-100,15031.559736541938,-0.0072255514709934675,-0.02263930345945602,0.9997175867937959,18.52216042204145,0.02048685855868885,10.771820360950258,-5.127377783929079,-75.9486083984375,5356.25390625,True
1599558363.4686954,0.0,10,0.5,0.5,0.021823709106445315,-0.001,-0.001,-0.12575,-0.17193824391111223,10,1,100,0.2427006987771005,-10,-1,-100,15031.358555068146,-0.008790625908804282,-0.02192522950094977,0.9997209656736534,18.545860910525587,0.020358664447649874,11.567653753876446,-5.498934857653538,-76.3616943359375,5356.25390625,True
1599558363.568943,0.0,10,0.5,0.5,0.09811757659912108,-0.001,-0.001,-0.12575,-0.002708599121441807,10,1,100,0.4834873409183135,-10,-1,-100,15030.703261803603,-0.012385459279443338,-0.01973959749453533,0.9997284374714921,18.634139684053498,0.020027013523490216,13.587630797778548,-6.427850454666968,-77.36941528320312,5356.25390625,True
1599558363.64474,0.0,10,0.5,0.5,0.09404843902587891,-0.001,-0.001,-0.12575,0.07623081201640691,10,1,100,0.4765679772004228,-10,-1,-100,15030.047974818852,-0.015571888816251505,-0.017039284565392502,0.9997335540333704,18.765141516010594,0.019691573897401643,15.662656784496876,-7.356792816649521,-78.3326416015625,5356.25390625,True
1599558363.7060997,0.0,10,0.5,0.5,0.062194514465332036,-0.001,-0.001,-0.12575,0.07082748832729446,10,1,100,0.37666142162176386,-10,-1,-100,15029.415150369867,-0.01754035257822044,-0.014640487826625028,0.9997389620033973,18.90315463099551,0.01943122674360143,17.37372450329485,-8.099959011727847,-79.03213500976562,5356.25390625,True
1599558363.77643,0.0,10,0.5,0.5,0.03265247955322266,-0.001,-0.001,-0.12575,0.03706750449198515,10,1,100,0.3027653662799359,-10,-1,-100,15028.891697598388,-0.018637025480908533,-0.012775828270026584,0.9997446871542948,19.02771476789601,0.019245012750881415,18.693395865936807,-8.657337380678499,-79.48785400390625,5356.25390625,True
1599558363.835272,0.0,10,0.5,0.5,0.027574537658691403,-0.001,-0.001,-0.12575,0.05999334382938418,10,1,100,0.2817783810150098,-10,-1,-100,15028.371169326478,-0.01942192633872525,-0.010883148307244015,0.9997521422133667,19.16492589175636,0.019062143722976124,20.04244313808786,-9.214716741297186,-79.89456176757812,5356.25390625,True
1599558363.9090757,0.0,10,0.5,0.5,0.024749475097656248,-0.001,-0.001,-0.12575,0.08214173130014174,10,1,100,0.2607183273850342,-10,-1,-100,15027.781300780596,-0.01992439171085933,-0.008973759659488793,0.9997612166175109,19.32856143354442,0.018897109790933567,21.438574778944652,-9.77209470732875,-80.27066040039062,5356.25390625,True
1599558363.9669206,0.0,10,0.5,0.5,0.03765263671874999,-0.001,-0.001,-0.12575,0.17198519091256695,10,1,100,0.24199952311514827,-10,-1,-100,15026.940443210653,-0.020194929701861982,-0.006435011149964106,0.9997753524896665,19.567129195107132,0.018685626652878533,23.357328365316462,-10.515258981335998,-80.74111938476562,5356.25390625,True
1599558364.0078106,0.0,10,0.5,0.5,0.0213423843383789,-0.001,-0.001,-0.12575,0.12667150623053514,10,1,100,0.21010929821805963,-10,-1,-100,15026.332990807947,-0.020136979020205413,-0.004554536694927403,0.9997868564206244,19.749788833301338,0.018523599935304738,24.82806640393757,-11.072624274102251,-81.07489013671875,5356.25390625,True
1599558364.0417194,0.0,10,0.5,0.5,-0.006430952453613284,-0.001,-0.001,-0.12575,0.00669455931391276,10,1,100,0.20993703378610085,-10,-1,-100,15026.082980193198,-0.020069563843418316,-0.003952713558963332,0.9997907724432428,19.81108482643966,0.01846889308465209,25.324085677114603,-11.25841081859348,-81.18252563476562,5356.25390625,True
1599558364.102557,0.0,10,0.5,0.5,0.006988023376464841,-0.001,-0.001,-0.12575,0.08051961157786329,10,1,100,0.1961548961934339,-10,-1,-100,15025.599560720264,-0.019871308784249052,-0.002751452587415075,0.9997987600491713,19.934335262939136,0.018358664219427646,26.32492669762922,-11.629980668698936,-81.39105224609375,5356.25390625,True
1599558364.141454,0.0,10,0.5,0.5,0.01985693359375,-0.001,-0.001,-0.12575,0.1600622236713556,10,1,100,0.16764820083913196,-10,-1,-100,15024.923747370718,-0.019421851788260207,-0.0009537132096244879,0.9998109231770919,20.11890377406221,0.018190137872614327,27.84571530381442,-12.18732626447132,-81.69549560546875,5356.25390625,True
1599558364.198301,0.0,10,0.5,0.5,0.007825376892089845,-0.001,-0.001,-0.12575,0.11051148836745017,10,1,100,0.169541095615801,-10,-1,-100,15024.42274952936,-0.019024065933050234,0.00021305600898153184,0.9998190033813681,20.24105447249742,0.018075569820689596,28.87159130720557,-12.558883357664932,-81.89920043945312,5356.25390625,True
1599558364.235204,0.0,10,0.5,0.5,0.02083716125488281,-0.001,-0.001,-0.12575,0.18134845120772677,10,1,100,0.1297850775061071,-10,-1,-100,15023.62291388493,-0.01829788573902868,0.0019020437421037244,0.9998307704842277,20.422535428520153,0.01790128826256485,30.427622730430972,-13.116207510849588,-82.20114135742188,5356.25390625,True
1599558364.2681153,0.0,10,0.5,0.5,-0.004344244384765626,-0.001,-0.001,-0.12575,0.0744730144487061,10,1,100,0.17205495774416085,-10,-1,-100,15023.375833616592,-0.018021304898299745,0.002450853591161231,0.999834599264517,20.48251745480029,0.017842731672933966,30.95076633633213,-13.30197896810325,-82.29953002929688,5356.25390625,True
1599558364.3030658,0.0,10,0.5,0.5,-0.004072994995117188,-0.001,-0.001,-0.12575,0.08156816951547301,10,1,100,0.16745613103206336,-10,-1,-100,15023.073089461424,-0.01772862000078402,0.0030004306074012197,0.9998383336565156,20.542261928274222,0.017783976376279265,31.47614594944689,-13.487748811877589,-82.39706420898438,5356.25390625,True
1599558364.3339827,0.0,10,0.5,0.5,0.00828524932861328,-0.001,-0.001,-0.12575,0.14142596777132238,10,1,100,0.12825164831221084,-10,-1,-100,15022.574046724476,-0.0171076778022601,0.004031586443659254,0.9998455249042031,20.661076004839153,0.017666236065825843,32.53361565147146,-13.859283170835461,-82.58935546875,5356.25390625,True
1599558364.364901,0.0,10,0.5,0.5,0.020545805358886716,-0.001,-0.001,-0.12575,0.20818675246606472,10,1,100,0.0731808001685995,-10,-1,-100,15021.689254089724,-0.01604510146948607,0.005564094022843171,0.9998557873896309,20.836444468366345,0.017488699111351005,34.134486626432384,-14.416570567223975,-82.87503051757812,5356.25390625,True
1599558364.3988442,0.0,10,0.5,0.5,-0.015164440917968751,-0.001,-0.001,-0.12575,0.056135905064953695,10,1,100,0.1790234506227649,-10,-1,-100,15021.689254089724,-0.01604510146948607,0.005564094022843171,0.9998557873896309,20.836444468366345,0.017488699111351005,34.134486626432384,-14.416570567223975,-82.87503051757812,5356.25390625,True
1599558364.4367094,0.0,10,0.5,0.5,0.009322732543945311,-0.001,-0.001,-0.12575,0.16278601599890372,10,1,100,0.09345441779215734,-10,-1,-100,15021.11990151531,-0.015270921059708474,0.006524441730681107,0.9998621058076413,20.95113563745071,0.017369839707249073,35.21070297811079,-14.788085480015837,-83.06680297851562,5356.25390625,True
1599558364.466628,0.0,10,0.5,0.5,0.02129950561523438,-0.001,-0.001,-0.12575,0.21716385562408153,10,1,100,0.03282451760787369,-10,-1,-100,15020.177496122895,-0.014020302178947817,0.007882304411408443,0.999870641835221,21.119229745041828,0.017191253822158192,36.83687028317342,-15.345342393752272,-83.35006713867188,5356.25390625,True
1599558364.501536,0.0,10,0.5,0.5,-0.01412506103515625,-0.001,-0.001,-0.12575,0.08244096325123026,10,1,100,0.1573013050234093,-10,-1,-100,15020.177496122895,-0.014020302178947817,0.007882304411408443,0.999870641835221,21.119229745041828,0.017191253822158192,36.83687028317342,-15.345342393752272,-83.35006713867188,5356.25390625,True
1599558364.5344455,0.0,10,0.5,0.5,0.033308615112304686,-0.001,-0.001,-0.12575,0.25968286674120095,10,1,100,-0.03998444273450122,-10,-1,-100,15018.92063532013,-0.01223170588079346,0.009485561699843601,0.9998801975689308,21.336203145114332,0.016954528309933898,39.02621039899556,-16.08832090035463,-83.72299194335938,5356.25390625,True
1599558364.5693555,0.0,10,0.5,0.5,-0.013404299926757813,-0.001,-0.001,-0.12575,0.10028438846677136,10,1,100,0.1381959510757088,-10,-1,-100,15018.92063532013,-0.01223170588079346,0.009485561699843601,0.9998801975689308,21.336203145114332,0.016954528309933898,39.02621039899556,-16.08832090035463,-83.72299194335938,5356.25390625,True
1599558364.599275,0.0,10,0.5,0.5,-0.0016323333740234387,-0.001,-0.001,-0.12575,0.14457809133697658,10,1,100,0.08354896835153125,-10,-1,-100,15018.603247077554,-0.011740429837717514,0.009881337618702067,0.9998822538049622,21.389083699330445,0.016895712559420156,39.57694675652314,-16.274059788005168,-83.81466674804688,5356.25390625,True
1599558364.6331828,0.0,10,0.5,0.5,0.010412437438964844,-0.001,-0.001,-0.12575,0.18230391969921583,10,1,100,0.026256200444449387,-10,-1,-100,15017.948940591421,-0.010778681794911893,0.010577340999114174,0.9998859634359073,21.493108056164854,0.016778694036728777,40.68207286186535,-16.64553061086401,-83.99945068359375,5356.25390625,True
1599558364.66632,0.0,10,0.5,0.5,0.010730383300781252,-0.001,-0.001,-0.12575,0.1890191589884554,10,1,100,0.007847141888131431,-10,-1,-100,15017.257526064408,-0.009743328440218323,0.011264230874489438,0.9998890861759179,21.594753004509812,0.016662665134252262,41.79170510451148,-17.016991937243404,-84.18402099609375,5356.25390625,True
1599558364.7032197,0.0,10,0.5,0.5,-0.0004912078857421884,-0.001,-0.001,-0.12575,0.15527147438162725,10,1,100,0.05374464488789096,-10,-1,-100,15016.922561189276,-0.009226043008096565,0.011575303951649575,0.9998904402327485,21.64451094368456,0.01660494902039001,42.34778222215799,-17.202719076755848,-84.27734375,5356.25390625,True
1599558364.7331407,0.0,10,0.5,0.5,0.034895666503906256,-0.001,-0.001,-0.12575,0.24508483360555702,10,1,100,-0.12719147177081813,-10,-1,-100,15015.509465205367,-0.007117108880598875,0.012669118005713784,0.9998944145309238,21.836518430324777,0.01637707004949043,44.579603703337504,-17.945602804885464,-84.64801025390625,5356.25390625,True
1599558364.771073,0.0,10,0.5,0.5,-0.011538348388671876,-0.001,-0.001,-0.12575,0.13641393059742327,10,1,100,0.08280914172006217,-10,-1,-100,15015.509465205367,-0.007117108880598875,0.012669118005713784,0.9998944145309238,21.836518430324777,0.01637707004949043,44.579603703337504,-17.945602804885464,-84.64801025390625,5356.25390625,True
1599558364.7990918,0.0,10,0.5,0.5,0.02345204010009766,-0.001,-0.001,-0.12575,0.2100454318895657,10,1,100,-0.09574303773215363,-10,-1,-100,15014.412781732157,-0.005501319805741558,0.013332909220846867,0.9998959790958777,21.973692718064864,0.01621025014541398,46.26127631419858,-18.50273967951307,-84.92282104492188,5356.25390625,True
1599558364.8360803,0.0,10,0.5,0.5,-0.010948141479492187,-0.001,-0.001,-0.12575,0.1442113708572012,10,1,100,0.06498397151625741,-10,-1,-100,15014.412781732157,-0.005501319805741558,0.013332909220846867,0.9998959790958777,21.973692718064864,0.01621025014541398,46.26127631419858,-18.50273967951307,-84.92282104492188,5356.25390625,True
1599558364.8650024,0.0,10,0.5,0.5,0.02294286041259766,-0.001,-0.001,-0.12575,0.20102472579213643,10,1,100,-0.11306373037772727,-10,-1,-100,15013.265318952384,-0.0038904488634082485,0.013844439170428607,0.9998965926093045,22.105827531620072,0.016048001901071595,47.950194844507244,-19.05985432095973,-85.18896484375,5356.25390625,True
1599558364.89918,0.0,10,0.5,0.5,0.012083949279785153,-0.001,-0.001,-0.12575,0.18060367538910438,10,1,100,-0.07435511086274192,-10,-1,-100,15012.486998851527,-0.0027855002359845477,0.01411985786868391,0.999896429937723,22.191804079475393,0.015942936381636567,49.081221235700994,-19.431251747643486,-85.36618041992188,5356.25390625,True
1599558364.932393,0.0,10,0.5,0.5,-0.010036590576171876,-0.001,-0.001,-0.12575,0.15352523518045802,10,1,100,0.035195131315147274,-10,-1,-100,15012.486998851527,-0.0027855002359845477,0.01411985786868391,0.999896429937723,22.191804079475393,0.015942936381636567,49.081221235700994,-19.431251747643486,-85.36618041992188,5356.25390625,True
1599558364.9683008,0.0,10,0.5,0.5,0.023469345092773437,-0.001,-0.001,-0.12575,0.1821441020400093,10,1,100,-0.13693709804405943,-10,-1,-100,15011.306336639915,-0.0012288026323569712,0.014376176185361666,0.999895902383032,22.315742981816076,0.01578892163816912,50.78063991749829,-19.988329732355723,-85.62930297851562,5356.25390625,True
1599558364.9982474,0.0,10,0.5,0.5,-0.009455331420898437,-0.001,-0.001,-0.12575,0.1568921538908585,10,1,100,0.01777767440244272,-10,-1,-100,15011.306336639915,-0.0012288026323569712,0.014376176185361666,0.999895902383032,22.315742981816076,0.01578892163816912,50.78063991749829,-19.988329732355723,-85.62930297851562,5356.25390625,True
1599558365.0323277,0.0,10,0.5,0.5,0.023873652648925783,-0.001,-0.001,-0.12575,0.172050883967878,10,1,100,-0.1566759339443235,-10,-1,-100,15010.070988444146,0.00034939878369739334,0.014511153781233778,0.9998946466185463,22.434669456415026,0.015640053597444428,52.48489005303162,-20.54538553302794,-85.89111328125,5356.25390625,True
1599558365.0656536,0.0,10,0.5,0.5,-0.008887615966796875,-0.001,-0.001,-0.12575,0.15884670936362524,10,1,100,0.00018666348193354266,-10,-1,-100,15010.070988444146,0.00034939878369739334,0.014511153781233778,0.9998946466185463,22.434669456415026,0.015640053597444428,52.48489005303162,-20.54538553302794,-85.89111328125,5356.25390625,True
1599558365.1004364,0.0,10,0.5,0.5,0.03460199737548828,-0.001,-0.001,-0.12575,0.153773881927984,10,1,100,-0.219340483535393,-10,-1,-100,15008.43134549458,0.0023383123859782745,0.014463362590204748,0.9998926659585865,22.619980029011238,0.015473648299676079,54.846872287333916,-21.28809200063113,-86.23324584960938,5356.25390625,True
1599558365.1330035,0.0,10,0.5,0.5,-0.008262649536132812,-0.001,-0.001,-0.12575,0.15873242548933605,10,1,100,-0.02139466543396261,-10,-1,-100,15008.43134549458,0.0023383123859782745,0.014463362590204748,0.9998926659585865,22.619980029011238,0.015473648299676079,54.846872287333916,-21.28809200063113,-86.23324584960938,5356.25390625,True
1599558365.1657383,0.0,10,0.5,0.5,0.013305419921875002,-0.001,-0.001,-0.12575,0.14683004201787053,10,1,100,-0.13246041632066474,-10,-1,-100,15007.568067208398,0.0033408740920467302,0.014354131419219282,0.9998913928379926,22.71183082896636,0.015395543244588384,56.03823764441101,-21.659430236296394,-86.40237426757812,5356.25390625,True
1599558365.1988647,0.0,10,0.5,0.5,0.023586737060546873,-0.001,-0.001,-0.12575,0.1268025788503623,10,1,100,-0.18140395522034397,-10,-1,-100,15006.208695967449,0.004689196729471694,0.01407183412389299,0.999889991408266,22.846864246718138,0.015283682341983745,57.83368620767938,-22.216418860910853,-86.65011596679688,5356.25390625,True
1599558365.233769,0.0,10,0.5,0.5,-0.00742066650390625,-0.001,-0.001,-0.12575,0.15505504787833796,10,1,100,-0.04742965603713561,-10,-1,-100,15006.208695967449,0.004689196729471694,0.01407183412389299,0.999889991408266,22.846864246718138,0.015283682341983745,57.83368620767938,-22.216418860910853,-86.65011596679688,5356.25390625,True
1599558365.2656837,0.0,10,0.5,0.5,0.0030200897216796875,-0.001,-0.001,-0.12575,0.14176307801766674,10,1,100,-0.0959829784311856,-10,-1,-100,15005.807329947595,0.005123795390358097,0.013951041692200334,0.9998895514788122,22.891135971667495,0.015247796723669788,58.43429927141037,-22.402076720088264,-86.73147583007812,5356.25390625,True
1599558365.2989793,0.0,10,0.5,0.5,0.033513621520996094,-0.001,-0.001,-0.12575,0.08519349816278435,10,1,100,-0.23534477618271038,-10,-1,-100,15003.958700681222,0.006778620247426559,0.013327114952141247,0.99988821290912,23.066809240292567,0.015112647138544072,60.85282169876637,-23.14468317198242,-87.05169677734375,5356.25390625,True
1599558365.3322234,0.0,10,0.5,0.5,-0.006611923217773438,-0.001,-0.001,-0.12575,0.14748126604537104,10,1,100,-0.0706630327638425,-10,-1,-100,15003.958700681222,0.006778620247426559,0.013327114952141247,0.99988821290912,23.066809240292567,0.015112647138544072,60.85282169876637,-23.14468317198242,-87.05169677734375,5356.25390625,True
1599558365.3669846,0.0,10,0.5,0.5,0.003707295227050781,-0.001,-0.001,-0.12575,0.12667953723122977,10,1,100,-0.11396069500859782,-10,-1,-100,15003.500693502021,0.007164955883397259,0.013138962018588345,0.9998880092711698,23.109760338288655,0.015080558351833237,61.45979782400214,-23.330328568015638,-87.13198852539062,5356.25390625,True
1599558365.3989325,0.0,10,0.5,0.5,0.03403646087646484,-0.001,-0.001,-0.12575,0.04870967445867852,10,1,100,-0.23609958929605623,-10,-1,-100,15001.580772651476,0.00862032772134779,0.012260344409937646,0.9998876806446443,23.27768663927386,0.014959215878497918,63.89634134509775,-24.072884995677388,-87.449951171875,5356.25390625,True
1599558365.4323425,0.0,10,0.5,0.5,-0.005791458129882812,-0.001,-0.001,-0.12575,0.13634635438661882,10,1,100,-0.09138949839476819,-10,-1,-100,15001.580772651476,0.00862032772134779,0.012260344409937646,0.9998876806446443,23.27768663927386,0.014959215878497918,63.89634134509775,-24.072884995677388,-87.449951171875,5356.25390625,True
1599558365.4668393,0.0,10,0.5,0.5,0.004406620788574219,-0.001,-0.001,-0.12575,0.10879877201212435,10,1,100,-0.12902485123421165,-10,-1,-100,15001.10811626399,0.008956756369583303,0.01201191458669703,0.9998877389103727,23.318851897120968,0.01493074955567388,64.5079429401243,-24.25851793142306,-87.52944946289062,5356.25390625,True
1599558365.5022657,0.0,10,0.5,0.5,0.014502610778808595,-0.001,-0.001,-0.12575,0.07638461442665093,10,1,100,-0.16413163632787647,-10,-1,-100,15000.121787109645,0.009575736419754718,0.011493623722068082,0.9998880946814773,23.399957820828515,0.014875946478725886,65.73327595258928,-24.629776232682072,-87.68695068359375,5356.25390625,True
1599558365.5331457,0.0,10,0.5,0.5,0.03451976318359375,-0.001,-0.001,-0.12575,-0.0039040631113956697,10,1,100,-0.23075083532505514,-10,-1,-100,14998.133502665209,0.010738406581405168,0.010295153601784207,0.9998893420956181,23.56037948463069,0.014776800388543915,68.20075708988395,-25.372263120212814,-88.0001220703125,5356.25390625,True
1599558365.5670557,0.0,10,0.5,0.5,-0.0047265380859375,-0.001,-0.001,-0.12575,0.11556528086478095,10,1,100,-0.11508874014520357,-10,-1,-100,14998.133502665209,0.010738406581405168,0.010295153601784207,0.9998893420956181,23.56037948463069,0.014776800388543915,68.20075708988395,-25.372263120212814,-88.0001220703125,5356.25390625,True
1599558365.5999684,0.0,10,0.5,0.5,0.015008140563964843,-0.001,-0.001,-0.12575,0.04442743637027223,10,1,100,-0.16938659671990364,-10,-1,-100,14997.063187558204,0.01122652417767341,0.00965187927049059,0.9998903971843295,23.63903474087174,0.014732027434129493,69.44082941363071,-25.743491797046115,-88.15475463867188,5356.25390625,True
1599558365.6358733,0.0,10,0.5,0.5,0.014748094177246096,-0.001,-0.001,-0.12575,0.034383693768930385,10,1,100,-0.16896080421571208,-10,-1,-100,14996.06025422248,0.011660848670799785,0.008979686002413022,0.9998916890581573,23.71828033328176,0.014691493228014213,70.68980606530309,-26.11471055313242,-88.30499267578125,5356.25390625,True
1599558365.6669385,0.0,10,0.5,0.5,0.014950167846679688,-0.001,-0.001,-0.12575,0.023514054897253236,10,1,100,-0.168224775082073,-10,-1,-100,14995.005562545382,0.012044559555678522,0.008273738522554284,0.9998932312181987,23.797882909552552,0.01465502454913017,71.94706771139576,-26.485919382890884,-88.45465087890625,5356.25390625,True
1599558365.7038403,0.0,10,0.5,0.5,0.014853311157226561,-0.001,-0.001,-0.12575,0.014777193230686173,10,1,100,-0.16522409298453739,-10,-1,-100,14993.933292232687,0.01236132148712864,0.0075571360497408094,0.9998950382044196,23.87762789682255,0.014622447085027532,73.21201064378269,-26.857118436445347,-88.60125732421875,5356.25390625,True
1599558365.734755,0.0,10,0.5,0.5,-0.0034355224609375,-0.001,-0.001,-0.12575,0.08587925791514885,10,1,100,-0.13406753639989882,-10,-1,-100,14993.933292232687,0.01236132148712864,0.0075571360497408094,0.9998950382044196,23.87762789682255,0.014622447085027532,73.21201064378269,-26.857118436445347,-88.60125732421875,5356.25390625,True
1599558365.7731774,0.0,10,0.5,0.5,0.014797802734375,-0.001,-0.001,-0.12575,0.004510080633817262,10,1,100,-0.16306006575320886,-10,-1,-100,14992.80731035641,0.012621489032371657,0.006821691900237974,0.9998970759704339,23.958539905803235,0.014594418282026756,74.48784700667748,-27.228307509825207,-88.74420166015625,5356.25390625,True
1599558365.8050897,0.0,10,0.5,0.5,0.02334017639160156,-0.001,-0.001,-0.12575,-0.0475419403265193,10,1,100,-0.168579865280737,-10,-1,-100,14991.193043404259,0.012904547558923726,0.005684850348786609,0.999900572621504,24.082847134425336,0.01456105378125865,76.42475922613816,-27.785072541754303,-88.952392578125,5356.25390625,True
1599558365.8360076,0.0,10,0.5,0.5,0.005939936828613282,-0.001,-0.001,-0.12575,0.02422093447500715,10,1,100,-0.14739700528523747,-10,-1,-100,14990.595383730019,0.012965713136567119,0.005309499676788254,0.9999018449308125,24.124819577041453,0.014552124025467005,77.07588785920125,-27.97065589847773,-89.02053833007812,5356.25390625,True
1599558365.8669257,0.0,10,0.5,0.5,0.01438050079345703,-0.001,-0.001,-0.12575,-0.021483886975717147,10,1,100,-0.1501966526057765,-10,-1,-100,14989.507486184943,0.013043687749414366,0.004558395347278875,0.9999045370642908,24.209759131957085,0.014537648589472074,78.38710603078464,-28.34181500928826,-89.1536865234375,5356.25390625,True
1599558365.9028287,0.0,10,0.5,0.5,-0.0022475280761718747,-0.001,-0.001,-0.12575,0.053052870149770295,10,1,100,-0.14262971943785274,-10,-1,-100,14989.507486184943,0.013043687749414366,0.004558395347278875,0.9999045370642908,24.209759131957085,0.014537648589472074,78.38710603078464,-28.34181500928826,-89.1536865234375,5356.25390625,True
1599558365.933748,0.0,10,0.5,0.5,0.02207054901123047,-0.001,-0.001,-0.12575,-0.07307893402039217,10,1,100,-0.1443272210062106,-10,-1,-100,14987.768216687837,0.013057023871701247,0.0034169578168724026,0.9999089151152177,24.34199845793286,0.014525548822930645,80.38441678320716,-28.898534983207128,-89.34463500976562,5356.25390625,True
1599558365.9676557,0.0,10,0.5,0.5,0.006002937316894531,-0.001,-0.001,-0.12575,-0.0007718391467603988,10,1,100,-0.1403756688483153,-10,-1,-100,14987.170556306955,0.013031560327168429,0.003042292671221006,0.9999104574364357,24.38717667662095,0.014523936536871106,81.05785685779759,-29.084103248766915,-89.4063720703125,5356.25390625,True
1599558366.002565,0.0,10,0.5,0.5,0.021624015808105468,-0.001,-0.001,-0.12575,-0.08965379175151489,10,1,100,-0.1258407751636214,-10,-1,-100,14985.416637289221,0.012875030151681042,0.0018990678727048703,0.9999153099837047,24.525411301997373,0.014526023794754385,83.09968376851802,-29.640792726979992,-89.58999633789062,5356.25390625,True
1599558366.0364723,0.0,10,0.5,0.5,0.0062514892578125,-0.001,-0.001,-0.12575,-0.017967876390130002,10,1,100,-0.13285287289074868,-10,-1,-100,14984.817999898689,0.012795721361851845,0.0015172578961117453,0.999916980275516,24.572234962137962,0.014528975214455446,83.78703654139741,-29.826350800988543,-89.64999389648438,5356.25390625,True
1599558366.0663924,0.0,10,0.5,0.5,0.00636220703125,-0.001,-0.001,-0.12575,-0.02251781531841608,10,1,100,-0.13061200055651354,-10,-1,-100,14984.205690844217,0.012702855986355234,0.0011342856345459664,0.9999186721158323,24.619700055452352,0.01453322982667163,84.47872573467188,-30.011906390412292,-89.70956420898438,5356.25390625,True
1599558366.1013029,0.0,10,0.5,0.5,0.00634307098388672,-0.001,-0.001,-0.12575,-0.024604067637070327,10,1,100,-0.1285794732121043,-10,-1,-100,14983.608030316187,0.012599644910500753,0.0007730020578758514,0.9999203225337246,24.66759114566505,0.014538598254596313,85.17405016909863,-30.19745934113974,-89.76763916015625,5356.25390625,True
1599558366.1345272,0.0,10,0.5,0.5,0.013458338928222657,-0.001,-0.001,-0.12575,-0.0699480197123735,10,1,100,-0.11164532370075145,-10,-1,-100,14982.382435518433,0.01235188970427699,3.784350552968361e-05,0.9999237117843554,24.770310884970936,0.014556080525673072,86.59550655105484,-30.568557670782077,-89.88058471679688,5356.25390625,True
1599558366.1704302,0.0,10,0.5,0.5,0.020246648025512695,-0.001,-0.001,-0.12575,-0.11651223530548958,10,1,100,-0.08516168689892044,-10,-1,-100,14980.555273759644,0.011886399780288421,-0.0010486598594103816,0.9999288043719725,24.987850553153958,0.01462606528133788,88.97117489924308,-31.125184166549147,-90.04546356201172,5356.25390625,True
1599558366.2013159,0.0,10,0.5,0.5,-0.00038437423706054685,-0.001,-0.001,-0.12575,-0.008497714765102927,10,1,100,-0.1316027479621495,-10,-1,-100,14980.555273759644,0.011886399780288421,-0.0010486598594103816,0.9999288043719725,24.987850553153958,0.01462606528133788,88.97117489924308,-31.125184166549147,-90.04546356201172,5356.25390625,True
1599558366.2342255,0.0,10,0.5,0.5,0.019816038131713867,-0.001,-0.001,-0.12575,-0.12244263775484825,10,1,100,-0.06955785078852511,-10,-1,-100,14978.662682580994,0.011323407340500132,-0.0020794254727656216,0.9999337260218321,25.28299894519424,0.014748888422298507,91.65748008861205,-31.681782520818018,-90.20413208007812,5356.25390625,True
1599558366.2681441,0.0,10,0.5,0.5,0.0063537876129150395,-0.001,-0.001,-0.12575,-0.05615677492461179,10,1,100,-0.10290826505518522,-10,-1,-100,14977.994709760882,0.011116345507124883,-0.0024078519857045587,0.9999353124634518,25.38547458815213,0.014793758659176167,92.57659037050432,-31.867308699977382,-90.25450897216797,5356.25390625,True
1599558366.3030524,0.0,10,0.5,0.5,0.012784687423706054,-0.001,-0.001,-0.12575,-0.09900991545725887,10,1,100,-0.0722685005444062,-10,-1,-100,14976.713451504242,0.0106513284161081,-0.003090700266125314,0.9999384964960781,25.59095689809094,0.014885938620236381,94.43044052032997,-32.23835122442063,-90.35450744628906,5356.25390625,True
1599558366.3329694,0.0,10,0.5,0.5,0.006440471267700195,-0.001,-0.001,-0.12575,-0.0647730737178403,10,1,100,-0.09299209372860545,-10,-1,-100,14976.10211928375,0.010419145754959253,-0.0033946519662064263,0.9999399570673058,25.694783843532072,0.01493370507459835,95.36825162251452,-32.42386737879267,-90.40291595458984,5356.25390625,True
1599558366.3668811,0.0,10,0.5,0.5,0.01841720428466797,-0.001,-0.001,-0.12575,-0.13645215292191293,10,1,100,-0.030218245733669574,-10,-1,-100,14974.137264578254,0.009639631885230631,-0.00431778721373636,0.9999442155493945,26.007587851612005,0.015081934266521194,98.21441952353373,-32.98039581124434,-90.54479217529297,5356.25390625,True
1599558366.4007926,0.0,10,0.5,0.5,0.0006657493591308594,-0.001,-0.001,-0.12575,-0.04472213267990435,10,1,100,-0.1078540237588696,-10,-1,-100,14974.137264578254,0.009639631885230631,-0.00431778721373636,0.9999442155493945,26.007587851612005,0.015081934266521194,98.21441952353373,-32.98039581124434,-90.54479217529297,5356.25390625,True
1599558366.4366937,0.0,10,0.5,0.5,0.01222013168334961,-0.001,-0.001,-0.12575,-0.10913711983540753,10,1,100,-0.045614789757687055,-10,-1,-100,14972.771046637674,0.009076605416220903,-0.0048984215761970415,0.9999468089354454,26.217417708912333,0.015184787614020413,100.14004558533209,-33.351397922207354,-90.63529205322266,5356.25390625,True
1599558366.4745948,0.0,10,0.5,0.5,0.01714549331665039,-0.001,-0.001,-0.12575,-0.13953771737549506,10,1,100,-0.0038472838304631773,-10,-1,-100,14970.754435987095,0.008188261335504824,-0.005697484225494754,0.9999502442870853,26.53280913590932,0.015343970707778105,103.06611857660769,-33.90787544327985,-90.76325225830078,5356.25390625,True
1599558366.5035145,0.0,10,0.5,0.5,0.011403874588012695,-0.001,-0.001,-0.12575,-0.11345013874232858,10,1,100,-0.02434081248696747,-10,-1,-100,14969.386266568908,0.0075707657302482205,-0.006181531075708411,0.9999522349491587,26.74352501901385,0.015453177082100698,105.0421148958288,-34.27884343877148,-90.84420776367188,5356.25390625,True
1599558366.533437,0.0,10,0.5,0.5,0.0013035942077636719,-0.001,-0.001,-0.12575,-0.06555874084259264,10,1,100,-0.0856588096076238,-10,-1,-100,14969.386266568908,0.0075707657302482205,-0.006181531075708411,0.9999522349491587,26.74352501901385,0.015453177082100698,105.0421148958288,-34.27884343877148,-90.84420776367188,5356.25390625,True
1599558366.5694475,0.0,10,0.5,0.5,0.015804723739624025,-0.001,-0.001,-0.12575,-0.13821363524675395,10,1,100,0.020433498500698144,-10,-1,-100,14967.284697488998,0.006610213505672603,-0.0068373638691859705,0.9999547767437933,27.059275136794508,0.015620848817032434,108.0401859878178,-34.835269370920585,-90.9579849243164,5356.25390625,True
1599558366.6033566,0.0,10,0.5,0.5,0.001572631072998047,-0.001,-0.001,-0.12575,-0.07310614973864007,10,1,100,-0.07515040457338086,-10,-1,-100,14967.284697488998,0.006610213505672603,-0.0068373638691859705,0.9999547767437933,27.059275136794508,0.015620848817032434,108.0401859878178,-34.835269370920585,-90.9579849243164,5356.25390625,True
1599558366.6342757,0.0,10,0.5,0.5,0.019249616622924803,-0.001,-0.001,-0.12575,-0.1548821569387236,10,1,100,0.07161300688932093,-10,-1,-100,14964.481956476811,0.00528009715783118,-0.007576755287474474,0.9999573557673934,27.478546492939692,0.01585037354283975,112.09664159799178,-35.57712187001721,-91.09689331054688,5356.25390625,True
