Timestamp,Input Throttle,horizon,dT,dt,Input Roll,Roll P,Roll I,Roll D,Input Pitch,Pitch P,Pitch I,Pitch D,Input Yaw,Yaw P,Yaw I,Yaw D,Altitude,Direction X,Direction Y,Direction Z,Drag X,Drag Y,Drag Z,Vertical Velocity,Roll,Mass,Has Fuel
1599559192.3971293,0.0,10,0.5,0.5,-0.05820944213867188,-0.001,-0.03,-0.001,-0.00028813948257739203,10,1,100,0.17495973405461904,-10,-1,-100,14993.990026301122,-0.0168113557074848,-7.484526798272642e-05,0.9998586763725473,28.64447098112793,0.027275133200502084,-87.50354217064655,27.00897850584596,-31.79168701171875,5356.25390625,True
1599559192.426587,0.0,10,0.5,0.5,-0.23283447265625,-0.001,-0.03,-0.001,-0.0004585512094682576,10,1,100,0.1737627234279981,-10,-1,-100,14994.521277791704,-0.016847428714597542,-7.214175891766024e-05,0.9998580693984888,28.57180526187798,0.027439528601863664,-86.68218383944325,26.82301106583223,-31.79107666015625,5356.25390625,True
1599559192.4624994,0.0,10,0.5,0.5,-0.40746313476562496,-0.001,-0.03,-0.001,-0.00019127504243752038,10,1,100,0.18002778719459223,-10,-1,-100,14995.610148545122,-0.016921861638292165,-6.718865665012278e-05,0.9998568127909011,28.426635689314455,0.027763871862628485,-85.04909895557735,26.451087758064133,-31.789825439453125,5356.25390625,True
1599559192.493308,0.0,10,0.5,0.5,-0.5820924072265625,-0.001,-0.03,-0.001,-0.0006933041348562788,10,1,100,0.1742766809889591,-10,-1,-100,14995.610148545122,-0.016921861638292165,-6.718865665012278e-05,0.9998568127909011,28.426635689314455,0.027763871862628485,-85.04909895557735,26.451087758064133,-31.789825439453125,5356.25390625,True
1599559192.6219633,0.0,10,0.5,0.5,-0.756630889892578,-0.001,-0.03,-0.001,0.011392589692229563,10,1,100,0.18213685904020233,-10,-1,-100,14997.16190951597,-0.01697793429181411,4.2744186011248616e-05,0.9998558635724039,28.211730093262428,0.02824111513561155,-82.630653657624,25.893232282984144,-31.835845947265625,5356.25390625,True
1599559192.6419625,0.0,10,0.5,0.5,-0.9306103515624999,-0.001,-0.03,-0.001,0.020546078499968756,10,1,100,0.18034025518282143,-10,-1,-100,14998.655074952869,-0.01699714218331986,0.00022585781015011417,0.9998555126346255,28.013985108043446,0.02871606231590413,-80.2884212143155,25.335411194024932,-32.1153564453125,5356.25390625,True
1599559192.6782644,0.0,10,0.5,0.5,-1.1045437927246093,-0.001,-0.03,-0.001,0.0022573018670972145,10,1,100,0.18011918025057863,-10,-1,-100,14998.655074952869,-0.01699714218331986,0.00022585781015011417,0.9998555126346255,28.013985108043446,0.02871606231590413,-80.2884212143155,25.335411194024932,-32.1153564453125,5356.25390625,True
1599559192.7762191,0.0,10,0.5,0.5,-1.2778462829589843,-0.001,-0.03,-0.001,0.011865563976694629,10,1,100,0.18064983968635062,-10,-1,-100,14999.188277441077,-0.016986514412569313,0.000313000322228136,0.9998556697638465,27.954057086739613,0.028874382057333673,-79.53023191455925,25.149478132554812,-32.29107666015625,5356.25390625,True
1599559192.7961228,0.0,10,0.5,0.5,-1.4486047058105467,-0.001,-0.03,-0.001,0.055738503421964854,10,1,100,0.17017845035373635,-10,-1,-100,15001.14237418177,-0.01686621606848817,0.0007907811460540414,0.9998574425490416,27.753242440028526,0.02950210339627704,-76.62993269578372,24.405779774634414,-33.5631103515625,5356.25390625,True
1599559192.829035,0.0,10,0.5,0.5,-1.6191874084472657,-0.001,-0.03,-0.001,0.008039499153979716,10,1,100,0.1838949063686995,-10,-1,-100,15001.14237418177,-0.01686621606848817,0.0007907811460540414,0.9998574425490416,27.753242440028526,0.02950210339627704,-76.62993269578372,24.405779774634414,-33.5631103515625,5356.25390625,True
1599559192.8612585,0.0,10,0.5,0.5,-1.7875318908691404,-0.001,-0.03,-0.001,0.024783783581931597,10,1,100,0.17983825459550185,-10,-1,-100,15001.616982041392,-0.01681400449230593,0.0009422830216299185,0.9998581906228702,27.713300755227635,0.029654422706481335,-75.93821387930939,24.21986319052414,-34.04620361328125,5356.25390625,True
1599559192.893141,0.0,10,0.5,0.5,-1.7801482849121093,-0.001,-0.03,-0.001,0.027780688306851084,10,1,100,0.1783223111208751,-10,-1,-100,15002.148229997722,-0.016752755710748357,0.0011063319257530633,0.9998590506695261,27.676979035255666,0.029802558817562663,-75.25799939221108,24.033949674662374,-34.5977783203125,5356.25390625,True
1599559192.925953,0.0,10,0.5,0.5,-1.7696616516113284,-0.001,-0.03,-0.001,0.051083189458288554,10,1,100,0.16738037310991283,-10,-1,-100,15003.083771213423,-0.01659768890287259,0.0014662368729829259,0.9998611737999009,27.612948890251705,0.030079534273109,-73.92515456295006,23.662131294670292,-35.906829833984375,5356.25390625,True
1599559192.960569,0.0,10,0.5,0.5,-1.753662109375,-0.001,-0.03,-0.001,0.08440996805548473,10,1,100,0.14895870213725854,-10,-1,-100,15004.436299954308,-0.016289544043902687,0.002094999879957645,0.9998651217691037,27.52771333171732,0.030417100545544896,-71.96409434368964,23.104424910251172,-38.3856201171875,5356.25390625,True
1599559192.9965153,0.0,10,0.5,0.5,-1.7323610229492186,-0.001,-0.03,-0.001,0.07266479564657935,10,1,100,0.1504811115948652,-10,-1,-100,15005.373791783,-0.01602382727408501,0.002557862693002243,0.9998683384815893,27.467699373928518,0.03056301995909097,-70.65439222261614,22.732634624220704,-40.381866455078125,5356.25390625,True
1599559193.0275328,0.0,10,0.5,0.5,-1.708719207763672,-0.001,-0.03,-0.001,0.026630026192818654,10,1,100,0.17695737787486007,-10,-1,-100,15005.373791783,-0.01602382727408501,0.002557862693002243,0.9998683384815893,27.467699373928518,0.03056301995909097,-70.65439222261614,22.732634624220704,-40.381866455078125,5356.25390625,True
1599559193.0597901,0.0,10,0.5,0.5,-1.6768992309570312,-0.001,-0.03,-0.001,0.10841336379450622,10,1,100,0.12237493916856013,-10,-1,-100,15006.713620770955,-0.015528508117581587,0.0032992275758513554,0.9998739823262954,27.35117551203951,0.03061077530904463,-68.63267524185243,22.174971570706088,-43.89208984375,5356.25390625,True
1599559193.0938807,0.0,10,0.5,0.5,-1.6450792541503907,-0.001,-0.03,-0.001,0.03458421248616511,10,1,100,0.17175999141232853,-10,-1,-100,15006.713620770955,-0.015528508117581587,0.0032992275758513554,0.9998739823262954,27.35117551203951,0.03061077530904463,-68.63267524185243,22.174971570706088,-43.89208984375,5356.25390625,True
1599559193.1283514,0.0,10,0.5,0.5,-1.604908538818359,-0.001,-0.03,-0.001,0.09387514706099398,10,1,100,0.12834060020108734,-10,-1,-100,15007.595445685787,-0.015135111839565746,0.003835521319937415,0.9998781011532396,27.24095522475391,0.030496458828397067,-67.21268679898209,21.803212588920843,-46.575927734375,5356.25390625,True
1599559193.160374,0.0,10,0.5,0.5,-1.5594695739746094,-0.001,-0.03,-0.001,0.12944841708885718,10,1,100,0.09067902410363465,-10,-1,-100,15008.86495905032,-0.014436674626146251,0.004643686505565422,0.9998850026884974,26.997145346831697,0.030053400705609974,-64.91134832260211,21.24560319907955,-51.11810302734375,5356.25390625,True
1599559193.1937325,0.0,10,0.5,0.5,-1.5113467712402344,-0.001,-0.03,-0.001,0.04901718906200758,10,1,100,0.16027979130134998,-10,-1,-100,15008.86495905032,-0.014436674626146251,0.004643686505565422,0.9998850026884974,26.997145346831697,0.030053400705609974,-64.91134832260211,21.24560319907955,-51.11810302734375,5356.25390625,True
1599559193.2269104,0.0,10,0.5,0.5,-1.4498072204589845,-0.001,-0.03,-0.001,0.13785938370419276,10,1,100,0.06972891098597188,-10,-1,-100,15010.13740052178,-0.013615646014066595,0.005447977908236255,0.9998924610778558,26.619221198548217,0.02923667828918731,-62.32676711382236,20.688036501543884,-56.280029296875,5356.25390625,True
1599559193.26282,0.0,10,0.5,0.5,-1.389922393798828,-0.001,-0.03,-0.001,0.05786440803535778,10,1,100,0.15151806122426928,-10,-1,-100,15010.13740052178,-0.013615646014066595,0.005447977908236255,0.9998924610778558,26.619221198548217,0.02923667828918731,-62.32676711382236,20.688036501543884,-56.280029296875,5356.25390625,True
1599559193.2938063,0.0,10,0.5,0.5,-1.3131090087890624,-0.001,-0.03,-0.001,0.1726165591927642,10,1,100,0.010859165780407354,-10,-1,-100,15011.743818704621,-0.012339639730839493,0.006487559517816992,0.9999028177092092,25.820924644493896,0.027530725620364044,-58.2903971333075,19.944700285579373,-64.12692260742188,5356.25390625,True
1599559193.3272064,0.0,10,0.5,0.5,-1.2394644775390624,-0.001,-0.03,-0.001,0.0982738146875947,10,1,100,0.09874567843905524,-10,-1,-100,15012.149084956269,-0.011982193137814437,0.00675279734044534,0.9999054089141066,25.555517213643768,0.02699897226626606,-57.15509165567074,19.758885019420212,-66.26068115234375,5356.25390625,True
1599559193.3601332,0.0,10,0.5,0.5,-1.1550119018554685,-0.001,-0.03,-0.001,0.12387206918245351,10,1,100,0.05353314379238516,-10,-1,-100,15012.94497009553,-0.011249892860218541,0.007222820461290334,0.999910631394235,24.931311647971246,0.02582731635009793,-54.71306192129843,19.387280732691703,-70.73562622070312,5356.25390625,True
1599559193.396193,0.0,10,0.5,0.5,-1.0589246520996092,-0.001,-0.03,-0.001,0.1277979996557741,10,1,100,0.039727816881167985,-10,-1,-100,15013.684214357985,-0.01046300230358745,0.0076815636138447985,0.9999157560330978,24.16857139037635,0.024540085570356116,-52.025364951230266,19.015714145736364,-75.486083984375,5356.25390625,True
1599559193.417109,0.0,10,0.5,0.5,-0.95883984375,-0.001,-0.03,-0.001,0.12682420325301397,10,1,100,0.028859875201303398,-10,-1,-100,15014.425412297365,-0.009653452787573137,0.008085766207016499,0.9999207124738059,23.25515706922901,0.02318348939582546,-49.083784990755554,18.644187708838423,-80.51272583007812,5356.25390625,True
1599559193.462682,0.0,10,0.5,0.5,-0.8487709350585938,-0.001,-0.03,-0.001,0.10737401437895666,10,1,100,0.0635394418561218,-10,-1,-100,15014.8140778807,-0.009238108429267573,0.008272051812289192,0.9999231122998727,22.76016013608672,0.022516136691303208,-47.56175719680962,18.45843960834028,-83.12954711914062,5356.25390625,True
1599559193.4948835,0.0,10,0.5,0.5,-0.7308490295410155,-0.001,-0.03,-0.001,0.12633629770948757,10,1,100,0.011249359791694988,-10,-1,-100,15015.53965161636,-0.008390519178777088,0.00860975354691251,0.9999277330546303,21.632887560719894,0.02117785058523682,-44.29890858613079,18.086972371775932,-88.5684814453125,5356.25390625,True
1599559193.529681,0.0,10,0.5,0.5,-0.6239368286132813,-0.001,-0.03,-0.001,0.09296273095129046,10,1,100,0.0954036692960066,-10,-1,-100,15015.53965161636,-0.008390519178777088,0.00860975354691251,0.9999277330546303,21.632887560719894,0.02117785058523682,-44.29890858613079,18.086972371775932,-88.5684814453125,5356.25390625,True
1599559193.5610504,0.0,10,0.5,0.5,-0.5059461059570312,-0.001,-0.03,-0.001,0.10985561519941034,10,1,100,0.04755130363279361,-10,-1,-100,15015.874606827507,-0.007960994177700033,0.008759719706403284,0.9999299424871564,20.997695498315288,0.02051559287234602,-42.557910497780966,17.901252202271277,-91.38827514648438,5356.25390625,True
1599559193.5942585,0.0,10,0.5,0.5,-0.3797768859863281,-0.001,-0.03,-0.001,0.14779112936018132,10,1,100,-0.10555941473274229,-10,-1,-100,15017.273022757145,-0.006183741875067262,0.009237910214858118,0.999938209266595,22.848882380746147,0.02263437375107434,-44.39315757781961,17.15835588045258,-103.22041320800781,5356.25390625,True
1599559193.6270463,0.0,10,0.5,0.5,-0.2507878723144531,-0.001,-0.03,-0.001,0.10035107174536013,10,1,100,0.07142262511663483,-10,-1,-100,15017.273022757145,-0.006183741875067262,0.009237910214858118,0.999938209266595,22.848882380746147,0.02263437375107434,-44.39315757781961,17.15835588045258,-103.22041320800781,5356.25390625,True
1599559193.6629174,0.0,10,0.5,0.5,-0.1148892364501953,-0.001,-0.03,-0.001,0.12532066939419462,10,1,100,-0.07308593195986049,-10,-1,-100,15018.278867982444,-0.00487562399060437,0.009462406238304757,0.9999433439744891,24.009948218792037,0.024322619137795144,-45.137722961131,16.601144270976043,-112.52949523925781,5356.25390625,True
1599559193.6939647,0.0,10,0.5,0.5,0.014608123779296874,-0.001,-0.03,-0.001,0.1031420279393166,10,1,100,0.057015199571707684,-10,-1,-100,15018.278867982444,-0.00487562399060437,0.009462406238304757,0.9999433439744891,24.009948218792037,0.024322619137795144,-45.137722961131,16.601144270976043,-112.52949523925781,5356.25390625,True
1599559193.7279477,0.0,10,0.5,0.5,0.15266119384765625,-0.001,-0.03,-0.001,0.11250654910233537,10,1,100,-0.04392959619447097,-10,-1,-100,15018.93510994874,-0.003963738818975123,0.009545502261807642,0.9999465846539728,24.559988586421074,0.025236256314292604,-45.140792335088,16.229650410703325,-118.86522674560547,5356.25390625,True
1599559193.760951,0.0,10,0.5,0.5,0.29564967346191406,-0.001,-0.03,-0.001,0.11052091956611085,10,1,100,-0.09259578471851862,-10,-1,-100,15019.926310996292,-0.0026982408249886574,0.009601298434073712,0.9999502660456822,25.156011779395563,0.02619795702894802,-44.65176955885028,15.672389575333007,-128.4586181640625,5356.25390625,True
1599559193.79703,0.0,10,0.5,0.5,0.4426708450317383,-0.001,-0.03,-0.001,0.10457204416041954,10,1,100,-0.05521495123356522,-10,-1,-100,15020.51321966073,-0.0018939367821028876,0.00959656378496653,0.999952158339081,25.27633242837882,0.026357821583367236,-43.803729124141704,15.30088119454115,-134.84706115722656,5356.25390625,True
1599559193.8279488,0.0,10,0.5,0.5,0.6040960159301757,-0.001,-0.03,-0.001,0.10300812870015294,10,1,100,-0.059001971313272505,-10,-1,-100,15021.11380211485,-0.001135000352979544,0.009576838043436961,0.9999534968923747,25.171118584946495,0.02610251867942679,-42.564137121178426,14.929384146029212,-141.17759704589844,5356.25390625,True
1599559193.8600059,0.0,10,0.5,0.5,0.7555928268432617,-0.001,-0.03,-0.001,0.10507741130276226,10,1,100,0.0161661197164821,-10,-1,-100,15021.11380211485,-0.001135000352979544,0.009576838043436961,0.9999534968923747,25.171118584946495,0.02610251867942679,-42.564137121178426,14.929384146029212,-141.17759704589844,5356.25390625,True
1599559193.89404,0.0,10,0.5,0.5,0.9196810684204101,-0.001,-0.03,-0.001,0.10258767901975782,10,1,100,-0.0253421348212335,-10,-1,-100,15021.433136295876,-0.0007642485106601272,0.009553324945867353,0.9999540738987429,25.03477103800782,0.025824756126854087,-41.8078133536849,14.743643527798485,-144.30804443359375,5356.25390625,True
1599559193.9289408,0.0,10,0.5,0.5,1.087644401550293,-0.001,-0.03,-0.001,0.09922582111753912,10,1,100,-0.06614211238006504,-10,-1,-100,15021.979032797506,-6.283499044131607e-05,0.009500665598748027,0.9999548656839192,24.604547983249542,0.025007649602894033,-40.05594098688194,14.372183848933178,-150.47528076171875,5356.25390625,True
1599559193.9608219,0.0,10,0.5,0.5,1.2410460281372069,-0.001,-0.03,-0.001,0.09068075777439605,10,1,100,-0.10455248914549366,-10,-1,-100,15022.827664009179,0.0009184344468209307,0.009374872202443802,0.9999556331404682,23.761892388573976,0.02344508242450459,-37.18725861602521,13.815058627049485,-159.37741088867188,5356.25390625,True
1599559193.9947302,0.0,10,0.5,0.5,1.4006148910522458,-0.001,-0.03,-0.001,0.10327379360357708,10,1,100,-0.007135763051457806,-10,-1,-100,15022.827664009179,0.0009184344468209307,0.009374872202443802,0.9999556331404682,23.761892388573976,0.02344508242450459,-37.18725861602521,13.815058627049485,-159.37741088867188,5356.25390625,True
1599559194.0278442,0.0,10,0.5,0.5,1.5631629714965818,-0.001,-0.03,-0.001,0.08721801339388488,10,1,100,-0.13508870906489923,-10,-1,-100,15023.874539432232,0.0020763757210909206,0.00922899014057011,0.9999552562014214,22.141134771190355,0.020978709631264306,-32.79137875422311,13.072355782601438,-170.37957763671875,5356.25390625,True
1599559194.0635467,0.0,10,0.5,0.5,1.725711051940918,-0.001,-0.03,-0.001,0.1017828779714806,10,1,100,-0.019989781609069765,-10,-1,-100,15023.874539432232,0.0020763757210909206,0.00922899014057011,0.9999552562014214,22.141134771190355,0.020978709631264306,-32.79137875422311,13.072355782601438,-170.37957763671875,5356.25390625,True
1599559194.0938723,0.0,10,0.5,0.5,1.8854148101806638,-0.001,-0.03,-0.001,0.0960733420779277,10,1,100,-0.049809258663914155,-10,-1,-100,15024.128446415765,0.0023419708629167186,0.009177373007102573,0.9999551444925746,21.65983511170728,0.02035995274698963,-31.623839364098636,12.886702213643634,-172.95993041992188,5356.25390625,True
1599559194.1285353,0.0,10,0.5,0.5,1.3109917144775391,-0.001,-0.03,-0.001,0.09082338237140636,10,1,100,-0.10458877021260603,-10,-1,-100,15024.907745901495,0.0030768345407574563,0.009083106820642773,0.9999540140724941,20.086933009417567,0.018626257226548752,-28.062196675455887,12.329783558842477,179.71340942382812,5356.25390625,True
1599559194.1624768,0.0,10,0.5,0.5,0.7290628051757813,-0.001,-0.03,-0.001,0.09424020803225504,10,1,100,-0.08026336510775192,-10,-1,-100,15025.368686220958,0.0035192335002750346,0.009028939118018237,0.9999530455246254,20.385748009512994,0.018925642280769265,-27.623547761081316,11.958520928523928,175.173828125,5356.25390625,True
1599559194.1973786,0.0,10,0.5,0.5,-0.2245310516357422,-0.001,-0.03,-0.001,0.09960218840216674,10,1,100,-0.03648889254131954,-10,-1,-100,15025.368686220958,0.0035192335002750346,0.009028939118018237,0.9999530455246254,20.385748009512994,0.018925642280769265,-27.623547761081316,11.958520928523928,175.173828125,5356.25390625,True
1599559194.22827,0.0,10,0.5,0.5,-1.1570087585449218,-0.001,-0.03,-0.001,0.09902077886230759,10,1,100,-0.12426607983440653,-10,-1,-100,15026.335490384372,0.004312976808527412,0.00902415166667899,0.9999499802078833,21.59631352236521,0.020456297977700592,-27.449578106315453,11.215978044200666,166.8855438232422,5356.25390625,True
1599559194.2621777,0.0,10,0.5,0.5,-2.0988778076171872,-0.001,-0.03,-0.001,0.09944660666831356,10,1,100,-0.045399471541087526,-10,-1,-100,15026.335490384372,0.004312976808527412,0.00902415166667899,0.9999499802078833,21.59631352236521,0.020456297977700592,-27.449578106315453,11.215978044200666,166.8855438232422,5356.25390625,True
1599559194.2951233,0.0,10,0.5,0.5,-3.0470124664306644,-0.001,-0.03,-0.001,0.10006605421402068,10,1,100,-0.06524458190266749,-10,-1,-100,15026.530805252609,0.0044894088919972585,0.009030216202487298,0.9999491489086517,21.83720308960849,0.020832860497755634,-27.297007187314897,11.030337279745444,164.91163635253906,5356.25390625,True
1599559194.330993,0.0,10,0.5,0.5,-4.0138553161621084,-0.001,-0.03,-0.001,0.10571905244746327,10,1,100,-0.08507276384213078,-10,-1,-100,15026.974170063739,0.004826811554196625,0.009087433633526109,0.9999470588187039,22.25731404354456,0.02156182037361264,-26.886876841923993,10.659049113560595,160.91253662109375,5356.25390625,True
1599559194.3619447,0.0,10,0.5,0.5,-4.965853805541992,-0.001,-0.03,-0.001,0.11346859982371653,10,1,100,-0.10131926669439766,-10,-1,-100,15027.56304603722,0.005277683657482679,0.009210161218408165,0.9999436579055553,22.802452797408343,0.022605336713010887,-26.107803879287314,10.102100533602853,154.47731018066406,5356.25390625,True
1599559194.3958197,0.0,10,0.5,0.5,-5.937605270385742,-0.001,-0.03,-0.001,0.11593914356321242,10,1,100,-0.08683757769327692,-10,-1,-100,15027.95367798733,0.0055530053896085466,0.009344208355861961,0.9999409232056388,23.12949844418111,0.023244913843733603,-25.509905062517852,9.73079074089902,149.85009765625,5356.25390625,True
1599559194.4287658,0.0,10,0.5,0.5,-6.902921508789062,-0.001,-0.03,-0.001,0.10254595163936193,10,1,100,-0.05965306744754188,-10,-1,-100,15027.95367798733,0.0055530053896085466,0.009344208355861961,0.9999409232056388,23.12949844418111,0.023244913843733603,-25.509905062517852,9.73079074089902,149.85009765625,5356.25390625,True
1599559194.4656742,0.0,10,0.5,0.5,-7.861548614501953,-0.001,-0.03,-0.001,0.1223779397156061,10,1,100,-0.08838006776913215,-10,-1,-100,15028.329662900302,0.005811240815689647,0.009524347488056218,0.9999377562054093,23.358661448366593,0.023733797022577188,-24.780519111141416,9.359474285440971,144.9486083984375,5356.25390625,True
1599559194.4965851,0.0,10,0.5,0.5,-7.746420654296874,-0.001,-0.03,-0.001,0.14193267890452094,10,1,100,-0.102040582488496,-10,-1,-100,15028.901942740893,0.006167700967507654,0.009865479563888937,0.9999323135981505,23.481581646436872,0.024076453795500212,-23.429735849588965,8.802493948698046,137.08108520507812,5356.25390625,True
1599559194.5294967,0.0,10,0.5,0.5,-7.640009948730468,-0.001,-0.03,-0.001,0.10790312536583606,10,1,100,-0.06665941405341862,-10,-1,-100,15028.901942740893,0.006167700967507654,0.009865479563888937,0.9999323135981505,23.481581646436872,0.024076453795500212,-23.429735849588965,8.802493948698046,137.08108520507812,5356.25390625,True
1599559194.5633743,0.0,10,0.5,0.5,-7.514555145263671,-0.001,-0.03,-0.001,0.1404317777295225,10,1,100,-0.09209030717737454,-10,-1,-100,15029.208594537457,0.006396483207300678,0.010160434094062568,0.9999279226932305,23.45041992801994,0.024050263085643037,-22.41237039399435,8.431174787858545,131.4927978515625,5356.25390625,True
1599559194.598311,0.0,10,0.5,0.5,-7.408171005249023,-0.001,-0.03,-0.001,0.12968538538486557,10,1,100,-0.08182608163223688,-10,-1,-100,15029.403913281509,0.006509261823612382,0.010329847116153184,0.9999254591063619,23.366825734105618,0.023923942969812494,-21.841066865149045,8.245516775903027,128.595703125,5356.25390625,True
1599559194.6301947,0.0,10,0.5,0.5,-7.284197875976562,-0.001,-0.03,-0.001,0.1530793362708014,10,1,100,-0.09547966042384537,-10,-1,-100,15029.712521116948,0.0067339146592602945,0.010695344239335457,0.9999201288127786,23.047262962985876,0.023437002651719854,-20.572935384762154,7.8742049445040045,122.59535217285156,5356.25390625,True
1599559194.6631389,0.0,10,0.5,0.5,-7.150699752807617,-0.001,-0.03,-0.001,0.16381478447371028,10,1,100,-0.09856055521636085,-10,-1,-100,15030.03187333874,0.0069641121845382984,0.011123695582221378,0.9999138785605866,22.504625531841594,0.02264270658763029,-19.141878658459706,7.502900878503864,116.32054138183594,5356.25390625,True
1599559194.6970477,0.0,10,0.5,0.5,-7.003344207763672,-0.001,-0.03,-0.001,0.20200144183653757,10,1,100,-0.11625326687871243,-10,-1,-100,15030.464519249857,0.007332282494784824,0.011858406177280923,0.9999028031945661,21.220517777948942,0.02093055067990579,-16.710545306649166,6.945960654520092,106.39335632324219,5356.25390625,True
1599559194.7329485,0.0,10,0.5,0.5,-6.855097137451172,-0.001,-0.03,-0.001,0.19094949059374694,10,1,100,-0.10975498921642532,-10,-1,-100,15030.703799844254,0.0076060397082269625,0.0124234451206198,0.9998938974567712,20.02098926413404,0.01949651656082517,-14.923603126902927,6.574676569444401,99.43215942382812,5356.25390625,True
1599559194.7638352,0.0,10,0.5,0.5,-6.71080451965332,-0.001,-0.03,-0.001,0.13475351993633494,10,1,100,-0.08258457130407332,-10,-1,-100,15030.703799844254,0.0076060397082269625,0.0124234451206198,0.9998938974567712,20.02098926413404,0.01949651656082517,-14.923603126902927,6.574676569444401,99.43215942382812,5356.25390625,True
1599559194.797744,0.0,10,0.5,0.5,-6.537638046264648,-0.001,-0.03,-0.001,0.24180071985421833,10,1,100,-0.13571300148380464,-10,-1,-100,15031.075912408647,0.008087159042298503,0.01339380217735987,0.9998775944693722,17.713365570723415,0.017066548927597538,-12.085499089380377,6.017757695493067,88.475830078125,5356.25390625,True
1599559194.831654,0.0,10,0.5,0.5,-6.363880538940431,-0.001,-0.03,-0.001,0.2214035632113122,10,1,100,-0.12772713587199216,-10,-1,-100,15031.31618012872,0.008449872460231964,0.0140869985733796,0.999865068960107,18.561006708918956,0.01793351728116425,-11.882728943028862,5.646467707751991,80.82807922363281,5356.25390625,True
1599559194.8659062,0.0,10,0.5,0.5,-6.194916244506835,-0.001,-0.03,-0.001,0.19522789559283701,10,1,100,-0.11558168793574627,-10,-1,-100,15031.427526974352,0.008667124066666762,0.014475378755948226,0.9998576620550971,19.241386179213524,0.018653545285389084,-11.913409695609687,5.460815384641868,76.90156555175781,5356.25390625,True
1599559194.8968236,0.0,10,0.5,0.5,-6.002185668945312,-0.001,-0.03,-0.001,0.24434955397317143,10,1,100,-0.1465992172138059,-10,-1,-100,15031.610185760655,0.009144330863136067,0.015270821362475418,0.9998415790653941,20.397842235149522,0.019927172130134032,-11.770917412213585,5.089500179145992,68.84230041503906,5356.25390625,True
1599559194.9307342,0.0,10,0.5,0.5,-5.822293441772461,-0.001,-0.03,-0.001,0.16531633204729354,10,1,100,-0.09915332233245898,-10,-1,-100,15031.610185760655,0.009144330863136067,0.015270821362475418,0.9998415790653941,20.397842235149522,0.019927172130134032,-11.770917412213585,5.089500179145992,68.84230041503906,5356.25390625,True
1599559194.9636455,0.0,10,0.5,0.5,-5.61782485961914,-0.001,-0.03,-0.001,0.30455444296840367,10,1,100,-0.1934011242721716,-10,-1,-100,15031.901275436161,0.009998733545279342,0.016532130576079763,0.9998133395719953,21.558382866097055,0.021239136093881252,-11.07948117037389,4.532515479464868,56.23811340332031,5356.25390625,True
1599559194.9995477,0.0,10,0.5,0.5,-5.4138643798828125,-0.001,-0.03,-0.001,0.2752659230672068,10,1,100,-0.1826139359392408,-10,-1,-100,15032.081020861515,0.010674429890668385,0.017407209874493974,0.9997915010595432,22.123953618557884,0.0218197452518583,-10.438853701129268,4.161189423617907,47.49163818359375,5356.25390625,True
1599559195.0304663,0.0,10,0.5,0.5,-5.19808120727539,-0.001,-0.03,-0.001,0.2869657387960732,10,1,100,-0.20657336577287777,-10,-1,-100,15032.251007697196,0.011503139277958643,0.018303386184867248,0.999766304613693,22.217498802350256,0.021855989167972045,-9.54770824411223,3.7898583750768413,38.47016906738281,5356.25390625,True
1599559195.0643754,0.0,10,0.5,0.5,-4.994104934692382,-0.001,-0.03,-0.001,0.2465737224787568,10,1,100,-0.17312318360923723,-10,-1,-100,15032.304754416109,0.011948627195113805,0.018745032700496815,0.9997528964985344,22.051664429363683,0.02164225257148925,-9.012263124914167,3.6041883786792686,33.8560791015625,5356.25390625,True
1599559195.0972877,0.0,10,0.5,0.5,-4.792624877929687,-0.001,-0.03,-0.001,0.2513671178832889,10,1,100,-0.1814758273992943,-10,-1,-100,15032.35947914503,0.012425601529267302,0.019184358956946826,0.999738748272791,21.745814766165736,0.021280734586157573,-8.429500645309265,3.4185137848341816,29.173126220703125,5356.25390625,True
1599559195.1341882,0.0,10,0.5,0.5,-4.577026824951171,-0.001,-0.03,-0.001,0.25534720811492156,10,1,100,-0.1908614059072701,-10,-1,-100,15032.472799620591,0.012940156581460223,0.019613782815974107,0.9997238878166788,21.31349802490603,0.020790434732503815,-7.8132267521983385,3.232833017771178,24.421173095703125,5356.25390625,True
1599559195.164793,0.0,10,0.5,0.5,-4.370193389892577,-0.001,-0.03,-0.001,0.30499593897754773,10,1,100,-0.26111084569971477,-10,-1,-100,15032.568586836103,0.01404215335653132,0.020449865713260407,0.9996922631097137,20.05318213104919,0.01943760458949427,-6.506806150466364,2.8614473748059606,14.710464477539062,5356.25390625,True
1599559195.1977053,0.0,10,0.5,0.5,-4.171633377075195,-0.001,-0.03,-0.001,0.26557257062261,10,1,100,-0.21732896838773527,-10,-1,-100,15032.622342107235,0.014640867648399504,0.02084576239198499,0.9996754969412819,19.229090581767952,0.0185957018640917,-5.834503718825933,2.675738395137312,9.75152587890625,5356.25390625,True
1599559195.2315805,0.0,10,0.5,0.5,-3.9548915252685544,-0.001,-0.03,-0.001,0.3075241002558868,10,1,100,-0.29876515811172677,-10,-1,-100,15032.737669844297,0.01592005168978711,0.021581254747822548,0.9996403360197627,17.25357775685015,0.01664393611639934,-4.508392494540137,2.304286735531875,-0.373809814453125,5356.25390625,True
1599559195.2669027,0.0,10,0.5,0.5,-3.725953063964844,-0.001,-0.03,-0.001,0.3323010245720647,10,1,100,-0.40407293483770357,-10,-1,-100,15032.816919005942,0.018034129951442313,0.022469392171107994,0.9995848621164465,18.411611846605236,0.017763023586559037,-3.6476951652507483,1.7470846603874968,-16.08154296875,5356.25390625,True
1599559195.296858,0.0,10,0.5,0.5,-3.476140365600586,-0.001,-0.03,-0.001,0.27094572064017153,10,1,100,-0.2752435667924188,-10,-1,-100,15032.876540244324,0.018776761571545994,0.022712470183069704,0.9995656941507491,19.179607476604552,0.018501770784264043,-3.3959246503870344,1.5613590338674723,-21.45599365234375,5356.25390625,True
1599559195.3297355,0.0,10,0.5,0.5,-3.2375440673828124,-0.001,-0.03,-0.001,0.2677950640477762,10,1,100,-0.2856534052635553,-10,-1,-100,15032.862919447594,0.01953853609589943,0.022899189370734038,0.9995468336868425,19.819219067563566,0.019123051099369837,-3.0917871120604588,1.3756390562532395,-26.90020751953125,5356.25390625,True
1599559195.3634932,0.0,10,0.5,0.5,-2.997617797851562,-0.001,-0.03,-0.001,0.2740283530923654,10,1,100,-0.37927740992499137,-10,-1,-100,15032.95676895883,0.02107412742750176,0.023120607642201297,0.9995105395419424,20.689678686134386,0.019973766902528174,-2.3561360041141324,1.0042031928344612,-37.9976806640625,5356.25390625,True
1599559195.399428,0.0,10,0.5,0.5,-2.744978652954101,-0.001,-0.03,-0.001,0.26188869592379543,10,1,100,-0.4845344644592648,-10,-1,-100,15032.971559264464,0.02341830096277042,0.023207157167950593,0.9994563577446487,20.820809687932588,0.02011437944385841,-1.0555205622004902,0.44702697510852385,-55.164215087890625,5356.25390625,True
1599559195.4303124,0.0,10,0.5,0.5,-2.471498977661133,-0.001,-0.03,-0.001,0.23284694340417805,10,1,100,-0.4153050313600601,-10,-1,-100,15032.95895018347,0.024909582354142194,0.023017766146210292,0.9994246820789351,19.94703859053768,0.019275805774726443,-0.17090441833088113,0.0755496532785318,-66.95687866210938,5356.25390625,True
1599559195.463951,0.0,10,0.5,0.5,-2.194901626586914,-0.001,-0.03,-0.001,0.25216938629713453,10,1,100,-0.26742529030537,-10,-1,-100,15032.95895018347,0.024909582354142194,0.023017766146210292,0.9994246820789351,19.94703859053768,0.019275805774726443,-0.17090441833088113,0.0755496532785318,-66.95687866210938,5356.25390625,True
1599559195.4974632,0.0,10,0.5,0.5,-1.908766189575195,-0.001,-0.03,-0.001,0.23536148403669743,10,1,100,-0.3455173668274362,-10,-1,-100,15032.999028037186,0.02560862902636763,0.02286187250445156,0.999410592752038,19.289180919860268,0.018647613542116137,0.2410572508699385,-0.11019465101566484,-72.95751953125,5356.25390625,True
1599559195.5323753,0.0,10,0.5,0.5,-1.602370330810547,-0.001,-0.03,-0.001,0.14705003817330883,10,1,100,-0.5619253399031385,-10,-1,-100,15032.928840722772,0.02820095623301547,0.021915126952466276,0.9993620131254742,15.826379194804488,0.01532892780474457,1.5313374410376521,-0.8531588485799997,-97.65379333496094,5356.25390625,True
1599559195.5643,0.0,10,0.5,0.5,-1.292155990600586,-0.001,-0.03,-0.001,0.2082505743581734,10,1,100,-0.3646719521795595,-10,-1,-100,15032.915192817338,0.02875207736104041,0.02160984553910526,0.9993529569792649,16.9943726000863,0.016451406779557552,2.002352866667821,-1.038896768402273,-104.0011215209961,5356.25390625,True
1599559195.5973423,0.0,10,0.5,0.5,-0.9876213836669923,-0.001,-0.03,-0.001,0.23878157477340334,10,1,100,-0.3108430419441909,-10,-1,-100,15032.915192817338,0.02875207736104041,0.02160984553910526,0.9993529569792649,16.9943726000863,0.016451406779557552,2.002352866667821,-1.038896768402273,-104.0011215209961,5356.25390625,True
1599559195.6292453,0.0,10,0.5,0.5,-0.6980600509643555,-0.001,-0.03,-0.001,0.1701347804819283,10,1,100,-0.4182454918230812,-10,-1,-100,15032.869333730428,0.029718719680476142,0.020986565178848216,0.9993379617439474,18.95355429672752,0.01832996105799397,3.0318042540281427,-1.4103895495420726,-116.90242004394531,5356.25390625,True
1599559195.6662743,0.0,10,0.5,0.5,-0.3848836669921875,-0.001,-0.03,-0.001,0.11874619098684608,10,1,100,-0.45645874153464583,-10,-1,-100,15032.743395480327,0.030934931369969276,0.019954346678663085,0.9993221973266495,20.40640620841705,0.019735258491453633,4.554154521630393,-1.9676817314310036,-136.77162170410156,5356.25390625,True
1599559195.696272,0.0,10,0.5,0.5,-0.07513862609863281,-0.001,-0.03,-0.001,0.22167355673615205,10,1,100,-0.33597721211273934,-10,-1,-100,15032.743395480327,0.030934931369969276,0.019954346678663085,0.9993221973266495,20.40640620841705,0.019735258491453633,4.554154521630393,-1.9676817314310036,-136.77162170410156,5356.25390625,True
1599559195.7293026,0.0,10,0.5,0.5,0.27580462646484377,-0.001,-0.03,-0.001,0.09116222909657737,10,1,100,-0.45734003112852173,-10,-1,-100,15032.534434175002,0.03202926535743778,0.018770758482815623,0.9993106547949153,19.435289625607926,0.018738307684310975,5.9757582346415665,-2.710771487319888,-164.08233642578125,5356.25390625,True
1599559195.763216,0.0,10,0.5,0.5,0.5752482757568359,-0.001,-0.03,-0.001,0.20907740881281012,10,1,100,-0.3487677288211379,-10,-1,-100,15032.534434175002,0.03202926535743778,0.018770758482815623,0.9993106547949153,19.435289625607926,0.018738307684310975,5.9757582346415665,-2.710771487319888,-164.08233642578125,5356.25390625,True
1599559195.7998948,0.0,10,0.5,0.5,0.8942391510009766,-0.001,-0.03,-0.001,0.15323677842551675,10,1,100,-0.38862922455113147,-10,-1,-100,15032.435807181988,0.03238517015225291,0.018266977304443315,0.9993085200749409,17.567843446832814,0.01688956890950514,6.1420469891416705,-3.082295241233959,-177.88958740234375,5356.25390625,True
1599559195.829629,0.0,10,0.5,0.5,0.507028305053711,-0.001,-0.03,-0.001,0.18418771844023563,10,1,100,-0.37318228459992464,-10,-1,-100,15032.352802271955,0.03256149724998468,0.018094685495912994,0.9993059247565999,16.38005510723,0.015738920211656425,6.071982612860653,-3.26805372920398,175.21127319335938,5356.25390625,True
1599559195.8635373,0.0,10,0.5,0.5,0.15670976257324212,-0.001,-0.03,-0.001,0.15978188379658304,10,1,100,-0.40300883121462955,-10,-1,-100,15032.14285699965,0.032986624246034865,0.01772051916140544,0.9992986869907821,19.049408014559962,0.018418894925516505,8.266069727049793,-3.825360301618886,154.66778564453125,5356.25390625,True
1599559195.897537,0.0,10,0.5,0.5,-0.6207984619140625,-0.001,-0.03,-0.001,0.19677905646823218,10,1,100,-0.360974698410913,-10,-1,-100,15032.14285699965,0.032986624246034865,0.01772051916140544,0.9992986869907821,19.049408014559962,0.018418894925516505,8.266069727049793,-3.825360301618886,154.66778564453125,5356.25390625,True
1599559195.9341123,0.0,10,0.5,0.5,-1.3432190628051757,-0.001,-0.03,-0.001,0.19406902368155418,10,1,100,-0.4280119771241056,-10,-1,-100,15031.788411831018,0.03359220446444117,0.017699418250960823,0.9992788871945593,20.57002556908021,0.020070334511479392,10.660707887308806,-4.568502875638506,127.87472534179688,5356.25390625,True
1599559195.9633267,0.0,10,0.5,0.5,-2.0522772674560548,-0.001,-0.03,-0.001,0.20374145861646975,10,1,100,-0.38722871267036785,-10,-1,-100,15031.70542262157,0.03376757487059164,0.017771721765681443,0.9992716931810097,20.44222280448798,0.019945297213608642,11.025539159642898,-4.754290697643432,121.19352722167969,5356.25390625,True
1599559195.997342,0.0,10,0.5,0.5,-2.773246307373047,-0.001,-0.03,-0.001,0.1961896228030911,10,1,100,-0.37009655757433185,-10,-1,-100,15031.70542262157,0.03376757487059164,0.017771721765681443,0.9992716931810097,20.44222280448798,0.019945297213608642,11.025539159642898,-4.754290697643432,121.19352722167969,5356.25390625,True
1599559196.0304441,0.0,10,0.5,0.5,-3.4927228698730466,-0.001,-0.03,-0.001,0.25640774473945915,10,1,100,-0.47816774049364963,-10,-1,-100,15031.284635685384,0.034747465039403055,0.01832114344229659,0.9992281768326503,17.773110494522527,0.017166566389453807,11.085241394332865,-5.497435542765731,93.98408508300781,5356.25390625,True
1599559196.0664046,0.0,10,0.5,0.5,-4.212199432373047,-0.001,-0.03,-0.001,0.20130225675430777,10,1,100,-0.3805599769794516,-10,-1,-100,15031.284635685384,0.034747465039403055,0.01832114344229659,0.9992281768326503,17.773110494522527,0.017166566389453807,11.085241394332865,-5.497435542765731,93.98408508300781,5356.25390625,True
1599559196.096421,0.0,10,0.5,0.5,-4.972469802856445,-0.001,-0.03,-0.001,0.22123633713811902,10,1,100,-0.4157641461370901,-10,-1,-100,15031.187017417862,0.035065031850216165,0.01850277109582262,0.9992137363963323,16.646160866002404,0.01605359784478708,10.733461849802332,-5.683227996901114,87.01963806152344,5356.25390625,True
1599559196.130021,0.0,10,0.5,0.5,-5.70447296142578,-0.001,-0.03,-0.001,0.24713068882661893,10,1,100,-0.4691112292277535,-10,-1,-100,15030.951755801914,0.03583594264587704,0.01890353396654809,0.9991788836931338,17.795237010147524,0.017249338302671616,12.22516335368046,-6.05481664505769,72.88603210449219,5356.25390625,True
1599559196.1643484,0.0,10,0.5,0.5,-6.427501815795899,-0.001,-0.03,-0.001,0.2714272520379354,10,1,100,-0.5487838134674458,-10,-1,-100,15030.544698042795,0.03725792979638993,0.01948816300852676,0.9991156380368793,20.485145095041222,0.02011438670372115,15.369726803457933,-6.612182546710775,51.17022705078125,5356.25390625,True
1599559196.1993814,0.0,10,0.5,0.5,-6.047450347900391,-0.001,-0.03,-0.001,0.24833886737828115,10,1,100,-0.5356959298111962,-10,-1,-100,15030.290926333517,0.038427395143120824,0.019808482752044495,0.9990650425841034,20.917821472056136,0.020587250784566767,16.5771848365249,-6.983752350005635,36.34815979003906,5356.25390625,True
1599559196.3380065,0.0,10,0.5,0.5,-5.707313537597656,-0.001,-0.03,-0.001,0.2165156893855714,10,1,100,-0.41929347222781516,-10,-1,-100,15030.290926333517,0.038427395143120824,0.019808482752044495,0.9990650425841034,20.917821472056136,0.020587250784566767,16.5771848365249,-6.983752350005635,36.34815979003906,5356.25390625,True
1599559196.3599832,0.0,10,0.5,0.5,-5.2914015045166005,-0.001,-0.03,-0.001,0.23904134615024403,10,1,100,-0.7281634782454283,-10,-1,-100,15029.678934344323,0.0412303581333745,0.020011363301186393,0.998949249415115,18.839615911419177,0.01826760265082343,16.520891238238367,-7.726917237348458,5.87158203125,5356.25390625,True
1599559196.3942032,0.0,10,0.5,0.5,-4.955868652343749,-0.001,-0.03,-0.001,0.21898448574107682,10,1,100,-0.4486309945869539,-10,-1,-100,15029.678934344323,0.0412303581333745,0.020011363301186393,0.998949249415115,18.839615911419177,0.01826760265082343,16.520891238238367,-7.726917237348458,5.87158203125,5356.25390625,True
1599559196.4949393,0.0,10,0.5,0.5,-4.594317794799804,-0.001,-0.03,-0.001,0.21499500843885372,10,1,100,-0.5332358355053222,-10,-1,-100,15029.509096062044,0.0419927087023935,0.019973059287952087,0.9989182595780878,17.779397095608456,0.017196354643347515,15.966562974568939,-7.912725144943905,-1.920928955078125,5356.25390625,True
1599559196.5168843,0.0,10,0.5,0.5,-4.201175933837891,-0.001,-0.03,-0.001,0.18484367735275736,10,1,100,-0.6307981527131967,-10,-1,-100,15029.20164737571,0.04356520743627163,0.019662133231936142,0.998857083479816,18.49140569685611,0.018001305910897127,17.386954453645526,-8.284342185940655,-17.7164306640625,5356.25390625,True
1599559196.5630164,0.0,10,0.5,0.5,-3.833439956665039,-0.001,-0.03,-0.001,0.12664410729311787,10,1,100,-0.7340599573419373,-10,-1,-100,15028.65403814835,0.0459254792887886,0.018849167098843433,0.9987670195054374,21.068124207311655,0.020890575733222182,21.14460873903826,-8.841697179479153,-41.931396484375,5356.25390625,True
1599559196.5968926,0.0,10,0.5,0.5,-3.433485687255859,-0.001,-0.03,-0.001,0.16461287255041046,10,1,100,-0.5815434802522588,-10,-1,-100,15028.501769133727,0.04667450571367115,0.018454797549592224,0.998739661255018,21.23314969528651,0.021114360811162965,21.758692557709495,-9.027467027170774,-50.142791748046875,5356.25390625,True
1599559196.6328173,0.0,10,0.5,0.5,-3.013647659301758,-0.001,-0.03,-0.001,0.15464138984015713,10,1,100,-0.5849003253976667,-10,-1,-100,15028.333870122558,0.0473754015341013,0.01800567354703994,0.9987148577294722,21.11740159907285,0.02099794343135795,22.0861244364829,-9.21323452627201,-58.423858642578125,5356.25390625,True
1599559196.6647115,0.0,10,0.5,0.5,-2.5944581604003907,-0.001,-0.03,-0.001,0.08760913807972488,10,1,100,-0.6550021384404174,-10,-1,-100,15027.955083142035,0.04863937834498261,0.016988811129097125,0.9986719136786784,20.06193676073064,0.019803373348963604,21.829904555993767,-9.584781611756634,-75.19430541992188,5356.25390625,True
1599559196.697822,0.0,10,0.5,0.5,-2.2151566772460938,-0.001,-0.03,-0.001,0.12767326203866428,10,1,100,-0.5938606590211625,-10,-1,-100,15027.731499525718,0.049222269770564576,0.01643088219593895,0.9986526895116724,19.09003412990036,0.018755699411818903,21.175756814363567,-9.770569187661748,-83.6834716796875,5356.25390625,True
1599559196.7306964,0.0,10,0.5,0.5,-1.829178985595703,-0.001,-0.03,-0.001,0.05094300833383228,10,1,100,-0.6443677668486352,-10,-1,-100,15027.341926972382,0.050201513069863896,0.015229196859893141,0.998622991748387,17.109642276726305,0.01679631883404689,19.702282064605857,-10.142170450846022,-100.86945343017578,5356.25390625,True
1599559196.766798,0.0,10,0.5,0.5,-1.3997908782958985,-0.001,-0.03,-0.001,0.03859609890027685,10,1,100,-0.6263130893952016,-10,-1,-100,15026.892754867557,0.05091689707608048,0.014028674001266585,0.9986043590421133,20.061676845241347,0.01993811813196873,23.9498129056257,-10.51373563119954,-118.330078125,5356.25390625,True
1599559196.797721,0.0,10,0.5,0.5,-0.9912376480102538,-0.001,-0.03,-0.001,-0.032228719359790714,10,1,100,-0.6305903878029311,-10,-1,-100,15026.276566745713,0.051597324759127,0.012298866408605393,0.9985922360817573,21.489509358932498,0.02155974524143033,27.017201807166895,-11.070995970072238,-145.03451538085938,5356.25390625,True
1599559196.8297553,0.0,10,0.5,0.5,-0.5652237930297851,-0.001,-0.03,-0.001,0.13998079021707044,10,1,100,-0.5635843161608545,-10,-1,-100,15026.276566745713,0.051597324759127,0.012298866408605393,0.9985922360817573,21.489509358932498,0.02155974524143033,27.017201807166895,-11.070995970072238,-145.03451538085938,5356.25390625,True
1599559196.8638694,0.0,10,0.5,0.5,-0.09959745025634764,-0.001,-0.03,-0.001,0.031060106072574173,10,1,100,-0.5915016648055844,-10,-1,-100,15025.81659970386,0.05184238736857297,0.011315654909909378,0.998591169010565,20.762248372151557,0.02065303124523229,26.98094113530975,-11.442506215218092,-163.17730712890625,5356.25390625,True
1599559196.9008794,0.0,10,0.5,0.5,-0.3459532852172852,-0.001,-0.03,-0.001,0.002312825848809902,10,1,100,-0.5894925844035436,-10,-1,-100,15025.129083244246,0.05203938248265775,0.010168075071171533,0.9985932670112345,17.839399441150473,0.01761054015275582,24.31501802068144,-11.999860784411748,169.1205291748047,5356.25390625,True
1599559196.9307997,0.0,10,0.5,0.5,-0.6095348281860351,-0.001,-0.03,-0.001,0.058542007132750117,10,1,100,-0.5844014451005463,-10,-1,-100,15024.613453759346,0.05216662777162224,0.009643886949470831,0.998591827721138,20.790587810493083,0.020804906148518966,29.21744865716394,-12.371398046599872,150.48233032226562,5356.25390625,True
1599559196.9648077,0.0,10,0.5,0.5,-1.2300483932495117,-0.001,-0.03,-0.001,0.11007972824280814,10,1,100,-0.5722261284098924,-10,-1,-100,15024.613453759346,0.05216662777162224,0.009643886949470831,0.998591827721138,20.790587810493083,0.020804906148518966,29.21744865716394,-12.371398046599872,150.48233032226562,5356.25390625,True
1599559196.9976947,0.0,10,0.5,0.5,-1.800548027038574,-0.001,-0.03,-0.001,0.054396415490819146,10,1,100,-0.6090405312083766,-10,-1,-100,15023.858596654609,0.05249694850048344,0.009145276639541448,0.9985792078314687,21.866416198272855,0.02210615018063976,32.1174506129255,-12.928594703385498,122.37286376953125,5356.25390625,True
1599559197.0335305,0.0,10,0.5,0.5,-2.4213590011596677,-0.001,-0.03,-0.001,0.10347309303480183,10,1,100,-0.5763942153378065,-10,-1,-100,15023.858596654609,0.05249694850048344,0.009145276639541448,0.9985792078314687,21.866416198272855,0.02210615018063976,32.1174506129255,-12.928594703385498,122.37286376953125,5356.25390625,True
1599559197.064922,0.0,10,0.5,0.5,-3.001590538024902,-0.001,-0.03,-0.001,0.08417460306333881,10,1,100,-0.617849985963196,-10,-1,-100,15023.324462950113,0.052870842161868874,0.0089764590993976,0.9985610132741672,20.75199865243784,0.020800271869016833,31.35913315769468,-13.300065751252362,103.40412902832031,5356.25390625,True
1599559197.0980802,0.0,10,0.5,0.5,-3.614216079711914,-0.001,-0.03,-0.001,0.09219255934369855,10,1,100,-0.6097599930251112,-10,-1,-100,15023.029574690852,0.053134773437243946,0.008901563427052369,0.998547674385318,19.834424999817777,0.019782863133042197,30.392588886210135,-13.485821568936009,93.82215881347656,5356.25390625,True
1599559197.1319072,0.0,10,0.5,0.5,-4.182237060546875,-0.001,-0.03,-0.001,0.06306799053686975,10,1,100,-0.7472894916258442,-10,-1,-100,15021.912593934336,0.054622962878172344,0.008573368654471182,0.9984702445623125,21.566557363725984,0.02185083182297691,34.874160383166945,-14.228824289271373,54.81330871582031,5356.25390625,True
1599559197.167072,0.0,10,0.5,0.5,-4.800940719604491,-0.001,-0.03,-0.001,0.08047953392719916,10,1,100,-0.6515623332773507,-10,-1,-100,15021.617741373018,0.05510286489574,0.008436683344540492,0.9984450393759418,22.226458617496768,0.022609698387889433,36.412018647018854,-14.41453411762786,44.88897705078125,5356.25390625,True
1599559197.1981285,0.0,10,0.5,0.5,-5.3806355285644525,-0.001,-0.03,-0.001,0.09376184661386164,10,1,100,-0.6039226855342468,-10,-1,-100,15021.617741373018,0.05510286489574,0.008436683344540492,0.9984450393759418,22.226458617496768,0.022609698387889433,36.412018647018854,-14.41453411762786,44.88897705078125,5356.25390625,True
1599559197.2313015,0.0,10,0.5,0.5,-5.964720184326171,-0.001,-0.03,-0.001,0.04667296363989957,10,1,100,-0.7221125622566011,-10,-1,-100,15021.087622388965,0.05617435425000943,0.008011219837109354,0.9983888332114477,22.025676442585343,0.022332311621895397,37.01625717411958,-14.785946229672234,24.831878662109375,5356.25390625,True
1599559197.265245,0.0,10,0.5,0.5,-5.490698257446289,-0.001,-0.03,-0.001,-0.022316745564461532,10,1,100,-0.8056795005085651,-10,-1,-100,15020.13475205854,0.057904375854574634,0.006999216433254184,0.9982975980268672,19.384063452483236,0.01939513692505042,33.80962506379467,-15.343153906311079,-5.774658203125,5356.25390625,True
1599559197.300253,0.0,10,0.5,0.5,-5.052533828735352,-0.001,-0.03,-0.001,0.07861912776943378,10,1,100,-0.6332511148603401,-10,-1,-100,15020.13475205854,0.057904375854574634,0.006999216433254184,0.9982975980268672,19.384063452483236,0.01939513692505042,33.80962506379467,-15.343153906311079,-5.774658203125,5356.25390625,True
1599559197.330996,0.0,10,0.5,0.5,-4.542256698608398,-0.001,-0.03,-0.001,-0.031282235797372576,10,1,100,-0.7580548334394421,-10,-1,-100,15019.535311623476,0.059033738979763786,0.006002517374025232,0.9982379412981877,21.08627846140104,0.021336076654734987,37.673065910162705,-15.714626246784434,-26.527740478515625,5356.25390625,True
1599559197.365001,0.0,10,0.5,0.5,-4.053005538940429,-0.001,-0.03,-0.001,-0.14225870303886945,10,1,100,-0.7989825551511877,-10,-1,-100,15018.568723380333,0.0604265603905159,0.004090407399135774,0.9981642647213336,22.618534128879627,0.023143004696657817,41.84938968519468,-16.271699989155795,-58.178955078125,5356.25390625,True
1599559197.3980114,0.0,10,0.5,0.5,-3.54300129699707,-0.001,-0.03,-0.001,0.04844680752603582,10,1,100,-0.6604933752649794,-10,-1,-100,15018.568723380333,0.0604265603905159,0.004090407399135774,0.9981642647213336,22.618534128879627,0.023143004696657817,41.84938968519468,-16.271699989155795,-58.178955078125,5356.25390625,True
1599559197.4338386,0.0,10,0.5,0.5,-3.015358062744141,-0.001,-0.03,-0.001,-0.11441471724891494,10,1,100,-0.7337483288856366,-10,-1,-100,15017.898898855434,0.06108564567958674,0.0026142899481819137,0.9981291045651234,21.278826933899477,0.02157274385365597,40.27337514619019,-16.643093267639408,-79.62594604492188,5356.25390625,True
1599559197.4649565,0.0,10,0.5,0.5,-2.4290296783447265,-0.001,-0.03,-0.001,-0.2955607678831733,10,1,100,-0.7215126840114585,-10,-1,-100,15016.513219476212,0.06156635292330194,-0.00036870158256133455,0.9981029246760408,21.960701260416453,0.022458632251443306,43.428627110661104,-17.385947374161535,-123.34147644042969,5356.25390625,True
1599559197.4989562,0.0,10,0.5,0.5,-1.9382808532714844,-0.001,-0.03,-0.001,0.0018441781674482607,10,1,100,-0.6741362986444517,-10,-1,-100,15016.513219476212,0.06156635292330194,-0.00036870158256133455,0.9981029246760408,21.960701260416453,0.022458632251443306,43.428627110661104,-17.385947374161535,-123.34147644042969,5356.25390625,True
1599559197.5312576,0.0,10,0.5,0.5,-1.411392837524414,-0.001,-0.03,-0.001,-0.07253785254058884,10,1,100,-0.6707321468933473,-10,-1,-100,15016.207546281861,0.061529530190994115,-0.0010368969663370339,0.9981047248456228,22.791838217157437,0.023400597791161815,45.55597683966507,-17.57161817707601,-134.43980407714844,5356.25390625,True
1599559197.56733,0.0,10,0.5,0.5,-0.8397063903808593,-0.001,-0.03,-0.001,-0.13946979198611015,10,1,100,-0.6578575251748513,-10,-1,-100,15015.463368735625,0.06137317054118681,-0.002244207146264338,0.9981123671571287,22.721841798012722,0.023220608528260293,46.38073565717543,-17.942952591207256,-156.83901977539062,5356.25390625,True
1599559197.59929,0.0,10,0.5,0.5,-0.294490249633789,-0.001,-0.03,-0.001,-0.081734904406614,10,1,100,-0.6561101226167064,-10,-1,-100,15015.100061533274,0.06121041373056869,-0.002807576125490674,0.9981209359427504,22.032390720069653,0.02237121130005743,45.441368505457106,-18.128636903253,-168.14035034179688,5356.25390625,True
1599559197.631216,0.0,10,0.5,0.5,-0.49308760070800783,-0.001,-0.03,-0.001,-0.12662939371596726,10,1,100,-0.634916440143201,-10,-1,-100,15014.36269922962,0.060866777663996716,-0.0037189461980007862,0.9981389706929481,19.44453093902691,0.019646429130316067,40.93048780260239,-18.500057688456813,169.0561981201172,5356.25390625,True
1599559197.665094,0.0,10,0.5,0.5,-0.6342827606201171,-0.001,-0.03,-0.001,-0.11543649513051318,10,1,100,-0.6392947203033423,-10,-1,-100,15013.619484461844,0.06059149069419673,-0.004435967038022892,0.9981527906347267,22.649386767948094,0.023164934086834035,48.639448316873796,-18.8714245426068,146.00576782226562,5356.25390625,True
1599559197.7010007,0.0,10,0.5,0.5,-1.105237579345703,-0.001,-0.03,-0.001,-0.1313821772386529,10,1,100,-0.6410103758266998,-10,-1,-100,15012.458314798307,0.06035541054303233,-0.005223275380469669,0.9981632841436724,23.107774421493783,0.02362134648512483,51.096972279614135,-19.428375251532906,111.15769958496094,5356.25390625,True
1599559197.7312045,0.0,10,0.5,0.5,-1.6480956115722656,-0.001,-0.03,-0.001,-0.05358271127193573,10,1,100,-0.6646112759583914,-10,-1,-100,15012.458314798307,0.06035541054303233,-0.005223275380469669,0.9981632841436724,23.107774421493783,0.02362134648512483,51.096972279614135,-19.428375251532906,111.15769958496094,5356.25390625,True
1599559197.7652419,0.0,10,0.5,0.5,-2.0857292938232423,-0.001,-0.03,-0.001,-0.13163813770293162,10,1,100,-0.6802150441139596,-10,-1,-100,15011.282567250077,0.060497327662489754,-0.0059244031818608996,0.9981507775845472,20.112341705741258,0.020379981605971084,45.75685461532783,-19.98542335919421,75.96955871582031,5356.25390625,True
1599559197.798242,0.0,10,0.5,0.5,-2.540186279296875,-0.001,-0.03,-0.001,-0.12303103766215537,10,1,100,-0.6991998391515467,-10,-1,-100,15010.472082974156,0.06079946710599011,-0.006475783279909468,0.9981289941838877,23.2173672414315,0.02378819216604149,53.80886356878332,-20.356736185421468,52.210723876953125,5356.25390625,True
1599559197.8341796,0.0,10,0.5,0.5,-3.0906017150878906,-0.001,-0.03,-0.001,-0.06850373602703336,10,1,100,-0.6689092062197801,-10,-1,-100,15010.472082974156,0.06079946710599011,-0.006475783279909468,0.9981289941838877,23.2173672414315,0.02378819216604149,53.80886356878332,-20.356736185421468,52.210723876953125,5356.25390625,True
1599559197.8649101,0.0,10,0.5,0.5,-3.569194107055664,-0.001,-0.03,-0.001,-0.15043058497604084,10,1,100,-0.7126399241658988,-10,-1,-100,15009.605960111949,0.06119771625624329,-0.007215020923357401,0.9980995857118146,23.906440952099505,0.024461125759788267,56.42295032444821,-20.72799478112014,28.178619384765625,5356.25390625,True
1599559197.8988843,0.0,10,0.5,0.5,-4.032464416503907,-0.001,-0.03,-0.001,-0.1811137306890255,10,1,100,-0.7193124902104532,-10,-1,-100,15008.79258476384,0.06162072227863736,-0.008160376356649,0.9980662777809785,22.297612323006014,0.02252250842995596,53.575287704460585,-21.099294011973583,3.870086669921875,5356.25390625,True
1599559197.9317155,0.0,10,0.5,0.5,-4.464936279296874,-0.001,-0.03,-0.001,-0.28708888758964063,10,1,100,-0.7306813893070487,-10,-1,-100,15007.495853523375,0.062108401789203335,-0.009977822568546606,0.9980195336184464,23.342492239309514,0.023784217744668254,57.57773188540351,-21.65627450857966,-33.111907958984375,5356.25390625,True
1599559197.9688425,0.0,10,0.5,0.5,-4.882072937011718,-0.001,-0.03,-0.001,-0.18195688466929189,10,1,100,-0.6884700628872895,-10,-1,-100,15007.047647447907,0.06216719111493947,-0.010667782510593027,0.9980087368180628,24.17123645874852,0.024722148181054445,60.13668184490563,-21.841890985936196,-45.577239990234375,5356.25390625,True
1599559197.997944,0.0,10,0.5,0.5,-4.200365676879883,-0.001,-0.03,-0.001,-0.27093145885657244,10,1,100,-0.6753913142181488,-10,-1,-100,15006.179525597487,0.06210055604729746,-0.012097561462962694,0.9979965781230246,23.91999554700555,0.024306649799832665,60.530551031044304,-22.213116372401608,-70.71337890625,5356.25390625,True
1599559198.0319824,0.0,10,0.5,0.5,-3.5753443756103516,-0.001,-0.03,-0.001,-0.12871972306209972,10,1,100,-0.6822057275176602,-10,-1,-100,15006.179525597487,0.06210055604729746,-0.012097561462962694,0.9979965781230246,23.91999554700555,0.024306649799832665,60.530551031044304,-22.213116372401608,-70.71337890625,5356.25390625,True
1599559198.0650496,0.0,10,0.5,0.5,-2.953301025390625,-0.001,-0.03,-0.001,-0.3652554460034023,10,1,100,-0.6192319595690342,-10,-1,-100,15004.850400344585,0.06152648075185153,-0.014241636865990451,0.9980038416487529,21.8499770741975,0.022049419830967358,56.690020623450444,-22.77005824738829,-108.92843627929688,5356.25390625,True
1599559198.1012602,0.0,10,0.5,0.5,-2.305511291503906,-0.001,-0.03,-0.001,-0.22297312527393814,10,1,100,-0.6423222421339716,-10,-1,-100,15004.348416672554,0.06121344117002846,-0.014889122169851901,0.998013641520563,23.534479813005014,0.023873186951543054,61.562313549951156,-22.955678293798737,-121.80162811279297,5356.25390625,True
1599559198.132178,0.0,10,0.5,0.5,-1.6991891632080078,-0.001,-0.03,-0.001,-0.22808328289468552,10,1,100,-0.6317854489037926,-10,-1,-100,15003.91282969783,0.06083241969036264,-0.015516051407198203,0.9980273888342669,24.546745192247386,0.024966272924435984,64.73351882266424,-23.141276800073413,-134.7425079345703,5356.25390625,True
1599559198.1659698,0.0,10,0.5,0.5,-1.0728241806030272,-0.001,-0.03,-0.001,-0.32895538746442543,10,1,100,-0.5360111845718071,-10,-1,-100,15002.515213942155,0.05961533143984442,-0.016994787784394942,0.998076745268359,23.514713953077806,0.023506437242634518,63.516642806656506,-23.69808552826816,-173.96559143066406,5356.25390625,True
1599559198.1987588,0.0,10,0.5,0.5,-1.1005519485473632,-0.001,-0.03,-0.001,-0.25856820807400666,10,1,100,-0.5639521190825888,-10,-1,-100,15001.51021768013,0.05876397255825873,-0.017689647401475002,0.9981151596404011,22.953153696319823,0.02294469790251788,62.980205918683104,-24.069357951354693,159.5512237548828,5356.25390625,True
1599559198.2357016,0.0,10,0.5,0.5,-1.107647331237793,-0.001,-0.03,-0.001,-0.25276001537638676,10,1,100,-0.5678684655067221,-10,-1,-100,15000.556993784849,0.05802782558221657,-0.01825901382295295,0.9981479749377911,25.342486676289667,0.025522325586976733,70.6181667687415,-24.44053454728705,132.7984161376953,5356.25390625,True
1599559198.265588,0.0,10,0.5,0.5,-1.4671407241821288,-0.001,-0.03,-0.001,-0.2450326114430698,10,1,100,-0.5735901811562787,-10,-1,-100,14999.549106486724,0.057413882925080054,-0.018697189954478836,0.998175365922878,24.807970749123694,0.024717083717621786,70.18802118592784,-24.811690969870245,105.77621459960938,5356.25390625,True
1599559198.2997417,0.0,10,0.5,0.5,-1.910827293395996,-0.001,-0.03,-0.001,-0.20208693502907443,10,1,100,-0.6345149949835182,-10,-1,-100,14999.549106486724,0.057413882925080054,-0.018697189954478836,0.998175365922878,24.807970749123694,0.024717083717621786,70.18802118592784,-24.811690969870245,105.77621459960938,5356.25390625,True
1599559198.3325734,0.0,10,0.5,0.5,-2.2828000717163084,-0.001,-0.03,-0.001,-0.2796209052604933,10,1,100,-0.5650389105458535,-10,-1,-100,14998.082254610024,0.05678660334672843,-0.019394744767997293,0.998197939066058,23.881988426086597,0.02369345926756532,69.09974546568878,-25.36852839252993,64.732421875,5356.25390625,True
1599559198.3675823,0.0,10,0.5,0.5,-2.7301812667846677,-0.001,-0.03,-0.001,-0.21059514223915105,10,1,100,-0.6272354731109591,-10,-1,-100,14998.082254610024,0.05678660334672843,-0.019394744767997293,0.998197939066058,23.881988426086597,0.02369345926756532,69.09974546568878,-25.36852839252993,64.732421875,5356.25390625,True
1599559198.400228,0.0,10,0.5,0.5,-3.108882499694824,-0.001,-0.03,-0.001,-0.24210083801683946,10,1,100,-0.6114647424032662,-10,-1,-100,14997.57932094438,0.05664806393365901,-0.01967452638115352,0.9982003355360312,25.312371033422956,0.02520486822855984,73.77931730320401,-25.55409883199272,50.914337158203125,5356.25390625,True
1599559198.432177,0.0,10,0.5,0.5,-3.546544456481933,-0.001,-0.03,-0.001,-0.28977699603269275,10,1,100,-0.5944045436565079,-10,-1,-100,14996.500227532932,0.056371461221187365,-0.020357353930062244,0.9982023023920323,25.852741973697896,0.02553977508290946,76.45934641213583,-25.925211435818902,23.072113037109375,5356.25390625,True
1599559198.4660838,0.0,10,0.5,0.5,-3.952773773193359,-0.001,-0.03,-0.001,-0.31576637760281034,10,1,100,-0.58949166466695,-10,-1,-100,14995.480712594348,0.05607974347353429,-0.02120940223265287,0.9982009936024289,23.181626489919086,0.022575763784295513,69.55166095402635,-26.296394660868817,-5.044952392578125,5356.25390625,True
1599559198.5009363,0.0,10,0.5,0.5,-4.34166081237793,-0.001,-0.03,-0.001,-0.28406327209576954,10,1,100,-0.5964221061081841,-10,-1,-100,14994.965093542705,0.0558818701489671,-0.021690605775102657,0.9982017502538068,23.831418555452178,0.023261621989404336,72.01146401148986,-26.481990316375274,-19.206298828125,5356.25390625,True
1599559198.5326898,0.0,10,0.5,0.5,-4.705447204589843,-0.001,-0.03,-0.001,-0.46431849036947725,10,1,100,-0.4746097868072824,-10,-1,-100,14992.796106952243,0.05459799464325317,-0.023762478418008253,0.99822562760148,25.605267715159126,0.02480912293041421,79.56321930449171,-27.224183011064476,-76.53271484375,5356.25390625,True
1599559198.5666318,0.0,10,0.5,0.5,-4.025520126342774,-0.001,-0.03,-0.001,-0.3134144382736249,10,1,100,-0.5518068148002715,-10,-1,-100,14992.22283072921,0.054136413508826774,-0.024268623227945107,0.9982385900469993,23.95332606413793,0.023041098117458636,74.9433573629583,-27.40976363264969,-91.03355407714844,5356.25390625,True
1599559198.599789,0.0,10,0.5,0.5,-3.3101207122802734,-0.001,-0.03,-0.001,-0.3592002055575838,10,1,100,-0.48264842264758145,-10,-1,-100,14991.133864990203,0.05309161928711777,-0.02513952584010097,0.9982731510974372,25.61622287633452,0.024739565864138162,81.24401252192946,-27.780900380765754,-120.23572540283203,5356.25390625,True
1599559198.635129,0.0,10,0.5,0.5,-2.6023475036621093,-0.001,-0.03,-0.001,-0.3496965558056123,10,1,100,-0.45415869593631625,-10,-1,-100,14989.987250110134,0.051886738173314406,-0.02583900200260145,0.9983186427074491,27.125020570201578,0.026080413400977373,87.19122423148383,-28.151941922039107,-149.70550537109375,5356.25390625,True
1599559198.66608,0.0,10,0.5,0.5,-1.8653721237182617,-0.001,-0.03,-0.001,-0.28046312076037666,10,1,100,-0.5740940928414757,-10,-1,-100,14989.987250110134,0.051886738173314406,-0.02583900200260145,0.9983186427074491,27.125020570201578,0.026080413400977373,87.19122423148383,-28.151941922039107,-149.70550537109375,5356.25390625,True
1599559198.6991262,0.0,10,0.5,0.5,-1.8526494674682614,-0.001,-0.03,-0.001,-0.35055125573746815,10,1,100,-0.37504808787385246,-10,-1,-100,14988.30929362285,0.050081683460130026,-0.026470308450361732,0.9983942847153835,24.37935595805075,0.022976680548382197,79.93442487771735,-28.70860314751647,165.59005737304688,5356.25390625,True
