Timestamp,Input Throttle,horizon,dT,dt,Input Roll,Roll P,Roll I,Roll D,Input Pitch,Pitch P,Pitch I,Pitch D,Input Yaw,Yaw P,Yaw I,Yaw D,Altitude,Direction X,Direction Y,Direction Z,Drag X,Drag Y,Drag Z,Vertical Velocity,Roll,Mass,Has Fuel
1599560081.9529994,0.0,10,0.5,0.5,-2.954628715515137,-0.05075,-0.0155,-0.5,-0.00027712635916443684,10,1,100,0.17489913096413362,-10,-1,-100,14995.046666975366,-0.016808448557916234,-7.441278462668507e-05,0.9998587252806335,28.508505878174994,0.027123965031352164,-85.8845820221315,26.637680628389084,-31.791839599609375,5356.25390625,True
1599560081.9821684,0.0,10,0.5,0.5,-3.0449422836303714,-0.05075,-0.0155,-0.5,-0.0002190285214692601,10,1,100,0.17770032895183632,-10,-1,-100,14996.114052773686,-0.01688058490806971,-6.957150641522817e-05,0.999857510354834,28.363579687220273,0.02744843360766723,-84.25809559298456,26.265765170088507,-31.7906494140625,5356.25390625,True
1599560082.0200114,0.0,10,0.5,0.5,-3.134571684265137,-0.05075,-0.0155,-0.5,-0.000710113493256473,10,1,100,0.17217475242729569,-10,-1,-100,14996.114052773686,-0.01688058490806971,-6.957150641522817e-05,0.999857510354834,28.363579687220273,0.02744843360766723,-84.25809559298456,26.265765170088507,-31.7906494140625,5356.25390625,True
1599560082.0489306,0.0,10,0.5,0.5,-3.202963162231445,-0.05075,-0.0155,-0.5,0.003492128468664157,10,1,100,0.1799688850245618,-10,-1,-100,14997.179485521046,-0.016936094672673884,-3.1306059937390413e-05,0.9998565735730144,28.218811699105057,0.02776686315806134,-82.64422968880767,25.893865548825236,-31.830291748046875,5356.25390625,True
1599560082.083583,0.0,10,0.5,0.5,-3.0429339874267582,-0.05075,-0.0155,-0.5,0.01309177290964512,10,1,100,0.18164755564035714,-10,-1,-100,14998.716597675928,-0.01698642228730066,9.077866456041393e-05,0.9998557161996483,28.026099779439505,0.028250627533049834,-80.31622186540464,25.33604417379452,-32.320556640625,5356.25390625,True
1599560082.117796,0.0,10,0.5,0.5,-3.0120060699462896,-0.05075,-0.0155,-0.5,0.015611801581919084,10,1,100,0.1786911093805169,-10,-1,-100,14999.72148107388,-0.016989855677974362,0.0002245916032476717,0.9998556367609542,27.922564843220535,0.028577581464974494,-78.84807538866497,24.9641805917551,-32.984130859375,5356.25390625,True
1599560082.155749,0.0,10,0.5,0.5,-3.432167776489258,-0.05075,-0.0155,-0.5,0.0022529668735180725,10,1,100,0.1800467558809441,-10,-1,-100,14999.72148107388,-0.016989855677974362,0.0002245916032476717,0.9998556367609542,27.922564843220535,0.028577581464974494,-78.84807538866497,24.9641805917551,-32.984130859375,5356.25390625,True
1599560082.1836796,0.0,10,0.5,0.5,-2.6889885330200194,-0.05075,-0.0155,-0.5,0.03471407636119056,10,1,100,0.1751314823222008,-10,-1,-100,15001.193158259848,-0.016929726049551265,0.0005194884244053783,0.9998565469644453,27.800719994272015,0.029054107709271627,-76.75442055164943,24.40640893116979,-34.493988037109375,5356.25390625,True
1599560082.2168262,0.0,10,0.5,0.5,-2.7864523864746094,-0.05075,-0.0155,-0.5,0.03412369004732836,10,1,100,0.17405702786522526,-10,-1,-100,15002.131631695665,-0.01684990432314908,0.0007817370331278139,0.9998577246846232,27.736047074962418,0.0293450140004544,-75.41210715816466,24.034575904761198,-35.843963623046875,5356.25390625,True
1599560082.2506192,0.0,10,0.5,0.5,-3.545382035827637,-0.05075,-0.0155,-0.5,0.00797700287839758,10,1,100,0.1837241909377587,-10,-1,-100,15002.131631695665,-0.01684990432314908,0.0007817370331278139,0.9998577246846232,27.736047074962418,0.0293450140004544,-75.41210715816466,24.034575904761198,-35.843963623046875,5356.25390625,True
1599560082.2865684,0.0,10,0.5,0.5,-2.2301788803100586,-0.05075,-0.0155,-0.5,0.05979905246806569,10,1,100,0.16283175477012463,-10,-1,-100,15003.541780682048,-0.01664465499042227,0.0012521359048219532,0.9998606841035033,27.649642904010914,0.029702412415439576,-73.43684797773122,23.476847256428155,-38.3843994140625,5356.25390625,True
1599560082.317205,0.0,10,0.5,0.5,-2.3682739349365236,-0.05075,-0.0155,-0.5,0.05457256450235366,10,1,100,0.16318499030280828,-10,-1,-100,15004.474391119904,-0.016461424823301835,0.0016310517624106536,0.99986317122041,27.58865997176682,0.029860857266193527,-72.11712801674175,23.10504205472331,-40.42144775390625,5356.25390625,True
1599560082.3502884,0.0,10,0.5,0.5,-3.373420367431641,-0.05075,-0.0155,-0.5,0.016851041070366213,10,1,100,0.181466091006375,-10,-1,-100,15004.474391119904,-0.016461424823301835,0.0016310517624106536,0.99986317122041,27.58865997176682,0.029860857266193527,-72.11712801674175,23.10504205472331,-40.42144775390625,5356.25390625,True
1599560082.383235,0.0,10,0.5,0.5,-2.086567715454102,-0.05075,-0.0155,-0.5,0.06082996821472927,10,1,100,0.15503243675614758,-10,-1,-100,15005.407976725022,-0.01622149993019501,0.0020293141698422943,0.9998663634826481,27.51473482342381,0.029930628572829868,-70.76917825991264,22.73324856330371,-42.73370361328125,5356.25390625,True
1599560082.419136,0.0,10,0.5,0.5,-1.8010020141601562,-0.05075,-0.0155,-0.5,0.07036967612161055,10,1,100,0.14788401854349006,-10,-1,-100,15006.27710811724,-0.015939050402475993,0.0024762222300883613,0.9998698990347367,27.41782814445367,0.02988952505684763,-69.36924443862448,22.361467845879847,-45.320709228515625,5356.25390625,True
1599560082.4502718,0.0,10,0.5,0.5,-2.3051903930664066,-0.05075,-0.0155,-0.5,0.05209962102618567,10,1,100,0.15843834759179387,-10,-1,-100,15006.746829732903,-0.015779178706702215,0.0027142422898395343,0.9998718169886248,27.35725085511875,0.02982041894015341,-68.64189807862621,22.175582681556445,-46.71728515625,5356.25390625,True
1599560082.4832833,0.0,10,0.5,0.5,-1.330076428222656,-0.05075,-0.0155,-0.5,0.08086603184596167,10,1,100,0.1342485365104771,-10,-1,-100,15007.6169359138,-0.01541503404341524,0.0031898736691689353,0.9998760930392401,27.204087388714687,0.029572156089304823,-67.11585915475618,21.80382397788126,-49.717041015625,5356.25390625,True
1599560082.5162978,0.0,10,0.5,0.5,-1.9211510375976562,-0.05075,-0.0155,-0.5,0.060697556205797,10,1,100,0.14831573236437512,-10,-1,-100,15008.074937657104,-0.015213308695130297,0.0034362203426796926,0.9998783664167874,27.10826575081341,0.02938854087105984,-66.31060362726461,21.617951123966364,-51.320068359375,5356.25390625,True
1599560082.552682,0.0,10,0.5,0.5,0.17932303314208964,-0.05075,-0.0155,-0.5,0.1203565892001435,10,1,100,0.09276835024249762,-10,-1,-100,15009.34933252912,-0.014526506193176391,0.0041998751349851,0.9998856642970086,26.722733775995028,0.028580112729937646,-63.68532766768554,21.060362666416786,-56.5418701171875,5356.25390625,True
1599560082.5836744,0.0,10,0.5,0.5,-2.3994960906982423,-0.05075,-0.0155,-0.5,0.044332923779788494,10,1,100,0.16121626062489094,-10,-1,-100,15009.34933252912,-0.014526506193176391,0.0041998751349851,0.9998856642970086,26.722733775995028,0.028580112729937646,-63.68532766768554,21.060362666416786,-56.5418701171875,5356.25390625,True
1599560082.6173542,0.0,10,0.5,0.5,-0.2606039794921875,-0.05075,-0.0155,-0.5,0.10152642798209399,10,1,100,0.10291880421707748,-10,-1,-100,15010.15595936554,-0.01399864149685988,0.0047167086840043705,0.9998908893951542,26.36545005215446,0.027819883039093933,-61.727478403993224,20.688666311534536,-60.367218017578125,5356.25390625,True
1599560082.6504254,0.0,10,0.5,0.5,1.1347561096191408,-0.05075,-0.0155,-0.5,0.1325611433434889,10,1,100,0.05764194822982198,-10,-1,-100,15011.356133273686,-0.013109562185318514,0.005465541529326223,0.9998991285300235,25.661954095687797,0.026382845785994667,-58.46539692375741,20.13117543621321,-66.311767578125,5356.25390625,True
1599560082.6854796,0.0,10,0.5,0.5,-1.7973886749267578,-0.05075,-0.0155,-0.5,0.05806130778799525,10,1,100,0.1462146931201603,-10,-1,-100,15011.356133273686,-0.013109562185318514,0.005465541529326223,0.9998991285300235,25.661954095687797,0.026382845785994667,-58.46539692375741,20.13117543621321,-66.311767578125,5356.25390625,True
1599560082.7169766,0.0,10,0.5,0.5,2.793992221069336,-0.05075,-0.0155,-0.5,0.16096950267258592,10,1,100,-0.0028535194553034604,-10,-1,-100,15012.955713315285,-0.011757443764303373,0.006397584673943487,0.9999104127002925,24.383520771987097,0.024077201024196058,-53.50717067703233,19.387971301870756,-74.57550048828125,5356.25390625,True
1599560082.7509377,0.0,10,0.5,0.5,-0.16419478759765638,-0.05075,-0.0155,-0.5,0.09403351745854224,10,1,100,0.09031220199575776,-10,-1,-100,15013.355119473184,-0.011379264536722795,0.006632416512100512,0.9999132579328135,24.018629496399065,0.023482156552712005,-52.20279931602486,19.202192872276537,-76.616943359375,5356.25390625,True
1599560082.7768698,0.0,10,0.5,0.5,1.1552191833496095,-0.05075,-0.0155,-0.5,0.11579692035309291,10,1,100,0.044451302192382205,-10,-1,-100,15014.092409656383,-0.010622693227860448,0.007039970760119165,0.9999187953030403,23.206766286305232,0.02227889926118151,-49.465092738996326,18.83066313838236,-80.77786254882812,5356.25390625,True
1599560082.7988472,0.0,10,0.5,0.5,0.26643348846435544,-0.05075,-0.0155,-0.5,0.09726467784929295,10,1,100,0.07576364856241086,-10,-1,-100,15014.490839896956,-0.010224246537239341,0.007238067209674051,0.9999215345044901,22.795019300607724,0.021713902797264557,-48.10953018931435,18.644911505731585,-82.84573364257812,5356.25390625,True
1599560082.82704,0.0,10,0.5,0.5,0.42610573883056635,-0.05075,-0.0155,-0.5,0.09868744765266349,10,1,100,0.07014238882811291,-10,-1,-100,15014.829699717346,-0.009815638809550331,0.007427408986081401,0.9999242405455095,22.361039284741988,0.02116066106505642,-46.72478836724402,18.459168438716258,-84.91973876953125,5356.25390625,True
1599560082.8505285,0.0,10,0.5,0.5,1.6683687377929688,-0.05075,-0.0155,-0.5,0.11742113501089207,10,1,100,0.01989768949019277,-10,-1,-100,15015.56503760023,-0.008992314217566121,0.007766215769123433,0.9999294095973176,21.438648925886636,0.020113031443555817,-43.89845068812018,18.087706173866778,-88.96365356445312,5356.25390625,True
1599560082.8840268,0.0,10,0.5,0.5,-0.30333489532470703,-0.05075,-0.0155,-0.5,0.08389709077010273,10,1,100,0.10167672949105278,-10,-1,-100,15015.56503760023,-0.008992314217566121,0.007766215769123433,0.9999294095973176,21.438648925886636,0.020113031443555817,-43.89845068812018,18.087706173866778,-88.96365356445312,5356.25390625,True
1599560082.9177122,0.0,10,0.5,0.5,0.8413386859893799,-0.05075,-0.0155,-0.5,0.10143847492706562,10,1,100,0.05432035116258557,-10,-1,-100,15015.899015386123,-0.00856683277092152,0.00792244076997388,0.9999319198368064,20.981923357046373,0.019651226837273824,-42.52333679883851,17.901985891134945,-90.95079803466797,5356.25390625,True
1599560082.951712,0.0,10,0.5,0.5,2.0266842617034913,-0.05075,-0.0155,-0.5,0.11641828543018225,10,1,100,0.002450116255881346,-10,-1,-100,15016.631424875231,-0.007713421873661787,0.008197729291606282,0.9999366481720032,21.62385132673626,0.020290852343958287,-42.917514621337986,17.530546196940392,-94.82099914550781,5356.25390625,True
1599560082.9876485,0.0,10,0.5,0.5,3.270180546951294,-0.05075,-0.0155,-0.5,0.12662392200889538,10,1,100,-0.06058078802632956,-10,-1,-100,15017.632384166005,-0.006369491146597983,0.008538286291294694,0.9999432620152712,22.46362077623198,0.021360215078031246,-43.17096266304198,16.973384111922798,-100.51216125488281,5356.25390625,True
1599560083.0178382,0.0,10,0.5,0.5,2.4542753494262697,-0.05075,-0.0155,-0.5,0.11135161338120665,10,1,100,-0.023712810683572144,-10,-1,-100,15018.299366102088,-0.005489026707872974,0.008706250990067018,0.9999470344870764,22.975681617202138,0.022145537937106836,-43.19117494964019,16.601937808316087,-104.10120391845703,5356.25390625,True
1599560083.0508504,0.0,10,0.5,0.5,1.6400021724700928,-0.05075,-0.0155,-0.5,0.10244684501103535,10,1,100,0.016294800965768554,-10,-1,-100,15018.634322403348,-0.005058008612259182,0.00877589494348019,0.9999486987925028,23.190767431491615,0.022523338964023202,-43.10898654262206,16.416213173899806,-105.7979507446289,5356.25390625,True
1599560083.0837948,0.0,10,0.5,0.5,2.5934380237579346,-0.05075,-0.0155,-0.5,0.10760495395229844,10,1,100,-0.036326831120910924,-10,-1,-100,15019.29447077238,-0.004193542102662706,0.008884150911111482,0.9999517418691873,23.544800428929122,0.023235533589143053,-42.779052649298926,16.044761629207525,-108.98738098144531,5356.25390625,True
1599560083.1207328,0.0,10,0.5,0.5,1.0424476589202882,-0.05075,-0.0155,-0.5,0.09696377520426841,10,1,100,0.049476904726216867,-10,-1,-100,15019.29447077238,-0.004193542102662706,0.008884150911111482,0.9999517418691873,23.544800428929122,0.023235533589143053,-42.779052649298926,16.044761629207525,-108.98738098144531,5356.25390625,True
1599560083.1536438,0.0,10,0.5,0.5,4.142307996368408,-0.05075,-0.0155,-0.5,0.10761812724098264,10,1,100,-0.13593208064985815,-10,-1,-100,15020.559106643894,-0.002513488330548003,0.008979512217171214,0.9999565244233141,24.102247706584247,0.024551678960121937,-41.76847342826391,15.301853701703157,-114.54224395751953,5356.25390625,True
1599560083.184561,0.0,10,0.5,0.5,2.0809380683898926,-0.05075,-0.0155,-0.5,0.09780305674212075,10,1,100,-0.014914917898696589,-10,-1,-100,15020.832541566808,-0.002092961063162471,0.00897556539702578,0.9999575284679805,24.205090003520482,0.024839006498556974,-41.438580226054626,15.116126909636982,-115.759033203125,5356.25390625,True
1599560083.2184696,0.0,10,0.5,0.5,1.5140762840270996,-0.05075,-0.0155,-0.5,0.09831867371945434,10,1,100,0.026447873524416254,-10,-1,-100,15020.832541566808,-0.002092961063162471,0.00897556539702578,0.9999575284679805,24.205090003520482,0.024839006498556974,-41.438580226054626,15.116126909636982,-115.759033203125,5356.25390625,True
1599560083.253377,0.0,10,0.5,0.5,3.3384706413269045,-0.05075,-0.0155,-0.5,0.09368341409105642,10,1,100,-0.10372909255187858,-10,-1,-100,15021.701676548342,-0.0009158062380637937,0.008932327264378615,0.9999596866017031,24.42070452265815,0.025570152201707767,-40.269566942187204,14.558950650185595,-118.99618530273438,5356.25390625,True
1599560083.2847688,0.0,10,0.5,0.5,2.762481713485718,-0.05075,-0.0155,-0.5,0.08958324267500915,10,1,100,-0.0719180103807354,-10,-1,-100,15022.29835329461,-0.00014181262274162333,0.008854827506831303,0.9999607851906016,24.498398827975475,0.025952652167504416,-39.36883547467037,14.187505640031741,-120.81028747558594,5356.25390625,True
1599560083.3178194,0.0,10,0.5,0.5,2.742932506942749,-0.05075,-0.0155,-0.5,0.08888723397470373,10,1,100,-0.07255261870693445,-10,-1,-100,15022.83057850611,0.0005607038221067774,0.008777448467953494,0.9999613202567469,24.533771307617172,0.02626003931348775,-38.3952322565837,13.816067034704862,-122.34858703613281,5356.25390625,True
1599560083.351728,0.0,10,0.5,0.5,2.007629186630249,-0.05075,-0.0155,-0.5,0.09664905408015058,10,1,100,-0.0029939937189648576,-10,-1,-100,15022.83057850611,0.0005607038221067774,0.008777448467953494,0.9999613202567469,24.533771307617172,0.02626003931348775,-38.3952322565837,13.816067034704862,-122.34858703613281,5356.25390625,True
1599560083.3866327,0.0,10,0.5,0.5,3.0224027256011965,-0.05075,-0.0155,-0.5,0.07814723898097375,10,1,100,-0.11503679414084628,-10,-1,-100,15023.688975744415,0.0015737749800057176,0.008609185423890171,0.9999617018459503,24.522104270679925,0.026599987933427497,-36.8318498742526,13.258923644718795,-124.13976287841797,5356.25390625,True
1599560083.4175527,0.0,10,0.5,0.5,2.1552446132659915,-0.05075,-0.0155,-0.5,0.09495687243534699,10,1,100,-0.014392856710178726,-10,-1,-100,15023.688975744415,0.0015737749800057176,0.008609185423890171,0.9999617018459503,24.522104270679925,0.026599987933427497,-36.8318498742526,13.258923644718795,-124.13976287841797,5356.25390625,True
1599560083.451527,0.0,10,0.5,0.5,2.646850657272339,-0.05075,-0.0155,-0.5,0.07861848038534536,10,1,100,-0.08580888846436284,-10,-1,-100,15024.163585430593,0.0022177686167867837,0.008460904555696721,0.9999617465665682,24.480232985991123,0.026761059000158335,-35.74052253438134,12.887505697600883,-124.98973083496094,5356.25390625,True
1599560083.478454,0.0,10,0.5,0.5,2.664052363204956,-0.05075,-0.0155,-0.5,0.06930409659613465,10,1,100,-0.11707110513665259,-10,-1,-100,15024.956555475947,0.0030815908829545237,0.00824181231957841,0.9999612874143274,24.377752004468494,0.026928499842437705,-34.05455004577084,12.33039711245463,-125.74757385253906,5356.25390625,True
1599560083.500396,0.0,10,0.5,0.5,2.3024991157531742,-0.05075,-0.0155,-0.5,0.0911395502182065,10,1,100,-0.03124838644122883,-10,-1,-100,15024.956555475947,0.0030815908829545237,0.00824181231957841,0.9999612874143274,24.377752004468494,0.026928499842437705,-34.05455004577084,12.33039711245463,-125.74757385253906,5356.25390625,True
1599560083.6719337,0.0,10,0.5,0.5,2.381219783782959,-0.05075,-0.0155,-0.5,0.08243946365415872,10,1,100,-0.06137589670770086,-10,-1,-100,15025.160657202709,0.0033507732017896176,0.008163387671793837,0.999961064952366,24.334334812049008,0.026968727616464044,-33.48265345361201,12.144699415213168,-125.86239624023438,5356.25390625,True
1599560083.6949089,0.0,10,0.5,0.5,2.3647599727630615,-0.05075,-0.0155,-0.5,0.08137066327465668,10,1,100,-0.0634243405634512,-10,-1,-100,15025.42140014784,0.003609157768269295,0.008083114513744417,0.9999608178523604,24.286833139573208,0.027002927565241135,-32.90702785398434,11.95900424631395,-125.90831756591797,5356.25390625,True
1599560083.719809,0.0,10,0.5,0.5,2.2007913055419923,-0.05075,-0.0155,-0.5,0.060339725035173486,10,1,100,-0.11785821661856077,-10,-1,-100,15026.094254011521,0.004334792643746059,0.007819720579477493,0.9999600299725958,24.119652288058386,0.027076218714857915,-31.160137731063227,11.401934808130965,-125.6328353881836,5356.25390625,True
1599560083.753878,0.0,10,0.5,0.5,2.346007343673706,-0.05075,-0.0155,-0.5,0.08657560776913059,10,1,100,-0.04574238959753317,-10,-1,-100,15026.094254011521,0.004334792643746059,0.007819720579477493,0.9999600299725958,24.119652288058386,0.027076218714857915,-31.160137731063227,11.401934808130965,-125.6328353881836,5356.25390625,True
1599560083.8494043,0.0,10,0.5,0.5,1.857766742324829,-0.05075,-0.0155,-0.5,0.056670652104499925,10,1,100,-0.11553549537901472,-10,-1,-100,15026.753436088446,0.004965844433739855,0.007548728007879465,0.9999591777140321,23.914216158906893,0.02711747277655619,-29.387152720288828,10.844889679421344,-124.73709106445312,5356.25390625,True
1599560083.8763323,0.0,10,0.5,0.5,2.30934108543396,-0.05075,-0.0155,-0.5,0.0836470372182953,10,1,100,-0.052870830440798364,-10,-1,-100,15026.753436088446,0.004965844433739855,0.007548728007879465,0.9999591777140321,23.914216158906893,0.02711747277655619,-29.387152720288828,10.844889679421344,-124.73709106445312,5356.25390625,True
1599560083.8972764,0.0,10,0.5,0.5,1.7918042594909669,-0.05075,-0.0155,-0.5,0.06070462525220868,10,1,100,-0.0956064514497344,-10,-1,-100,15027.20851537108,0.005351266379772243,0.00734112467856596,0.9999587350668959,23.752213624649105,0.02712978070385859,-28.189740612664707,10.473539702047274,-123.79571533203125,5356.25390625,True
1599560083.9202154,0.0,10,0.5,0.5,1.9456742603302004,-0.05075,-0.0155,-0.5,0.07127877774399122,10,1,100,-0.0759738154544089,-10,-1,-100,15027.412617423804,0.005519737374935303,0.007249675820702,0.9999584864882173,23.6623935889335,0.02713095728487521,-27.585834416913038,10.287868736952497,-123.221435546875,5356.25390625,True
1599560083.9511337,0.0,10,0.5,0.5,1.4838178020477297,-0.05075,-0.0155,-0.5,0.05785139826273038,10,1,100,-0.09452324958341152,-10,-1,-100,15027.813985800603,0.005838522254657973,0.007045574526209661,0.999958134892395,23.461953705746257,0.027120476091874898,-26.365922413579653,9.916534865249101,-121.866455078125,5356.25390625,True
1599560083.9854436,0.0,10,0.5,0.5,1.2572183563232424,-0.05075,-0.0155,-0.5,0.055561277667693074,10,1,100,-0.09354888911032899,-10,-1,-100,15028.205587580916,0.00611696256703992,0.006840296105619348,0.9999578956726833,23.22871877017408,0.02708669026030814,-25.127317232909647,9.545211341950493,-120.2358169555664,5356.25390625,True
1599560084.0203168,0.0,10,0.5,0.5,1.5580153221130373,-0.05075,-0.0155,-0.5,0.06473407313930774,10,1,100,-0.07965492112034071,-10,-1,-100,15028.403830290772,0.006241021895038083,0.006738342515019161,0.9999578213034068,23.09767604882686,0.02705790821785836,-24.500041206905053,9.359553350404504,-119.31710815429688,5356.25390625,True
1599560084.051234,0.0,10,0.5,0.5,2.0072245262146,-0.05075,-0.0155,-0.5,0.07478692768364906,10,1,100,-0.0675380131898493,-10,-1,-100,15028.403830290772,0.006241021895038083,0.006738342515019161,0.9999578213034068,23.09767604882686,0.02705790821785836,-24.500041206905053,9.359553350404504,-119.31710815429688,5356.25390625,True
1599560084.0841773,0.0,10,0.5,0.5,-0.4063085044860839,-0.05075,-0.0155,-0.5,0.027647329340158212,10,1,100,-0.11228360167171628,-10,-1,-100,15029.06789216178,0.0066454073683943566,0.006311023231895358,0.9999580038915007,22.454044935549064,0.02682330707845834,-21.929189371715925,8.616945626980806,-114.9533920288086,5356.25390625,True
1599560084.1192214,0.0,10,0.5,0.5,1.0633442775726318,-0.05075,-0.0155,-0.5,0.05769725656143086,10,1,100,-0.0808542112994828,-10,-1,-100,15029.26711085427,0.006725208236493712,0.006197103855928545,0.9999581828646509,22.257373421440924,0.026723383254590758,-21.26917034870363,8.431299327852233,-113.69029235839844,5356.25390625,True
1599560084.1551745,0.0,10,0.5,0.5,1.676383171081543,-0.05075,-0.0155,-0.5,0.06892693248575726,10,1,100,-0.07311316604882205,-10,-1,-100,15029.26711085427,0.006725208236493712,0.006197103855928545,0.9999581828646509,22.257373421440924,0.026723383254590758,-21.26917034870363,8.431299327852233,-113.69029235839844,5356.25390625,True
1599560084.1885834,0.0,10,0.5,0.5,0.18608253822326648,-0.05075,-0.0155,-0.5,0.04446889321629665,10,1,100,-0.08737921494530719,-10,-1,-100,15029.589374794741,0.006853300168459255,0.00597598679361704,0.9999586590747858,21.812219582241255,0.02645501713611597,-19.9265556043413,8.060012389720777,-111.01543426513672,5356.25390625,True
1599560084.2185032,0.0,10,0.5,0.5,-0.059868059539794904,-0.05075,-0.0155,-0.5,0.04017782317558714,10,1,100,-0.08536738928165334,-10,-1,-100,15029.921404497582,0.006949742186272242,0.005737391319522188,0.9999593908876455,21.30870125321163,0.026099191345308657,-18.570440105832606,7.688731348425746,-108.1791000366211,5356.25390625,True
1599560084.2514863,0.0,10,0.5,0.5,0.500787272644043,-0.05075,-0.0155,-0.5,0.050140373780507744,10,1,100,-0.07987080271657586,-10,-1,-100,15030.052262859652,0.006985994619322889,0.005612512924352549,0.9999598469827942,21.061891133347185,0.025918146157843786,-17.912443729930644,7.503092352836997,-106.66606140136719,5356.25390625,True
1599560084.2876086,0.0,10,0.5,0.5,-1.4240741683959959,-0.05075,-0.0155,-0.5,0.0208473798165182,10,1,100,-0.08263007806477957,-10,-1,-100,15030.453625309048,0.007042702736857704,0.0052341754953405635,0.9999615011314408,20.206317871591285,0.025183264311730805,-15.90995957921314,6.946178797783116,-101.84405517578125,5356.25390625,True
1599560084.3194003,0.0,10,0.5,0.5,0.059022018814086974,-0.05075,-0.0155,-0.5,0.0440217227620556,10,1,100,-0.07741492343565662,-10,-1,-100,15030.586436130223,0.0070457503648226,0.00510255494940807,0.9999621599514578,19.87882548875704,0.024864875786191877,-15.233999391604053,6.7605412208729785,-100.2155990600586,5356.25390625,True
1599560084.352323,0.0,10,0.5,0.5,-1.8997869812011718,-0.05075,-0.0155,-0.5,0.011659073091301764,10,1,100,-0.07329095498018318,-10,-1,-100,15030.972172201611,0.007010185960833854,0.0046902737662409604,0.9999644286797367,18.8403959643222,0.023761067078793063,-13.249308477881062,6.203623959043619,-95.23692321777344,5356.25390625,True
1599560084.3853974,0.0,10,0.5,0.5,0.5522266532897949,-0.05075,-0.0155,-0.5,0.0526823845331349,10,1,100,-0.07692431178563737,-10,-1,-100,15030.972172201611,0.007010185960833854,0.0046902737662409604,0.9999644286797367,18.8403959643222,0.023761067078793063,-13.249308477881062,6.203623959043619,-95.23692321777344,5356.25390625,True
1599560084.4214559,0.0,10,0.5,0.5,-1.29085524559021,-0.05075,-0.0155,-0.5,0.020226512367474025,10,1,100,-0.07044939022873874,-10,-1,-100,15031.23291000654,0.006950623797529506,0.004397082263597478,0.9999661766761876,18.11734742994049,0.022913758640837476,-11.978554865421478,5.8323382781850945,-91.95819854736328,5356.25390625,True
1599560084.4524174,0.0,10,0.5,0.5,-2.261082426452637,-0.05075,-0.0155,-0.5,-0.00037244978807514373,10,1,100,-0.06115397936106065,-10,-1,-100,15031.562003925443,0.006811695171701994,0.003945021187933227,0.9999690183284252,17.38339729227789,0.0219736851909512,-10.396056648818965,5.275390988530777,-87.28466796875,5356.25390625,True
1599560084.4854856,0.0,10,0.5,0.5,-1.5817629905700683,-0.05075,-0.0155,-0.5,0.010244780110200753,10,1,100,-0.061557614230966534,-10,-1,-100,15031.754381474457,0.006688987204371393,0.0036326241933755028,0.9999710303262037,17.94080096854446,0.02260589003965416,-9.974369592583912,4.904073062109608,-84.34954833984375,5356.25390625,True
1599560084.518669,0.0,10,0.5,0.5,-0.15968132934570314,-0.05075,-0.0155,-0.5,0.041228031599717885,10,1,100,-0.07382478886081445,-10,-1,-100,15031.754381474457,0.006688987204371393,0.0036326241933755028,0.9999710303262037,17.94080096854446,0.02260589003965416,-9.974369592583912,4.904073062109608,-84.34954833984375,5356.25390625,True
1599560084.5546083,0.0,10,0.5,0.5,-0.9577568607330322,-0.05075,-0.0155,-0.5,0.023747189294231932,10,1,100,-0.06620458164132319,-10,-1,-100,15031.822738109156,0.006619861968707006,0.0034758377747803955,0.9999720475989711,18.18339652756167,0.02286276783230197,-9.726591914351953,4.718407758342776,-82.97552490234375,5356.25390625,True
1599560084.5859318,0.0,10,0.5,0.5,-1.7116617118835449,-0.05075,-0.0155,-0.5,0.0034492952670649307,10,1,100,-0.05592505929902608,-10,-1,-100,15032.014138788916,0.006463870533370832,0.003150834315396727,0.9999741449761811,18.594925754627184,0.023267454890308126,-9.16405296311925,4.34706537939543,-80.43017578125,5356.25390625,True
1599560084.6188517,0.0,10,0.5,0.5,-1.7952642318725587,-0.05075,-0.0155,-0.5,-0.0026803558056146468,10,1,100,-0.051715391204010024,-10,-1,-100,15032.203586142743,0.006284265085915938,0.002801890414031719,0.9999763284310471,18.9227346481943,0.023557557780578404,-8.529073476956773,3.975708675681638,-78.04141235351562,5356.25390625,True
1599560084.652565,0.0,10,0.5,0.5,-1.2637572357177733,-0.05075,-0.0155,-0.5,0.012846997442766073,10,1,100,-0.05900789816021759,-10,-1,-100,15032.27291934553,0.006187972412968778,0.002628037610577272,0.9999774009525083,19.068040226969565,0.023679499090257926,-8.19322185241443,3.7900254755810137,-76.90481567382812,5356.25390625,True
1599560084.6877987,0.0,10,0.5,0.5,-1.883160319900513,-0.05075,-0.0155,-0.5,-0.009134627593457234,10,1,100,-0.045737631542313174,-10,-1,-100,15032.399866736261,0.005980574630083005,0.002272406213779227,0.9999795342391231,19.30694234073939,0.023865042688865818,-7.483086302195702,3.4186499581100613,-74.81390380859375,5356.25390625,True
1599560084.7187388,0.0,10,0.5,0.5,-1.873426664352417,-0.05075,-0.0155,-0.5,-0.013908978149854642,10,1,100,-0.041522475526852134,-10,-1,-100,15032.526814393,0.005754647601256066,0.0019078998184978116,0.999981621805755,19.47729224551135,0.0239790126336994,-6.729101683811059,3.0472630202377813,-72.99081420898438,5356.25390625,True
1599560084.7526872,0.0,10,0.5,0.5,-2.2186760471344,-0.05075,-0.0155,-0.5,-0.04031061660637224,10,1,100,-0.022936440076555105,-10,-1,-100,15032.71137670835,0.005381436833101219,0.001339044904044313,0.9999846234299588,19.627446155978348,0.02405210445541539,-5.541392485296519,2.4901630251318196,-70.77145385742188,5356.25390625,True
1599560084.7857983,0.0,10,0.5,0.5,-1.1418353256225586,-0.05075,-0.0155,-0.5,0.016269071103022302,10,1,100,-0.06010059819559695,-10,-1,-100,15032.71137670835,0.005381436833101219,0.001339044904044313,0.9999846234299588,19.627446155978348,0.02405210445541539,-5.541392485296519,2.4901630251318196,-70.77145385742188,5356.25390625,True
1599560084.82073,0.0,10,0.5,0.5,-1.7925542434692383,-0.05075,-0.0155,-0.5,-0.0258707914325065,10,1,100,-0.030469974580124026,-10,-1,-100,15032.780707776546,0.005113367762359284,0.0009583243139794048,0.9999864674507531,19.66163778702683,0.0240418598566483,-4.723159729375331,2.118750365420451,-69.63641357421875,5356.25390625,True
1599560084.8519232,0.0,10,0.5,0.5,-1.9008130172729494,-0.05075,-0.0155,-0.5,-0.05104212207834806,10,1,100,-0.009738923629891053,-10,-1,-100,15032.900818341528,0.004682636888902691,0.00038581558975765235,0.9999889619681297,19.637462748466014,0.023964773565820125,-3.4769669239196346,1.561612342336136,-68.4508056640625,5356.25390625,True
1599560084.8858645,0.0,10,0.5,0.5,-1.3326521133422853,-0.05075,-0.0155,-0.5,0.005884069483465407,10,1,100,-0.05261137594400351,-10,-1,-100,15032.900818341528,0.004682636888902691,0.00038581558975765235,0.9999889619681297,19.637462748466014,0.023964773565820125,-3.4769669239196346,1.561612342336136,-68.4508056640625,5356.25390625,True
1599560084.9199667,0.0,10,0.5,0.5,-1.6666430587768555,-0.05075,-0.0155,-0.5,-0.055451815554444915,10,1,100,-0.0019156495939252477,-10,-1,-100,15032.95647676976,0.004223527763065438,-0.00016897425405514805,0.9999910665905652,19.528055000908466,0.023815018351921548,-2.2240197910648756,1.0044507449011002,-67.88525390625,5356.25390625,True
1599560084.9478889,0.0,10,0.5,0.5,-1.4312627746582032,-0.05075,-0.0155,-0.5,-0.020163981538447163,10,1,100,-0.030109679978744443,-10,-1,-100,15032.958428461803,0.004064501872866569,-0.00034951215867639446,0.9999916787982669,19.473362348115764,0.023748490263506946,-1.8077277163491718,0.8187248065087198,-67.83450317382812,5356.25390625,True
1599560084.968799,0.0,10,0.5,0.5,-1.3636380111694337,-0.05075,-0.0155,-0.5,-0.04288670156028014,10,1,100,-0.009441596327183742,-10,-1,-100,15033.006277226144,0.003734059178774363,-0.00071734279710082,0.9999927710845519,19.338502616279282,0.02359086643722166,-0.9807271060655901,0.44726489978818895,-67.93994140625,5356.25390625,True
1599560084.9957612,0.0,10,0.5,0.5,-1.4302526824951174,-0.05075,-0.0155,-0.5,-0.006438175758605399,10,1,100,-0.04224047441298488,-10,-1,-100,15033.006277226144,0.003734059178774363,-0.00071734279710082,0.9999927710845519,19.338502616279282,0.02359086643722166,-0.9807271060655901,0.44726489978818895,-67.93994140625,5356.25390625,True
1599560085.0196986,0.0,10,0.5,0.5,-1.2311490234375002,-0.05075,-0.0155,-0.5,-0.04551911803252025,10,1,100,-0.004607269195412059,-10,-1,-100,15033.001392013859,0.0033939814181157997,-0.0010699061368537913,0.9999936680754492,19.171433384244896,0.02340029259728391,-0.1647630878701515,0.07579457827149394,-68.32080078125,5356.25390625,True
1599560085.052611,0.0,10,0.5,0.5,-1.067320314025879,-0.05075,-0.0155,-0.5,-0.047801278606383654,10,1,100,2.791923844069205e-05,-10,-1,-100,15032.993577442132,0.0030448278010122083,-0.0014084580818867494,0.9999943726189131,19.025214333287654,0.023237125634579324,0.637871320472638,-0.29568500116774143,-68.9771728515625,5356.25390625,True
1599560085.0895598,0.0,10,0.5,0.5,-1.398287484741211,-0.05075,-0.0155,-0.5,-0.014220834401680964,10,1,100,-0.034653781568709546,-10,-1,-100,15032.993577442132,0.0030448278010122083,-0.0014084580818867494,0.9999943726189131,19.025214333287654,0.023237125634579324,0.637871320472638,-0.29568500116774143,-68.9771728515625,5356.25390625,True
1599560085.119669,0.0,10,0.5,0.5,-0.5742713180541994,-0.05075,-0.0155,-0.5,-0.06887587667842625,10,1,100,0.025586690327244754,-10,-1,-100,15032.982833401067,0.0024993113374417956,-0.0019028243725972237,0.9999950663389524,18.878382037315305,0.02307836879940051,1.825809550511978,-0.8529137699880394,-70.4783935546875,5356.25390625,True
1599560085.1535964,0.0,10,0.5,0.5,-0.9721137939453126,-0.05075,-0.0155,-0.5,-0.03695591256079378,10,1,100,-0.00830698911140509,-10,-1,-100,15032.91740358586,0.002313888053115435,-0.0020594657370041083,0.9999952022499687,18.81270031954614,0.02300335943033094,2.215712635054234,-1.0386583222701504,-71.11654663085938,5356.25390625,True
1599560085.222662,0.0,10,0.5,0.5,-0.014726432800292955,-0.05075,-0.0155,-0.5,-0.0722940751826156,10,1,100,0.0365883686121815,-10,-1,-100,15032.835371895228,0.0017393352233641263,-0.0025209000181844183,0.9999953098770409,18.55625421431002,0.02269536805511054,3.3581241542563665,-1.595894199650015,-73.42672729492188,5356.25390625,True
1599560085.2535787,0.0,10,0.5,0.5,0.41219246826171885,-0.05075,-0.0155,-0.5,-0.07412896967516858,10,1,100,0.04469062729694152,-10,-1,-100,15032.75334143301,0.0011460333006974262,-0.0029544241186370526,0.9999949789802952,18.20847853791326,0.02225153159538051,4.445907942731226,-2.1531319259132737,-76.28518676757812,5356.25390625,True
1599560085.286762,0.0,10,0.5,0.5,0.15331732940673826,-0.05075,-0.0155,-0.5,-0.05862818489236233,10,1,100,0.028319685499865334,-10,-1,-100,15032.618576839566,0.0007582923823032714,-0.003205088484782498,0.999994576185525,17.92123832696359,0.021870812890557766,5.130868211197973,-2.5246248295919793,-78.38656616210938,5356.25390625,True
1599560085.3205073,0.0,10,0.5,0.5,-0.8810166702270508,-0.05075,-0.0155,-0.5,-0.0338473059104284,10,1,100,-0.010123785390493814,-10,-1,-100,15032.618576839566,0.0007582923823032714,-0.003205088484782498,0.999994576185525,17.92123832696359,0.021870812890557766,5.130868211197973,-2.5246248295919793,-78.38656616210938,5356.25390625,True
1599560085.355411,0.0,10,0.5,0.5,-0.2899555587768554,-0.05075,-0.0155,-0.5,-0.04721980682921906,10,1,100,0.01147727525021425,-10,-1,-100,15032.604905656772,0.0005646243462936264,-0.0033243950879645206,0.9999943147821625,17.763971030880185,0.021658748006224804,5.46009380713838,-2.7103722498283425,-79.43035888671875,5356.25390625,True
1599560085.3863213,0.0,10,0.5,0.5,0.32295479278564454,-0.05075,-0.0155,-0.5,-0.05998582909825298,10,1,100,0.035010655673792204,-10,-1,-100,15032.465258999844,0.00017750397773640472,-0.0035465403366749734,0.999993695252114,17.436035219665364,0.021209920962344,6.094020696785943,-3.0818708024780888,-81.45849609375,5356.25390625,True
1599560085.4193902,0.0,10,0.5,0.5,0.49804707183837893,-0.05075,-0.0155,-0.5,-0.06114616010824926,10,1,100,0.040273047326496794,-10,-1,-100,15032.326588924625,-0.0002193394837580391,-0.003756787540866423,0.9999929191937129,17.08748777255362,0.02072906856773582,6.692298423704686,-3.4533771706185252,-83.5806884765625,5356.25390625,True
1599560085.4463162,0.0,10,0.5,0.5,0.7029757186889649,-0.05075,-0.0155,-0.5,-0.06032746216651555,10,1,100,0.04320795454606369,-10,-1,-100,15032.181083562784,-0.000603819816853805,-0.0039383438093347255,0.9999920623933315,16.693878071182652,0.020194432248869253,7.241720228930512,-3.824893927575607,-85.83831787109375,5356.25390625,True
1599560085.4722495,0.0,10,0.5,0.5,0.8409791687011718,-0.05075,-0.0155,-0.5,-0.05998001774941994,10,1,100,0.046371740970055364,-10,-1,-100,15032.035578236799,-0.0009787921347790929,-0.004097936480761906,0.9999911244018902,16.257406144752835,0.019618482735317043,7.7376400045713964,-4.1964232919008335,-88.09103393554688,5356.25390625,True
1599560085.4971824,0.0,10,0.5,0.5,0.3399503845214844,-0.05075,-0.0155,-0.5,-0.05224976597965139,10,1,100,0.029665592517907267,-10,-1,-100,15031.9066732832,-0.0011646400710805347,-0.004170750154963115,0.9999906241843719,16.035362598362557,0.01933280605170395,7.969939914446368,-4.382193167479297,-89.1768798828125,5356.25390625,True
1599560085.5201225,0.0,10,0.5,0.5,0.4005158519744873,-0.05075,-0.0155,-0.5,-0.05263099211708668,10,1,100,0.0315584382697225,-10,-1,-100,15031.830502633704,-0.001347638130803624,-0.004238490746924573,0.9999901094849172,15.816124643205235,0.019056426267162366,8.194354185606462,-4.567966427419264,-90.22180938720703,5356.25390625,True
1599560085.5540316,0.0,10,0.5,0.5,0.4545267391204834,-0.05075,-0.0155,-0.5,-0.05289667957642283,10,1,100,0.03336837412669186,-10,-1,-100,15031.755308820517,-0.001527647626202365,-0.004300926997675553,0.9999895841056,15.738595989690383,0.018957265817161326,8.48595374728265,-4.753742602307872,-91.22125244140625,5356.25390625,True
1599560085.5870254,0.0,10,0.5,0.5,0.4991878433227539,-0.05075,-0.0155,-0.5,-0.05300460476362341,10,1,100,0.0349835236742527,-10,-1,-100,15031.62054435932,-0.0017035451807000464,-0.0043574442701700515,0.999989055246731,15.949928575388082,0.019212301773464936,8.93614409775027,-4.93952090803807,-92.16765594482422,5356.25390625,True
1599560085.6204705,0.0,10,0.5,0.5,1.0340049514770508,-0.05075,-0.0155,-0.5,-0.058433655392707805,10,1,100,0.055878414838749516,-10,-1,-100,15031.410586257232,-0.0020511675703179066,-0.004457131018351828,0.9999879632749005,16.363823189597163,0.019729985185721957,9.858042143787888,-5.31108387184261,-93.95913696289062,5356.25390625,True
1599560085.6563768,0.0,10,0.5,0.5,1.0805651046752929,-0.05075,-0.0155,-0.5,-0.05730267323154594,10,1,100,0.057895770164217694,-10,-1,-100,15031.20160484896,-0.002382973463881471,-0.004536335458385091,0.9999868714628605,16.769616839102845,0.020261968308675295,10.809723895501046,-5.682654422661068,-95.62625122070312,5356.25390625,True
1599560085.68734,0.0,10,0.5,0.5,0.7042843002319337,-0.05075,-0.0155,-0.5,-0.05309974458447693,10,1,100,0.04271077705218718,-10,-1,-100,15031.06684061652,-0.0025438901590024566,-0.004569029288559775,0.9999863262036232,16.9622343694342,0.020524448645561515,11.291596718540168,-5.86844221972428,-96.41094970703125,5356.25390625,True
1599560085.7195442,0.0,10,0.5,0.5,1.1043469844818115,-0.05075,-0.0155,-0.5,-0.05550326350413201,10,1,100,0.060196981020823,-10,-1,-100,15030.853952760925,-0.0028466695596120976,-0.0046196715889410015,0.9999852774450375,17.323907230658325,0.02103809672220007,12.263119273171075,-6.240021958750335,-97.80765533447266,5356.25390625,True
1599560085.7535388,0.0,10,0.5,0.5,1.3133755859375,-0.05075,-0.0155,-0.5,-0.055321575178394936,10,1,100,0.07684246676429982,-10,-1,-100,15030.438917743042,-0.0032708576759471475,-0.004663273891737167,0.9999837775517533,17.786024492231626,0.021749778734234976,13.71584287960815,-6.797399893380687,-99.41515350341797,5356.25390625,True
1599560085.7896214,0.0,10,0.5,0.5,0.5306705966949463,-0.05075,-0.0155,-0.5,-0.05103383790701867,10,1,100,0.03469035891670415,-10,-1,-100,15030.438917743042,-0.0032708576759471475,-0.004663273891737167,0.9999837775517533,17.786024492231626,0.021749778734234976,13.71584287960815,-6.797399893380687,-99.41515350341797,5356.25390625,True
1599560085.8204987,0.0,10,0.5,0.5,1.2313450923919678,-0.05075,-0.0155,-0.5,-0.05120779765691161,10,1,100,0.08743420580933069,-10,-1,-100,15029.879351928714,-0.003748263497206327,-0.004664341400908034,0.999982097059768,18.268241575442797,0.022594452285443715,15.629651853961175,-7.540579536231011,-100.65550231933594,5356.25390625,True
1599560085.8534896,0.0,10,0.5,0.5,0.6289625492095947,-0.05075,-0.0155,-0.5,-0.051150405864419365,10,1,100,0.03995198602602533,-10,-1,-100,15029.879351928714,-0.003748263497206327,-0.004664341400908034,0.999982097059768,18.268241575442797,0.022594452285443715,15.629651853961175,-7.540579536231011,-100.65550231933594,5356.25390625,True
1599560085.8864794,0.0,10,0.5,0.5,0.8286942958831788,-0.05075,-0.0155,-0.5,-0.04680674652465941,10,1,100,0.07380054154586682,-10,-1,-100,15029.395956170047,-0.004053795251599065,-0.004624466451770231,0.9999810903482599,18.539507682608985,0.023149776785654108,17.0357287555474,-8.097967172094952,-100.9887924194336,5356.25390625,True
1599560085.923534,0.0,10,0.5,0.5,0.6822311996459961,-0.05075,-0.0155,-0.5,-0.04852529876913642,10,1,100,0.05376129182038743,-10,-1,-100,15029.199667520355,-0.004147079896610472,-0.004603545573454661,0.9999808043640058,18.616150930800888,0.023322538665617447,17.499176349094615,-8.283763241382811,-100.9979476928711,5356.25390625,True
1599560085.9533474,0.0,10,0.5,0.5,0.6220555667877197,-0.05075,-0.0155,-0.5,-0.045050125069493574,10,1,100,0.06265643653622864,-10,-1,-100,15028.856895401957,-0.004310527676114026,-0.004552710376531676,0.9999803458965485,18.74977218183198,0.023648850702744462,18.416578624031867,-8.655355268960138,-100.87214660644531,5356.25390625,True
1599560086.1469793,0.0,10,0.5,0.5,0.6956712749481201,-0.05075,-0.0155,-0.5,-0.050143202697610044,10,1,100,0.046537594596452916,-10,-1,-100,15028.856895401957,-0.004310527676114026,-0.004552710376531676,0.9999803458965485,18.74977218183198,0.023648850702744462,18.416578624031867,-8.655355268960138,-100.87214660644531,5356.25390625,True
1599560086.1751053,0.0,10,0.5,0.5,0.2458931510925293,-0.05075,-0.0155,-0.5,-0.03455168070552003,10,1,100,0.07552935972336627,-10,-1,-100,15028.157678105985,-0.004572336855256663,-0.004410954381223452,0.9999798184049161,18.93443720551229,0.02420912638849218,20.197641270096096,-9.398538663790468,-100.04071807861328,5356.25390625,True
1599560086.2121422,0.0,10,0.5,0.5,0.6672335559844971,-0.05075,-0.0155,-0.5,-0.04871147274560882,10,1,100,0.04955128647872796,-10,-1,-100,15028.157678105985,-0.004572336855256663,-0.004410954381223452,0.9999798184049161,18.93443720551229,0.02420912638849218,20.197641270096096,-9.398538663790468,-100.04071807861328,5356.25390625,True
1599560086.2999516,0.0,10,0.5,0.5,0.07149702262878421,-0.05075,-0.0155,-0.5,-0.033374504910217366,10,1,100,0.06511072820011161,-10,-1,-100,15027.548303071759,-0.004712217537000474,-0.004271717143817818,0.9999797735147082,19.00127041144852,0.024535242935686926,21.473376863350772,-9.955924225872403,-98.95275115966797,5356.25390625,True
1599560086.3587933,0.0,10,0.5,0.5,0.10938575630187986,-0.05075,-0.0155,-0.5,-0.034947379921571625,10,1,100,0.058942375221706866,-10,-1,-100,15027.13619325729,-0.004781995529817483,-0.004159792661504935,0.9999799141201619,19.014122694659928,0.024703472021889928,22.291632708854817,-10.327513379155912,-98.0351333618164,5356.25390625,True
1599560086.3897102,0.0,10,0.5,0.5,0.5660556240081788,-0.05075,-0.0155,-0.5,-0.046089480029836746,10,1,100,0.05211568972539298,-10,-1,-100,15027.13619325729,-0.004781995529817483,-0.004159792661504935,0.9999799141201619,19.014122694659928,0.024703472021889928,22.291632708854817,-10.327513379155912,-98.0351333618164,5356.25390625,True
1599560086.416638,0.0,10,0.5,0.5,0.004352954101562556,-0.05075,-0.0155,-0.5,-0.03314678816123906,10,1,100,0.05691547886081132,-10,-1,-100,15026.722130296868,-0.004824690220109821,-0.00404259050700805,0.9999801897169125,19.00029218594497,0.02482543286212396,23.078751893794436,-10.699101352624819,-97.02262115478516,5356.25390625,True
1599560086.4385798,0.0,10,0.5,0.5,-0.37926323547363283,-0.05075,-0.0155,-0.5,-0.022577536834816538,10,1,100,0.056059312396550445,-10,-1,-100,15026.041464397567,-0.004854741673679663,-0.0038405242189469492,0.9999808407449642,18.956308912912437,0.024948836763894904,24.22789977291787,-11.256480424059097,-95.41709899902344,5356.25390625,True
1599560086.4615188,0.0,10,0.5,0.5,0.4148617176055908,-0.05075,-0.0155,-0.5,-0.042705771417644256,10,1,100,0.05313426168177431,-10,-1,-100,15026.041464397567,-0.004854741673679663,-0.0038405242189469492,0.9999808407449642,18.956308912912437,0.024948836763894904,24.22789977291787,-11.256480424059097,-95.41709899902344,5356.25390625,True
1599560086.4873164,0.0,10,0.5,0.5,0.0813759662628174,-0.05075,-0.0155,-0.5,-0.03444483513448723,10,1,100,0.05320592190576566,-10,-1,-100,15025.833455910324,-0.004854749801373158,-0.0037661184539678014,0.999981123699921,18.93305976743597,0.02496925021535879,24.59864901298533,-11.442272323914862,-94.8272933959961,5356.25390625,True
1599560086.5202746,0.0,10,0.5,0.5,0.03448519783020021,-0.05075,-0.0155,-0.5,-0.03367162184658278,10,1,100,0.05260598293277179,-10,-1,-100,15025.623494149535,-0.004848808452135246,-0.0036921627212990484,0.9999814283230635,18.90246623308468,0.02497425598001733,24.958767669245837,-11.628063843162785,-94.22370910644531,5356.25390625,True
1599560086.5561104,0.0,10,0.5,0.5,-0.0008632705688476072,-0.05075,-0.0155,-0.5,-0.032664961816845826,10,1,100,0.05212195747334994,-10,-1,-100,15025.355915146298,-0.004838517647946018,-0.0036165610982891484,0.9999817544499463,18.867674330604967,0.024967521239770116,25.312010443239,-11.813854836427963,-93.6302719116211,5356.25390625,True
1599560086.5876248,0.0,10,0.5,0.5,-1.0720515659332275,-0.05075,-0.0155,-0.5,-0.0023783399582973166,10,1,100,0.04377899788741612,-10,-1,-100,15024.395949900732,-0.004753075301726694,-0.003273221599823284,0.9999833470091063,18.70790789858461,0.024845429779969477,26.68138810788196,-12.557011378215442,-91.16459655761719,5356.25390625,True
1599560086.6205745,0.0,10,0.5,0.5,0.14702812271118165,-0.05075,-0.0155,-0.5,-0.03659851652674373,10,1,100,0.05234130635399551,-10,-1,-100,15024.395949900732,-0.004753075301726694,-0.003273221599823284,0.9999833470091063,18.70790789858461,0.024845429779969477,26.68138810788196,-12.557011378215442,-91.16459655761719,5356.25390625,True
1599560086.6544495,0.0,10,0.5,0.5,-0.20922865180969236,-0.05075,-0.0155,-0.5,-0.02630485128158922,10,1,100,0.048791207174998186,-10,-1,-100,15024.123487704434,-0.00472076452940424,-0.0031805505480891473,0.9999837991089999,18.660923260367458,0.024786750383311133,27.009440263982775,-12.74279851364945,-90.53965759277344,5356.25390625,True
1599560086.690389,0.0,10,0.5,0.5,-0.5745866638183594,-0.05075,-0.0155,-0.5,-0.014879718547474857,10,1,100,0.04361351532039609,-10,-1,-100,15023.64008679206,-0.004644376838615093,-0.002993329514487452,0.9999847347545856,18.560718107070873,0.024636509487066204,27.650440632690223,-13.114369695069186,-89.33001708984375,5356.25390625,True
1599560086.7213054,0.0,10,0.5,0.5,-0.6166184810638428,-0.05075,-0.0155,-0.5,-0.010722945649852683,10,1,100,0.04079416848324009,-10,-1,-100,15023.094185707858,-0.004549428165460998,-0.0027864001513684526,0.9999857692375246,18.885063918828255,0.025017004555908683,28.933608775377596,-13.485933060578194,-88.18002319335938,5356.25390625,True
1599560086.754174,0.0,10,0.5,0.5,-0.6745515434265137,-0.05075,-0.0155,-0.5,-0.008065343309146236,10,1,100,0.03825994539317606,-10,-1,-100,15022.548284532153,-0.00444032303637001,-0.0025752645184862486,0.9999868256852149,19.27104902072326,0.025445958313510278,30.341519065151385,-13.85748579871237,-87.05569458007812,5356.25390625,True
1599560086.7880836,0.0,10,0.5,0.5,-0.41601728973388674,-0.05075,-0.0155,-0.5,-0.017256822805467843,10,1,100,0.04258338707137235,-10,-1,-100,15022.274845882668,-0.004380817314850269,-0.002468032174651224,0.9999873585485163,19.45853039582301,0.025640788268855103,31.049027834935146,-14.043257812380176,-86.52792358398438,5356.25390625,True
1599560086.8236492,0.0,10,0.5,0.5,-0.6868097938537598,-0.05075,-0.0155,-0.5,-0.003405353369960999,10,1,100,0.034199144144866245,-10,-1,-100,15021.663515146007,-0.0042509316544630206,-0.0022458734963368625,0.9999884427493687,19.810672619330354,0.02597740915138659,32.45066832577248,-14.414793233264351,-85.58212280273438,5356.25390625,True
1599560086.8541458,0.0,10,0.5,0.5,-0.6542101207733154,-0.05075,-0.0155,-0.5,-0.0005039684830322189,10,1,100,0.031398994013411896,-10,-1,-100,15021.110777491354,-0.004107946796685856,-0.0020189168761313913,0.9999895243190116,20.126275315538564,0.026238963228660827,33.82098825985451,-14.786316835063422,-84.80868530273438,5356.25390625,True
1599560086.8881757,0.0,10,0.5,0.5,-0.46313565254211425,-0.05075,-0.0155,-0.5,-0.010033463800904432,10,1,100,0.03716629920589945,-10,-1,-100,15020.781674396829,-0.004031064120143274,-0.0019007455841481356,0.9999900687948273,20.269369676697476,0.02634183789918043,34.49124616238574,-14.97207444010249,-84.47994995117188,5356.25390625,True
1599560086.9210572,0.0,10,0.5,0.5,-0.6031334327697755,-0.05075,-0.0155,-0.5,0.00391713170303731,10,1,100,0.027167442705618206,-10,-1,-100,15020.16643733962,-0.0038710061310363725,-0.0016680533736858336,0.9999911164152788,20.531186013152087,0.026501127023917246,35.807638342117265,-15.343580828764196,-83.95306396484375,5356.25390625,True
1599560086.9569936,0.0,10,0.5,0.5,-0.5413651565551758,-0.05075,-0.0155,-0.5,0.006746507592264694,10,1,100,0.024270278849855276,-10,-1,-100,15019.551200032467,-0.003699962896041972,-0.0014322526453872534,0.9999921294324909,20.75622645828093,0.02659705612190413,37.08078803270192,-15.715076164973999,-83.607177734375,5356.25390625,True
1599560086.9858818,0.0,10,0.5,0.5,-0.4424920738220215,-0.05075,-0.0155,-0.5,-0.003266655682104467,10,1,100,0.03132073042411447,-10,-1,-100,15019.212331847288,-0.003609521435272769,-0.0013105907121141146,0.999992626826315,20.855144435613536,0.02662308716704187,37.70002976459422,-15.900819842330888,-83.49395751953125,5356.25390625,True
1599560087.007858,0.0,10,0.5,0.5,-0.4550745986938477,-0.05075,-0.0155,-0.5,0.010855660991129324,10,1,100,0.019890934921160182,-10,-1,-100,15018.59709508752,-0.00342440491463221,-0.0010733042210509312,0.9999935607137825,21.03044773661247,0.026639990756601888,38.90961064132592,-16.272299275714325,-83.38815307617188,5356.25390625,True
1599560087.0307617,0.0,10,0.5,0.5,-0.3836161834716797,-0.05075,-0.0155,-0.5,0.013521394984788928,10,1,100,0.016957116250520154,-10,-1,-100,15017.915452166926,-0.003230555155156777,-0.0008351007613178923,0.9999944330445585,21.174377835467325,0.026612086133871872,40.07496285830801,-16.643768946890162,-83.43856811523438,5356.25390625,True
1599560087.056695,0.0,10,0.5,0.5,-0.41617295837402346,-0.05075,-0.0155,-0.5,-0.010103821049509912,10,1,100,0.03621020489703303,-10,-1,-100,15017.915452166926,-0.003230555155156777,-0.0008351007613178923,0.9999944330445585,21.174377835467325,0.026612086133871872,40.07496285830801,-16.643768946890162,-83.43856811523438,5356.25390625,True
1599560087.0905323,0.0,10,0.5,0.5,-0.3185643020629883,-0.05075,-0.0155,-0.5,0.016360202761336116,10,1,100,0.013764963750747782,-10,-1,-100,15017.238692422863,-0.003027607297355287,-0.0005961006937258087,0.9999952391176751,21.28949721805044,0.026546984971019535,41.197059571148614,-17.015229239603578,-83.6259765625,5356.25390625,True
1599560087.1214476,0.0,10,0.5,0.5,-0.24904394073486336,-0.05075,-0.0155,-0.5,0.01833503568288737,10,1,100,0.011026077302064778,-10,-1,-100,15016.556073270272,-0.002819440468018173,-0.00036257663433792624,0.9999959596386536,21.379798905483664,0.026453650037904345,42.28013637352113,-17.38668041810627,-83.93051147460938,5356.25390625,True
1599560087.1614184,0.0,10,0.5,0.5,-0.29700895233154295,-0.05075,-0.0155,-0.5,0.008552881792282113,10,1,100,0.019562546484275682,-10,-1,-100,15016.21525187546,-0.0027091035168103914,-0.0002409227946835345,0.9999963013503311,21.416628282004485,0.026398738240251633,42.8080263224597,-17.57240285454461,-84.12454223632812,5356.25390625,True
1599560087.1883028,0.0,10,0.5,0.5,-0.14169403839111328,-0.05075,-0.0155,-0.5,0.02162085138819835,10,1,100,0.006616838900474341,-10,-1,-100,15015.469156583073,-0.002492380622477737,-1.314502965434699e-05,0.9999968939281967,21.473908053133016,0.026275033094970996,43.83528599971802,-17.943841580256866,-84.58462524414062,5356.25390625,True
1599560087.2241414,0.0,10,0.5,0.5,-0.07411316680908209,-0.05075,-0.0155,-0.5,0.023834489162629494,10,1,100,0.0036486206637492344,-10,-1,-100,15014.785561485565,-0.002269774810475701,0.0002123336450902032,0.9999974015149905,21.512334048917577,0.02613926925137948,44.82842413629075,-18.3152721171529,-85.12472534179688,5356.25390625,True
1599560087.2550573,0.0,10,0.5,0.5,-0.3423471405029297,-0.05075,-0.0155,-0.5,0.001474660390052082,10,1,100,0.025749078731896788,-10,-1,-100,15014.785561485565,-0.002269774810475701,0.0002123336450902032,0.9999974015149905,21.512334048917577,0.02613926925137948,44.82842413629075,-18.3152721171529,-85.12472534179688,5356.25390625,True
1599560087.2880404,0.0,10,0.5,0.5,-0.0035244750976562433,-0.05075,-0.0155,-0.5,0.026038141810830223,10,1,100,0.0005130821140244095,-10,-1,-100,15014.035560465534,-0.0020416568303910122,0.00043414294319684316,0.999997821576273,21.534301336619546,0.025997394524962168,45.79013749915635,-18.68669518060643,-85.73565673828125,5356.25390625,True
1599560087.3217256,0.0,10,0.5,0.5,0.24101576385498047,-0.05075,-0.0155,-0.5,0.039344279780825324,10,1,100,-0.015084120834653283,-10,-1,-100,15012.886145284981,-0.001693909425875936,0.0007551665287889159,0.9999982801957064,21.54500094691999,0.025789291470919226,47.18806105933041,-19.24381626099724,-86.72799682617188,5356.25390625,True
1599560087.357722,0.0,10,0.5,0.5,-0.24997752227783204,-0.05075,-0.0155,-0.5,0.007424768296602036,10,1,100,0.019517570067978707,-10,-1,-100,15012.886145284981,-0.001693909425875936,0.0007551665287889159,0.9999982801957064,21.54500094691999,0.025789291470919226,47.18806105933041,-19.24381626099724,-86.72799682617188,5356.25390625,True
1599560087.3856444,0.0,10,0.5,0.5,0.1618471435546875,-0.05075,-0.0155,-0.5,0.030221916516805763,10,1,100,-0.006516257641977767,-10,-1,-100,15012.072668113862,-0.0014586352155393143,0.0009609676332543072,0.9999984744610945,21.535423953353405,0.02565491720536121,48.08385502824282,-19.61522140511253,-87.46649169921875,5356.25390625,True
1599560087.4085922,0.0,10,0.5,0.5,0.3942506652832031,-0.05075,-0.0155,-0.5,0.041747910938534055,10,1,100,-0.02171173726854298,-10,-1,-100,15010.910558197764,-0.0011082196822096266,0.0012512085244253091,0.9999986031622066,21.510211613011357,0.025482392554862662,49.401708742898975,-20.172316133343948,-88.54757690429688,5356.25390625,True
1599560087.431528,0.0,10,0.5,0.5,-0.13866345672607422,-0.05075,-0.0155,-0.5,0.01290855274324898,10,1,100,0.013137877302911218,-10,-1,-100,15010.910558197764,-0.0011082196822096266,0.0012512085244253091,0.9999986031622066,21.510211613011357,0.025482392554862662,49.401708742898975,-20.172316133343948,-88.54757690429688,5356.25390625,True
1599560087.457459,0.0,10,0.5,0.5,0.07346114196777342,-0.05075,-0.0155,-0.5,0.023713661172187078,10,1,100,-0.00035441425505363354,-10,-1,-100,15010.504308479838,-0.0009871181414879539,0.0013479697054531435,0.9999986042867499,21.501610717477213,0.025436007211331206,49.8399835533343,-20.358010829396076,-88.91973876953125,5356.25390625,True
1599560087.4914954,0.0,10,0.5,0.5,0.29363926391601564,-0.05075,-0.0155,-0.5,0.03323498987266906,10,1,100,-0.013320836104881896,-10,-1,-100,15009.688878943794,-0.0007607147107201058,0.0015210475013917957,0.9999985538627681,21.477857438963984,0.025353801756980005,50.70021442756399,-20.729395113959367,-89.64389038085938,5356.25390625,True
1599560087.5224135,0.0,10,0.5,0.5,0.13354099655151366,-0.05075,-0.0155,-0.5,0.025969529064957926,10,1,100,-0.004095681358935585,-10,-1,-100,15009.221105529228,-0.0006403326949049901,0.0016109465880558818,0.9999984974114363,21.46892130680121,0.025325174182134542,51.1366979326187,-20.915084533406088,-89.99638366699219,5356.25390625,True
1599560087.5556333,0.0,10,0.5,0.5,0.5482609092712403,-0.05075,-0.0155,-0.5,0.04432336227153388,10,1,100,-0.030419839832274025,-10,-1,-100,15007.988684343756,-0.00029306527814778146,0.0018582545933166817,0.9999982304997389,21.66473858349726,0.025538381578518385,52.98887240683414,-21.47213985818599,-91.05569458007812,5356.25390625,True
1599560087.5886164,0.0,10,0.5,0.5,0.027798455047607428,-0.05075,-0.0155,-0.5,0.01975715384027653,10,1,100,0.004109230890214042,-10,-1,-100,15007.988684343756,-0.00029306527814778146,0.0018582545933166817,0.9999982304997389,21.66473858349726,0.025538381578518385,52.98887240683414,-21.47213985818599,-91.05569458007812,5356.25390625,True
1599560087.6255243,0.0,10,0.5,0.5,0.5481581439971924,-0.05075,-0.0155,-0.5,0.0442882154702868,10,1,100,-0.0328228993354083,-10,-1,-100,15006.640052581672,4.10917315831096e-05,0.002079969597543939,0.9999978360166301,22.059592098588784,0.026039230163523202,55.366418490414524,-22.029167622924717,-91.98554229736328,5356.25390625,True
1599560087.655411,0.0,10,0.5,0.5,0.09138348083496095,-0.05075,-0.0155,-0.5,0.022249195354436587,10,1,100,0.00041930152193490465,-10,-1,-100,15006.640052581672,4.10917315831096e-05,0.002079969597543939,0.9999978360166301,22.059592098588784,0.026039230163523202,55.366418490414524,-22.029167622924717,-91.98554229736328,5356.25390625,True
1599560087.6893227,0.0,10,0.5,0.5,0.584392854309082,-0.05075,-0.0155,-0.5,0.05021535954714668,10,1,100,-0.04555071334711831,-10,-1,-100,15004.868570130202,0.0004574236838859034,0.0023330030874151625,0.9999971739260903,22.52172304952294,0.026699384422901214,58.44937108941817,-22.771827627290534,-92.86590576171875,5356.25390625,True
1599560087.7225096,0.0,10,0.5,0.5,0.15258021392822266,-0.05075,-0.0155,-0.5,0.02504921410544041,10,1,100,-0.0041091240067814595,-10,-1,-100,15004.868570130202,0.0004574236838859034,0.0023330030874151625,0.9999971739260903,22.52172304952294,0.026699384422901214,58.44937108941817,-22.771827627290534,-92.86590576171875,5356.25390625,True
1599560087.75854,0.0,10,0.5,0.5,0.32881984634399414,-0.05075,-0.0155,-0.5,0.03773525888345048,10,1,100,-0.026845865128104877,-10,-1,-100,15003.921305630472,0.0006626980182923931,0.002447347317612536,0.9999967856560558,22.72287461334461,0.027015813712596565,59.942082015362864,-23.14313968559687,-93.17375183105469,5356.25390625,True
1599560087.7885332,0.0,10,0.5,0.5,0.24828075027465824,-0.05075,-0.0155,-0.5,0.03151855157294238,10,1,100,-0.016155024478457184,-10,-1,-100,15003.451579831308,0.0007505116639374028,0.00249369369788445,0.9999966091062426,22.8197163523043,0.02717394566682418,60.68509251938614,-23.328791314545075,-93.29397583007812,5356.25390625,True
1599560087.823485,0.0,10,0.5,0.5,0.27696549034118656,-0.05075,-0.0155,-0.5,0.03694637567788123,10,1,100,-0.027446649213089404,-10,-1,-100,15002.50040860381,0.0009314137213791361,0.0025841290590925144,0.9999962273656264,22.997228540508495,0.02747737929363818,62.14011867301735,-23.70008597542454,-93.4428939819336,5356.25390625,True
1599560087.8563988,0.0,10,0.5,0.5,0.23177418060302735,-0.05075,-0.0155,-0.5,0.03244668702752156,10,1,100,-0.01887228767897084,-10,-1,-100,15002.02677634044,0.0010163830974413619,0.0026244703255895755,0.9999960395526122,23.079162433889625,0.027623233542027052,62.85488722794888,-23.885729118453337,-93.48534393310547,5356.25390625,True
1599560087.893063,0.0,10,0.5,0.5,0.22764254684448243,-0.05075,-0.0155,-0.5,0.03640141446865176,10,1,100,-0.028484279955671744,-10,-1,-100,15001.076581940637,0.0011795036274748968,0.002696174886653966,0.9999956696967109,23.23165173353196,0.027904068022427807,64.26375400821365,-24.25700698727383,-93.50656127929688,5356.25390625,True
1599560087.9240136,0.0,10,0.5,0.5,0.19048667449951173,-0.05075,-0.0155,-0.5,0.035768845514667566,10,1,100,-0.02873538514674104,-10,-1,-100,15000.118575176923,0.001328739093873629,0.0027548484786823397,0.9999953226202011,23.37030726300372,0.028169589380047565,65.647206937131,-24.628274087865243,-93.45146179199219,5356.25390625,True
1599560087.956036,0.0,10,0.5,0.5,0.10522307052612306,-0.05075,-0.0155,-0.5,0.03737378490097933,10,1,100,-0.03666520449149936,-10,-1,-100,14998.566818665015,0.0015350225988502598,0.0028219633805060904,0.9999948401008377,23.55476023337662,0.02853607414032389,67.67779800615169,-25.185155253811086,-93.23988342285156,5356.25390625,True
1599560087.9899502,0.0,10,0.5,0.5,0.09238747978210451,-0.05075,-0.0155,-0.5,0.03398609479810842,10,1,100,-0.029434714925607446,-10,-1,-100,14997.5492411413,0.0016554632156233911,0.0028515052050625263,0.9999945641650296,23.663804082443008,0.028757599294499808,69.00460539488205,-25.556396670068892,-93.02096557617188,5356.25390625,True
1599560088.0262692,0.0,10,0.5,0.5,0.2034513092041016,-0.05075,-0.0155,-0.5,0.031109065903216694,10,1,100,-0.01755209039669834,-10,-1,-100,14997.5492411413,0.0016554632156233911,0.0028515052050625263,0.9999945641650296,23.663804082443008,0.028757599294499808,69.00460539488205,-25.556396670068892,-93.02096557617188,5356.25390625,True
1599560088.0561893,0.0,10,0.5,0.5,0.059793759918212896,-0.05075,-0.0155,-0.5,0.03306933335612605,10,1,100,-0.029206780029819038,-10,-1,-100,14996.535569953034,0.001760325812713818,0.0028688544527092955,0.9999943354475376,23.76356945330923,0.028960386013342825,70.31372927437164,-25.92762813001201,-92.75968933105469,5356.25390625,True
