Timestamp,Input Throttle,horizon,dT,dt,Input Roll,Roll P,Roll I,Roll D,Input Pitch,Pitch P,Pitch I,Pitch D,Input Yaw,Yaw P,Yaw I,Yaw D,Altitude,Direction X,Direction Y,Direction Z,Drag X,Drag Y,Drag Z,Vertical Velocity,Roll,Mass,Has Fuel
1599563650.827382,0.0,10,0.5,0.5,-11.641651519775392,-0.2,-0.0155,-0.001,-0.00029343308634626397,10,1,100,0.174886108447326,-10,-1,-100,14995.089634028147,-0.016807303216408696,-7.492681244750201e-05,0.9998587444957234,28.50858393445853,0.02712404816306526,-85.88482131992167,26.637682169135083,-31.791748046875,5356.25390625,True
1599563650.866278,0.0,10,0.5,0.5,-11.731995861816408,-0.2,-0.0155,-0.001,-0.00046836133873228727,10,1,100,0.17366206917776777,-10,-1,-100,14995.574011451215,-0.016842833277245423,-7.230499911125216e-05,0.999858146808427,28.436024459649957,0.02728696592273532,-85.06976876841063,26.45172250951587,-31.7911376953125,5356.25390625,True
1599563650.905174,0.0,10,0.5,0.5,-11.794646508789064,-0.2,-0.0155,-0.001,0.0076199083816701615,10,1,100,0.18401197446781714,-10,-1,-100,14997.694134598016,-0.016953911714027218,3.673924106371097e-06,0.9998562721031935,28.149898856759005,0.02792657984733966,-81.8519487725936,25.70792300454921,-31.928314208984375,5356.25390625,True
1599563650.945067,0.0,10,0.5,0.5,-11.852118803405762,-0.2,-0.0155,-0.001,0.004162834474117666,10,1,100,0.176636503373842,-10,-1,-100,14998.175579874078,-0.01697242972687087,4.131438794090922e-05,0.9998559570869636,28.085546111641,0.028087965219826247,-81.0757116540306,25.521982513591098,-32.09088134765625,5356.25390625,True
1599563650.9857798,0.0,10,0.5,0.5,-11.76252188873291,-0.2,-0.0155,-0.001,0.020497067421744838,10,1,100,0.1778801276680202,-10,-1,-100,14999.68632354238,-0.0169851404778332,0.0002239884596889719,0.9998557170072682,27.92257055876264,0.02857767009891314,-78.84809884305989,24.964182173594224,-32.9840087890625,5356.25390625,True
1599563651.0296624,0.0,10,0.5,0.5,-11.663278694152833,-0.2,-0.0155,-0.001,0.022515123388831364,10,1,100,0.17518357313300298,-10,-1,-100,15000.650189723936,-0.01695674053704622,0.00040819813510646185,0.9998561408145883,27.837527716725404,0.028899162804799473,-77.44003269388847,24.592331343113614,-33.921875,5356.25390625,True
1599563651.068597,0.0,10,0.5,0.5,-11.507395710754396,-0.2,-0.0155,-0.001,0.029707288033095698,10,1,100,0.17217004224454086,-10,-1,-100,15001.679483899614,-0.016888111455038362,0.0006406737021292135,0.999857180415628,27.767259234589815,0.029203709103939286,-76.07952135447717,24.22049250667983,-35.134521484375,5356.25390625,True
1599563651.109997,0.0,10,0.5,0.5,-11.59364984893799,-0.2,-0.0155,-0.001,0.0065237987010334526,10,1,100,0.18072176159083062,-10,-1,-100,15001.679483899614,-0.016888111455038362,0.0006406737021292135,0.999857180415628,27.767259234589815,0.029203709103939286,-76.07952135447717,24.22049250667983,-35.134521484375,5356.25390625,True
1599563651.1509192,0.0,10,0.5,0.5,-11.025478144836427,-0.2,-0.0155,-0.001,0.07293902707443842,10,1,100,0.15471204816245865,-10,-1,-100,15003.546661859262,-0.016636306686184946,0.0012438660748855049,0.9998608333648392,27.649954695976895,0.029703055102223833,-73.43768472547058,23.476848861439176,-38.38433837890625,5356.25390625,True
1599563651.1913004,0.0,10,0.5,0.5,-11.108732237243654,-0.2,-0.0155,-0.001,0.012744176406297837,10,1,100,0.18155615571641878,-10,-1,-100,15003.546661859262,-0.016636306686184946,0.0012438660748855049,0.9998608333648392,27.649954695976895,0.029703055102223833,-73.43768472547058,23.476848861439176,-38.38433837890625,5356.25390625,True
1599563651.2321885,0.0,10,0.5,0.5,-10.314489564514162,-0.2,-0.0155,-0.001,0.09680470584130337,10,1,100,0.13620277141642112,-10,-1,-100,15005.415787562728,-0.016208879277379344,0.002006921918772023,0.9998666133524928,27.515121728720953,0.029931684031939593,-70.77018359805653,22.73325037717733,-42.73382568359375,5356.25390625,True
1599563651.2735972,0.0,10,0.5,0.5,-10.301878831481934,-0.2,-0.0155,-0.001,0.02070730632577352,10,1,100,0.17888566990307833,-10,-1,-100,15005.415787562728,-0.016208879277379344,0.002006921918772023,0.9998666133524928,27.515121728720953,0.029931684031939593,-70.77018359805653,22.73325037717733,-42.73382568359375,5356.25390625,True
1599563651.3165097,0.0,10,0.5,0.5,-9.18956949005127,-0.2,-0.0155,-0.001,0.1188138305637037,10,1,100,0.11047466026602035,-10,-1,-100,15007.156978501356,-0.015587537329769604,0.0028969092055551307,0.9998743103995862,27.28699917677571,0.029717232615825942,-67.89303137121838,21.9897030101594,-48.183319091796875,5356.25390625,True
1599563651.358399,0.0,10,0.5,0.5,-9.169823725891113,-0.2,-0.0155,-0.001,0.030104425413537805,10,1,100,0.17247221758856857,-10,-1,-100,15007.156978501356,-0.015587537329769604,0.0028969092055551307,0.9998743103995862,27.28699917677571,0.029717232615825942,-67.89303137121838,21.9897030101594,-48.183319091796875,5356.25390625,True
1599563651.401248,0.0,10,0.5,0.5,-8.178230422973634,-0.2,-0.0155,-0.001,0.11062841649492684,10,1,100,0.10590808710387414,-10,-1,-100,15008.478248857195,-0.01498366786390611,0.0036263494928244727,0.9998811625821842,26.998130839793873,0.029165768504349824,-65.47467794447637,21.432084690259202,-52.992523193359375,5356.25390625,True
1599563651.441175,0.0,10,0.5,0.5,-7.8021043716430665,-0.2,-0.0155,-0.001,0.06378732543408941,10,1,100,0.14083388291071733,-10,-1,-100,15008.898164556362,-0.014754022377377806,0.0038605558706679565,0.9998837007032654,26.870324696183225,0.028897039748010184,-64.60089294587321,21.246221732947507,-54.733428955078125,5356.25390625,True
1599563651.4837124,0.0,10,0.5,0.5,-6.23369323425293,-0.2,-0.0155,-0.001,0.15017188797201164,10,1,100,0.047631448685130834,-10,-1,-100,15010.575871564448,-0.01369996136771917,0.0048556464574744515,0.9998943612982337,26.152621624911102,0.027379758440325842,-60.680533452611435,20.50283013704959,-62.3846435546875,5356.25390625,True
1599563651.5255997,0.0,10,0.5,0.5,-6.199106759643555,-0.2,-0.0155,-0.001,0.05108432656689666,10,1,100,0.1527187346422626,-10,-1,-100,15010.575871564448,-0.01369996136771917,0.0048556464574744515,0.9998943612982337,26.152621624911102,0.027379758440325842,-60.680533452611435,20.50283013704959,-62.3846435546875,5356.25390625,True
1599563651.5654936,0.0,10,0.5,0.5,-5.3049009307861335,-0.2,-0.0155,-0.001,0.10636367704608408,10,1,100,0.08510984695672003,-10,-1,-100,15011.354176607449,-0.013088233434293618,0.005354354213871296,0.9999000095192128,25.641838425698804,0.02636543537543435,-58.41958307719575,20.13117767699302,-66.623291015625,5356.25390625,True
1599563651.6064181,0.0,10,0.5,0.5,-3.3950902099609377,-0.2,-0.0155,-0.001,0.1553951981716554,10,1,100,-0.003563000139020722,-10,-1,-100,15012.97328682046,-0.011729225860538102,0.0062497291952472705,0.9999116791725651,24.233856795378145,0.023936212148930085,-53.17881976947765,19.38797992899359,-75.92816162109375,5356.25390625,True
1599563651.649308,0.0,10,0.5,0.5,-2.327885168457031,-0.2,-0.0155,-0.001,0.10974633643670335,10,1,100,0.0507235051556449,-10,-1,-100,15013.68420890125,-0.010991739096916999,0.006644166014252809,0.9999175149629095,23.30371549861663,0.022598869752634188,-50.160482588295025,19.016440627514676,-80.99441528320312,5356.25390625,True
1599563651.69016,0.0,10,0.5,0.5,-1.19983592376709,-0.2,-0.0155,-0.001,0.10861490183132727,10,1,100,0.04186046253514937,-10,-1,-100,15014.461537751602,-0.010245466324511912,0.006988243495031261,0.9999230944790942,22.240057612831414,0.02127667409698011,-46.938470080263826,18.64494180259285,-86.33676147460938,5356.25390625,True
1599563651.7310498,0.0,10,0.5,0.5,-1.137593719482422,-0.2,-0.0155,-0.001,0.07470528591110802,10,1,100,0.11589139848037133,-10,-1,-100,15014.461537751602,-0.010245466324511912,0.006988243495031261,0.9999230944790942,22.240057612831414,0.02127667409698011,-46.938470080263826,18.64494180259285,-86.33676147460938,5356.25390625,True
1599563651.770979,0.0,10,0.5,0.5,0.050772090148925815,-0.2,-0.0155,-0.001,0.11035010378226062,10,1,100,0.028009398637677874,-10,-1,-100,15015.175390378805,-0.009451395481401297,0.007308567899051306,0.999928625432195,21.054254435515844,0.020031777151090974,-43.553011361938545,18.273479960732907,-91.9548110961914,5356.25390625,True
1599563651.8178189,0.0,10,0.5,0.5,1.2977408275604247,-0.2,-0.0155,-0.001,0.1077072300701103,10,1,100,0.01906366967918785,-10,-1,-100,15015.88924403023,-0.008653766398812981,0.007571735179237711,0.9999338883913729,22.034753493383107,0.021052862539117204,-44.65730768852865,17.902022140810978,-97.84904479980469,5356.25390625,True
1599563651.8577454,0.0,10,0.5,0.5,2.6015837055206297,-0.2,-0.0155,-0.001,0.10605768617417222,10,1,100,0.005560887212269952,-10,-1,-100,15016.602121062228,-0.007811650939001707,0.0077923955933655396,0.9999391264874695,23.014182028456748,0.022245464582197432,-45.67704571365014,17.53055142442426,-104.01924133300781,5356.25390625,True
1599563651.9025927,0.0,10,0.5,0.5,5.178831893539428,-0.2,-0.0155,-0.001,0.11626238333761854,10,1,100,-0.09126421361822712,-10,-1,-100,15017.966354473145,-0.006172174487476372,0.008082191544310625,0.9999482898840006,24.44233642726511,0.024372070827558188,-46.46034870730575,16.78755922267359,-116.49200439453125,5356.25390625,True
1599563651.9444804,0.0,10,0.5,0.5,5.250225539779663,-0.2,-0.0155,-0.001,0.0876054427517936,10,1,100,0.07193065284628213,-10,-1,-100,15017.966354473145,-0.006172174487476372,0.008082191544310625,0.9999482898840006,24.44233642726511,0.024372070827558188,-46.46034870730575,16.78755922267359,-116.49200439453125,5356.25390625,True
1599563651.9883628,0.0,10,0.5,0.5,6.524637252426148,-0.2,-0.0155,-0.001,0.09682203955484342,10,1,100,-0.01832995711107785,-10,-1,-100,15018.61966390512,-0.005358466930482411,0.0081630455651685,0.9999523246231572,24.93302993685236,0.025181525948972456,-46.34642065182417,16.416042024405098,-122.41511535644531,5356.25390625,True
1599563652.325461,0.0,10,0.5,0.5,7.741119340896606,-0.2,-0.0155,-0.001,0.09553449562894495,10,1,100,-0.02143213923460039,-10,-1,-100,15019.27102171001,-0.004597558192550252,0.008222290919939038,0.9999556272108748,25.24156405795545,0.02569887997464533,-45.860110773614764,16.044518508401406,-128.06649780273438,5356.25390625,True
1599563652.35937,0.0,10,0.5,0.5,8.897086761856078,-0.2,-0.0155,-0.001,0.08875734054277128,10,1,100,-0.03322670688813382,-10,-1,-100,15019.918474815553,-0.003805082968187065,0.008212746594651866,0.9999590352294324,25.360238492260454,0.02588255712091301,-45.010763461389885,15.672996771244993,-133.44363403320312,5356.25390625,True
1599563652.3962884,0.0,10,0.5,0.5,9.99838010597229,-0.2,-0.0155,-0.001,0.08832015286949604,10,1,100,-0.03416664406157706,-10,-1,-100,15020.50831115013,-0.0030826393863971654,0.008198669519560662,0.9999616388404721,25.312769670776255,0.025747198188823518,-43.863465309081626,15.301484790104961,-138.5449981689453,5356.25390625,True
1599563652.4322286,0.0,10,0.5,0.5,10.56612336845398,-0.2,-0.0155,-0.001,0.087972356415763,10,1,100,-0.0017201695436950687,-10,-1,-100,15020.862799337949,-0.0027273521048762884,0.008181610005330605,0.9999628107125867,25.233516253127583,0.025569743910498342,-43.19626077718256,15.11573481054984,-140.99237060546875,5356.25390625,True
1599563652.4880433,0.0,10,0.5,0.5,11.590711571884157,-0.2,-0.0155,-0.001,0.08394475652471295,10,1,100,-0.04261444723142973,-10,-1,-100,15021.453614161699,-0.0020394321556230265,0.008128401932920734,0.9999648842826929,24.97751428476209,0.025025484136903007,-41.709043771341555,14.744250798855818,-145.68052673339844,5356.25390625,True
1599563652.5444825,0.0,10,0.5,0.5,12.556248805999756,-0.2,-0.0155,-0.001,0.08044084108868778,10,1,100,-0.04727036369336457,-10,-1,-100,15021.97704716737,-0.0013784620187622702,0.008047431877644378,0.9999666687858337,24.62153588671701,0.024287248712287077,-40.08061562348539,14.37279193739704,-150.0932159423828,5356.25390625,True
1599563652.584406,0.0,10,0.5,0.5,12.632814582061767,-0.2,-0.0155,-0.001,0.08858541628616404,10,1,100,0.018099119554705993,-10,-1,-100,15021.97704716737,-0.0013784620187622702,0.008047431877644378,0.9999666687858337,24.62153588671701,0.024287248712287077,-40.08061562348539,14.37279193739704,-150.0932159423828,5356.25390625,True
1599563652.6287706,0.0,10,0.5,0.5,14.311793726348876,-0.2,-0.0155,-0.001,0.07039751333076036,10,1,100,-0.11534200799258157,-10,-1,-100,15023.08934612677,-0.00017120921280532807,0.007881855454155,0.9999689230381138,23.792711518606907,0.022554487360410137,-36.7331513679551,13.629956949121894,-158.09104919433594,5356.25390625,True
1599563652.6696615,0.0,10,0.5,0.5,15.089007978820801,-0.2,-0.0155,-0.001,0.07396322079602603,10,1,100,-0.056699861776247404,-10,-1,-100,15023.676257917541,0.00038772749493915307,0.00776392907893085,0.9999697850798528,23.305284321980274,0.021614444019298212,-35.00201072545415,13.258581838887466,-161.67678833007812,5356.25390625,True
1599563652.710749,0.0,10,0.5,0.5,15.155458654785157,-0.2,-0.0155,-0.001,0.0857240320719031,10,1,100,-0.0014621812000408388,-10,-1,-100,15023.676257917541,0.00038772749493915307,0.00776392907893085,0.9999697850798528,23.305284321980274,0.021614444019298212,-35.00201072545415,13.258581838887466,-161.67678833007812,5356.25390625,True
1599563652.7506425,0.0,10,0.5,0.5,16.49119944076538,-0.2,-0.0155,-0.001,0.06886027391439281,10,1,100,-0.11241180625957915,-10,-1,-100,15024.664537852048,0.0013911366369118454,0.007610985019759154,0.9999700683749921,22.22917579481013,0.019767444575944225,-31.51895687756372,12.515910615936686,-168.01950073242188,5356.25390625,True
1599563652.7905357,0.0,10,0.5,0.5,16.546783882904055,-0.2,-0.0155,-0.001,0.0840935492415444,10,1,100,-0.012669761545256128,-10,-1,-100,15024.664537852048,0.0013911366369118454,0.007610985019759154,0.9999700683749921,22.22917579481013,0.019767444575944225,-31.51895687756372,12.515910615936686,-168.01950073242188,5356.25390625,True
1599563652.8324246,0.0,10,0.5,0.5,17.65343969345093,-0.2,-0.0155,-0.001,0.06994996016764687,10,1,100,-0.10920250546213921,-10,-1,-100,15025.649891306879,0.0022639832001516017,0.007482953993246352,0.9999694394228277,21.116976308656568,0.018155252396357867,-28.168352565451304,11.773328144960205,-173.2586212158203,5356.25390625,True
1599563652.87132,0.0,10,0.5,0.5,18.14541447982788,-0.2,-0.0155,-0.001,0.07494156492364318,10,1,100,-0.06504184280156358,-10,-1,-100,15026.114736100542,0.002651158940194739,0.007412591026494966,0.9999690119451441,20.57968044734939,0.017477137070794294,-26.58729898465331,11.402062797757232,-175.46463012695312,5356.25390625,True
1599563652.912255,0.0,10,0.5,0.5,18.196640473175048,-0.2,-0.0155,-0.001,0.08190095970089825,10,1,100,-0.026862119901756933,-10,-1,-100,15026.114736100542,0.002651158940194739,0.007412591026494966,0.9999690119451441,20.57968044734939,0.017477137070794294,-26.58729898465331,11.402062797757232,-175.46463012695312,5356.25390625,True
1599563652.9531443,0.0,10,0.5,0.5,18.962941331481936,-0.2,-0.0155,-0.001,0.08003909900534675,10,1,100,-0.1028869376516934,-10,-1,-100,15026.975093060522,0.0033380294732888727,0.00739631575735943,0.999967075494215,19.593297530190263,0.016398639916634913,-23.66687787941077,10.659569655825173,-179.04739379882812,5356.25390625,True
1599563652.9950342,0.0,10,0.5,0.5,-53.07886299667359,-0.2,-0.0155,-0.001,0.08184074925032318,10,1,100,-0.0672517891671147,-10,-1,-100,15027.370603496325,0.0036342136157945957,0.007398490620481715,0.9999660268368789,19.328063623980903,0.016134632962066024,-22.534450041647588,10.288335659591528,179.5749969482422,5356.25390625,True
1599563653.0359213,0.0,10,0.5,0.5,-53.23122633590699,-0.2,-0.0155,-0.001,0.08155836881237839,10,1,100,-0.03813464247999808,-10,-1,-100,15027.370603496325,0.0036342136157945957,0.007398490620481715,0.9999660268368789,19.328063623980903,0.016134632962066024,-22.534450041647588,10.288335659591528,179.5749969482422,5356.25390625,True
1599563653.0758588,0.0,10,0.5,0.5,-53.31088194656372,-0.2,-0.0155,-0.001,0.09398334794099045,10,1,100,-0.09421806408772976,-10,-1,-100,15028.16943878564,0.004140603427838884,0.007511884398772437,0.9999632128213682,19.520195120504376,0.016321957649718246,-21.11789939167885,9.545872538485748,177.36740112304688,5356.25390625,True
1599563653.1171482,0.0,10,0.5,0.5,-53.56954173660279,-0.2,-0.0155,-0.001,0.09105689575354806,10,1,100,-0.06687375653084199,-10,-1,-100,15028.567880173447,0.00434896148287753,0.007588594672496488,0.9999617491508949,19.616926327971445,0.016461858514503835,-20.39804639763938,9.174640619484233,176.0287628173828,5356.25390625,True
1599563653.1590083,0.0,10,0.5,0.5,-54.09432397918702,-0.2,-0.0155,-0.001,0.08336833494049951,10,1,100,-0.046434074425771216,-10,-1,-100,15028.567880173447,0.00434896148287753,0.007588594672496488,0.9999617491508949,19.616926327971445,0.016461858514503835,-20.39804639763938,9.174640619484233,176.0287628173828,5356.25390625,True
1599563653.199899,0.0,10,0.5,0.5,-54.304669542694086,-0.2,-0.0155,-0.001,0.09707547202525217,10,1,100,-0.06610662854771739,-10,-1,-100,15028.904798642616,0.004525113952307981,0.007713225364491751,0.9999600139496556,19.748657867361565,0.016664837490700135,-19.704876847635376,8.8034062961245,174.42214965820312,5356.25390625,True
1599563653.2442956,0.0,10,0.5,0.5,-54.458974242401126,-0.2,-0.0155,-0.001,0.0994925137952898,10,1,100,-0.06500905925354712,-10,-1,-100,15029.242693700944,0.004672425587920119,0.007848406154810757,0.9999582846098903,19.911938392594166,0.016930320433522383,-19.030675080298586,8.432167749074656,172.54112243652344,5356.25390625,True
1599563653.285186,0.0,10,0.5,0.5,-54.0747892692566,-0.2,-0.0155,-0.001,0.12485777982452075,10,1,100,-0.07332257001803849,-10,-1,-100,15029.851102282293,0.004879733134164922,0.008201558880674167,0.9999544602813002,20.31919399756475,0.01763478559007598,-17.71108641309464,7.689671161546786,167.9537811279297,5356.25390625,True
1599563653.327588,0.0,10,0.5,0.5,-54.067681480407714,-0.2,-0.0155,-0.001,0.11380475088079922,10,1,100,-0.05945570864220156,-10,-1,-100,15030.18509194185,0.004940106187158071,0.008421407488466908,0.9999523364874812,20.60334046899732,0.018100770716064127,-17.092236882130805,7.318410467731645,165.24734497070312,5356.25390625,True
1599563653.3694751,0.0,10,0.5,0.5,-53.9992087020874,-0.2,-0.0155,-0.001,0.12022815582928804,10,1,100,-0.056173980998936404,-10,-1,-100,15030.457559322123,0.004963076031988556,0.00867874734375387,0.9999500223615397,20.88884589458065,0.01858627560443353,-16.450450291051624,6.947140352777298,162.26583862304688,5356.25390625,True
1599563653.4094036,0.0,10,0.5,0.5,-53.87662623138428,-0.2,-0.0155,-0.001,0.1259261523611437,10,1,100,-0.0538489815177085,-10,-1,-100,15030.731002928107,0.004961344035133562,0.00896332678831671,0.9999475205420786,21.161677925751942,0.01906729032373154,-15.77509754059665,6.575861069228814,159.00912475585938,5356.25390625,True
1599563653.4512565,0.0,10,0.5,0.5,-53.84800584335328,-0.2,-0.0155,-0.001,0.09762469152164323,10,1,100,-0.0541548942451418,-10,-1,-100,15030.731002928107,0.004961344035133562,0.00896332678831671,0.9999475205420786,21.161677925751942,0.01906729032373154,-15.77509754059665,6.575861069228814,159.00912475585938,5356.25390625,True
1599563653.4931452,0.0,10,0.5,0.5,-52.73057661743164,-0.2,-0.0155,-0.001,0.15247491850014488,10,1,100,-0.04727269621638157,-10,-1,-100,15031.110897569917,0.00489757211630907,0.009460542637059602,0.9999432543501546,21.605867386627704,0.019807439285515184,-14.742696888647254,6.018925972843947,153.60836791992188,5356.25390625,True
1599563653.5355694,0.0,10,0.5,0.5,-51.48920055541992,-0.2,-0.0155,-0.001,0.1663456858458227,10,1,100,-0.04100680562723903,-10,-1,-100,15031.427316377289,0.004781946849577809,0.010036883422479041,0.9999381950678209,21.96880865615046,0.02041509578636899,-13.603736117961004,5.461975250690131,147.58871459960938,5356.25390625,True
1599563653.581447,0.0,10,0.5,0.5,-50.575437419891365,-0.2,-0.0155,-0.001,0.15756904104177247,10,1,100,-0.03895132643539391,-10,-1,-100,15031.6353343972,0.0046577531731992515,0.010478816193959909,0.9999342477115937,22.192896023582023,0.020750268880808487,-12.808571685810076,5.090668254324355,143.23199462890625,5356.25390625,True
1599563653.624332,0.0,10,0.5,0.5,-49.59800919799805,-0.2,-0.0155,-0.001,0.1671561308134518,10,1,100,-0.035099256585599335,-10,-1,-100,15031.845307132346,0.004509550294502138,0.010965101146392816,0.9999297127863492,22.315558048802977,0.02093981808713929,-11.940213038015152,4.719356873513814,138.60040283203125,5356.25390625,True
1599563653.6702096,0.0,10,0.5,0.5,-48.56091789398194,-0.2,-0.0155,-0.001,0.17737216989317248,10,1,100,-0.031116066028451923,-10,-1,-100,15031.99278133316,0.0043386237303105184,0.011497095207709373,0.9999244937223569,22.305505774329724,0.020954764983826802,-10.99603885201488,4.34804005266764,133.69393920898438,5356.25390625,True
1599563653.7111003,0.0,10,0.5,0.5,-47.46419960250855,-0.2,-0.0155,-0.001,0.18916007253103267,10,1,100,-0.026240204557078838,-10,-1,-100,15032.202757934341,0.004139213387539845,0.012084571933747791,0.999918411688529,22.1375245856638,0.02077639929829762,-9.981431843004641,3.9767151424428606,128.51278686523438,5356.25390625,True
1599563653.7519906,0.0,10,0.5,0.5,-46.311632360839845,-0.2,-0.0155,-0.001,0.20182200553242635,10,1,100,-0.02164947931750824,-10,-1,-100,15032.349261041963,0.0039168705917037045,0.01273022015465623,0.9999112958755801,21.791677388528655,0.02039463124932074,-8.908178606196753,3.6053786105839505,123.05699157714844,5356.25390625,True
1599563653.7938795,0.0,10,0.5,0.5,-46.251693108367924,-0.2,-0.0155,-0.001,0.1376880647082015,10,1,100,-0.043781435341576844,-10,-1,-100,15032.349261041963,0.0039168705917037045,0.01273022015465623,0.9999112958755801,21.791677388528655,0.02039463124932074,-8.908178606196753,3.6053786105839505,123.05699157714844,5356.25390625,True
1599563653.8362255,0.0,10,0.5,0.5,-45.03911357879639,-0.2,-0.0155,-0.001,0.2159524045743749,10,1,100,-0.017066328080681696,-10,-1,-100,15032.43326671631,0.003674957076095826,0.013438030996338803,0.9999029522975869,21.237776847478813,0.01979115056233455,-7.787666693561199,3.2340260825098617,117.32661437988281,5356.25390625,True
1599563653.8761208,0.0,10,0.5,0.5,-43.7732607536316,-0.2,-0.0155,-0.001,0.23100031266823987,10,1,100,-0.012789451036342044,-10,-1,-100,15032.579776656348,0.003417324440557428,0.014214226649441714,0.9998931331169479,20.449517093100628,0.018961541217395364,-6.637630451549756,2.8626520094727423,111.32176208496094,5356.25390625,True
1599563653.9209988,0.0,10,0.5,0.5,-41.12585428314209,-0.2,-0.0155,-0.001,0.3451798273384308,10,1,100,0.017748465280790146,-10,-1,-100,15032.748785656877,0.0029068991868163884,0.015953081103935982,0.9998685159261737,18.15407499404049,0.016706068590619266,-4.363596332314343,2.1198152632914193,98.48844909667969,5356.25390625,True
1599563653.96189,0.0,10,0.5,0.5,-41.05325172195435,-0.2,-0.0155,-0.001,0.1719436357356916,10,1,100,-0.03309499280036454,-10,-1,-100,15032.748785656877,0.0029068991868163884,0.015953081103935982,0.9998685159261737,18.15407499404049,0.016706068590619266,-4.363596332314343,2.1198152632914193,98.48844909667969,5356.25390625,True
1599563654.002781,0.0,10,0.5,0.5,-39.604702386474614,-0.2,-0.0155,-0.001,0.28122824489569126,10,1,100,-0.00556337070797747,-10,-1,-100,15032.832810301566,0.0026583163020335618,0.016941199189316473,0.9998529537509334,16.663314187372332,0.015308837107419789,-3.303438312398217,1.7483484408870509,91.66036987304688,5356.25390625,True
1599563654.0436711,0.0,10,0.5,0.5,-38.104177317810056,-0.2,-0.0155,-0.001,0.3058746359276505,10,1,100,-0.0037266642793250433,-10,-1,-100,15032.915866169264,0.0024174522000352115,0.018057671564502588,0.9998340244373208,15.947078819449656,0.014642393944258994,-2.4897416777479924,1.376867609653718,84.55879211425781,5356.25390625,True
1599563654.0855603,0.0,10,0.5,0.5,-35.00710724868775,-0.2,-0.0155,-0.001,0.46009899087024314,10,1,100,0.013095345950691568,-10,-1,-100,15032.960908126202,0.0020474593762133484,0.020468238250133435,0.9997884071807586,18.325627594635147,0.01677190750533713,-1.3172972944931185,0.6339185039127067,69.53189086914062,5356.25390625,True
1599563654.127449,0.0,10,0.5,0.5,-34.13318076248169,-0.2,-0.0155,-0.001,0.2935878602123243,10,1,100,-0.016906268670587626,-10,-1,-100,15033.001960204681,0.0019859270914360993,0.021137769373778193,0.9997745999971636,18.825605291662196,0.017212636163130988,-0.9567595805494375,0.4481869735197024,65.60401916503906,5356.25390625,True
1599563654.17133,0.0,10,0.5,0.5,-33.236317726135255,-0.2,-0.0155,-0.001,0.3033432319809646,10,1,100,-0.017824205156895048,-10,-1,-100,15032.981490102597,0.0019402910608742165,0.021826889050042857,0.9997598822642346,19.255311987931645,0.017594269011922643,-0.5730652721262891,0.2624554485448982,61.60758972167969,5356.25390625,True
1599563654.5367036,0.0,10,0.5,0.5,-31.49737732086182,-0.2,-0.0155,-0.001,0.4006336339254012,10,1,100,-0.021674386740086423,-10,-1,-100,15033.002084405976,0.0019356023016022714,0.023329549983509806,0.9997259552203779,19.91662057987019,0.018177545924190998,0.24621045715035428,-0.10901489601274683,53.410125732421875,5356.25390625,True
1599563654.5746026,0.0,10,0.5,0.5,-29.694655040740965,-0.2,-0.0155,-0.001,0.41974766754973214,10,1,100,-0.02826256667788684,-10,-1,-100,15032.961168111651,0.0019930334910533264,0.024859733565220175,0.9996889623600783,20.392836475369396,0.018593457507616266,1.1111752315607804,-0.4804986956399957,44.937652587890625,5356.25390625,True
1599563654.6125019,0.0,10,0.5,0.5,-27.83292604217529,-0.2,-0.0155,-0.001,0.4473825695803434,10,1,100,-0.04159399283719105,-10,-1,-100,15032.92026360822,0.002167967467988908,0.026491652564717992,0.9996466837145251,20.505160426099685,0.018677577188225495,1.9811691690689164,-0.8519956513943083,36.19139099121094,5356.25390625,True
1599563654.6663904,0.0,10,0.5,0.5,-24.984843962097166,-0.2,-0.0155,-0.001,0.5683617605239308,10,1,100,-0.08421867822146804,-10,-1,-100,15032.857955649612,0.0027156312750351986,0.02906386482200746,0.99957386775985,19.902420166382953,0.018097024075610875,3.1807573724402456,-1.4092571852512825,22.55767822265625,5356.25390625,True
1599563654.7222419,0.0,10,0.5,0.5,-23.939707740020754,-0.2,-0.0155,-0.001,0.4085424795337988,10,1,100,-0.05753582230237427,-10,-1,-100,15032.83751705836,0.0029711099257325934,0.02993741815261662,0.9995473593082844,19.484141212838914,0.017707176206583117,3.5243887029295053,-1.5950104203625353,17.875701904296875,5356.25390625,True
1599563654.7621398,0.0,10,0.5,0.5,-19.9167840133667,-0.2,-0.0155,-0.001,0.70666433102975,10,1,100,-0.1997392774389328,-10,-1,-100,15032.690364937996,0.004496063554209015,0.03342904316036207,0.9994309803512691,16.615571763073287,0.015081461537164567,4.405688420894455,-2.337982483615176,-1.540496826171875,5356.25390625,True
1599563654.8010325,0.0,10,0.5,0.5,-19.79173886871338,-0.2,-0.0155,-0.001,0.35915061465230985,10,1,100,-0.04742768931650817,-10,-1,-100,15032.690364937996,0.004496063554209015,0.03342904316036207,0.9994309803512691,16.615571763073287,0.015081461537164567,4.405688420894455,-2.337982483615176,-1.540496826171875,5356.25390625,True
1599563654.8418877,0.0,10,0.5,0.5,-15.53352181777954,-0.2,-0.0155,-0.001,0.7169373484254518,10,1,100,-0.3006998511273911,-10,-1,-100,15032.420197155094,0.006796648105804157,0.03666767585684894,0.9993044016323468,18.666096842269614,0.017002867128817465,6.522586166827748,-3.0809765052961886,-22.06170654296875,5356.25390625,True
1599563654.8818207,0.0,10,0.5,0.5,-15.41207295150757,-0.2,-0.0155,-0.001,0.394694022537436,10,1,100,-0.07111631484083605,-10,-1,-100,15032.420197155094,0.006796648105804157,0.03666767585684894,0.9993044016323468,18.666096842269614,0.017002867128817465,6.522586166827748,-3.0809765052961886,-22.06170654296875,5356.25390625,True
1599563654.922784,0.0,10,0.5,0.5,-13.130530798339844,-0.2,-0.0155,-0.001,0.5640813922939156,10,1,100,-0.22114432302824866,-10,-1,-100,15032.314903053106,0.008156165706585755,0.03819344293965051,0.9992370779136361,19.89406358466395,0.018210262899331007,7.79022860039732,-3.4525167982343206,-32.73663330078125,5356.25390625,True
1599563654.9626675,0.0,10,0.5,0.5,-10.792872661590577,-0.2,-0.0155,-0.001,0.5425352745304489,10,1,100,-0.2609080007652542,-10,-1,-100,15032.150032151025,0.009747927982500248,0.03936975144081169,0.9991771617543792,20.548982975129228,0.01889776631304734,8.912968849678421,-3.824077188139557,-43.692352294921875,5356.25390625,True
1599563655.0045533,0.0,10,0.5,0.5,-6.082004903411866,-0.2,-0.0155,-0.001,0.6449058173643013,10,1,100,-0.476642167962184,-10,-1,-100,15031.814408322796,0.013149102184502878,0.04135518210266841,0.9990579813128949,20.24645161078359,0.01864235147281739,10.489085282913354,-4.567212444905446,-66.43521118164062,5356.25390625,True
1599563655.0449903,0.0,10,0.5,0.5,-5.93211982345581,-0.2,-0.0155,-0.001,0.4480122960323736,10,1,100,-0.13764035463126598,-10,-1,-100,15031.814408322796,0.013149102184502878,0.04135518210266841,0.9990579813128949,20.24645161078359,0.01864235147281739,10.489085282913354,-4.567212444905446,-66.43521118164062,5356.25390625,True
1599563655.0888727,0.0,10,0.5,0.5,-0.9772084030151366,-0.2,-0.0155,-0.001,0.5580036820193994,10,1,100,-0.5079254486657512,-10,-1,-100,15031.418170946767,0.01650534746234682,0.0423415914938796,0.9989668478657902,17.13159950337049,0.015621176039375066,10.320280996308163,-5.310341359763924,-90.29511260986328,5356.25390625,True
1599563655.1297643,0.0,10,0.5,0.5,1.6556864223480228,-0.2,-0.0155,-0.001,0.4835295492171789,10,1,100,-0.35678175961099323,-10,-1,-100,15031.188769533066,0.018169909890627778,0.04254921907253152,0.9989291357903644,17.07186604207261,0.01561395584636322,11.004360896357896,-5.681918755801636,-102.64253997802734,5356.25390625,True
1599563655.174154,0.0,10,0.5,0.5,4.367365490722656,-0.2,-0.0155,-0.001,0.46385203238916584,10,1,100,-0.3396333529682741,-10,-1,-100,15030.957392856246,0.019513436765072206,0.04254761962657868,0.998903862165788,19.244366500196566,0.017768052761751436,13.216551694036639,-6.053493429395582,-115.26554107666016,5356.25390625,True
1599563655.224021,0.0,10,0.5,0.5,5.803647243881225,-0.2,-0.0155,-0.001,0.4600494463588426,10,1,100,-0.27921678994594396,-10,-1,-100,15030.813865124597,0.020171931193263354,0.04250330700592205,0.9988926679506136,20.01563831000405,0.018572834086996063,14.168466367338105,-6.239279420977496,-121.59703826904297,5356.25390625,True
1599563655.2714097,0.0,10,0.5,0.5,8.49797822265625,-0.2,-0.0155,-0.001,0.4463262172173194,10,1,100,-0.34164558724606986,-10,-1,-100,15030.583435887122,0.0213238462237664,0.042330016845997125,0.9988761000524755,20.875086065607466,0.019512872444776598,15.657650655271139,-6.610849498904349,-134.10736083984375,5356.25390625,True
1599563655.3182876,0.0,10,0.5,0.5,12.332976768493653,-0.2,-0.0155,-0.001,0.423352563780662,10,1,100,-0.3753774287931267,-10,-1,-100,15030.144012928009,0.02266448826727154,0.04195848135937835,0.9988622561762945,20.988699292817923,0.019599964703423328,17.071520870932364,-7.1682022469497255,-152.38516235351562,5356.25390625,True
1599563655.3656738,0.0,10,0.5,0.5,12.51670032348633,-0.2,-0.0155,-0.001,0.46103519299279216,10,1,100,-0.24290000845875942,-10,-1,-100,15030.144012928009,0.02266448826727154,0.04195848135937835,0.9988622561762945,20.988699292817923,0.019599964703423328,17.071520870932364,-7.1682022469497255,-152.38516235351562,5356.25390625,True
1599563655.4135451,0.0,10,0.5,0.5,15.082510066223145,-0.2,-0.0155,-0.001,0.4366461666141285,10,1,100,-0.31505583425448264,-10,-1,-100,15029.850076470175,0.023307260935813857,0.041733340175554384,0.9988568966100506,20.17016525447506,0.018680343911992883,17.257165700735282,-7.5397793558438515,-164.22772216796875,5356.25390625,True
1599563655.4624155,0.0,10,0.5,0.5,-52.50848597717285,-0.2,-0.0155,-0.001,0.42823311424555904,10,1,100,-0.33650870655673587,-10,-1,-100,15029.201649400173,0.02407429917091525,0.041450035360786744,0.9988505006696542,16.870455409217755,0.01547398152949839,15.85874457104195,-8.282995651467417,172.91647338867188,5356.25390625,True
1599563655.508291,0.0,10,0.5,0.5,-51.42871543273926,-0.2,-0.0155,-0.001,0.4570603947253544,10,1,100,-0.27182019879193164,-10,-1,-100,15029.054193104384,0.024173597316794287,0.0414544654851251,0.9988479185962736,18.018946806098597,0.016600765511754233,17.318888751328927,-8.46880193730932,167.37606811523438,5356.25390625,True
1599563655.558158,0.0,10,0.5,0.5,-50.69699371948243,-0.2,-0.0155,-0.001,0.46030888879673443,10,1,100,-0.2706018762071395,-10,-1,-100,15028.84521371231,0.02424277043033867,0.041487934377552105,0.9988448525086094,19.032510333154086,0.01765029367784597,18.695030857237096,-8.654601182748829,161.9050750732422,5356.25390625,True
1599563655.6070278,0.0,10,0.5,0.5,-46.619459613418584,-0.2,-0.0155,-0.001,0.5127644662618789,10,1,100,-0.26828251054060437,-10,-1,-100,15028.13139796257,0.024277535915712346,0.041996005581365535,0.9988227754537193,21.431552989323063,0.020474775001559073,22.862241093373424,-9.397723112304066,139.64678955078125,5356.25390625,True
1599563655.6628783,0.0,10,0.5,0.5,-47.017266359710696,-0.2,-0.0155,-0.001,0.4619020245314192,10,1,100,-0.2654167246057454,-10,-1,-100,15028.13139796257,0.024277535915712346,0.041996005581365535,0.9988227754537193,21.431552989323063,0.020474775001559073,22.862241093373424,-9.397723112304066,139.64678955078125,5356.25390625,True
1599563655.7177343,0.0,10,0.5,0.5,-43.9221125125885,-0.2,-0.0155,-0.001,0.555422022395273,10,1,100,-0.25336368116260993,-10,-1,-100,15027.565075521707,0.02416363179427417,0.04284668884744167,0.9987894073093294,21.819147826368297,0.021007547430577454,24.65856148094863,-9.955006333448091,122.28227233886719,5356.25390625,True
1599563655.7696278,0.0,10,0.5,0.5,-40.70454133758545,-0.2,-0.0155,-0.001,0.609595557052841,10,1,100,-0.2554491902747309,-10,-1,-100,15026.93923381914,0.024075412947985098,0.044112211784541944,0.9987364453462483,20.714298741882573,0.019738329252897355,24.723224807760328,-10.512301806497009,104.30740356445312,5356.25390625,True
1599563655.8204584,0.0,10,0.5,0.5,-39.8604985748291,-0.2,-0.0155,-0.001,0.5417500230490778,10,1,100,-0.2636142339826226,-10,-1,-100,15026.727380241966,0.024066940242590214,0.044644289422836575,0.9987130067288048,19.980327330696447,0.01894795697621739,24.26960338998572,-10.698081064114861,98.18023681640625,5356.25390625,True
1599563655.8683295,0.0,10,0.5,0.5,-36.478366810607916,-0.2,-0.0155,-0.001,0.6947749909630645,10,1,100,-0.2812426252630738,-10,-1,-100,15026.036202759366,0.024218220929348677,0.046516690794992065,0.9986238907879685,17.83580635530858,0.016898001880759538,22.79627051504156,-11.255459626599688,79.39100646972656,5356.25390625,True
1599563655.9152036,0.0,10,0.5,0.5,-34.27020255966187,-0.2,-0.0155,-0.001,0.6653527067905838,10,1,100,-0.29742843963232324,-10,-1,-100,15025.617455584346,0.02450148010915675,0.0479472547231694,0.9985493168777255,20.240879529786184,0.01946911524080639,26.72650791212312,-11.627015407082299,66.52430725097656,5356.25390625,True
1599563655.9640734,0.0,10,0.5,0.5,-31.999929331970215,-0.2,-0.0155,-0.001,0.7007678992879938,10,1,100,-0.325871924171019,-10,-1,-100,15025.13429495995,0.025016479932812828,0.04956407466735469,0.9984575996176002,21.838550817899005,0.02136435961906845,29.759986123576475,-11.998520781004013,53.38597106933594,5356.25390625,True
1599563656.0089526,0.0,10,0.5,0.5,-29.131989008331303,-0.2,-0.0155,-0.001,0.7248050314166568,10,1,100,-0.3570079204995111,-10,-1,-100,15024.654103644774,0.02576685957479383,0.05124505396386865,0.9983536514641959,22.510716836738975,0.022242925826601125,31.628328280959348,-12.369989521024976,39.9739990234375,5356.25390625,True
1599563656.0548306,0.0,10,0.5,0.5,-28.947927773284913,-0.2,-0.0155,-0.001,0.5576861606131353,10,1,100,-0.2821292825272108,-10,-1,-100,15024.654103644774,0.02576685957479383,0.05124505396386865,0.9983536514641959,22.510716836738975,0.022242925826601125,31.628328280959348,-12.369989521024976,39.9739990234375,5356.25390625,True
1599563656.1027029,0.0,10,0.5,0.5,-24.611892643737793,-0.2,-0.0155,-0.001,0.8417354382372895,10,1,100,-0.46676058154975103,-10,-1,-100,15023.838179907762,0.027443940393958328,0.0538184500153734,0.9981735342983182,22.22181035207064,0.021855185375803422,32.633072990800805,-12.927189050765955,19.341949462890625,5356.25390625,True
1599563656.149577,0.0,10,0.5,0.5,-23.036028112792973,-0.2,-0.0155,-0.001,0.6771901687325367,10,1,100,-0.37721324907387777,-10,-1,-100,15023.628392813844,0.028151614112074255,0.05465128720812178,0.9981085729665787,21.671166410763583,0.021210562667696515,32.28323441871511,-13.112937931108949,12.326904296875,5356.25390625,True
1599563656.1954882,0.0,10,0.5,0.5,-17.06636460266113,-0.2,-0.0155,-0.001,0.9211347652473871,10,1,100,-0.689825674580492,-10,-1,-100,15022.539282754064,0.031633363107515806,0.057614585277458254,0.997837606979119,19.632214051751053,0.019260100816691765,30.909305480081493,-13.85601724132799,-16.425994873046875,5356.25390625,True
1599563656.2403693,0.0,10,0.5,0.5,-13.906610288238527,-0.2,-0.0155,-0.001,0.7555806522709911,10,1,100,-0.568674478595191,-10,-1,-100,15021.934179858887,0.033690424293220625,0.058790029862133254,0.9977017027647853,21.87666430398438,0.02191078982554018,35.3699676665711,-14.227503974718331,-31.219573974609375,5356.25390625,True
1599563656.284217,0.0,10,0.5,0.5,-13.711337052154542,-0.2,-0.0155,-0.001,0.6395039756112502,10,1,100,-0.36392986115923276,-10,-1,-100,15021.934179858887,0.033690424293220625,0.058790029862133254,0.9977017027647853,21.87666430398438,0.02191078982554018,35.3699676665711,-14.227503974718331,-31.219573974609375,5356.25390625,True
1599563656.3300948,0.0,10,0.5,0.5,-7.393903301239014,-0.2,-0.0155,-0.001,0.7670400388219271,10,1,100,-0.8579569856717812,-10,-1,-100,15020.783443158958,0.03817283134874322,0.05993658885455823,0.9974720248023501,23.016531214800516,0.023624032072096495,39.16323922486984,-14.970325495872387,-61.6517333984375,5356.25390625,True
1599563656.3740156,0.0,10,0.5,0.5,-4.062873693847656,-0.2,-0.0155,-0.001,0.6663540342514643,10,1,100,-0.6640558583989684,-10,-1,-100,15020.17627127713,0.04047232332362965,0.06005138798970439,0.9973744642035395,22.098736699049926,0.022593707517242507,38.538304614577456,-15.341741242646059,-77.28778076171875,5356.25390625,True
1599563656.4185438,0.0,10,0.5,0.5,-3.85560100479126,-0.2,-0.0155,-0.001,0.6560845340635014,10,1,100,-0.4357037452317728,-10,-1,-100,15020.17627127713,0.04047232332362965,0.06005138798970439,0.9973744642035395,22.098736699049926,0.022593707517242507,38.538304614577456,-15.341741242646059,-77.28778076171875,5356.25390625,True
1599563656.462469,0.0,10,0.5,0.5,2.8019551361083987,-0.2,-0.0155,-0.001,0.5707388673381626,10,1,100,-0.8594488923632709,-10,-1,-100,15018.898262024042,0.04431050116719707,0.05926598437099918,0.9972583028397649,19.906353741592255,0.02047433983248643,36.40392592339741,-16.084684359879837,-109.40226745605469,5356.25390625,True
1599563656.5083032,0.0,10,0.5,0.5,6.31295590133667,-0.2,-0.0155,-0.001,0.5683994214881054,10,1,100,-0.6556821678696727,-10,-1,-100,15018.226454253425,0.04593047112814165,0.058523421636805614,0.9972288608648808,22.300749152918,0.02339878471692653,41.72881263238074,-16.456094481704262,-125.87779998779297,5356.25390625,True
1599563656.881559,0.0,10,0.5,0.5,9.863694265365602,-0.2,-0.0155,-0.001,0.5669522641454581,10,1,100,-0.6268971962595125,-10,-1,-100,15017.556555592339,0.04712315897658677,0.05782859193199382,0.9972137493252038,23.363106625752884,0.024841208931599357,44.70775501450589,-16.827446936657907,-142.34617614746094,5356.25390625,True
1599563656.9194584,0.0,10,0.5,0.5,10.097842483901978,-0.2,-0.0155,-0.001,0.6368362488182995,10,1,100,-0.5095963332732636,-10,-1,-100,15017.556555592339,0.04712315897658677,0.05782859193199382,0.9972137493252038,23.363106625752884,0.024841208931599357,44.70775501450589,-16.827446936657907,-142.34617614746094,5356.25390625,True
1599563656.9583545,0.0,10,0.5,0.5,13.601256397628784,-0.2,-0.0155,-0.001,0.5535902194563431,10,1,100,-0.6184039282634274,-10,-1,-100,15016.88662696688,0.048095072072075064,0.05706892138804524,0.9972111121793554,23.145369142959346,0.024633191423799113,45.273215145769406,-17.198793296831052,-158.58334350585938,5356.25390625,True
1599563657.0117216,0.0,10,0.5,0.5,17.014551276779176,-0.2,-0.0155,-0.001,0.5593527763565481,10,1,100,-0.5965414997806885,-10,-1,-100,15016.215706009534,0.048764914891799016,0.056431194741629685,0.997214873202174,22.043484332645296,0.02332357045369465,44.053895379050736,-17.570176398331892,-174.54945373535156,5356.25390625,True
1599563657.0675735,0.0,10,0.5,0.5,-48.888731959152224,-0.2,-0.0155,-0.001,0.541902344229472,10,1,100,-0.6074624385511918,-10,-1,-100,15014.750818334287,0.04945944008891757,0.055694947348388035,0.9972220598372016,21.661957729449338,0.023329207196877387,45.132455275292166,-18.313014957033715,154.35342407226562,5356.25390625,True
1599563657.1065013,0.0,10,0.5,0.5,-48.847467228317264,-0.2,-0.0155,-0.001,0.6152175753022626,10,1,100,-0.5395868204189063,-10,-1,-100,15014.750818334287,0.04945944008891757,0.055694947348388035,0.9972220598372016,21.661957729449338,0.023329207196877387,45.132455275292166,-18.313014957033715,154.35342407226562,5356.25390625,True
1599563657.146364,0.0,10,0.5,0.5,-46.141521483993536,-0.2,-0.0155,-0.001,0.6138661415330917,10,1,100,-0.5604772846382959,-10,-1,-100,15014.016455689678,0.04963909284660277,0.055686517624583,0.9972136041070706,23.379985788626616,0.02569852894725956,49.705336883429595,-18.684348528335143,139.2252960205078,5356.25390625,True
1599563657.18825,0.0,10,0.5,0.5,-43.451491142654426,-0.2,-0.0155,-0.001,0.6425904324334492,10,1,100,-0.563388323247187,-10,-1,-100,15013.282134262961,0.04982054409592199,0.055943952220549965,0.9971901461586606,23.95578406149399,0.02666144006000825,51.94726087524787,-19.055637451595672,124.09716796875,5356.25390625,True
1599563657.227146,0.0,10,0.5,0.5,-37.553602473831184,-0.2,-0.0155,-0.001,0.758942187909253,10,1,100,-0.6110810041918476,-10,-1,-100,15011.687670475454,0.05041057122137065,0.057239460935544655,0.9970869663278843,22.43054246855998,0.02490567763415542,50.547163575041395,-19.798247735883184,93.12620544433594,5356.25390625,True
1599563657.2680368,0.0,10,0.5,0.5,-37.8984925693512,-0.2,-0.0155,-0.001,0.6291886640662387,10,1,100,-0.5526882986523984,-10,-1,-100,15011.687670475454,0.05041057122137065,0.057239460935544655,0.9970869663278843,22.43054246855998,0.02490567763415542,50.547163575041395,-19.798247735883184,93.12620544433594,5356.25390625,True
1599563657.308927,0.0,10,0.5,0.5,-31.797324327087402,-0.2,-0.0155,-0.001,0.8605501003900251,10,1,100,-0.712284994134594,-10,-1,-100,15010.095412402996,0.05185737745294222,0.059343913957307495,0.9968897192166899,22.256490219024396,0.025233503490516524,52.04957590421778,-20.540957965019274,61.08329772949219,5356.25390625,True
1599563657.3498182,0.0,10,0.5,0.5,-32.14468291931152,-0.2,-0.0155,-0.001,0.6502563304162724,10,1,100,-0.5680777928250726,-10,-1,-100,15010.095412402996,0.05185737745294222,0.059343913957307495,0.9968897192166899,22.256490219024396,0.025233503490516524,52.04957590421778,-20.540957965019274,61.08329772949219,5356.25390625,True
1599563657.3907087,0.0,10,0.5,0.5,-27.48568105316162,-0.2,-0.0155,-0.001,0.843797000116512,10,1,100,-0.7751008251626526,-10,-1,-100,15008.8362018005,0.05373510118466899,0.06110199702546848,0.9966840446501453,24.476956707240717,0.028455329448685916,58.80483992730639,-21.09783709668912,36.33544921875,5356.25390625,True
1599563657.4315999,0.0,10,0.5,0.5,-26.126831762695318,-0.2,-0.0155,-0.001,0.7300117157467922,10,1,100,-0.6789428829316896,-10,-1,-100,15008.377430090215,0.05456283234858221,0.061662176251674264,0.9966045722080588,24.60042244754383,0.028690318893050994,59.62497783908887,-21.283449651612212,27.948776245117188,5356.25390625,True
1599563657.4724905,0.0,10,0.5,0.5,-23.036044076538087,-0.2,-0.0155,-0.001,0.7884263430922045,10,1,100,-0.793669446379887,-10,-1,-100,15007.518509215442,0.05635301314943531,0.0626977167227196,0.9964403314934303,24.081444047946214,0.028069214035242433,59.39261111073514,-21.654691774740645,10.96844482421875,5356.25390625,True
1599563657.5163727,0.0,10,0.5,0.5,-17.606004496765134,-0.2,-0.0155,-0.001,0.7978138133989152,10,1,100,-0.9828823753190703,-10,-1,-100,15006.198909503291,0.059694300892330236,0.06371809163611787,0.9961810052591985,21.40244450724681,0.02504726658350917,54.15394865391183,-22.21164488281318,-15.02545166015625,5356.25390625,True
1599563657.5572627,0.0,10,0.5,0.5,-12.017737991333009,-0.2,-0.0155,-0.001,0.7207543974708983,10,1,100,-1.0566388432793132,-10,-1,-100,15004.816767667187,0.06339304413023382,0.06393787128141822,0.9959383869356092,23.98973402594974,0.028938725546475193,62.234691417950714,-22.7685358297776,-41.65093994140625,5356.25390625,True
1599563657.5981543,0.0,10,0.5,0.5,-11.764005313873291,-0.2,-0.0155,-0.001,0.6996015683065474,10,1,100,-0.688139914617318,-10,-1,-100,15004.816767667187,0.06339304413023382,0.06393787128141822,0.9959383869356092,23.98973402594974,0.028938725546475193,62.234691417950714,-22.7685358297776,-41.65093994140625,5356.25390625,True
1599563657.6380477,0.0,10,0.5,0.5,-4.172742658233642,-0.2,-0.0155,-0.001,0.5644226810260644,10,1,100,-1.20568955795537,-10,-1,-100,15002.97463805764,0.06808570225145764,0.06270170510699485,0.9957072026080765,24.271006485484094,0.0298471524475504,65.03365053072024,-23.51089702260498,-78.1402587890625,5356.25390625,True
1599563657.680968,0.0,10,0.5,0.5,-0.19184154357910146,-0.2,-0.0155,-0.001,0.5606337140879529,10,1,100,-0.9711911280703915,-10,-1,-100,15002.0519680063,0.07020388287995215,0.06153850684519856,0.995632676745717,22.680252217357616,0.027930938528060213,61.7391848187918,-23.8821252374424,-96.80656433105469,5356.25390625,True
1599563657.7218616,0.0,10,0.5,0.5,0.08388794403076161,-0.2,-0.0155,-0.001,0.6773834448585481,10,1,100,-0.7613523963867994,-10,-1,-100,15002.0519680063,0.07020388287995215,0.06153850684519856,0.995632676745717,22.680252217357616,0.027930938528060213,61.7391848187918,-23.8821252374424,-96.80656433105469,5356.25390625,True
1599563657.7627158,0.0,10,0.5,0.5,6.05432931213379,-0.2,-0.0155,-0.001,0.4504289856801654,10,1,100,-1.0216568752182635,-10,-1,-100,15000.60675356118,0.07255360859166818,0.059473289404587903,0.9955897256037374,23.12019547128354,0.029107250324649284,64.41745156159259,-24.43898472583305,-125.29269409179688,5356.25390625,True
1599563657.8065972,0.0,10,0.5,0.5,12.083839403533936,-0.2,-0.0155,-0.001,0.41196020219235097,10,1,100,-0.9569100619694607,-10,-1,-100,14999.098866943154,0.07408230072629479,0.0572459851764642,0.9956077088393174,24.964451294704507,0.0320740606554213,71.1540890421106,-24.995693266166455,-153.9947509765625,5356.25390625,True
1599563657.8485177,0.0,10,0.5,0.5,12.350149156951904,-0.2,-0.0155,-0.001,0.6343050238198212,10,1,100,-0.806075568460962,-10,-1,-100,14999.098866943154,0.07408230072629479,0.0572459851764642,0.9956077088393174,24.964451294704507,0.0320740606554213,71.1540890421106,-24.995693266166455,-153.9947509765625,5356.25390625,True
1599563657.8903725,0.0,10,0.5,0.5,16.44875708312988,-0.2,-0.0155,-0.001,0.5001192877390293,10,1,100,-0.8767244497818808,-10,-1,-100,14998.113416454522,0.07470681831250522,0.05603012956761628,0.9956302104085927,24.310814806522245,0.031283520482331496,70.32937714266534,-25.366836352026432,-172.9827880859375,5356.25390625,True
1599563657.9307735,0.0,10,0.5,0.5,-51.880521551513674,-0.2,-0.0155,-0.001,0.5078635068777649,10,1,100,-0.8611608670071516,-10,-1,-100,14997.063514304115,0.07511638917914165,0.055001269721884044,0.9956567623461754,22.677989827375992,0.029269775908365266,66.57529670604542,-25.738029155844067,168.28793334960938,5356.25390625,True
1599563657.971694,0.0,10,0.5,0.5,-44.46316320343018,-0.2,-0.0155,-0.001,0.48656131253038404,10,1,100,-0.867101016974348,-10,-1,-100,14994.966725737671,0.07552870761370672,0.05388021066070967,0.9956868670547788,24.926439905138174,0.03323908002937651,75.30753876603123,-26.480341200176337,131.66990661621094,5356.25390625,True
1599563658.0146208,0.0,10,0.5,0.5,-44.76842854232788,-0.2,-0.0155,-0.001,0.5976614525857503,10,1,100,-0.827082739866188,-10,-1,-100,14994.966725737671,0.07552870761370672,0.05388021066070967,0.9956868670547788,24.926439905138174,0.03323908002937651,75.30753876603123,-26.480341200176337,131.66990661621094,5356.25390625,True
1599563658.0564733,0.0,10,0.5,0.5,-41.385676043701174,-0.2,-0.0155,-0.001,0.5855666876959558,10,1,100,-0.8608141505539908,-10,-1,-100,14993.918908342253,0.07582432438042905,0.05377940158045764,0.9956698487942173,25.36949057059542,0.03416562058877647,77.73047868969029,-26.851414693534718,113.50373840332031,5356.25390625,True
1599563658.096409,0.0,10,0.5,0.5,-34.25490404891968,-0.2,-0.0155,-0.001,0.6480705201219765,10,1,100,-0.9677992324555845,-10,-1,-100,14991.69656677579,0.07705862343825567,0.05426408480548919,0.9955487821568684,22.862386556325546,0.03097659575266714,72.00575058495595,-27.59364757294707,76.45903015136719,5356.25390625,True
1599563658.142241,0.0,10,0.5,0.5,-34.56051042861939,-0.2,-0.0155,-0.001,0.59887475541485,10,1,100,-0.8450548007287522,-10,-1,-100,14991.69656677579,0.07705862343825567,0.05426408480548919,0.9955487821568684,22.862386556325546,0.03097659575266714,72.00575058495595,-27.59364757294707,76.45903015136719,5356.25390625,True
1599563658.191139,0.0,10,0.5,0.5,-29.102758882904055,-0.2,-0.0155,-0.001,0.6622106683601778,10,1,100,-1.040984258726141,-10,-1,-100,14990.000740210293,0.0788335687468153,0.05484647894321009,0.9953778841154616,24.58259452223519,0.03408551912737684,79.00262862658313,-28.15032602874647,47.96990966796875,5356.25390625,True
1599563658.2359905,0.0,10,0.5,0.5,-27.463441040802003,-0.2,-0.0155,-0.001,0.6204185916875742,10,1,100,-0.9491413254382255,-10,-1,-100,14989.476517978706,0.07960651057911104,0.05500020638089758,0.9953078824019613,25.321686890368717,0.035371024981343514,81.91985381053478,-28.335846509620577,38.33625793457031,5356.25390625,True
1599563658.2818687,0.0,10,0.5,0.5,-23.8568648803711,-0.2,-0.0155,-0.001,0.6271051095232735,10,1,100,-1.0640747784856908,-10,-1,-100,14988.303116372903,0.08134901253630884,0.05520278673984308,0.995155761926505,25.711695502137207,0.036207135228289736,84.282408583481,-28.70687000367304,18.862014770507812,5356.25390625,True
1599563658.3293633,0.0,10,0.5,0.5,-20.173667546844484,-0.2,-0.0155,-0.001,0.5916769362877409,10,1,100,-1.1173649411662818,-10,-1,-100,14987.131698786281,0.08341095514739402,0.0550667338535038,0.9949925966478881,24.81980141258265,0.035035224934343,82.42243748581068,-29.077919708365183,-0.8922119140625,5356.25390625,True
1599563658.380228,0.0,10,0.5,0.5,-14.398473751068117,-0.2,-0.0155,-0.001,0.5070371420339447,10,1,100,-1.2777061185155252,-10,-1,-100,14985.36967046943,0.08673518264534195,0.05417447255062823,0.9947573244843894,23.46878884336793,0.033633697302397916,79.44592317255635,-29.634564109494505,-31.04986572265625,5356.25390625,True
1599563658.4310899,0.0,10,0.5,0.5,-12.070712839508058,-0.2,-0.0155,-0.001,0.5388782094676964,10,1,100,-1.0691066314321602,-10,-1,-100,14984.782952999347,0.08785028613047657,0.053653541794840234,0.9946877020852639,24.581389879250516,0.03553615503598525,83.73928202827635,-29.820083282235554,-41.243621826171875,5356.25390625,True
1599563658.479962,0.0,10,0.5,0.5,-7.672522492980956,-0.2,-0.0155,-0.001,0.44270741919096546,10,1,100,-1.1922822914875826,-10,-1,-100,14983.609456870705,0.08997259386426937,0.0523058945314862,0.9945697691718749,25.686464204201013,0.03764722597210938,88.60489648902823,-30.191074964427383,-61.84246826171875,5356.25390625,True
1599563658.5288286,0.0,10,0.5,0.5,-3.1964433937072756,-0.2,-0.0155,-0.001,0.3912920244677507,10,1,100,-1.1872238515114013,-10,-1,-100,14982.373357141507,0.09184284790770611,0.050614779172888966,0.994486317360617,25.322472821663613,0.037322210450100694,88.43520263325166,-30.562061129891315,-82.72174072265625,5356.25390625,True
1599563658.5786955,0.0,10,0.5,0.5,5.647716658020021,-0.2,-0.0155,-0.001,0.11636357310788148,10,1,100,-1.2922515534886592,-10,-1,-100,14979.900812094333,0.0944833138528716,0.04658092894580864,0.9944360816371887,23.741223288074767,0.03557066118147059,84.95138655256991,-31.30414597415357,-125.313232421875,5356.25390625,True
1599563658.6275635,0.0,10,0.5,0.5,8.092442150115968,-0.2,-0.0155,-0.001,0.4061228656942272,10,1,100,-1.0752288984478933,-10,-1,-100,14979.251363034826,0.09489496358409272,0.04555495245002938,0.9944444138279672,24.802955735910885,0.03742233679276327,89.28278497297545,-31.48963688215081,-136.13198852539062,5356.25390625,True
1599563658.677431,0.0,10,0.5,0.5,10.599314735412598,-0.2,-0.0155,-0.001,0.3974377687196915,10,1,100,-1.0704618755931845,-10,-1,-100,14978.604822475347,0.09520963918639107,0.04455120851078469,0.9944598103625033,25.471013009260336,0.03864453464182288,92.23412775836876,-31.6751127800176,-147.0184326171875,5356.25390625,True
1599563658.727298,0.0,10,0.5,0.5,-52.79675533599853,-0.2,-0.0155,-0.001,0.12036228167566865,10,1,100,-1.1106391139216336,-10,-1,-100,14976.063514115289,0.09584606820015767,0.04112920529328242,0.9945460872591646,24.324562260529333,0.03720262746924762,90.17237123575504,-32.41703491126905,169.83438110351562,5356.25390625,True
1599563658.7771654,0.0,10,0.5,0.5,-48.427196292877206,-0.2,-0.0155,-0.001,0.3245522745387868,10,1,100,-1.0582335467736468,-10,-1,-100,14974.764546309598,0.09593346254985376,0.039887175940751994,0.9945882484519246,23.916829138481845,0.036935147043994206,89.68928730997013,-32.78804425250485,148.65762329101562,5356.25390625,True
1599563658.8280292,0.0,10,0.5,0.5,-48.649556243896484,-0.2,-0.0155,-0.001,0.4472236487119204,10,1,100,-1.050952556805393,-10,-1,-100,14974.764546309598,0.09593346254985376,0.039887175940751994,0.9945882484519246,23.916829138481845,0.036935147043994206,89.68928730997013,-32.78804425250485,148.65762329101562,5356.25390625,True
1599563659.2364938,0.0,10,0.5,0.5,-44.624888441467284,-0.2,-0.0155,-0.001,0.33451736425804723,10,1,100,-1.0733175190393691,-10,-1,-100,14973.402157303528,0.09612539629070585,0.038876372952910195,0.9946097404580255,25.676154920096703,0.04013656737689064,97.39043888192741,-33.15897654066352,127.48115539550781,5356.25390625,True
1599563659.276387,0.0,10,0.5,0.5,-40.59063764724732,-0.2,-0.0155,-0.001,0.35771423183616224,10,1,100,-1.085651384536886,-10,-1,-100,14972.10136869282,0.0964034710017803,0.03818224912339844,0.9946097157331047,26.03648831348591,0.04095483001317726,99.87633048481187,-33.52987360917771,106.0823974609375,5356.25390625,True
1599563659.3213534,0.0,10,0.5,0.5,-36.486642055511474,-0.2,-0.0155,-0.001,0.3670532244433071,10,1,100,-1.1196193310212115,-10,-1,-100,14970.739149378496,0.09695729008454976,0.03765019220451765,0.9945761644672687,24.94402304721304,0.03932754979408864,96.7587995382306,-33.90079809641498,84.42195129394531,5356.25390625,True
1599563659.3662012,0.0,10,0.5,0.5,-36.735012351989745,-0.2,-0.0155,-0.001,0.41879334609868896,10,1,100,-1.064935892366294,-10,-1,-100,14970.739149378496,0.09695729008454976,0.03765019220451765,0.9945761644672687,24.94402304721304,0.03932754979408864,96.7587995382306,-33.90079809641498,84.42195129394531,5356.25390625,True
1599563659.414666,0.0,10,0.5,0.5,-32.58598172683716,-0.2,-0.0155,-0.001,0.36166188208781647,10,1,100,-1.1585892720737072,-10,-1,-100,14969.37604618771,0.0978040349526382,0.03714260124711733,0.9945123417633293,23.578880542586816,0.03744139702866497,92.47852829884545,-34.271768828495915,62.4910888671875,5356.25390625,True
1599563659.4585495,0.0,10,0.5,0.5,-23.917254236602783,-0.2,-0.0155,-0.001,0.2589426412604224,10,1,100,-1.355253291756096,-10,-1,-100,14966.587566410075,0.10035863890155872,0.03575592393986681,0.9943086329209019,26.32577612340853,0.04253289932545299,105.51825904258214,-35.013530850599075,17.805740356445312,5356.25390625,True
1599563659.5024314,0.0,10,0.5,0.5,-24.200543064880375,-0.2,-0.0155,-0.001,0.39663046913445804,10,1,100,-1.100339264395791,-10,-1,-100,14966.587566410075,0.10035863890155872,0.03575592393986681,0.9943086329209019,26.32577612340853,0.04253289932545299,105.51825904258214,-35.013530850599075,17.805740356445312,5356.25390625,True
1599563659.5483081,0.0,10,0.5,0.5,-19.88128003921509,-0.2,-0.0155,-0.001,0.27246311703335113,10,1,100,-1.270526321945515,-10,-1,-100,14965.165061286418,0.1019011130613606,0.03463512554310304,0.9941914157924868,25.430576269813287,0.04118292691305536,103.02566703365382,-35.3844084100306,-4.95416259765625,5356.25390625,True
1599563659.5951831,0.0,10,0.5,0.5,-15.002174126434328,-0.2,-0.0155,-0.001,0.22215070869199774,10,1,100,-1.2855967538302524,-10,-1,-100,14963.738627758226,0.10343486163753156,0.033164736088169285,0.9940831603433521,23.98342911939298,0.0390975537147841,98.19684158842287,-35.7553329431978,-27.993682861328125,5356.25390625,True
1599563659.6450505,0.0,10,0.5,0.5,-10.064021309661866,-0.2,-0.0155,-0.001,0.16265946156470654,10,1,100,-1.2933308872707368,-10,-1,-100,14962.314088226878,0.10489266937524803,0.031293300191483756,0.9939910750476889,25.883840962705836,0.04262932955542609,107.09327857007803,-36.12619541406919,-51.313995361328125,5356.25390625,True
1599563659.6899302,0.0,10,0.5,0.5,-0.2355212562561035,-0.2,-0.0155,-0.001,-0.14288260038606448,10,1,100,-1.3650860687947322,-10,-1,-100,14959.398301328532,0.10686212423536716,0.02682215233653469,0.9939119973860565,24.9766936420602,0.041460007080995225,105.49346237203255,-36.86787044214168,-98.78595733642578,5356.25390625,True
1599563659.7378023,0.0,10,0.5,0.5,4.921079822921754,-0.2,-0.0155,-0.001,0.0430959832364583,10,1,100,-1.2160084073017239,-10,-1,-100,14957.910939711961,0.10728752561468023,0.02445914524734609,0.9939271286473917,24.617681417410402,0.04112700288674659,105.03935240828473,-37.23875519793475,-122.93202209472656,5356.25390625,True
1599563659.7866719,0.0,10,0.5,0.5,10.137412059402466,-0.2,-0.0155,-0.001,0.038130875524316155,10,1,100,-1.1912359340472434,-10,-1,-100,14956.421542869066,0.10743915524391238,0.022278295190587934,0.9939620241658509,26.238110483961645,0.044142479531876486,113.08527274324041,-37.60956515502986,-147.23802185058594,5356.25390625,True
1599563659.8365383,0.0,10,0.5,0.5,15.337773897171022,-0.2,-0.0155,-0.001,0.033742293293785586,10,1,100,-1.1579260467415988,-10,-1,-100,14954.870571917738,0.10726465423574542,0.020269782479633815,0.9940238577971429,26.199169720006104,0.04416732490521283,114.04802640741192,-37.98035577478506,-171.44496154785156,5356.25390625,True
1599563659.8963773,0.0,10,0.5,0.5,-54.235830431747445,-0.2,-0.0155,-0.001,0.13633984438280902,10,1,100,-1.1613958975876377,-10,-1,-100,14954.095080362167,0.10712819072314746,0.01939236721568927,0.994056078320613,25.57385584062893,0.04313026669005866,111.87820105563402,-38.16576522106755,176.5450439453125,5356.25390625,True
1599563659.9442508,0.0,10,0.5,0.5,-46.90645880393982,-0.2,-0.0155,-0.001,-0.01694053513295235,10,1,100,-1.1287789936765877,-10,-1,-100,14951.831135972752,0.10669913917089384,0.01721739555653406,0.9941422710007054,25.83162564220619,0.043905801097075134,114.67993515154431,-38.72200612983959,140.93228149414062,5356.25390625,True
1599563659.9961119,0.0,10,0.5,0.5,-44.75869414863586,-0.2,-0.0155,-0.001,0.1355506094142811,10,1,100,-1.1595288706496454,-10,-1,-100,14951.053726269864,0.1065828725501735,0.016643284933534473,0.9941645197579597,26.458021227357662,0.04510125706191498,118.03224022642962,-38.90738779826617,129.12022399902344,5356.25390625,True
1599563660.044981,0.0,10,0.5,0.5,-42.559876678848276,-0.2,-0.0155,-0.001,0.13400287359338225,10,1,100,-1.164550780641958,-10,-1,-100,14950.215786090354,0.10651717095522274,0.01612467098607789,0.9941801080675907,26.719325929418464,0.04562518850521426,119.77503458538075,-39.09276203047951,117.263671875,5356.25390625,True
1599563660.0918555,0.0,10,0.5,0.5,-33.10307425575257,-0.2,-0.0155,-0.001,-0.024662707544381046,10,1,100,-1.2099020524070054,-10,-1,-100,14947.05076853279,0.10686553010504625,0.014227617073098626,0.9941716820488243,24.492242163068223,0.041942057198820944,111.90971485076378,-39.83433350780015,69.21343994140625,5356.25390625,True
