Timestamp,Input Throttle,horizon,dT,dt,Input Roll,Roll P,Roll I,Roll D,Input Pitch,Pitch P,Pitch I,Pitch D,Input Yaw,Yaw P,Yaw I,Yaw D,Altitude,Direction X,Direction Y,Direction Z,Drag X,Drag Y,Drag Z,Vertical Velocity,Roll,Mass,Has Fuel
1599559467.6107638,0.0,10,0.5,0.5,-2.954100692749024,-0.05075,-0.001,-0.12575,-0.0005286385633152599,10,1,100,0.1711526456618741,-10,-1,-100,14993.410923225107,-0.016776583575739867,-7.632722599706618e-05,0.9998592603050095,28.717167438861093,0.02710916327330546,-88.32804165138651,27.194950280488623,-31.79248046875,5356.25390625,True
1599559467.6434014,0.0,10,0.5,0.5,-2.9599547088623046,-0.05075,-0.001,-0.12575,-0.0005243174441744104,10,1,100,0.17326093411226265,-10,-1,-100,14993.951939384686,-0.01681128757571523,-7.408552110255747e-05,0.9998586775746773,28.64455611008701,0.027275135497924288,-87.50380018948601,27.008978801554285,-31.791900634765625,5356.25390625,True
1599559467.6753304,0.0,10,0.5,0.5,-2.958802687072754,-0.05075,-0.001,-0.12575,0.0036359795573019486,10,1,100,0.1814095013995537,-10,-1,-100,14995.561319569242,-0.016901631562326647,-3.415937525676215e-05,0.9998571566397215,28.426658833615573,0.027763802547743563,-85.04916597947434,26.451088012244917,-31.83099365234375,5356.25390625,True
1599559467.7072325,0.0,10,0.5,0.5,-2.9522130249023437,-0.05075,-0.001,-0.12575,0.0035090625211259313,10,1,100,0.17614183865393299,-10,-1,-100,14996.092570421053,-0.016920509496501996,1.0143837062305003e-06,0.9998568379309859,28.357572277459276,0.027926462948286435,-84.2475827183555,26.265132194075143,-31.92913818359375,5356.25390625,True
1599559467.745131,0.0,10,0.5,0.5,-2.970361785888672,-0.05075,-0.001,-0.12575,-8.211936802710526e-06,10,1,100,0.17594609618604834,-10,-1,-100,14996.092570421053,-0.016920509496501996,1.0143837062305003e-06,0.9998568379309859,28.357572277459276,0.027926462948286435,-84.2475827183555,26.265132194075143,-31.92913818359375,5356.25390625,True
1599559467.803971,0.0,10,0.5,0.5,-2.7898226196289064,-0.05075,-0.001,-0.12575,0.02400024912863927,10,1,100,0.18100967943618912,-10,-1,-100,14998.116009365418,-0.01695115979014282,0.00021927219849778829,0.999856294725133,28.12946688114514,0.028588908695316464,-81.20944997963825,25.521344924350675,-32.98492431640625,5356.25390625,True
1599559467.8428802,0.0,10,0.5,0.5,-2.851576800537109,-0.05075,-0.001,-0.12575,0.011597697436128178,10,1,100,0.17848303067329055,-10,-1,-100,14998.643353652093,-0.016940644013980724,0.0003047385854686511,0.9998564505541715,28.084560233722833,0.02875360141768903,-80.49060921354877,25.335406489089547,-33.4195556640625,5356.25390625,True
1599559467.8757923,0.0,10,0.5,0.5,-2.4838255279541013,-0.05075,-0.001,-0.12575,0.054362222718065956,10,1,100,0.16689471546171758,-10,-1,-100,15000.600379820797,-0.016810335311897264,0.0007709266774729892,0.9998583991239757,27.94187920414182,0.029368813759938512,-77.73672690666773,24.59168284325443,-35.8448486328125,5356.25390625,True
1599559467.9047127,0.0,10,0.5,0.5,-2.7942216339111328,-0.05075,-0.001,-0.12575,0.007820506185379442,10,1,100,0.18160661920125332,-10,-1,-100,15000.600379820797,-0.016810335311897264,0.0007709266774729892,0.9998583991239757,27.94187920414182,0.029368813759938512,-77.73672690666773,24.59168284325443,-35.8448486328125,5356.25390625,True
1599559467.936629,0.0,10,0.5,0.5,-2.5128461944580076,-0.05075,-0.001,-0.12575,0.041744777694532074,10,1,100,0.17031958633469585,-10,-1,-100,15001.603304935154,-0.016692443799190472,0.0010786283033039467,0.9998600896530446,27.88361432100804,0.029624767261842596,-76.40449437681158,24.21983826867678,-37.4697265625,5356.25390625,True
1599559467.9727519,0.0,10,0.5,0.5,-2.560826272583008,-0.05075,-0.001,-0.12575,0.02906848366033532,10,1,100,0.17493727970870396,-10,-1,-100,15002.070098286727,-0.016612073778494198,0.001242137446200025,0.9998612384222836,27.85500956120624,0.029732369578891193,-75.74161994004864,24.033920216974828,-38.38531494140625,5356.25390625,True
1599559468.0046666,0.0,10,0.5,0.5,-2.315763195800782,-0.05075,-0.001,-0.12575,0.05446253316171979,10,1,100,0.16318206639487398,-10,-1,-100,15003.012474763324,-0.016432294102096626,0.0016204385127797758,0.9998636676515296,27.793659356796994,0.029893915840037134,-74.40833742066539,23.662092499922032,-40.42236328125,5356.25390625,True
1599559468.036788,0.0,10,0.5,0.5,-2.373072817993164,-0.05075,-0.001,-0.12575,0.03854115155444957,10,1,100,0.16886492705579026,-10,-1,-100,15003.481221831986,-0.016320864941810453,0.0018180682641190178,0.9998651529057997,27.758649273470358,0.02994239712727248,-73.7320900663305,23.476182999474048,-41.544097900390625,5356.25390625,True
1599559468.0698366,0.0,10,0.5,0.5,-1.846447691345215,-0.05075,-0.001,-0.12575,0.09097101088741291,10,1,100,0.13595073780633915,-10,-1,-100,15004.891363970004,-0.015920873772573937,0.0024726829159640177,0.999870197384398,27.62197098656621,0.029925584822636225,-71.63002774994983,22.918473327323593,-45.321502685546875,5356.25390625,True
1599559468.1067367,0.0,10,0.5,0.5,-2.320117106628418,-0.05075,-0.001,-0.12575,0.02575671255613872,10,1,100,0.17584989115759794,-10,-1,-100,15004.891363970004,-0.015920873772573937,0.0024726829159640177,0.999870197384398,27.62197098656621,0.029925584822636225,-71.63002774994983,22.918473327323593,-45.321502685546875,5356.25390625,True
1599559468.1366572,0.0,10,0.5,0.5,-1.259885597229004,-0.05075,-0.001,-0.12575,0.13089001571735437,10,1,100,0.0969310217042546,-10,-1,-100,15006.68821732304,-0.015204338264565296,0.003426193246036653,0.9998785372722917,27.31142780263315,0.029422218987354823,-68.53205108756623,22.174912148548376,-51.320892333984375,5356.25390625,True
1599559468.169702,0.0,10,0.5,0.5,-2.0124752487182618,-0.05075,-0.001,-0.12575,0.03585967481484474,10,1,100,0.16840989035256096,-10,-1,-100,15006.68821732304,-0.015204338264565296,0.003426193246036653,0.9998785372722917,27.31142780263315,0.029422218987354823,-68.53205108756623,22.174912148548376,-51.320892333984375,5356.25390625,True
1599559468.203602,0.0,10,0.5,0.5,-1.7156476547241213,-0.05075,-0.001,-0.12575,0.06511409126859086,10,1,100,0.14496185562146752,-10,-1,-100,15007.101298203575,-0.014992752772236643,0.0036893048004701923,0.9998807960924142,27.200157037718984,0.02919494969193963,-67.68202735003516,21.98903307352745,-52.99249267578125,5356.25390625,True
1599559468.23948,0.0,10,0.5,0.5,-1.2975368560791019,-0.05075,-0.001,-0.12575,0.09423690006642708,10,1,100,0.11459713830139046,-10,-1,-100,15007.973355663242,-0.014526011787700494,0.004190596858914651,0.9998857104086996,26.92511682718653,0.028608220227276222,-65.86761364179905,21.61729083869368,-56.542633056640625,5356.25390625,True
1599559468.2704005,0.0,10,0.5,0.5,-1.0667879623413086,-0.05075,-0.001,-0.12575,0.10352142189083721,10,1,100,0.10328367821442885,-10,-1,-100,15008.836623413721,-0.014000928822353613,0.004727612864830213,0.999890805872677,26.567208965859077,0.027842782599551277,-63.87714288402322,21.24557296571758,-60.36761474609375,5356.25390625,True
1599559468.3033829,0.0,10,0.5,0.5,-0.8217362030029297,-0.05075,-0.001,-0.12575,0.10743829544060265,10,1,100,0.09172295103942213,-10,-1,-100,15009.704773310572,-0.013420929984062604,0.005248099916513567,0.999896162651717,26.110739682768955,0.02690372836128115,-61.6840077092087,20.87388343738282,-64.46820068359375,5356.25390625,True
1599559468.4533875,0.0,10,0.5,0.5,-0.9546563110351564,-0.05075,-0.001,-0.12575,0.08366645893954143,10,1,100,0.1155050805541031,-10,-1,-100,15010.108085853048,-0.013112760530108269,0.005501520574879412,0.9998988892796332,25.840436059333435,0.026373711438061304,-60.50336701750086,20.68805066442272,-66.62185668945312,5356.25390625,True
1599559468.4773197,0.0,10,0.5,0.5,-0.42615242767333994,-0.05075,-0.001,-0.12575,0.11376005775130987,10,1,100,0.07378645930235829,-10,-1,-100,15010.91080583504,-0.01245636404565391,0.00600195290617162,0.9999044032086639,25.204952698535614,0.025208577332468996,-57.9580816287032,20.31641168266775,-71.13577270507812,5356.25390625,True
1599559468.4992654,0.0,10,0.5,0.5,-0.5755196456909181,-0.05075,-0.001,-0.12575,0.09067168532188377,10,1,100,0.10114179244381366,-10,-1,-100,15011.3063071816,-0.012111837998250594,0.006243193562858797,0.999907158647462,24.835638385736072,0.02458244850013553,-56.58799599978467,20.130606371537542,-73.48873901367188,5356.25390625,True
1599559468.5341697,0.0,10,0.5,0.5,-0.0038903305053711312,-0.05075,-0.001,-0.12575,0.11902832666956452,10,1,100,0.05460466597787349,-10,-1,-100,15012.110980232945,-0.011379030474352052,0.006716863162419788,0.9999126968964445,23.987435808816997,0.023273227968611414,-53.649361812061365,19.759025992429265,-78.38787841796875,5356.25390625,True
1599559468.5801165,0.0,10,0.5,0.5,-0.616650473022461,-0.05075,-0.001,-0.12575,0.07208578473811103,10,1,100,0.1274312340379054,-10,-1,-100,15012.110980232945,-0.011379030474352052,0.006716863162419788,0.9999126968964445,23.987435808816997,0.023273227968611414,-53.649361812061365,19.759025992429265,-78.38787841796875,5356.25390625,True
1599559468.6040566,0.0,10,0.5,0.5,0.28498998718261714,-0.05075,-0.001,-0.12575,0.11975549355339868,10,1,100,0.042744048256878206,-10,-1,-100,15012.91077037179,-0.010612624519788363,0.007147232633543873,0.9999181412828171,22.98400636929969,0.02193037312993122,-50.44135166650102,19.387486700586685,-83.48098754882812,5356.25390625,True
1599559468.6640806,0.0,10,0.5,0.5,1.0233721382141114,-0.05075,-0.001,-0.12575,0.14043524443400748,10,1,100,-0.014872214751241758,-10,-1,-100,15014.040631992393,-0.00939628190987917,0.007723092579491751,0.9999260291277943,21.272604844103604,0.020046252487377646,-45.34754841534855,18.83025006186485,-91.27489471435547,5356.25390625,True
1599559468.7069414,0.0,10,0.5,0.5,0.047116552352905273,-0.05075,-0.001,-0.12575,0.08325262861712185,10,1,100,0.10620239915344182,-10,-1,-100,15014.040631992393,-0.00939628190987917,0.007723092579491751,0.9999260291277943,21.272604844103604,0.020046252487377646,-45.34754841534855,18.83025006186485,-91.27489471435547,5356.25390625,True
1599559468.7318997,0.0,10,0.5,0.5,1.9030951152801516,-0.05075,-0.001,-0.12575,0.15025967171447233,10,1,100,-0.07896367885828405,-10,-1,-100,15015.509356602794,-0.0077176173187524085,0.008329036156994412,0.9999355306916626,22.918369323874096,0.021883512580248635,-46.933675697995625,18.087292101488707,-101.77067565917969,5356.25390625,True
1599559468.771793,0.0,10,0.5,0.5,1.0351490280151368,-0.05075,-0.001,-0.12575,0.10406998706380269,10,1,100,0.03864608800692511,-10,-1,-100,15015.844312379253,-0.007266450399687801,0.008456713709452413,0.9999378394139434,23.289308315785235,0.022392165393359382,-47.20484781620198,17.901546235746043,-104.30754852294922,5356.25390625,True
1599559468.804709,0.0,10,0.5,0.5,1.6033645168304442,-0.05075,-0.001,-0.12575,0.11456678644049001,10,1,100,-0.010424308565427629,-10,-1,-100,15016.570863942034,-0.006415799122229837,0.00866529273893599,0.9999418734223363,23.924367735336222,0.02336632454784794,-47.488285591823264,17.53004551952148,-109.31175994873047,5356.25390625,True
1599559468.8406687,0.0,10,0.5,0.5,0.97835392036438,-0.05075,-0.001,-0.12575,0.09402526070853792,10,1,100,0.07397112303958091,-10,-1,-100,15016.570863942034,-0.006415799122229837,0.00866529273893599,0.9999418734223363,23.924367735336222,0.02336632454784794,-47.488285591823264,17.53004551952148,-109.31175994873047,5356.25390625,True
1599559468.8706937,0.0,10,0.5,0.5,1.8247263286590578,-0.05075,-0.001,-0.12575,0.11233265371723278,10,1,100,-0.01935443082305502,-10,-1,-100,15017.237846435979,-0.0055728764188635324,0.008829302366439794,0.9999454917484963,24.402013920313237,0.024219398717533636,-47.4123130335051,17.15853429547747,-114.08544158935547,5356.25390625,True
1599559468.9047303,0.0,10,0.5,0.5,2.0237366214752197,-0.05075,-0.001,-0.12575,0.1094039495409285,10,1,100,-0.02645882040521902,-10,-1,-100,15017.908736891462,-0.004747942202855753,0.008949426436382685,0.9999486810888337,24.83293497180661,0.025008408809191654,-47.20717229607129,16.787014737426816,-118.59105682373047,5356.25390625,True
1599559468.9376466,0.0,10,0.5,0.5,1.840839615249634,-0.05075,-0.001,-0.12575,0.10188834134992575,10,1,100,0.009041141298975458,-10,-1,-100,15018.241740015103,-0.004326757193133627,0.00898827682252714,0.9999502437881362,25.000525178687987,0.025335053076977237,-47.00095615308509,16.601252953187892,-120.74212646484375,5356.25390625,True
1599559468.97376,0.0,10,0.5,0.5,2.6416036979675295,-0.05075,-0.001,-0.12575,0.10581883467963074,10,1,100,-0.0808493648756598,-10,-1,-100,15019.2309877699,-0.0031330864675088448,0.00905726219141932,0.999954073830785,25.319511820510517,0.026005679218292128,-46.005882370055744,16.04396670611261,-126.78759765625,5356.25390625,True
1599559469.0056412,0.0,10,0.5,0.5,2.536473925018311,-0.05075,-0.001,-0.12575,0.09904607149115138,10,1,100,-0.04728593555631285,-10,-1,-100,15019.88723245007,-0.0023598529271642694,0.009056669198191602,0.999956202959508,25.400001665217733,0.026197910379543297,-45.08540108038015,15.67244704734297,-130.474609375,5356.25390625,True
1599559469.0375886,0.0,10,0.5,0.5,2.6788602050781254,-0.05075,-0.001,-0.12575,0.09808528360151544,10,1,100,-0.04973622372228374,-10,-1,-100,15020.4878140043,-0.0016410347516901153,0.009046183335698168,0.999957735892873,25.394125885633365,0.026201752141240514,-44.00838941138045,15.300935592492651,-133.885986328125,5356.25390625,True
1599559469.0714993,0.0,10,0.5,0.5,2.536972647857666,-0.05075,-0.001,-0.12575,0.09715182517921443,10,1,100,-0.017569550909689903,-10,-1,-100,15020.75538965722,-0.0012870382060628184,0.00902696193799576,0.9999584278812925,25.363738428104988,0.026139076726081668,-43.4230484276029,15.115184107547558,-135.48843383789062,5356.25390625,True
1599559469.106405,0.0,10,0.5,0.5,2.3388366493225097,-0.05075,-0.001,-0.12575,0.09914375752755547,10,1,100,0.017187045741770827,-10,-1,-100,15020.75538965722,-0.0012870382060628184,0.00902696193799576,0.9999584278812925,25.363738428104988,0.026139076726081668,-43.4230484276029,15.115184107547558,-135.48843383789062,5356.25390625,True
1599559469.1373265,0.0,10,0.5,0.5,2.8711315567016604,-0.05075,-0.001,-0.12575,0.09378532434229386,10,1,100,-0.05750708110363938,-10,-1,-100,15021.357925793389,-0.0006134365185532938,0.008977730501558341,0.9999595112056683,25.257393327039726,0.0258998240689197,-42.18005551426188,14.743691291615994,-138.48660278320312,5356.25390625,True
1599559469.1702023,0.0,10,0.5,0.5,3.199633200836182,-0.05075,-0.001,-0.12575,0.08568276083417503,10,1,100,-0.09518435273222658,-10,-1,-100,15022.213392547681,0.0003361744279846336,0.008859030947666316,0.9999607015065254,25.01049625695969,0.025309113193744896,-40.191832797725475,14.186481645516663,-142.4673614501953,5356.25390625,True
1599559469.2041094,0.0,10,0.5,0.5,2.702368358612061,-0.05075,-0.001,-0.12575,0.09757209004425065,10,1,100,-0.0008984554334552923,-10,-1,-100,15022.213392547681,0.0003361744279846336,0.008859030947666316,0.9999607015065254,25.01049625695969,0.025309113193744896,-40.191832797725475,14.186481645516663,-142.4673614501953,5356.25390625,True
1599559469.2400472,0.0,10,0.5,0.5,3.47167643737793,-0.05075,-0.001,-0.12575,0.07777446826080708,10,1,100,-0.12496984771907033,-10,-1,-100,15023.328624949208,0.0014587243116294536,0.008679025541833895,0.9999612725696067,24.623266741826843,0.024275358997509898,-37.500786454734204,13.443595855756326,-146.80996704101562,5356.25390625,True
1599559469.271929,0.0,10,0.5,0.5,2.928415675354004,-0.05075,-0.001,-0.12575,0.09574796875459422,10,1,100,-0.01333552600603683,-10,-1,-100,15023.328624949208,0.0014587243116294536,0.008679025541833895,0.9999612725696067,24.623266741826843,0.024275358997509898,-37.500786454734204,13.443595855756326,-146.80996704101562,5356.25390625,True
1599559469.3048735,0.0,10,0.5,0.5,3.2413544677734376,-0.05075,-0.001,-0.12575,0.08136171479706614,10,1,100,-0.07092832732638693,-10,-1,-100,15023.854991720524,0.0019770357040828517,0.00854852255247518,0.9999615063051149,24.4354411623575,0.023713742758104492,-36.18818889836195,13.072178611782851,-148.56822204589844,5356.25390625,True
1599559469.3377826,0.0,10,0.5,0.5,3.396516840362549,-0.05075,-0.001,-0.12575,0.07832064734295786,10,1,100,-0.09442811026617086,-10,-1,-100,15024.644054598873,0.0026572167037916205,0.008402699894056221,0.9999611661629062,24.15131578433978,0.022835660608908875,-34.24541710850778,12.515083235998551,-150.68768310546875,5356.25390625,True
1599559469.3746908,0.0,10,0.5,0.5,3.2323771331787112,-0.05075,-0.001,-0.12575,0.08736279475487119,10,1,100,-0.049873270182508575,-10,-1,-100,15024.84522756259,0.002865958094010884,0.008352929698605594,0.9999610066645866,24.05967485250554,0.022541308959509055,-33.61004371884563,12.329392420668432,-151.2563018798828,5356.25390625,True
1599559469.4065676,0.0,10,0.5,0.5,3.326799845123291,-0.05075,-0.001,-0.12575,0.08251767093394752,10,1,100,-0.0717665013499469,-10,-1,-100,15025.361829804257,0.0032506551022362896,0.00826426771676671,0.9999605667827668,23.885713418749084,0.02195953015227374,-32.3634300396971,11.958021146910303,-152.18655395507812,5356.25390625,True
1599559469.4385195,0.0,10,0.5,0.5,3.327035800170899,-0.05075,-0.001,-0.12575,0.08053522649506092,10,1,100,-0.07219775459716962,-10,-1,-100,15025.822768728132,0.00360017496349932,0.008166337051306238,0.9999601740466451,23.7283695231971,0.02139497917067627,-31.153183037558723,11.586662454657716,-152.84120178222656,5356.25390625,True
1599559469.471397,0.0,10,0.5,0.5,3.2464491127014163,-0.05075,-0.001,-0.12575,0.09024223055243925,10,1,100,-0.03773448978782279,-10,-1,-100,15025.822768728132,0.00360017496349932,0.008166337051306238,0.9999601740466451,23.7283695231971,0.02139497917067627,-31.153183037558723,11.586662454657716,-152.84120178222656,5356.25390625,True
1599559469.508299,0.0,10,0.5,0.5,3.287380002593994,-0.05075,-0.001,-0.12575,0.08571245884422896,10,1,100,-0.055589730743872884,-10,-1,-100,15026.022963749128,0.003758664779934273,0.008125894938913646,0.999959920332067,23.657219109955193,0.02112156448985671,-30.56270669391329,11.400987375876893,-153.06497192382812,5356.25390625,True
1599559469.539214,0.0,10,0.5,0.5,3.296626229858399,-0.05075,-0.001,-0.12575,0.07183650954895446,10,1,100,-0.09965280339611987,-10,-1,-100,15026.92823987233,0.004300208464121067,0.007963650875880388,0.9999590433972244,23.428679875980517,0.020100303061606182,-28.298205765210867,10.658311019781001,-153.27078247070312,5356.25390625,True
1599559469.5721562,0.0,10,0.5,0.5,3.250479780578613,-0.05075,-0.001,-0.12575,0.08407026254574175,10,1,100,-0.05813881644086476,-10,-1,-100,15027.128436450148,0.004411517355573891,0.007928186191340753,0.9999588403421098,23.386292055382864,0.019865127544948007,-27.75552951155452,10.472646952613413,-153.14984130859375,5356.25390625,True
1599559469.60607,0.0,10,0.5,0.5,3.1870969528198243,-0.05075,-0.001,-0.12575,0.08077526339464929,10,1,100,-0.06855862945002769,-10,-1,-100,15027.517109142267,0.004604748472392535,0.00786667361252251,0.9999584550058968,23.319089746200348,0.019420605011226486,-26.695568122606577,10.101323264533114,-152.7009735107422,5356.25390625,True
1599559469.6429389,0.0,10,0.5,0.5,3.116264556121826,-0.05075,-0.001,-0.12575,0.07939706960384327,10,1,100,-0.06687771120770672,-10,-1,-100,15027.905781698297,0.004762272027151328,0.007798962553616153,0.9999582476024821,23.27377246012313,0.0190109112881012,-25.665293032422262,9.73000466957233,-151.9765167236328,5356.25390625,True
1599559469.6743653,0.0,10,0.5,0.5,3.031138497161866,-0.05075,-0.001,-0.12575,0.08016611392060473,10,1,100,-0.06446016046081475,-10,-1,-100,15028.297383904457,0.004880965491666604,0.0077450797756708056,0.9999580940795157,23.247410906594745,0.018635995977658915,-24.65883624304256,9.358689970270165,-150.97613525390625,5356.25390625,True
1599559469.7052848,0.0,10,0.5,0.5,3.050428645324707,-0.05075,-0.001,-0.12575,0.08271201544383093,10,1,100,-0.057811204431077096,-10,-1,-100,15028.486836064607,0.004926401996602991,0.007719837827857442,0.9999580664544286,23.240190304749383,0.01846171344070004,-24.16259891090761,9.17303378758635,-150.37252807617188,5356.25390625,True
1599559469.7381964,0.0,10,0.5,0.5,3.1262438705444335,-0.05075,-0.001,-0.12575,0.0851729010380925,10,1,100,-0.05347359832769767,-10,-1,-100,15028.486836064607,0.004926401996602991,0.007719837827857442,0.9999580664544286,23.240190304749383,0.01846171344070004,-24.16259891090761,9.17303378758635,-150.37252807617188,5356.25390625,True
1599559469.7737184,0.0,10,0.5,0.5,2.8764858230590824,-0.05075,-0.001,-0.12575,0.08005361202000104,10,1,100,-0.06050473636727391,-10,-1,-100,15028.866718577687,0.004988798027058805,0.007673793773046528,0.9999581115143643,23.23404665491723,0.018139421932436478,-23.179239758932955,8.801723109718907,-148.95849609375,5356.25390625,True
1599559469.8056326,0.0,10,0.5,0.5,2.755672427368164,-0.05075,-0.001,-0.12575,0.07975044963577801,10,1,100,-0.057228436416416444,-10,-1,-100,15029.194843221223,0.005014474761498514,0.007629627286342087,0.9999583210466012,23.233940443507517,0.017852695901048567,-22.20207170815355,8.430414409726941,-147.2687530517578,5356.25390625,True
1599559469.8383248,0.0,10,0.5,0.5,2.4289893547058106,-0.05075,-0.001,-0.12575,0.07747518426059347,10,1,100,-0.051354478216919505,-10,-1,-100,15029.699725507176,0.004983131900268278,0.007569279622077249,0.9999589363581223,23.22796202824564,0.017489019702651924,-20.730972778394214,7.873454289111228,-144.21713256835938,5356.25390625,True
1599559469.8716426,0.0,10,0.5,0.5,2.6079858688354496,-0.05075,-0.001,-0.12575,0.08119892027560874,10,1,100,-0.05149869723087159,-10,-1,-100,15029.831559754675,0.004954836320076416,0.007548776268624659,0.9999592319559271,23.219867404807378,0.017385039034371445,-20.23541354305591,7.687801763443571,-143.06211853027344,5356.25390625,True
1599559469.9075272,0.0,10,0.5,0.5,2.7522080177307133,-0.05075,-0.001,-0.12575,0.08320776816014215,10,1,100,-0.05439371803565339,-10,-1,-100,15029.831559754675,0.004954836320076416,0.007548776268624659,0.9999592319559271,23.219867404807378,0.017385039034371445,-20.23541354305591,7.687801763443571,-143.06211853027344,5356.25390625,True
1599559469.9375281,0.0,10,0.5,0.5,2.306989444732666,-0.05075,-0.001,-0.12575,0.07846887647096645,10,1,100,-0.04536646057407295,-10,-1,-100,15030.146011054516,0.004872276416821591,0.007506040353198258,0.9999599593387397,23.18601732578393,0.017200499877827066,-19.23060718015409,7.316497772242353,-140.54534912109375,5356.25390625,True
1599559469.9709487,0.0,10,0.5,0.5,2.1294117645263677,-0.05075,-0.001,-0.12575,0.07754336205936488,10,1,100,-0.04062472059936642,-10,-1,-100,15030.399914552923,0.0047538720250522104,0.007459103602031811,0.999960880471943,23.11841898531049,0.01704266086303072,-18.201999619946328,6.945195543624909,-137.75302124023438,5356.25390625,True
1599559470.0048904,0.0,10,0.5,0.5,1.6486648910522463,-0.05075,-0.001,-0.12575,0.07317183985359499,10,1,100,-0.02590226645756821,-10,-1,-100,15030.785653499654,0.004512398813065607,0.007377001679965845,0.999962608352515,22.922998428699977,0.01683487040620481,-16.601518302821194,6.38824472321318,-133.04786682128906,5356.25390625,True
1599559470.0407958,0.0,10,0.5,0.5,1.9374158073425294,-0.05075,-0.001,-0.12575,0.0777491752193051,10,1,100,-0.03953730658881408,-10,-1,-100,15030.909674418974,0.004417167682160567,0.0073443103251357,0.9999632741933654,22.824888389730777,0.01676624870688514,-16.0502847881598,6.2025947765387475,-131.3417510986328,5356.25390625,True
1599559470.0706847,0.0,10,0.5,0.5,1.8367730522155763,-0.05075,-0.001,-0.12575,0.0771059760403053,10,1,100,-0.037633993221327156,-10,-1,-100,15031.033696955768,0.00431375401828287,0.007309085035028954,0.9999639837525253,22.70680729121375,0.01669438944752396,-15.48953727304645,6.0169446459483815,-129.5667724609375,5356.25390625,True
1599559470.1046395,0.0,10,0.5,0.5,1.0451351837158205,-0.05075,-0.001,-0.12575,0.06634391579494599,10,1,100,-0.009610003081941147,-10,-1,-100,15031.401853764779,0.003965535002561746,0.007179598544331216,0.9999663633827319,22.21251488627514,0.01643612284934665,-13.750298845616609,5.459991664202139,-123.82875061035156,5356.25390625,True
1599559470.1385958,0.0,10,0.5,0.5,1.7641784568786623,-0.05075,-0.001,-0.12575,0.0792431453418482,10,1,100,-0.04432957835160388,-10,-1,-100,15031.401853764779,0.003965535002561746,0.007179598544331216,0.9999663633827319,22.21251488627514,0.01643612284934665,-13.750298845616609,5.459991664202139,-123.82875061035156,5356.25390625,True
1599559470.1745658,0.0,10,0.5,0.5,0.6397346832275392,-0.05075,-0.001,-0.12575,0.060788089129331056,10,1,100,2.277448415722444e-05,-10,-1,-100,15031.706534883939,0.003563285376562951,0.007012234423073797,0.9999690653043828,21.456138504298398,0.01604496723805614,-11.927590607947746,4.9030274840105825,-117.47124481201172,5356.25390625,True
1599559470.2055988,0.0,10,0.5,0.5,0.6277138706207276,-0.05075,-0.001,-0.12575,0.06242028330583281,10,1,100,-0.007444403618164841,-10,-1,-100,15031.8920767979,0.0032667781052430705,0.006875429755534345,0.9999710278935525,20.810441748757675,0.01568899037327811,-10.692727288503393,4.5317067303540846,-112.8887939453125,5356.25390625,True
1599559470.2377796,0.0,10,0.5,0.5,1.2009397346496582,-0.05075,-0.001,-0.12575,0.07603341540846903,10,1,100,-0.03692632492866958,-10,-1,-100,15031.8920767979,0.0032667781052430705,0.006875429755534345,0.9999710278935525,20.810441748757675,0.01568899037327811,-10.692727288503393,4.5317067303540846,-112.8887939453125,5356.25390625,True
1599559470.2716637,0.0,10,0.5,0.5,-0.08693274612426749,-0.05075,-0.001,-0.12575,0.04881455663375751,10,1,100,0.013423960284561332,-10,-1,-100,15032.135232023895,0.002810582838045365,0.006628597718048868,0.9999740808222994,19.73591352093679,0.015048996668860176,-8.894424550353495,3.974697410398676,-105.60916137695312,5356.25390625,True
1599559470.4132912,0.0,10,0.5,0.5,0.8249874305725099,-0.05075,-0.001,-0.12575,0.07341001611879028,10,1,100,-0.031989397077331574,-10,-1,-100,15032.135232023895,0.002810582838045365,0.006628597718048868,0.9999740808222994,19.73591352093679,0.015048996668860176,-8.894424550353495,3.974697410398676,-105.60916137695312,5356.25390625,True
1599559470.4412158,0.0,10,0.5,0.5,-0.076937183380127,-0.05075,-0.001,-0.12575,0.05182859352946592,10,1,100,0.004124419324558749,-10,-1,-100,15032.247530810535,0.002484042042743641,0.006433157972585903,0.9999762217241116,18.85735627514189,0.014466821980833768,-7.704564371710202,3.603333410776496,-100.51731872558594,5356.25390625,True
1599559470.4621592,0.0,10,0.5,0.5,-0.3634175254821778,-0.05075,-0.001,-0.12575,0.0473284230785042,10,1,100,0.007445678522378676,-10,-1,-100,15032.423306843033,0.0021588374695530946,0.006215432875981175,0.9999783536731903,17.796050187579013,0.013708147193682057,-6.521621175941199,3.231943780673627,-95.28487396240234,5356.25390625,True
1599559470.505558,0.0,10,0.5,0.5,-0.1834826419830322,-0.05075,-0.001,-0.12575,0.05576345014515888,10,1,100,-0.006097890902619422,-10,-1,-100,15032.47799225687,0.00198837333434586,0.006095209286445695,0.9999794471864099,17.23576240674445,0.013290292616050515,-5.953396807459362,3.046238262077943,-92.59683227539062,5356.25390625,True
1599559470.5374727,0.0,10,0.5,0.5,-0.32661545562744143,-0.05075,-0.001,-0.12575,0.05415812546820102,10,1,100,-0.005021391896795128,-10,-1,-100,15032.533652325626,0.0018257335665444593,0.0059724247768489,0.9999804982294549,16.70731659094953,0.012886972915757274,-5.419076401513912,2.860526505433093,-89.89169311523438,5356.25390625,True
1599559470.5735848,0.0,10,0.5,0.5,-1.4087162841796876,-0.05075,-0.001,-0.12575,0.021890553307267704,10,1,100,0.03354952889282031,-10,-1,-100,15032.704543242464,0.0013291797717612432,0.005568558360995585,0.9999836120851755,17.16380579681406,0.013203266970292664,-4.482860992323203,2.3033655283035994,-81.85272216796875,5356.25390625,True
1599559470.604535,0.0,10,0.5,0.5,-0.8697156677246094,-0.05075,-0.001,-0.12575,0.04589160535765312,10,1,100,0.002389581641938733,-10,-1,-100,15032.697704112972,0.0011634361653579707,0.00542106303811729,0.9999846291277811,17.645591736438597,0.01355919153797602,-4.237109713278026,2.1176410798008245,-79.20285034179688,5356.25390625,True
1599559470.6375344,0.0,10,0.5,0.5,-1.0046678047180175,-0.05075,-0.001,-0.12575,0.04378746554682097,10,1,100,0.004081387934095156,-10,-1,-100,15032.750436790753,0.0009995617834364873,0.005269294356661235,0.9999856176031853,18.09045739749134,0.013889886527095717,-3.962976925086826,1.9319167486487872,-76.57199096679688,5356.25390625,True
1599559470.674434,0.0,10,0.5,0.5,-1.5781316993713381,-0.05075,-0.001,-0.12575,0.025619555303524142,10,1,100,0.022146430358684806,-10,-1,-100,15032.796329966863,0.0006884185199405115,0.004967620130761099,0.9999874243360153,18.860337454949093,0.014469973226339774,-3.337292082926076,1.5604714098762362,-71.46908569335938,5356.25390625,True
1599559470.7064111,0.0,10,0.5,0.5,-1.7985107917785645,-0.05075,-0.001,-0.12575,0.018974958851578072,10,1,100,0.025627701881979822,-10,-1,-100,15032.845153646078,0.00037625704799176303,0.004634699784583986,0.9999891889358309,19.477675878673033,0.014938301606111225,-2.62618197639989,1.1890301243140242,-66.60830688476562,5356.25390625,True
1599559470.7373211,0.0,10,0.5,0.5,-1.603272388458252,-0.05075,-0.001,-0.12575,0.03340685798961462,10,1,100,0.011165750217767783,-10,-1,-100,15032.89397874684,0.00022615920297669527,0.0044650566419810024,0.9999900060106595,19.71920428929413,0.01512007584855992,-2.2434804103800268,1.0033095840874697,-64.2734375,5356.25390625,True
1599559470.7714963,0.0,10,0.5,0.5,-2.102088829803467,-0.05075,-0.001,-0.12575,0.012269269954035725,10,1,100,0.02836706945126098,-10,-1,-100,15032.941826062044,-6.431953676415116e-05,0.00412064256754218,0.9999915080478572,20.070716437767313,0.015385901117945432,-1.4381060468165978,0.6318639627724147,-59.80718994140625,5356.25390625,True
1599559470.805438,0.0,10,0.5,0.5,-1.9205181648254395,-0.05075,-0.001,-0.12575,0.02746229431061716,10,1,100,0.015043483812602433,-10,-1,-100,15032.929129986791,-0.00020495092019574493,0.003947759553480394,0.9999921865642891,20.187819243686096,0.015477189104788156,-1.0213293936193077,0.44613734209528877,-57.67694091796875,5356.25390625,True
1599559470.8412073,0.0,10,0.5,0.5,-2.7113711517333985,-0.05075,-0.001,-0.12575,-0.014435516979159041,10,1,100,0.04576000445107667,-10,-1,-100,15032.954515008372,-0.0006098898305835515,0.003411765504719442,0.9999939939272313,20.340340664182918,0.015605925918265862,0.2561821111608417,-0.11106365250559369,-51.69976806640625,5356.25390625,True
1599559470.8711276,0.0,10,0.5,0.5,-2.29116540222168,-0.05075,-0.001,-0.12575,0.0193189294233036,10,1,100,0.019667242249863166,-10,-1,-100,15032.942795756622,-0.0007384471262296808,0.003233796285669806,0.9999944986135797,20.375076519668124,0.015638306580609294,0.6857922509226486,-0.2968047756305088,-49.845184326171875,5356.25390625,True
1599559470.905036,0.0,10,0.5,0.5,-2.377106248474121,-0.05075,-0.001,-0.12575,0.016634473356464032,10,1,100,0.020882892848432602,-10,-1,-100,15032.9330283436,-0.0008640376907197258,0.003050091602736304,0.9999949751774175,20.41697180575324,0.015676997482290796,1.1172724577886741,-0.4825489532811873,-48.05963134765625,5356.25390625,True
1599559470.938023,0.0,10,0.5,0.5,-2.749792251586914,-0.05075,-0.001,-0.12575,-0.004335650072079495,10,1,100,0.03525670871365103,-10,-1,-100,15032.911541700945,-0.0011068881504285879,0.0026947393750447785,0.9999957565801582,20.443541790227048,0.015712949286689603,1.9800320693359903,-0.854046272462174,-44.695098876953125,5356.25390625,True
1599559470.974663,0.0,10,0.5,0.5,-2.875300422668457,-0.05075,-0.001,-0.12575,-0.00913610894375294,10,1,100,0.036553773446042846,-10,-1,-100,15032.82267254754,-0.0013373888619894912,0.002330529836185517,0.9999963900043412,20.409499991010623,0.015704986288447166,2.8366690324451573,-1.225554788371148,-41.6064453125,5356.25390625,True
1599559471.0058594,0.0,10,0.5,0.5,-3.2169100219726565,-0.05075,-0.001,-0.12575,-0.03146267566107193,10,1,100,0.04979767871567503,-10,-1,-100,15032.771890488919,-0.0016652096016365814,0.0017991330711746303,0.9999969950940727,20.289528632941444,0.015647959031757936,4.102430977495207,-1.7828353065899298,-37.490234375,5356.25390625,True
1599559471.0380893,0.0,10,0.5,0.5,-3.126239440917969,-0.05075,-0.001,-0.12575,-0.016436459759525148,10,1,100,0.040327957378352784,-10,-1,-100,15032.685952379485,-0.0018750004181386638,0.0014555275085056916,0.9999971829025839,20.193871053627188,0.015605594095728596,4.934095630448628,-2.154365278022674,-35.090545654296875,5356.25390625,True
1599559471.0722446,0.0,10,0.5,0.5,-2.827630360412598,-0.05075,-0.001,-0.12575,0.01760617927976089,10,1,100,0.019574001474757588,-10,-1,-100,15032.685952379485,-0.0018750004181386638,0.0014555275085056916,0.9999971829025839,20.193871053627188,0.015605594095728596,4.934095630448628,-2.154365278022674,-35.090545654296875,5356.25390625,True
1599559471.1071513,0.0,10,0.5,0.5,-3.024096455383301,-0.05075,-0.001,-0.12575,-0.0007505807599018678,10,1,100,0.031242538083326197,-10,-1,-100,15032.608802852104,-0.001979167878561001,0.0012913838073573714,0.9999972076072866,20.14078345890159,0.015583508647575826,5.345533173518023,-2.3401326840847547,-33.99395751953125,5356.25390625,True
1599559471.138113,0.0,10,0.5,0.5,-3.239384893798828,-0.05075,-0.001,-0.12575,-0.02009315532599522,10,1,100,0.04336541375240484,-10,-1,-100,15032.514076989144,-0.002182332759262207,0.0009688927273127632,0.9999971493312422,20.03104130790621,0.015544702356383156,6.160647843584241,-2.7116712270971264,-32.007537841796875,5356.25390625,True
1599559471.1715677,0.0,10,0.5,0.5,-3.2940969375610356,-0.05075,-0.001,-0.12575,-0.023856098391838658,10,1,100,0.044253954590097164,-10,-1,-100,15032.415444634738,-0.0023733081294795367,0.0006442185056065134,0.9999969761909482,19.924488587380857,0.015521123455385474,6.967695271837826,-3.0832144403479287,-30.296844482421875,5356.25390625,True
1599559471.204502,0.0,10,0.5,0.5,-3.213864198303223,-0.05075,-0.001,-0.12575,-0.008357524789066866,10,1,100,0.03598804306937838,-10,-1,-100,15032.336344055599,-0.0024701743446715785,0.0004924721977161324,0.9999968278498894,19.87525914732389,0.015517752805598712,7.369377824584107,-3.26898766744185,-29.54473876953125,5356.25390625,True
1599559471.2396486,0.0,10,0.5,0.5,-3.350344659423828,-0.05075,-0.001,-0.12575,-0.025972467963044765,10,1,100,0.047379814736160805,-10,-1,-100,15032.181071949308,-0.0026602218034365095,0.00019687727449594486,0.9999964422233187,19.789923049370657,0.01553233746491836,8.17199280045505,-3.640537299897889,-28.24713134765625,5356.25390625,True
1599559471.2706954,0.0,10,0.5,0.5,-3.3695461090087893,-0.05075,-0.001,-0.12575,-0.027728709014863153,10,1,100,0.049281349943135225,-10,-1,-100,15032.018963756389,-0.002848646009547381,-8.521737951326521e-05,0.9999959389687092,19.737324162829562,0.015587458179959608,8.982391480366042,-4.012091163915216,-27.225067138671875,5356.25390625,True
1599559471.3047748,0.0,10,0.5,0.5,-3.422182554626465,-0.05075,-0.001,-0.12575,-0.04384731005399985,10,1,100,0.06092465590132732,-10,-1,-100,15031.768965423107,-0.0031242055621234477,-0.00048567256828237334,0.9999950017183894,19.720113101183163,0.015746100821484543,10.221812358139067,-4.569429878287631,-26.20855712890625,5356.25390625,True
1599559471.325717,0.0,10,0.5,0.5,-3.331403045654297,-0.05075,-0.001,-0.12575,-0.0175407118609548,10,1,100,0.04378344111579703,-10,-1,-100,15031.684982322739,-0.0032172606421422023,-0.0006080116632225459,0.999994639763523,19.74196502736531,0.01582800840459457,10.649397793816783,-4.755211372657384,-26.00738525390625,5356.25390625,True
1599559471.3735898,0.0,10,0.5,0.5,-3.3418074188232425,-0.05075,-0.001,-0.12575,-0.030755770768600962,10,1,100,0.05531333958238485,-10,-1,-100,15031.458422286203,-0.0034052624727277723,-0.0008371776080245795,0.999993851641671,19.810119395250126,0.016021916103292084,11.521629326382731,-5.126777161666287,-25.811614990234375,5356.25390625,True
1599559471.405628,0.0,10,0.5,0.5,-3.3171692031860354,-0.05075,-0.001,-0.12575,-0.019679329081168824,10,1,100,0.047173003187528595,-10,-1,-100,15031.374438400846,-0.0035007790223481527,-0.0009427310833074722,0.9999934278805743,19.856838505864573,0.0161342012648283,11.967559321733424,-5.312561300761692,-25.816986083984375,5356.25390625,True
1599559471.4376717,0.0,10,0.5,0.5,-3.280394212341309,-0.05075,-0.001,-0.12575,-0.03200846613153485,10,1,100,0.058279345286350696,-10,-1,-100,15031.149830870563,-0.003687101015079418,-0.001148591617120872,0.9999925429838972,19.97602601466862,0.01638964818566374,12.882018922544306,-5.68413166944295,-26.034423828125,5356.25390625,True
1599559471.4713748,0.0,10,0.5,0.5,-3.271135516357422,-0.05075,-0.001,-0.12575,-0.02156766166009784,10,1,100,0.050383089353784466,-10,-1,-100,15031.002372107934,-0.0037831478335058587,-0.001238602993188646,0.999992076796159,20.048413347043045,0.016532651235871304,13.351582591726547,-5.869917686928895,-26.246307373046875,5356.25390625,True
1599559471.5083153,0.0,10,0.5,0.5,-3.2487961654663087,-0.05075,-0.001,-0.12575,-0.022477866987919298,10,1,100,0.05137123278704872,-10,-1,-100,15030.91643518454,-0.0038779909586738946,-0.0013266992964845435,0.9999916004922746,20.129082844174512,0.01668555327499707,13.8299200188768,-6.0557041047629845,-26.527099609375,5356.25390625,True
1599559471.5411913,0.0,10,0.5,0.5,-3.062904379272461,-0.05075,-0.001,-0.12575,-0.03920646617908157,10,1,100,0.07359391382834012,-10,-1,-100,15030.537533545052,-0.0041648684611754905,-0.0015570732759440245,0.9999901146478972,20.417792183456562,0.01720045602439668,15.32057995822642,-6.613064000312383,-27.782501220703125,5356.25390625,True
1599559471.5715723,0.0,10,0.5,0.5,-3.1227864669799805,-0.05075,-0.001,-0.12575,-0.023764939877864526,10,1,100,0.0555672597677124,-10,-1,-100,15030.39007310744,-0.0042602468864289585,-0.0016242634313746159,0.9999896059783682,20.528014242602595,0.017389096028519308,15.836441940946314,-6.798850499437446,-28.338653564453125,5356.25390625,True
1599559471.605597,0.0,10,0.5,0.5,-3.0824009719848635,-0.05075,-0.001,-0.12575,-0.023977200816060747,10,1,100,0.05667181480189931,-10,-1,-100,15030.238708165707,-0.004355541386894726,-0.0016856194532897822,0.9999890939136716,20.644413651560104,0.017585276079735507,16.361884363591148,-6.984636550727649,-28.963653564453125,5356.25390625,True
1599559471.6386356,0.0,10,0.5,0.5,-2.598081681823731,-0.05075,-0.001,-0.12575,-0.0384107444469924,10,1,100,0.08904174966520652,-10,-1,-100,15029.643010209664,-0.0047350749811869925,-0.0018711567770631516,0.9999870388346231,21.156610265006492,0.018423980260593244,18.55399290990183,-7.7277732797304,-32.1519775390625,5356.25390625,True
1599559471.6765924,0.0,10,0.5,0.5,-2.827364682006836,-0.05075,-0.001,-0.12575,-0.023573876222535057,10,1,100,0.061547422652414766,-10,-1,-100,15029.48773739324,-0.00482869266731907,-0.0019036869200813472,0.9999865297608937,21.291552201088777,0.018640034106437615,19.12181210624006,-7.913554581123382,-33.121124267578125,5356.25390625,True
1599559471.7054825,0.0,10,0.5,0.5,-2.5699868118286133,-0.05075,-0.001,-0.12575,-0.02482781946839052,10,1,100,0.07258644991802116,-10,-1,-100,15029.184029241675,-0.005012689509830855,-0.001943481374826703,0.999985547807579,21.561397294264157,0.019066624116630605,20.274613519264843,-8.285112081660307,-35.26580810546875,5356.25390625,True
1599559471.7395933,0.0,10,0.5,0.5,-2.4115868560791016,-0.05075,-0.001,-0.12575,-0.02347887517881267,10,1,100,0.07415309493882455,-10,-1,-100,15028.826609857962,-0.005192740296815143,-0.0019663892912655896,0.99998458426186,21.822285912688812,0.01947067568930341,21.441550693549598,-8.65666218563814,-37.6859130859375,5356.25390625,True
1599559471.7735116,0.0,10,0.5,0.5,-2.714728164672852,-0.05075,-0.001,-0.12575,-0.021290449355719825,10,1,100,0.05631721236784247,-10,-1,-100,15028.826609857962,-0.005192740296815143,-0.0019663892912655896,0.99998458426186,21.822285912688812,0.01947067568930341,21.441550693549598,-8.65666218563814,-37.6859130859375,5356.25390625,True
1599559471.8084173,0.0,10,0.5,0.5,-2.4817774932861325,-0.05075,-0.001,-0.12575,-0.02123292456417046,10,1,100,0.0659930427489685,-10,-1,-100,15028.615673947497,-0.00527933362820562,-0.0019651228861841,0.9999841333383667,21.945842422467724,0.019657986617155385,22.026425345014115,-8.84243403548284,-38.9991455078125,5356.25390625,True
1599559471.8393855,0.0,10,0.5,0.5,-1.8774072692871095,-0.05075,-0.001,-0.12575,-0.017319375727789424,10,1,100,0.08493600010904656,-10,-1,-100,15028.085403508856,-0.005528903372929763,-0.0019277334195129227,0.9999828573887435,22.309755517518308,0.02016111878517687,23.805379905822317,-9.399735221541967,-43.35174560546875,5356.25390625,True
1599559471.8725667,0.0,10,0.5,0.5,-2.1426830718994143,-0.05075,-0.001,-0.12575,-0.018513552454518366,10,1,100,0.06890736654735227,-10,-1,-100,15027.876420860412,-0.005608569279014259,-0.0019040527526702714,0.9999824591130375,22.411032415187183,0.020287701904719284,24.38689835776898,-9.585497468866524,-44.9403076171875,5356.25390625,True
1599559471.9074404,0.0,10,0.5,0.5,-2.04821770324707,-0.05075,-0.001,-0.12575,-0.017526014823219357,10,1,100,0.0693838804615277,-10,-1,-100,15027.717241439386,-0.005684012319385541,-0.0018732318230044826,0.9999820913428852,22.498605043220913,0.0203875369936792,24.957533421475492,-9.771257254173296,-46.59759521484375,5356.25390625,True
1599559471.9421616,0.0,10,0.5,0.5,-1.633323754882813,-0.05075,-0.001,-0.12575,-0.011880480041839725,10,1,100,0.07733764650503328,-10,-1,-100,15027.285602561547,-0.0058236095333613425,-0.0017936634176670145,0.9999814339994254,22.624372894064187,0.020493608483147116,26.05316966267359,-10.14277029824052,-50.118682861328125,5356.25390625,True
1599559471.9730787,0.0,10,0.5,0.5,-1.4039281539916995,-0.05075,-0.001,-0.12575,-0.008978516909502885,10,1,100,0.07770438080177357,-10,-1,-100,15026.905721424264,-0.005952515432267468,-0.0016948487989168202,0.9999808473403765,22.66937986304654,0.020454263115586038,27.063200334149503,-10.514276181069233,-53.9150390625,5356.25390625,True
1599559472.0069883,0.0,10,0.5,0.5,-0.7829670349121096,-0.05075,-0.001,-0.12575,0.0018034226741731815,10,1,100,0.08233943044242938,-10,-1,-100,15026.25240359432,-0.006110732663959834,-0.001507159974726994,0.9999801935114115,22.54639962824477,0.0200844694008171,28.346265711335835,-11.071527996815215,-60.12567138671875,5356.25390625,True
1599559472.0399008,0.0,10,0.5,0.5,-1.5612535949707034,-0.05075,-0.001,-0.12575,-0.01692580705027399,10,1,100,0.06664591127285684,-10,-1,-100,15026.25240359432,-0.006110732663959834,-0.001507159974726994,0.9999801935114115,22.54639962824477,0.0200844694008171,28.346265711335835,-11.071527996815215,-60.12567138671875,5356.25390625,True
1599559472.0754263,0.0,10,0.5,0.5,-0.7672484893798829,-0.05075,-0.001,-0.12575,-0.0007254401268054142,10,1,100,0.07544143129082381,-10,-1,-100,15025.753381023416,-0.006189693715801235,-0.0013602805676046431,0.9999799184626069,22.310937885904487,0.019621457674161978,28.993819046743,-11.443030434965968,-64.61019897460938,5356.25390625,True
1599559472.1063843,0.0,10,0.5,0.5,-0.9160847091674804,-0.05075,-0.001,-0.12575,-0.0068284681597392686,10,1,100,0.07089672145888831,-10,-1,-100,15025.537559902645,-0.006219254624985834,-0.0012827869148143236,0.9999798374615564,22.14064583213645,0.019326303685707834,29.240806401340922,-11.628783582696013,-66.94674682617188,5356.25390625,True
1599559472.1472347,0.0,10,0.5,0.5,0.5459388931274413,-0.05075,-0.001,-0.12575,0.023181646267555263,10,1,100,0.07485062296945254,-10,-1,-100,15024.58834125637,-0.006281139543133172,-0.0009401403741899477,0.9999798315076742,21.105251785507523,0.01781207900559317,29.65962176360286,-12.371820862995413,-76.8782958984375,5356.25390625,True
1599559472.1732044,0.0,10,0.5,0.5,-0.23532512512207032,-0.05075,-0.001,-0.12575,-0.0009126032669282639,10,1,100,0.06878243617763083,-10,-1,-100,15024.30709173414,-0.006281322492509711,-0.0008486139534921781,0.9999799122192919,20.77990431938627,0.01739589656335566,29.64226597809208,-12.557588197431617,-79.50628662109375,5356.25390625,True
1599559472.340718,0.0,10,0.5,0.5,-0.08744255065917972,-0.05075,-0.001,-0.12575,0.0002711944078266689,10,1,100,0.0681115381051283,-10,-1,-100,15024.085411095177,-0.006274705719356923,-0.0007556273371473616,0.999980028348298,20.412625248271382,0.016963785107274712,29.55050962851394,-12.743359143295153,-82.19601440429688,5356.25390625,True
1599559472.3652017,0.0,10,0.5,0.5,0.9958562393188476,-0.05075,-0.001,-0.12575,0.020798206503984482,10,1,100,0.062146648654240924,-10,-1,-100,15023.29439477378,-0.006213858624718738,-0.00048552887179202365,0.9999805759227061,19.09573887671723,0.015661671414777856,28.85736595620661,-13.300692060984288,-90.22891235351562,5356.25390625,True
1599559472.408051,0.0,10,0.5,0.5,0.4622272254943848,-0.05075,-0.001,-0.12575,0.004068082420879004,10,1,100,0.06471918054224196,-10,-1,-100,15023.007283805287,-0.006181448059206457,-0.00039333839763468665,0.9999808173084103,18.716909108801005,0.0153477291868855,28.68139899843963,-13.48647399850075,-92.9039535522461,5356.25390625,True
1599559472.4404593,0.0,10,0.5,0.5,0.6031784267425537,-0.05075,-0.001,-0.12575,0.0049784093598796205,10,1,100,0.06369723930850132,-10,-1,-100,15022.72994044004,-0.006142368226137792,-0.00030252619897349497,0.9999810897164373,19.303278956765432,0.015862021243795738,29.98893426380557,-13.672251010058513,-95.58417510986328,5356.25390625,True
1599559472.4765558,0.0,10,0.5,0.5,1.6413456150054933,-0.05075,-0.001,-0.12575,0.024000238952040565,10,1,100,0.05124478969812751,-10,-1,-100,15021.863725939416,-0.005993464424350271,-4.830967898907877e-05,0.9999820378638653,20.961455547080938,0.017522908976916857,33.89769116571401,-14.229543788740969,-103.35209655761719,5356.25390625,True
1599559472.5079846,0.0,10,0.5,0.5,1.5442838943481445,-0.05075,-0.001,-0.12575,0.016605099754030465,10,1,100,0.05202458639723145,-10,-1,-100,15021.289505495457,-0.005865293000207659,0.00011424148256417327,0.9999827924954036,21.90246527337644,0.018621519294200417,36.34796983346581,-14.60103572552516,-108.31204986572266,5356.25390625,True
1599559472.5420337,0.0,10,0.5,0.5,0.9253884037017823,-0.05075,-0.001,-0.12575,0.0005121237444343764,10,1,100,0.06481718484511738,-10,-1,-100,15021.289505495457,-0.005865293000207659,0.00011424148256417327,0.9999827924954036,21.90246527337644,0.018621519294200417,36.34796983346581,-14.60103572552516,-108.31204986572266,5356.25390625,True
1599559472.5749457,0.0,10,0.5,0.5,1.3535743122100832,-0.05075,-0.001,-0.12575,0.008812710404366911,10,1,100,0.05732873860052654,-10,-1,-100,15021.003372519277,-0.005797511125907373,0.0001883608866997701,0.9999831765509465,22.314205057915576,0.019144944811155123,37.50431167957889,-14.78677036747921,-110.71327209472656,5356.25390625,True
1599559472.609853,0.0,10,0.5,0.5,1.8689877365112304,-0.05075,-0.001,-0.12575,0.017113298656527887,10,1,100,0.04745621388832763,-10,-1,-100,15020.425245363265,-0.005646524418704467,0.0003298646492958542,0.9999840038477126,23.018682421333445,0.020110651520334605,39.66440846451569,-15.158217391437786,-115.31945037841797,5356.25390625,True
1599559472.641803,0.0,10,0.5,0.5,2.426291582107544,-0.05075,-0.001,-0.12575,0.024118652021688246,10,1,100,0.03323464552147597,-10,-1,-100,15019.493600259768,-0.005380553713479927,0.0005210349140451286,0.9999853889754364,23.966189336410093,0.0214463582097567,42.82170669154814,-15.715334683966315,-121.7369384765625,5356.25390625,True
1599559472.6752846,0.0,10,0.5,0.5,1.6235155189514163,-0.05075,-0.001,-0.12575,0.005138590433514532,10,1,100,0.059741639166027,-10,-1,-100,15019.493600259768,-0.005380553713479927,0.0005210349140451286,0.9999853889754364,23.966189336410093,0.0214463582097567,42.82170669154814,-15.715334683966315,-121.7369384765625,5356.25390625,True
1599559472.70785,0.0,10,0.5,0.5,2.3230820304870607,-0.05075,-0.001,-0.12575,0.017143624951288565,10,1,100,0.038587748559110825,-10,-1,-100,15018.854925564025,-0.005189058482513304,0.0006290109894328994,0.9999863389153075,24.438305267967472,0.02213673783293827,44.701893482085445,-16.086715003351404,-125.67808532714844,5356.25390625,True
1599559472.7428696,0.0,10,0.5,0.5,2.783399496459961,-0.05075,-0.001,-0.12575,0.021377181794259903,10,1,100,0.023915755053534358,-10,-1,-100,15017.858829246252,-0.004882521786258594,0.0007646447203022259,0.9999877880751638,24.94640884861661,0.02285295640118006,47.218953500978714,-16.643748317099472,-131.07395935058594,5356.25390625,True
1599559472.7903726,0.0,10,0.5,0.5,2.401834882354737,-0.05075,-0.001,-0.12575,0.011880041454568608,10,1,100,0.04229772919518974,-10,-1,-100,15017.509217551094,-0.004772141760290222,0.0008005577606244775,0.9999882928166166,25.07074149844622,0.0230090572169011,47.98626254135032,-16.829417924814116,-132.73486328125,5356.25390625,True
1599559472.816309,0.0,10,0.5,0.5,2.4776784416198727,-0.05075,-0.001,-0.12575,0.012123258156849788,10,1,100,0.04148315393864822,-10,-1,-100,15017.152771720197,-0.004665636712955732,0.000834414236429446,0.9999887677303904,25.176136727485915,0.023126488725843344,48.72226403474528,-17.01508415119853,-134.3268585205078,5356.25390625,True
1599559472.8412125,0.0,10,0.5,0.5,3.0505831573486333,-0.05075,-0.001,-0.12575,0.017634921737309864,10,1,100,0.015691315063785773,-10,-1,-100,15016.148861143622,-0.004335549796254168,0.0009144964070604922,0.9999901833039592,25.396685686707002,0.023267661225354896,50.76637048745923,-17.572066181309086,-138.68946838378906,5356.25390625,True
1599559472.8741615,0.0,10,0.5,0.5,2.737371105194092,-0.05075,-0.001,-0.12575,0.011722973511430812,10,1,100,0.03593070977866174,-10,-1,-100,15015.793391825282,-0.004220855954118849,0.0009328258920130007,0.9999906570617897,25.444718885333607,0.023253139499834055,51.402658373916054,-17.75772230889156,-140.00588989257812,5356.25390625,True
1599559472.9120247,0.0,10,0.5,0.5,2.7951918830871585,-0.05075,-0.001,-0.12575,0.011584898893620982,10,1,100,0.03465459238241181,-10,-1,-100,15015.435967894387,-0.004106482700435459,0.00094748966870842,0.9999911194921477,25.48287075372035,0.023212127174054138,52.02089750046137,-17.943376525700884,-141.25343322753906,5356.25390625,True
1599559472.9409454,0.0,10,0.5,0.5,2.849390953063965,-0.05075,-0.001,-0.12575,0.011850070012459659,10,1,100,0.03371696471898205,-10,-1,-100,15015.076592465164,-0.0039955204259879895,0.0009625409042555087,0.9999915546301043,25.517202934256943,0.023151287961410853,52.632964327378765,-18.129028907069227,-142.43203735351562,5356.25390625,True
1599559472.9748528,0.0,10,0.5,0.5,3.0834636199951175,-0.05075,-0.001,-0.12575,0.012142635622423925,10,1,100,0.019491646726838174,-10,-1,-100,15014.30315279169,-0.003766825471100543,0.000978308372793483,0.9999924269406234,25.599396026738884,0.022997237276286053,53.8902217951697,-18.500328592640987,-144.58258056640625,5356.25390625,True
1599559473.0117204,0.0,10,0.5,0.5,3.293480049133301,-0.05075,-0.001,-0.12575,0.010372610414395547,10,1,100,0.004081855284587453,-10,-1,-100,15013.176195649896,-0.0034202989792209296,0.0009761355937016121,0.9999936743370906,25.694184492916403,0.022646014219564022,55.72808622027488,-19.057266099449805,-147.29171752929688,5356.25390625,True
1599559473.056635,0.0,10,0.5,0.5,3.090432423400879,-0.05075,-0.001,-0.12575,0.009897891505636114,10,1,100,0.0257669319703173,-10,-1,-100,15012.811937495484,-0.003304194006231788,0.0009694309856478652,0.9999940712351915,25.722896077707787,0.022505663459758487,56.337267283173716,-19.242908830890855,-148.05699157714844,5356.25390625,True
1599559473.0833154,0.0,10,0.5,0.5,3.328653861236573,-0.05075,-0.001,-0.12575,0.007616188590308897,10,1,100,-0.0003391907098584321,-10,-1,-100,15011.613691404345,-0.002963029155945772,0.0009422836609176523,0.9999951662681793,25.81333060110245,0.02204032237174032,58.18241034931214,-19.799826999666312,-149.93923950195312,5356.25390625,True
1599559473.1082857,0.0,10,0.5,0.5,3.09384771270752,-0.05075,-0.001,-0.12575,0.01034868495739172,10,1,100,0.03358534505571187,-10,-1,-100,15011.613691404345,-0.002963029155945772,0.0009422836609176523,0.9999951662681793,25.81333060110245,0.02204032237174032,58.18241034931214,-19.799826999666312,-149.93923950195312,5356.25390625,True
1599559473.1411946,0.0,10,0.5,0.5,3.3183449981689455,-0.05075,-0.001,-0.12575,0.004754027841681315,10,1,100,-0.004179071898595309,-10,-1,-100,15010.404705400695,-0.002621360922365111,0.0008912942999563822,0.9999961670233468,25.926869905085198,0.02154008682660462,60.093526743718186,-20.35672859873498,-151.20143127441406,5356.25390625,True
1599559473.1745698,0.0,10,0.5,0.5,3.161311840057373,-0.05075,-0.001,-0.12575,0.009858651944161027,10,1,100,0.029783323880411747,-10,-1,-100,15010.404705400695,-0.002621360922365111,0.0008912942999563822,0.9999961670233468,25.926869905085198,0.02154008682660462,60.093526743718186,-20.35672859873498,-151.20143127441406,5356.25390625,True
1599559473.210373,0.0,10,0.5,0.5,3.2125106834411623,-0.05075,-0.001,-0.12575,0.007184629051055964,10,1,100,0.01705520647570951,-10,-1,-100,15009.984781938838,-0.0025072091176622626,0.0008670060937527944,0.9999964810952456,25.972474417538667,0.021370883098975883,60.7521289644714,-20.542358280639515,-151.4844207763672,5356.25390625,True
1599559473.241264,0.0,10,0.5,0.5,3.2562339683532717,-0.05075,-0.001,-0.12575,-0.00216506966074035,10,1,100,-0.021126626702066338,-10,-1,-100,15008.345130276866,-0.0020578850361675804,0.0007599884814588938,0.9999975937604481,26.204006431968917,0.020703391374745646,63.52599121345104,-21.284853393353725,-151.92726135253906,5356.25390625,True
1599559473.275498,0.0,10,0.5,0.5,3.2016141487121583,-0.05075,-0.001,-0.12575,0.00851794144992476,10,1,100,0.02360092168097509,-10,-1,-100,15008.345130276866,-0.0020578850361675804,0.0007599884814588938,0.9999975937604481,26.204006431968917,0.020703391374745646,63.52599121345104,-21.284853393353725,-151.92726135253906,5356.25390625,True
1599559473.3085678,0.0,10,0.5,0.5,3.1334863929748535,-0.05075,-0.001,-0.12575,-0.0014221081377705416,10,1,100,-0.012975316914054555,-10,-1,-100,15007.015051490394,-0.001727135262930784,0.0006698085328642061,0.9999982841786844,26.433279235968712,0.020226893173237743,65.77168076022708,-21.84169593878372,-151.535888671875,5356.25390625,True
1599559473.3445077,0.0,10,0.5,0.5,3.1833968383789064,-0.05075,-0.001,-0.12575,0.007565036737705294,10,1,100,0.019895691388808107,-10,-1,-100,15007.015051490394,-0.001727135262930784,0.0006698085328642061,0.9999982841786844,26.433279235968712,0.020226893173237743,65.77168076022708,-21.84169593878372,-151.535888671875,5356.25390625,True
1599559473.3744268,0.0,10,0.5,0.5,3.0770071914672856,-0.05075,-0.001,-0.12575,-0.0011233619943645063,10,1,100,-0.004632294025598536,-10,-1,-100,15006.157628244488,-0.001505692817087351,0.0005911015689916056,0.999998691743182,26.612147522497022,0.01992635258525575,67.35141017622946,-22.212908561480035,-150.9307098388672,5356.25390625,True
1599559473.4085522,0.0,10,0.5,0.5,3.0817223014831545,-0.05075,-0.001,-0.12575,0.0032182094419361752,10,1,100,0.00549163376189102,-10,-1,-100,15005.673252056702,-0.0013980522109242664,0.0005593625507252988,0.9999988662811335,26.70860356342928,0.019782080511371192,68.1650530120174,-22.398509827998478,-150.52462768554688,5356.25390625,True
1599559473.4415348,0.0,10,0.5,0.5,2.9530519165039064,-0.05075,-0.001,-0.12575,-0.0018810571922620355,10,1,100,-0.007681574694963601,-10,-1,-100,15004.81485285319,-0.0011818633802091671,0.00048450003845430193,0.9999991842289988,26.9140257861399,0.019507410860591785,69.83741059831279,-22.769701481421073,-149.50596618652344,5356.25390625,True
1599559473.4775867,0.0,10,0.5,0.5,2.7202061866760254,-0.05075,-0.001,-0.12575,-0.006573297735198925,10,1,100,-0.02136234485864294,-10,-1,-100,15003.413485759986,-0.0008625766833217525,0.000374202643838027,0.9999995579668256,27.245153432458057,0.019136172949960298,72.44061368133326,-23.326460615820352,-147.46121215820312,5356.25390625,True
1599559473.508637,0.0,10,0.5,0.5,2.9769599838256835,-0.05075,-0.001,-0.12575,0.004404732560816731,10,1,100,0.010390446406194189,-10,-1,-100,15003.413485759986,-0.0008625766833217525,0.000374202643838027,0.9999995579668256,27.245153432458057,0.019136172949960298,72.44061368133326,-23.326460615820352,-147.46121215820312,5356.25390625,True
1599559473.541481,0.0,10,0.5,0.5,2.5062496582031253,-0.05075,-0.001,-0.12575,-0.007435501153826206,10,1,100,-0.024199418720728293,-10,-1,-100,15001.997468529735,-0.0005497222587488602,0.0002670342388468352,0.9999998132490593,27.586505132890245,0.018828113220123777,75.11483329791386,-23.883183670588874,-144.79641723632812,5356.25390625,True
1599559473.5745013,0.0,10,0.5,0.5,2.6595788742065434,-0.05075,-0.001,-0.12575,-0.0004207564115907337,10,1,100,-0.004366319107896312,-10,-1,-100,15001.506258274429,-0.0004473895845800793,0.0002339242518341705,0.9999998725609938,27.698582992568266,0.018743350675782776,76.01144715370792,-24.068749863136855,-143.77035522460938,5356.25390625,True
1599559473.6110127,0.0,10,0.5,0.5,2.1715809783935547,-0.05075,-0.001,-0.12575,-0.008813226861666891,10,1,100,-0.027941921287091283,-10,-1,-100,15000.032624504645,-0.00014150031138994917,0.00012800731793980547,0.999999981795894,28.01376384280174,0.01855628648670053,78.67141560552822,-24.625424501502486,-140.27908325195312,5356.25390625,True
1599559473.6429248,0.0,10,0.5,0.5,2.1378549804687506,-0.05075,-0.001,-0.12575,-0.005706643012382846,10,1,100,-0.01951441163323207,-10,-1,-100,14999.046296230284,5.822495399801481e-05,6.0535395905255034e-05,0.9999999964726604,28.193965837990522,0.018498330352213863,80.38232722467772,-24.996521681619043,-137.60719299316406,5356.25390625,True
1599559473.6768699,0.0,10,0.5,0.5,2.2184130729675293,-0.05075,-0.001,-0.12575,-0.001977383873149787,10,1,100,-0.010327332264193662,-10,-1,-100,14998.54825026868,0.00015465141898042488,3.365352544592694e-05,0.9999999874751894,28.270937471222098,0.01849243991819839,81.20599148146542,-25.182064992193883,-136.16787719726562,5356.25390625,True
1599559473.707868,0.0,10,0.5,0.5,2.397870233154297,-0.05075,-0.001,-0.12575,0.0006471876720411947,10,1,100,-0.000872864434143775,-10,-1,-100,14998.54825026868,0.00015465141898042488,3.365352544592694e-05,0.9999999874751894,28.270937471222098,0.01849243991819839,81.20599148146542,-25.182064992193883,-136.16787719726562,5356.25390625,True
1599559473.7435308,0.0,10,0.5,0.5,1.8518579467773444,-0.05075,-0.001,-0.12575,-0.005338858068212193,10,1,100,-0.022040606720978448,-10,-1,-100,14997.50430528936,0.0003455760359188603,-2.0258301244062334e-05,0.9999999400834007,28.390716402808597,0.018530361005387564,82.76390852971277,-25.55314226976016,-133.0826873779297,5356.25390625,True
1599559473.773959,0.0,10,0.5,0.5,1.3301339363098146,-0.05075,-0.001,-0.12575,-0.008545480317548298,10,1,100,-0.033999984186586396,-10,-1,-100,14995.956453497405,0.0006262803662349255,-9.78932360907723e-05,0.9999997990948885,28.46001895858096,0.01871437676782796,84.79205265776184,-26.109739735023243,-127.93853759765625,5356.25390625,True
1599559473.8079653,0.0,10,0.5,0.5,1.9748540283203126,-0.05075,-0.001,-0.12575,-0.0008402261603318092,10,1,100,-0.006110365529624281,-10,-1,-100,14995.956453497405,0.0006262803662349255,-9.78932360907723e-05,0.9999997990948885,28.46001895858096,0.01871437676782796,84.79205265776184,-26.109739735023243,-127.93853759765625,5356.25390625,True
1599559473.8408768,0.0,10,0.5,0.5,1.3068415649414065,-0.05075,-0.001,-0.12575,-0.005596654536974893,10,1,100,-0.02598048421736482,-10,-1,-100,14994.896883342764,0.0008055643024420607,-0.00014070431598759233,0.9999996656341691,28.411744400380805,0.018913109740396738,85.86424436316977,-26.48079706818098,-124.16482543945312,5356.25390625,True
1599559473.8777778,0.0,10,0.5,0.5,0.6888301979064941,-0.05075,-0.001,-0.12575,-0.007081031419017206,10,1,100,-0.036259248876930744,-10,-1,-100,14993.279697332648,0.001060476522275725,-0.00019264971758524465,0.9999994191376472,28.16003346452199,0.019276980638128854,86.9126041811034,-27.03738216335812,-117.98790740966797,5356.25390625,True
