Timestamp,Input Throttle,horizon,dT,dt,Input Roll,Roll P,Roll I,Roll D,Input Pitch,Pitch P,Pitch I,Pitch D,Input Yaw,Yaw P,Yaw I,Yaw D,Altitude,Direction X,Direction Y,Direction Z,Drag X,Drag Y,Drag Z,Vertical Velocity,Roll,Mass,Has Fuel
1599559418.790131,0.0,10,0.5,0.5,-2.9540482025146484,-0.05075,-0.001,-0.001,-0.00029707886471152693,10,1,100,0.17494636270937303,-10,-1,-100,14994.488072075066,-0.01680976779500787,-7.484508152040447e-05,0.9998587030700347,28.576548735010977,0.02719962240361152,-86.69278187067532,26.823330750816275,-31.79217529296875,5356.25390625,True
1599559418.8220463,0.0,10,0.5,0.5,-2.959897892761231,-0.05075,-0.001,-0.001,-0.00045852117531952353,10,1,100,0.1736895684528731,-10,-1,-100,14995.026160471607,-0.01684532155612872,-7.214131653825391e-05,0.999858104901541,28.50388998953568,0.027363235012870774,-85.87443848571027,26.63736701245158,-31.791595458984375,5356.25390625,True
1599559418.855957,0.0,10,0.5,0.5,-2.9657497390747074,-0.05075,-0.001,-0.001,-0.0004862354086647471,10,1,100,0.1758441235538103,-10,-1,-100,14995.5613176669,-0.01688191609301426,-6.986971293349339e-05,0.9998574878587706,28.43144843134697,0.02752551557033183,-85.0597937287643,26.45140747261555,-31.790985107421875,5356.25390625,True
1599559418.8898652,0.0,10,0.5,0.5,-2.9560251312255863,-0.05075,-0.001,-0.001,0.011541770565709155,10,1,100,0.1842256090156611,-10,-1,-100,14997.641401159228,-0.016976031979751564,4.160440803144574e-05,0.999855895920655,28.15300686659726,0.028167855143124042,-81.86452377757462,25.70760740312922,-32.09136962890625,5356.25390625,True
1599559418.9217792,0.0,10,0.5,0.5,-2.96211637878418,-0.05075,-0.001,-0.001,0.0003985189100183868,10,1,100,0.17651162353990588,-10,-1,-100,14997.641401159228,-0.016976031979751564,4.160440803144574e-05,0.999855895920655,28.15300686659726,0.028167855143124042,-81.86452377757462,25.70760740312922,-32.09136962890625,5356.25390625,True
1599559418.9596782,0.0,10,0.5,0.5,-2.95602628326416,-0.05075,-0.001,-0.001,0.00573149241271137,10,1,100,0.17964471484380495,-10,-1,-100,14998.116011996404,-0.0169890818716236,9.004816313953518e-05,0.9998556710788251,28.093487588185752,0.02833130954300624,-81.10212858605709,25.521666626453232,-32.320953369140625,5356.25390625,True
1599559419.003562,0.0,10,0.5,0.5,-2.9051916336059573,-0.05075,-0.001,-0.001,0.02502749976318799,10,1,100,0.17924998217307475,-10,-1,-100,14999.658979693777,-0.016981912310980972,0.00030942432718473166,0.9998557490512557,27.945128570691228,0.02882258613968602,-78.91514632269244,24.963864495089467,-33.419158935546875,5356.25390625,True
1599559419.0334804,0.0,10,0.5,0.5,-2.8859039398193365,-0.05075,-0.001,-0.001,0.014008833024799133,10,1,100,0.1798244868860822,-10,-1,-100,15000.133588971104,-0.01696517919659594,0.0004084062111248436,0.9998559975812488,27.9045129540702,0.028982550876799355,-78.21504723868934,24.777936849120472,-33.92242431640625,5356.25390625,True
1599559419.061405,0.0,10,0.5,0.5,-2.8292620864868163,-0.05075,-0.001,-0.001,0.030197487262316615,10,1,100,0.1763907043080625,-10,-1,-100,15001.131633493234,-0.016903328178994283,0.0006451880475831726,0.9998569203785392,27.83399030551153,0.029288280448280468,-76.84948140800856,24.40609047630361,-35.135040283203125,5356.25390625,True
1599559419.091327,0.0,10,0.5,0.5,-2.7992507263183595,-0.05075,-0.001,-0.001,0.021375494079278214,10,1,100,0.17906478950030866,-10,-1,-100,15001.603310981183,-0.016856043184577747,0.0007796577899289561,0.9998576228353165,27.802815387859148,0.029430505211088618,-76.18008892720863,24.220171532277817,-35.84442138671875,5356.25390625,True
1599559419.122243,0.0,10,0.5,0.5,-2.7212913909912113,-0.05075,-0.001,-0.001,0.04189098292199641,10,1,100,0.17236558391971565,-10,-1,-100,15002.545689105173,-0.016736831281480433,0.0010876986744589893,0.9998593378021974,27.744715904596287,0.02968330199982568,-74.85664220137325,23.848342155749307,-37.46923828125,5356.25390625,True
1599559419.1551597,0.0,10,0.5,0.5,-2.67497154083252,-0.05075,-0.001,-0.001,0.029901748709512045,10,1,100,0.17587946892193596,-10,-1,-100,15003.013460510876,-0.01666046753915172,0.0012576859459582713,0.9998604137815629,27.7160109081181,0.02978926534546856,-74.19764366750849,23.66243158441285,-38.384735107421875,5356.25390625,True
1599559419.1890683,0.0,10,0.5,0.5,-2.5698057342529297,-0.05075,-0.001,-0.001,0.05415698935673563,10,1,100,0.16325126733570844,-10,-1,-100,15003.954860089696,-0.016476412171720804,0.0016315130829664725,0.9998629236085351,27.654800927567397,0.02994828881143347,-72.87319647672851,23.29061885082345,-40.421875,5356.25390625,True
1599559419.2259717,0.0,10,0.5,0.5,-2.386168734741211,-0.05075,-0.001,-0.001,0.08625109496765732,10,1,100,0.14130452680801187,-10,-1,-100,15005.353284675162,-0.016109941927369358,0.002261573819622398,0.9998676687717005,27.5357527295135,0.0300131271535493,-70.82600491457755,22.73292211222538,-43.99310302734375,5356.25390625,True
1599559419.279828,0.0,10,0.5,0.5,-2.247555992126465,-0.05075,-0.001,-0.001,0.07420868330469926,10,1,100,0.14410715515761952,-10,-1,-100,15006.23218128155,-0.015803052953912097,0.002722861683817629,0.9998714165039356,27.42289902465608,0.029907673677126337,-69.38476126706914,22.36114079513039,-46.717620849609375,5356.25390625,True
1599559419.3137362,0.0,10,0.5,0.5,-2.2488178848266602,-0.05075,-0.001,-0.001,0.02834802261275479,10,1,100,0.17467875460076168,-10,-1,-100,15006.23218128155,-0.015803052953912097,0.002722861683817629,0.9998714165039356,27.42289902465608,0.029907673677126337,-69.38476126706914,22.36114079513039,-46.717620849609375,5356.25390625,True
1599559419.3496394,0.0,10,0.5,0.5,-1.9226630767822268,-0.05075,-0.001,-0.001,0.13476409719599658,10,1,100,0.08905947733048424,-10,-1,-100,15007.972392303986,-0.015025774095925676,0.0036878870768283015,0.9998803056374932,27.06259155797765,0.02924752328762447,-66.20144064633101,21.617626435308246,-52.9923095703125,5356.25390625,True
1599559419.3845468,0.0,10,0.5,0.5,-1.9269804504394532,-0.05075,-0.001,-0.001,0.03859940416989368,10,1,100,0.16659174930762077,-10,-1,-100,15007.972392303986,-0.015025774095925676,0.0036878870768283015,0.9998803056374932,27.06259155797765,0.02924752328762447,-66.20144064633101,21.617626435308246,-52.9923095703125,5356.25390625,True
1599559419.415465,0.0,10,0.5,0.5,-1.6441518844604492,-0.05075,-0.001,-0.001,0.12246807189366139,10,1,100,0.08646395481810445,-10,-1,-100,15009.24092805828,-0.0142991026961125,0.0044473481644391865,0.9998878720918614,26.620540932425662,0.02830374034931199,-63.444288108093446,21.060043632497763,-58.420745849609375,5356.25390625,True
1599559419.4609046,0.0,10,0.5,0.5,-1.5464760162353517,-0.05075,-0.001,-0.001,0.07317072043018122,10,1,100,0.12943950996489192,-10,-1,-100,15009.705764040933,-0.014031546675328483,0.004686153085220302,0.9998905718463196,26.430671803351697,0.02790028412183239,-62.437212500207664,20.87419510311099,-60.36810302734375,5356.25390625,True
1599559419.4958208,0.0,10,0.5,0.5,-1.3337688415527345,-0.05075,-0.001,-0.001,0.10786149896425043,10,1,100,0.09139320981556602,-10,-1,-100,15010.505554329837,-0.01344500619735755,0.005215067822335317,0.9998960120312319,25.97476097393841,0.026963857151591213,-60.270320621785466,20.50251983399647,-64.4686279296875,5356.25390625,True
1599559419.5257406,0.0,10,0.5,0.5,-1.1086668411254883,-0.05075,-0.001,-0.001,0.10638025027533604,10,1,100,0.08095326949670455,-10,-1,-100,15011.306320870644,-0.012819871600925344,0.00567868135058804,0.9999016969033777,25.40410826191401,0.02586971415743913,-57.88042484752444,20.13087708203995,-68.84548950195312,5356.25390625,True
1599559419.5551949,0.0,10,0.5,0.5,-0.8692514724731446,-0.05075,-0.001,-0.001,0.11211747237584108,10,1,100,0.06803384984640037,-10,-1,-100,15012.10903999419,-0.012137609603655326,0.006148285672272716,0.9999074342239892,24.7015692736589,0.024646246224555874,-55.243633690107956,19.759270884415667,-73.49758911132812,5356.25390625,True
1599559419.5881073,0.0,10,0.5,0.5,-0.8705960006713868,-0.05075,-0.001,-0.001,0.06560871746630415,10,1,100,0.13582616931659566,-10,-1,-100,15012.10903999419,-0.012137609603655326,0.006148285672272716,0.9999074342239892,24.7015692736589,0.024646246224555874,-55.243633690107956,19.759270884415667,-73.49758911132812,5356.25390625,True
1599559419.6220164,0.0,10,0.5,0.5,-0.6126195053100586,-0.05075,-0.001,-0.001,0.11326078311500046,10,1,100,0.056169116844075495,-10,-1,-100,15012.904923488153,-0.011417065792381246,0.0065779528946675455,0.9999131868039385,23.850916711221554,0.023333462018685552,-52.34091667556791,19.3877043670247,-78.42562866210938,5356.25390625,True
1599559419.6580353,0.0,10,0.5,0.5,-0.34602311401367186,-0.05075,-0.001,-0.001,0.11384118539332591,10,1,100,0.04475871799873202,-10,-1,-100,15013.641236469033,-0.01066228232641217,0.006970331216455941,0.99991886181746,22.841386859325024,0.021982135549513254,-49.16769437031331,19.016178986779803,-83.6112060546875,5356.25390625,True
1599559419.6889255,0.0,10,0.5,0.5,-0.20862756347656253,-0.05075,-0.001,-0.001,0.09628619400515467,10,1,100,0.0752121651283058,-10,-1,-100,15014.04162043042,-0.010257638486370499,0.007163586614977799,0.9999217288765618,22.296318685578278,0.02132879888758537,-47.52695456801005,18.830431217642698,-86.29510498046875,5356.25390625,True
1599559419.7218704,0.0,10,0.5,0.5,0.3727632457733155,-0.05075,-0.001,-0.001,0.14674844856423958,10,1,100,-0.0655909597405898,-10,-1,-100,15015.513271752861,-0.008614086710805888,0.007794861382772852,0.9999325165460728,22.059311533819738,0.02106669074470021,-45.171795087751484,18.087499190593924,-97.51721954345703,5356.25390625,True
1599559419.7697096,0.0,10,0.5,0.5,0.5148194869995119,-0.05075,-0.001,-0.001,0.09859992404384668,10,1,100,0.05068208093456308,-10,-1,-100,15015.844318648451,-0.008182805182235013,0.007927300063032106,0.9999350977003758,22.545430157487143,0.021636629817662838,-45.694473857515455,17.901763409593034,-100.39308166503906,5356.25390625,True
1599559419.7996635,0.0,10,0.5,0.5,0.6658294075012208,-0.05075,-0.001,-0.001,0.09885937353283614,10,1,100,0.045455913110133896,-10,-1,-100,15016.236891209497,-0.007748780719233841,0.008046893902350792,0.9999376000010648,22.993905648436044,0.022206925797627088,-46.12120118932578,17.716024059620676,-103.28561401367188,5356.25390625,True
1599559419.8265913,0.0,10,0.5,0.5,0.8164698429107666,-0.05075,-0.001,-0.001,0.09862106679187316,10,1,100,0.0438507259578242,-10,-1,-100,15016.569891761872,-0.007345332020535501,0.00815039393061618,0.9999398067765299,23.402782276161886,0.02276772384498302,-46.45045324029245,17.530280923299877,-106.16950225830078,5356.25390625,True
1599559419.8555143,0.0,10,0.5,0.5,1.1120687690734863,-0.05075,-0.001,-0.001,0.10834323157095158,10,1,100,-0.012055952912207069,-10,-1,-100,15017.237849279772,-0.0064758630994247455,0.008330199703296081,0.999944333935655,24.079679944789667,0.02380259959525901,-46.78361301256205,17.158783573940568,-111.85670471191406,5356.25390625,True
1599559419.889541,0.0,10,0.5,0.5,1.3970121311187744,-0.05075,-0.001,-0.001,0.10479231378843892,10,1,100,-0.019901704094696257,-10,-1,-100,15017.908736548969,-0.005619879077211885,0.008458967954661596,0.9999484300804216,24.58977089633494,0.024680094975588037,-46.74259047303507,16.787273196826252,-117.38964080810547,5356.25390625,True
1599559419.9224129,0.0,10,0.5,0.5,1.6714673934936524,-0.05075,-0.001,-0.001,0.10175749960296937,10,1,100,-0.027259898049977867,-10,-1,-100,15018.570836229599,-0.004780744321539855,0.008546340161232896,0.9999520511272432,25.021482920656418,0.025423288437132836,-46.51278741369247,16.41575292279996,-122.71522521972656,5356.25390625,True
1599559419.9584002,0.0,10,0.5,0.5,1.671063572692871,-0.05075,-0.001,-0.001,0.09326008439473533,10,1,100,0.055917890989013605,-10,-1,-100,15018.570836229599,-0.004780744321539855,0.008546340161232896,0.9999520511272432,25.021482920656418,0.025423288437132836,-46.51278741369247,16.41575292279996,-122.71522521972656,5356.25390625,True
1599559419.9962692,0.0,10,0.5,0.5,1.9375621887207035,-0.05075,-0.001,-0.001,0.09899620590597197,10,1,100,-0.034853941577307146,-10,-1,-100,15019.230983904097,-0.003961578863183158,0.008596697277456352,0.9999552003409105,25.281886361960815,0.025890383101829974,-45.935274944775465,16.044228794498828,-127.77937316894531,5356.25390625,True
1599559420.0252283,0.0,10,0.5,0.5,2.303485780334473,-0.05075,-0.001,-0.001,0.09452718569854876,10,1,100,-0.08503493115089517,-10,-1,-100,15020.157732528052,-0.0027667837262473874,0.0086003705029911,0.9999591884347198,25.387207077302868,0.026059459825229454,-44.52737715754732,15.486949724861699,-134.8628692626953,5356.25390625,True
1599559420.0553253,0.0,10,0.5,0.5,2.416335217285156,-0.05075,-0.001,-0.001,0.09194670970598309,10,1,100,-0.009288660641993539,-10,-1,-100,15020.487806843827,-0.0023760186561686317,0.00857894475910117,0.9999603773361051,25.3566573081065,0.025982192278622966,-43.941311928425826,15.301195135010351,-137.08656311035156,5356.25390625,True
1599559420.0912256,0.0,10,0.5,0.5,2.5295714828491214,-0.05075,-0.001,-0.001,0.0925583519440868,10,1,100,-0.011371906693435213,-10,-1,-100,15020.755383150885,-0.0020075100538608725,0.008564314391023698,0.9999613104627575,25.297290428595115,0.025843958849239505,-43.30718832323754,15.115444407715756,-139.2412109375,5356.25390625,True
1599559420.123107,0.0,10,0.5,0.5,2.8444279983520504,-0.05075,-0.001,-0.001,0.08454919338966678,10,1,100,-0.09323364734270406,-10,-1,-100,15021.677251178306,-0.0009339184959771691,0.008477624420160366,0.9999636281787622,24.97100773038691,0.025115477334549028,-41.17542760006343,14.558220689360287,-145.29196166992188,5356.25390625,True
1599559420.1560555,0.0,10,0.5,0.5,2.9398286529541013,-0.05075,-0.001,-0.001,0.0883866650049131,10,1,100,-0.024541446289918348,-10,-1,-100,15021.948734703008,-0.0005885960549475423,0.008433309888134295,0.9999642657810401,24.820601096414073,0.024786881226436925,-40.40618595832304,14.372490421865127,-147.17120361328125,5356.25390625,True
1599559420.1890693,0.0,10,0.5,0.5,3.2123725791931155,-0.05075,-0.001,-0.001,0.0801138863743151,10,1,100,-0.09662371145931682,-10,-1,-100,15022.798339865985,0.00037448426937793366,0.008317559675143778,0.9999653383805772,24.351965433762377,0.023697984697886188,-38.109135438584836,13.815335197737163,-152.39483642578125,5356.25390625,True
1599559420.2249675,0.0,10,0.5,0.5,3.211202759552002,-0.05075,-0.001,-0.001,0.09168764367055159,10,1,100,-0.0010007137636494946,-10,-1,-100,15022.798339865985,0.00037448426937793366,0.008317559675143778,0.9999653383805772,24.351965433762377,0.023697984697886188,-38.109135438584836,13.815335197737163,-152.39483642578125,5356.25390625,True
1599559420.2608707,0.0,10,0.5,0.5,3.4529273162841796,-0.05075,-0.001,-0.001,0.07646255396895943,10,1,100,-0.09911014732607906,-10,-1,-100,15023.593261730857,0.0012609387896303935,0.008179278321747047,0.9999657541333625,23.79422539285487,0.022458105946228404,-35.73733150341713,13.258234956067808,-156.99819946289062,5356.25390625,True
1599559420.2887962,0.0,10,0.5,0.5,3.5927413101196293,-0.05075,-0.001,-0.001,0.07805559240817786,10,1,100,-0.07126638352867834,-10,-1,-100,15024.120605470729,0.0018081889706915593,0.008068383860687901,0.9999658152329624,23.40781311284489,0.02161847670199702,-34.17387095808855,12.88686454213688,-159.72262573242188,5356.25390625,True
1599559420.3214219,0.0,10,0.5,0.5,3.5937176239013677,-0.05075,-0.001,-0.001,0.08909724288403796,10,1,100,-0.017200258751784898,-10,-1,-100,15024.120605470729,0.0018081889706915593,0.008068383860687901,0.9999658152329624,23.40781311284489,0.02161847670199702,-34.17387095808855,12.88686454213688,-159.72262573242188,5356.25390625,True
1599559420.3582919,0.0,10,0.5,0.5,3.7235926895141604,-0.05075,-0.001,-0.001,0.0818060674681089,10,1,100,-0.07302578352698431,-10,-1,-100,15024.644044207758,0.0023104484978898497,0.008002580732740154,0.9999653096629676,23.012261459410876,0.020790263793240837,-32.62988713217959,12.515516467873814,-162.17056274414062,5356.25390625,True
1599559420.3899472,0.0,10,0.5,0.5,3.781868434143067,-0.05075,-0.001,-0.001,0.08389103038642486,10,1,100,-0.049722093092819296,-10,-1,-100,15024.902833136031,0.002550580671192125,0.00796225736092712,0.9999650478871539,22.813737861052246,0.020386640381244776,-31.869296773119903,12.329850163244622,-163.29119873046875,5356.25390625,True
1599559420.4218607,0.0,10,0.5,0.5,3.888662329101563,-0.05075,-0.001,-0.001,0.07775148255206901,10,1,100,-0.07606093786286489,-10,-1,-100,15025.360842224676,0.0030038479636242802,0.007870346303874013,0.9999645166436999,22.421519554815035,0.019610933059263962,-30.379636036179107,11.958531756885174,-165.32586669921875,5356.25390625,True
1599559420.454779,0.0,10,0.5,0.5,3.980228192138672,-0.05075,-0.001,-0.001,0.08082142872051856,10,1,100,-0.07677777951985104,-10,-1,-100,15025.822758949711,0.003417870100882945,0.007815330279072684,0.9999636187265026,22.043801583720047,0.018887646566207516,-28.941899614021096,11.587230314970526,-167.08416748046875,5356.25390625,True
1599559420.5105958,0.0,10,0.5,0.5,4.057370761108398,-0.05075,-0.001,-0.001,0.08031645937565124,10,1,100,-0.0777327799047412,-10,-1,-100,15026.28076897643,0.0037989795122563147,0.007761327166246398,0.9999626640806567,21.689483040984957,0.018224940369407614,-27.56555995520457,11.215943353058723,-168.56671142578125,5356.25390625,True
1599559420.5556312,0.0,10,0.5,0.5,4.120461628723145,-0.05075,-0.001,-0.001,0.08199416023375856,10,1,100,-0.07810944335376678,-10,-1,-100,15026.73096716078,0.004144878121616698,0.007728096146679739,0.9999615475183558,21.36561955153373,0.017626075039051392,-26.256332251744794,10.844668723676696,-169.77316284179688,5356.25390625,True
1599559420.590981,0.0,10,0.5,0.5,4.169142240905762,-0.05075,-0.001,-0.001,0.0836157877789856,10,1,100,-0.0780400267905011,-10,-1,-100,15027.128431452671,0.004455272712412596,0.007713164073419807,0.9999603280355849,21.078086041660896,0.01709112140946654,-25.017346602575913,10.473404068054338,-170.70358276367188,5356.25390625,True
1599559420.623889,0.0,10,0.5,0.5,4.188759587860107,-0.05075,-0.001,-0.001,0.08513376356844386,10,1,100,-0.06309821653581357,-10,-1,-100,15027.323746739188,0.0045979051667816755,0.007713938691816512,0.9999596763959715,20.949309085583668,0.016846831860143963,-24.42435538167653,10.28777485254875,-171.0652618408203,5356.25390625,True
1599559420.6598077,0.0,10,0.5,0.5,4.216523742675782,-0.05075,-0.001,-0.001,0.08692730205857946,10,1,100,-0.077696902093291,-10,-1,-100,15027.712422028533,0.004857252751842314,0.00773137082175105,0.9999583156316674,20.724319873409527,0.0164024053935127,-23.291130322125408,9.916521011782082,-171.58157348632812,5356.25390625,True
1599559420.6887174,0.0,10,0.5,0.5,4.22962466506958,-0.05075,-0.001,-0.001,0.0895200158113377,10,1,100,-0.07666989980351818,-10,-1,-100,15028.102073990623,0.00508091502309846,0.0077710947131156465,0.9999568962657779,20.54471160375324,0.016012404674750392,-22.225808273154833,9.545271807500331,-171.82179260253906,5356.25390625,True
1599559420.7216294,0.0,10,0.5,0.5,4.2224602569580085,-0.05075,-0.001,-0.001,0.09599819889787797,10,1,100,-0.08443477065544251,-10,-1,-100,15028.678251081496,0.0053518588901193525,0.007866370178004348,0.9999547378889921,20.363403699640205,0.015516183919216013,-20.745697911317084,8.988402153449474,-171.66461181640625,5356.25390625,True
1599559420.7605226,0.0,10,0.5,0.5,4.213711316680908,-0.05075,-0.001,-0.001,0.09130222794437527,10,1,100,-0.06555663371039236,-10,-1,-100,15028.865753500257,0.0054237871511904085,0.007910417419739267,0.9999540028567234,20.32637157171012,0.01537102706692076,-20.280707484968815,8.802779017124088,-171.4741668701172,5356.25390625,True
1599559420.7914438,0.0,10,0.5,0.5,4.214720058441163,-0.05075,-0.001,-0.001,0.08689231977676462,10,1,100,-0.058651128251286586,-10,-1,-100,15028.865753500257,0.0054237871511904085,0.007910417419739267,0.9999540028567234,20.32637157171012,0.01537102706692076,-20.280707484968815,8.802779017124088,-171.4741668701172,5356.25390625,True
1599559420.8243551,0.0,10,0.5,0.5,4.184909179687501,-0.05075,-0.001,-0.001,0.09831095438840401,10,1,100,-0.0715642217923935,-10,-1,-100,15029.194859268144,0.0055389789659390475,0.008014186760648839,0.999952545135308,20.290223931305295,0.015108735200032412,-19.391555084868333,8.431531369639217,-170.88623046875,5356.25390625,True
1599559420.8572676,0.0,10,0.5,0.5,4.082185439300537,-0.05075,-0.001,-0.001,0.11605810178023707,10,1,100,-0.07389921145102406,-10,-1,-100,15029.831585199572,0.005662997695457128,0.00826967945005459,0.9999497701679292,20.402035173283103,0.014703443729776298,-17.782523959090927,7.68902459786214,-168.8825225830078,5356.25390625,True
1599559420.89018,0.0,10,0.5,0.5,4.084220728302002,-0.05075,-0.001,-0.001,0.0905596680680428,10,1,100,-0.06168374031753609,-10,-1,-100,15029.831585199572,0.005662997695457128,0.00826967945005459,0.9999497701679292,20.402035173283103,0.014703443729776298,-17.782523959090927,7.68902459786214,-168.8825225830078,5356.25390625,True
1599559420.9270804,0.0,10,0.5,0.5,3.968871520996094,-0.05075,-0.001,-0.001,0.11713120758468973,10,1,100,-0.059971385984502634,-10,-1,-100,15030.27787847293,0.005646050729180605,0.008510746551748312,0.9999478432919865,20.59412838202009,0.014455111031965225,-16.65064716052972,7.1321285345348855,-166.6552734375,5356.25390625,True
1599559420.9580069,0.0,10,0.5,0.5,3.9706939392089846,-0.05075,-0.001,-0.001,0.09310425566315036,10,1,100,-0.061785160413831704,-10,-1,-100,15030.27787847293,0.005646050729180605,0.008510746551748312,0.9999478432919865,20.59412838202009,0.014455111031965225,-16.65064716052972,7.1321285345348855,-166.6552734375,5356.25390625,True
1599559421.0218852,0.0,10,0.5,0.5,3.8755669281005862,-0.05075,-0.001,-0.001,0.11254191605367905,10,1,100,-0.05593521696527551,-10,-1,-100,15030.53374085424,0.005591916565500641,0.008686728184516816,0.9999466341873314,20.76262243772465,0.014309093544301288,-15.913460692544803,6.760854581400782,-164.82559204101562,5356.25390625,True
1599559421.0597935,0.0,10,0.5,0.5,3.5775571166992193,-0.05075,-0.001,-0.001,0.14842869958279453,10,1,100,-0.024176081137808884,-10,-1,-100,15031.155818916159,0.005253316396620378,0.009172086466968538,0.999944136187957,21.26810746410181,0.014003174246719208,-14.063776972298538,5.832632007664083,-159.04464721679688,5356.25390625,True
1599559421.0897138,0.0,10,0.5,0.5,3.5820603469848638,-0.05075,-0.001,-0.001,0.10003297051300766,10,1,100,-0.05805333816318735,-10,-1,-100,15031.155818916159,0.005253316396620378,0.009172086466968538,0.999944136187957,21.26810746410181,0.014003174246719208,-14.063776972298538,5.832632007664083,-159.04464721679688,5356.25390625,True
1599559421.1226254,0.0,10,0.5,0.5,3.510262759399414,-0.05075,-0.001,-0.001,0.11128672236143985,10,1,100,-0.04690179140741348,-10,-1,-100,15031.281795728137,0.005152028282925615,0.009273206287146136,0.999943730541738,21.37391635154097,0.013951752008529134,-13.68403224963299,5.646981167034998,-157.681640625,5356.25390625,True
1599559421.157287,0.0,10,0.5,0.5,3.358483573913574,-0.05075,-0.001,-0.001,0.12280319068719439,10,1,100,-0.030658183729949356,-10,-1,-100,15031.469297354575,0.004912526072379124,0.009468589664025896,0.9999431048301511,21.578106654027295,0.013857536250294672,-12.906685707135043,5.275673803572937,-154.7490234375,5356.25390625,True
1599559421.1931908,0.0,10,0.5,0.5,3.1053446060180665,-0.05075,-0.001,-0.001,0.1369407207972618,10,1,100,-0.006823514835998884,-10,-1,-100,15031.773011602694,0.004478582764736229,0.009773317396513303,0.9999422106119364,21.839226231439326,0.013737954246532059,-11.684148890813391,4.718700748453312,-149.83309936523438,5356.25390625,True
1599559421.2241082,0.0,10,0.5,0.5,2.9207407157897953,-0.05075,-0.001,-0.001,0.1269689753027246,10,1,100,-0.011783115121970847,-10,-1,-100,15031.953676502104,0.0041301401205708,0.009958091166428004,0.999941887492921,21.958211249756356,0.013668693890089425,-10.823574355754154,4.347378954282972,-146.21156311035156,5356.25390625,True
1599559421.2640014,0.0,10,0.5,0.5,2.7204386657714843,-0.05075,-0.001,-0.001,0.12616652220890848,10,1,100,-0.003577441936390917,-10,-1,-100,15032.132388056954,0.0037401705583468524,0.010117237373028155,0.999941824623879,22.01031927070603,0.013598726500760838,-9.922775954813154,3.976052177044216,-142.3148193359375,5356.25390625,True
1599559421.2909296,0.0,10,0.5,0.5,2.7216786392211914,-0.05075,-0.001,-0.001,0.11043665734119074,10,1,100,-0.04238211544507465,-10,-1,-100,15032.132388056954,0.0037401705583468524,0.010117237373028155,0.999941824623879,22.01031927070603,0.013598726500760838,-9.922775954813154,3.976052177044216,-142.3148193359375,5356.25390625,True
1599559421.3256361,0.0,10,0.5,0.5,2.503340586853027,-0.05075,-0.001,-0.001,0.12622150480667546,10,1,100,0.005052013878043465,-10,-1,-100,15032.247622338007,0.003310683819201082,0.01025927554014958,0.9999418916307289,21.97356624117404,0.013513071450993668,-8.98121277727719,3.60471952662695,-138.14276123046875,5356.25390625,True
1599559421.3562388,0.0,10,0.5,0.5,2.391370618438721,-0.05075,-0.001,-0.001,0.11857854401562565,10,1,100,-0.012544173837337434,-10,-1,-100,15032.368715031072,0.0030823297327629167,0.010317330113079148,0.9999420242907866,21.915252411805955,0.013458215102639785,-8.496085651181165,3.4190502386378863,-135.9535675048828,5356.25390625,True
1599559421.5516543,0.0,10,0.5,0.5,2.1534095672607423,-0.05075,-0.001,-0.001,0.12395127541350348,10,1,100,0.018448681430524843,-10,-1,-100,15032.47906526248,0.0025952633215955982,0.010417467644878952,0.9999423688274038,21.706358310578157,0.013313049493341573,-7.501262587088301,3.0477043961253227,-131.3687744140625,5356.25390625,True
1599559421.5756245,0.0,10,0.5,0.5,2.03126240234375,-0.05075,-0.001,-0.001,0.11752398835351813,10,1,100,-0.0021858928492360513,-10,-1,-100,15032.540588886128,0.0023424791258731576,0.010448939717626261,0.999942664581486,21.555303774676005,0.013220346278646329,-6.9952954863157375,2.8620267833866166,-128.97332763671875,5356.25390625,True
1599559421.5985272,0.0,10,0.5,0.5,1.6374064659118652,-0.05075,-0.001,-0.001,0.1192991971536155,10,1,100,0.06103888584539302,-10,-1,-100,15032.705624370952,0.00154055081187499,0.010492528178987739,0.9999437651966281,20.883463496205174,0.012829537039687304,-5.458286618425908,2.304969791043745,-121.37440490722656,5356.25390625,True
1599559421.6234972,0.0,10,0.5,0.5,1.3614259269714357,-0.05075,-0.001,-0.001,0.11278585023187623,10,1,100,0.04316520227602313,-10,-1,-100,15032.750543807982,0.000977296265662792,0.010471833333762505,0.9999446912697917,20.21583523013402,0.012438723484117646,-4.432485052849361,1.933573405910404,-115.96476745605469,5356.25390625,True
1599559421.656586,0.0,10,0.5,0.5,1.362957138824463,-0.05075,-0.001,-0.001,0.11495565912137323,10,1,100,-0.012766729364525047,-10,-1,-100,15032.750543807982,0.000977296265662792,0.010471833333762505,0.9999446912697917,20.21583523013402,0.012438723484117646,-4.432485052849361,1.933573405910404,-115.96476745605469,5356.25390625,True
1599559421.690608,0.0,10,0.5,0.5,1.0654048469543458,-0.05075,-0.001,-0.001,0.10671517177759143,10,1,100,0.048905923556433015,-10,-1,-100,15032.796439171769,0.00041981877228960366,0.01039628479796699,0.9999458690422187,19.389436211593615,0.011941814929304182,-3.434708410716498,1.5621539127146233,-110.28041076660156,5356.25390625,True
1599559421.7229328,0.0,10,0.5,0.5,0.7591004852294923,-0.05075,-0.001,-0.001,0.10188133175746071,10,1,100,0.05753408330805451,-10,-1,-100,15032.90190456144,-0.00016204374547505282,0.010283261952850297,0.9999471127341854,18.457385589232196,0.011352061643467224,-2.492195555683431,1.1907084883387653,-104.32107543945312,5356.25390625,True
1599559421.7608323,0.0,10,0.5,0.5,0.7612604461669923,-0.05075,-0.001,-0.001,0.1132002187271122,10,1,100,-0.0002619470380289448,-10,-1,-100,15032.90190456144,-0.00016204374547505282,0.010283261952850297,0.9999471127341854,18.457385589232196,0.011352061643467224,-2.492195555683431,1.1907084883387653,-104.32107543945312,5356.25390625,True
1599559421.7897532,0.0,10,0.5,0.5,0.09975849609375001,-0.05075,-0.001,-0.001,0.07218920521503855,10,1,100,0.12236325838154888,-10,-1,-100,15032.929240490543,-0.0012732708726495585,0.00991028362584979,0.9999500812839308,16.220947298387774,0.009923344910372792,-0.8236454762816109,0.44776170603654597,-91.61184692382812,5356.25390625,True
1599559421.8236635,0.0,10,0.5,0.5,-0.06390098876953125,-0.05075,-0.001,-0.001,0.09599513944131641,10,1,100,0.04276997725590519,-10,-1,-100,15032.917520409217,-0.001555734837400666,0.00978794726873758,0.999950886682631,15.592095240209655,0.009534838787291347,-0.4633002202135363,0.26202230162125595,-88.29367065429688,5356.25390625,True
1599559421.8565755,0.0,10,0.5,0.5,-0.06534880218505859,-0.05075,-0.001,-0.001,0.1081758368681031,10,1,100,0.014987387237810798,-10,-1,-100,15032.917520409217,-0.001555734837400666,0.00978794726873758,0.999950886682631,15.592095240209655,0.009534838787291347,-0.4633002202135363,0.26202230162125595,-88.29367065429688,5356.25390625,True
1599559421.892536,0.0,10,0.5,0.5,-0.41984531555175786,-0.05075,-0.001,-0.001,0.07868053821404154,10,1,100,0.07271742903520884,-10,-1,-100,15032.956578389625,-0.002076779764505197,0.009520380481315332,0.9999525235436433,16.271446534260804,0.009948501308256948,0.20196831463135415,-0.10945400334942423,-81.5267333984375,5356.25390625,True
1599559421.922503,0.0,10,0.5,0.5,-0.7700714279174805,-0.05075,-0.001,-0.001,0.07119453309783597,10,1,100,0.07752519601837853,-10,-1,-100,15032.933136465028,-0.0025901464354559692,0.009209927500089882,0.9999542331411403,17.595285357822426,0.010776006905667594,0.9596400946263425,-0.4809280093563606,-74.72000122070312,5356.25390625,True
1599559421.9574108,0.0,10,0.5,0.5,-0.9439161437988282,-0.05075,-0.001,-0.001,0.08316096329557324,10,1,100,0.05404874844526978,-10,-1,-100,15032.918484991067,-0.0028396659790672,0.009037649246845175,0.9999551275898425,18.17690708957503,0.01114448516058048,1.3742446957627175,-0.6666662363235656,-71.31930541992188,5356.25390625,True
1599559421.9953084,0.0,10,0.5,0.5,-1.2937634338378907,-0.05075,-0.001,-0.001,0.06202560692682993,10,1,100,0.07960931853745173,-10,-1,-100,15032.888206761796,-0.0032954007811474913,0.008690196853349517,0.99995680947346,19.144140193045484,0.011746280104124913,2.2539291700971744,-1.0381517847836608,-64.57952880859375,5356.25390625,True
1599559422.0272577,0.0,10,0.5,0.5,-1.7988503982543946,-0.05075,-0.001,-0.001,0.03419600286250343,10,1,100,0.1035600956951736,-10,-1,-100,15032.78566186293,-0.003923555214429946,0.008122954310023599,0.9999593108360744,20.099828618096605,0.012316952113419022,3.6368199744146614,-1.5954099656988707,-54.7884521484375,5356.25390625,True
1599559422.0591388,0.0,10,0.5,0.5,-1.7946085174560549,-0.05075,-0.001,-0.001,0.0906929241463009,10,1,100,0.04117898976560013,-10,-1,-100,15032.78566186293,-0.003923555214429946,0.008122954310023599,0.9999593108360744,20.099828618096605,0.012316952113419022,3.6368199744146614,-1.5954099656988707,-54.7884521484375,5356.25390625,True
1599559422.0900893,0.0,10,0.5,0.5,-2.121459477233887,-0.05075,-0.001,-0.001,0.0478336855658195,10,1,100,0.08219242670860841,-10,-1,-100,15032.70167320082,-0.004292985085303698,0.007735288784421792,0.9999608670275446,20.42151614698627,0.01251012394029486,4.555594450350321,-1.9669337190307,-48.568206787109375,5356.25390625,True
1599559422.1241634,0.0,10,0.5,0.5,-2.577172512817383,-0.05075,-0.001,-0.001,0.02195084085317639,10,1,100,0.09908542920755797,-10,-1,-100,15032.586432313314,-0.00477864777123408,0.007149883330276511,0.9999630211632038,20.52463348438362,0.012591501978033152,5.876114714143799,-2.52423971259094,-39.74969482421875,5356.25390625,True
1599559422.161063,0.0,10,0.5,0.5,-2.5735402160644534,-0.05075,-0.001,-0.001,0.08021534623814718,10,1,100,0.050869698304378284,-10,-1,-100,15032.586432313314,-0.00477864777123408,0.007149883330276511,0.9999630211632038,20.52463348438362,0.012591501978033152,5.876114714143799,-2.52423971259094,-39.74969482421875,5356.25390625,True
1599559422.1909828,0.0,10,0.5,0.5,-2.8648231567382814,-0.05075,-0.001,-0.001,0.03698490788055511,10,1,100,0.08160292163941057,-10,-1,-100,15032.43799124367,-0.005055110789794525,0.006759277585151548,0.9999643783762647,20.363083808549934,0.012527064397475685,6.688155629107449,-2.895784933139438,-34.21484375,5356.25390625,True
1599559422.2258916,0.0,10,0.5,0.5,-3.136878004455567,-0.05075,-0.001,-0.001,0.035736675270689466,10,1,100,0.0818730039879925,-10,-1,-100,15032.335449196631,-0.005305714849879861,0.006395587220115154,0.9999654723309409,20.04082309577563,0.012387641487216878,7.4270826384100515,-3.267331860988576,-28.955291748046875,5356.25390625,True
1599559422.2707722,0.0,10,0.5,0.5,-3.518391290283203,-0.05075,-0.001,-0.001,0.01066632077464566,10,1,100,0.09057124653045982,-10,-1,-100,15032.097164325183,-0.005609676259356803,0.005839888023082761,0.9999672130825805,19.342650321321216,0.012087087530426187,8.391464464436044,-3.824650933272318,-21.5830078125,5356.25390625,True
1599559422.2977254,0.0,10,0.5,0.5,-3.516332705688477,-0.05075,-0.001,-0.001,0.06589923653018423,10,1,100,0.060477058565155783,-10,-1,-100,15032.097164325183,-0.005609676259356803,0.005839888023082761,0.9999672130825805,19.342650321321216,0.012087087530426187,8.391464464436044,-3.824650933272318,-21.5830078125,5356.25390625,True
1599559422.3236637,0.0,10,0.5,0.5,-3.8707657089233405,-0.05075,-0.001,-0.001,0.010714805540114614,10,1,100,0.08888991049695144,-10,-1,-100,15031.848136288347,-0.005865456722118318,0.005341118433376458,0.9999685339406043,18.682695243834235,0.011837301625901157,9.28668869127096,-4.381970576815323,-14.830169677734375,5356.25390625,True
1599559422.3575401,0.0,10,0.5,0.5,-3.8689878067016608,-0.05075,-0.001,-0.001,0.060256856668747645,10,1,100,0.06356886981489698,-10,-1,-100,15031.848136288347,-0.005865456722118318,0.005341118433376458,0.9999685339406043,18.682695243834235,0.011837301625901157,9.28668869127096,-4.381970576815323,-14.830169677734375,5356.25390625,True
1599559422.390638,0.0,10,0.5,0.5,-4.190375633239746,-0.05075,-0.001,-0.001,0.010144471315835256,10,1,100,0.08638689205612617,-10,-1,-100,15031.601063823327,-0.006071127922940685,0.00488808023551057,0.9999696235773136,17.861994499387773,0.011478171540429951,10.008542756656295,-4.939300439966343,-8.696990966796875,5356.25390625,True
1599559422.4237049,0.0,10,0.5,0.5,-4.188851600646973,-0.05075,-0.001,-0.001,0.055124803694972746,10,1,100,0.06603452924474057,-10,-1,-100,15031.601063823327,-0.006071127922940685,0.00488808023551057,0.9999696235773136,17.861994499387773,0.011478171540429951,10.008542756656295,-4.939300439966343,-8.696990966796875,5356.25390625,True
1599559422.460821,0.0,10,0.5,0.5,-4.566161087036133,-0.05075,-0.001,-0.001,-0.0012834698880217904,10,1,100,0.09123172237681144,-10,-1,-100,15031.144029697753,-0.006298576821561659,0.004377866119800539,0.9999705806763817,16.79638021987943,0.01091758624359669,10.828309099518686,-5.6824409055014975,-1.4830322265625,5356.25390625,True
1599559422.522698,0.0,10,0.5,0.5,-4.647196035766602,-0.05075,-0.001,-0.001,0.03682314137289373,10,1,100,0.07324895213808391,-10,-1,-100,15031.002426746069,-0.006340487064455633,0.004262978859900175,0.9999708121915487,16.54207901645858,0.010756213361002923,11.013282323490607,-5.868233284357495,0.1483154296875,5356.25390625,True
1599559422.559598,0.0,10,0.5,0.5,-4.8077198486328125,-0.05075,-0.001,-0.001,0.025809764761134214,10,1,100,0.07914967817563312,-10,-1,-100,15030.76707448531,-0.006430810395343128,0.004061038749402373,0.9999710759026659,16.771736411686373,0.010871558597708319,11.873787721697756,-6.2398246196957015,3.20465087890625,5356.25390625,True
1599559422.594506,0.0,10,0.5,0.5,-4.952324095153808,-0.05075,-0.001,-0.001,0.026877424496532416,10,1,100,0.07930702031776848,-10,-1,-100,15030.53758160572,-0.006513102261437038,0.003889615772758672,0.9999712247800296,17.498875919719854,0.011255746048829663,13.126980203517553,-6.611419262595806,5.985687255859375,5356.25390625,True
1599559422.6254234,0.0,10,0.5,0.5,-5.0196498046875,-0.05075,-0.001,-0.001,0.035170310670586645,10,1,100,0.07503163570260823,-10,-1,-100,15030.390121276141,-0.006547948291010446,0.0038114447332533974,0.9999712982192156,17.82915369539605,0.011407456971785008,13.7509586519103,-6.797217212345908,7.27288818359375,5356.25390625,True
1599559422.658335,0.0,10,0.5,0.5,-5.199723153686524,-0.05075,-0.001,-0.001,0.022226636176762283,10,1,100,0.08326762684324421,-10,-1,-100,15029.936995955766,-0.006653646171872369,0.0036245544231136803,0.9999712953869492,18.699513254679506,0.011719487437069244,15.606180667994277,-7.354611023032356,10.7216796875,5356.25390625,True
1599559422.6922462,0.0,10,0.5,0.5,-5.251873910522461,-0.05075,-0.001,-0.001,0.03547518354707127,10,1,100,0.076389207106703,-10,-1,-100,15029.790512448875,-0.006686255002403273,0.0035771094205349,0.9999712487278003,18.95300953937314,0.011780977054035845,16.217809175205872,-7.540408129145652,11.733642578125,5356.25390625,True
1599559422.7282016,0.0,10,0.5,0.5,-5.302324542236329,-0.05075,-0.001,-0.001,0.03548323007283123,10,1,100,0.07647690380327196,-10,-1,-100,15029.64305079612,-0.0067159504562362814,0.0035356543948000464,0.9999711971639332,19.189674276860444,0.011823515466500768,16.82541615970168,-7.7262044441058855,12.6767578125,5356.25390625,True
1599559422.7750766,0.0,10,0.5,0.5,-5.463737786865234,-0.05075,-0.001,-0.001,0.029360949910407646,10,1,100,0.08620390309114782,-10,-1,-100,15028.972153247916,-0.0068306004134886895,0.0034439522463268527,0.9999707406174023,19.9859682673915,0.01183036460174282,19.21159813501433,-8.469380279656542,15.76092529296875,5356.25390625,True
1599559422.8010094,0.0,10,0.5,0.5,-5.4630994110107425,-0.05075,-0.001,-0.001,0.03838675195880865,10,1,100,0.07481485461496182,-10,-1,-100,15028.972153247916,-0.0068306004134886895,0.0034439522463268527,0.9999707406174023,19.9859682673915,0.01183036460174282,19.21159813501433,-8.469380279656542,15.76092529296875,5356.25390625,True
1599559422.8604414,0.0,10,0.5,0.5,-5.547852781677246,-0.05075,-0.001,-0.001,0.03921593213251261,10,1,100,0.08355292838364185,-10,-1,-100,15028.454577594297,-0.006909347018212555,0.0034528030915325103,0.999970169092355,20.446170735161935,0.011694357501168793,20.949529016825913,-9.026749767012447,17.351409912109375,5356.25390625,True
1599559422.8913593,0.0,10,0.5,0.5,-5.568460079956055,-0.05075,-0.001,-0.001,0.040257709297162915,10,1,100,0.07860697112025661,-10,-1,-100,15028.29637416231,-0.006935416347206521,0.0034711609823329,0.9999699250685119,20.57688585423802,0.011627002324929801,21.51815791059472,-9.212536877860808,17.74395751953125,5356.25390625,True
1599559422.9252675,0.0,10,0.5,0.5,-5.59976717529297,-0.05075,-0.001,-0.001,0.044482901566471424,10,1,100,0.08108924459049295,-10,-1,-100,15027.871570871095,-0.006981141014855229,0.0035269806472156655,0.9999694115709965,20.807208927361774,0.01146349490597356,22.6382680461639,-9.584106953536898,18.322509765625,5356.25390625,True
1599559422.958179,0.0,10,0.5,0.5,-5.61890640258789,-0.05075,-0.001,-0.001,0.05487152822415692,10,1,100,0.08387325261289727,-10,-1,-100,15027.285636843182,-0.0070475177578127185,0.0036726533649991265,0.9999684215567579,21.0796825004952,0.011154075328860622,24.271202021745907,-10.141451289337315,18.67431640625,5356.25390625,True
1599559423.0000658,0.0,10,0.5,0.5,-5.619823458862305,-0.05075,-0.001,-0.001,0.04028256020503486,10,1,100,0.07728901986678587,-10,-1,-100,15027.285636843182,-0.0070475177578127185,0.0036726533649991265,0.9999684215567579,21.0796825004952,0.011154075328860622,24.271202021745907,-10.141451289337315,18.67431640625,5356.25390625,True
1599559423.025996,0.0,10,0.5,0.5,-5.607119592285157,-0.05075,-0.001,-0.001,0.063999809578274,10,1,100,0.08335543147638659,-10,-1,-100,15026.690912992693,-0.007102212800202905,0.0038883908969088044,0.9999672189574884,21.267946496736737,0.010776813023335776,25.836816402810438,-10.698783579277805,18.40679931640625,5356.25390625,True
1599559423.0579128,0.0,10,0.5,0.5,-5.58112300567627,-0.05075,-0.001,-0.001,0.06251523934663582,10,1,100,0.08130262566694423,-10,-1,-100,15026.254391836002,-0.007132865907173298,0.004070779981562896,0.9999662749184552,21.34637590175308,0.010491552802387462,26.834895075255265,-11.07033263311346,17.884429931640625,5356.25390625,True
1599559423.0908265,0.0,10,0.5,0.5,-5.582260453796387,-0.05075,-0.001,-0.001,0.04432569793732944,10,1,100,0.07828197606038194,-10,-1,-100,15026.254391836002,-0.007132865907173298,0.004070779981562896,0.9999662749184552,21.34637590175308,0.010491552802387462,26.834895075255265,-11.07033263311346,17.884429931640625,5356.25390625,True
1599559423.128722,0.0,10,0.5,0.5,-5.541508195495606,-0.05075,-0.001,-0.001,0.06810382965341352,10,1,100,0.08069276516855194,-10,-1,-100,15025.753417956876,-0.007154403157746719,0.004286458337539331,0.9999652197903569,21.38514055469223,0.010181831714776022,27.788281864964347,-11.441877858903995,17.086883544921875,5356.25390625,True
1599559423.1576462,0.0,10,0.5,0.5,-5.486923323059083,-0.05075,-0.001,-0.001,0.07396073434713445,10,1,100,0.07971982762835791,-10,-1,-100,15025.31201463216,-0.007164843223589648,0.004535008243741541,0.9999640487146577,21.381343411624126,0.009850456502855464,28.68806842297817,-11.813420072617566,16.014129638671875,5356.25390625,True
1599559423.191556,0.0,10,0.5,0.5,-5.454923538970948,-0.05075,-0.001,-0.001,0.06403903509380349,10,1,100,0.07925441131248286,-10,-1,-100,15025.095220326562,-0.007169799278020628,0.004669773568897437,0.9999633929265251,21.377012236411815,0.009684457044613723,29.134614451980962,-11.999190291943522,15.374557495117188,5356.25390625,True
1599559423.224468,0.0,10,0.5,0.5,-5.378489796447755,-0.05075,-0.001,-0.001,0.08324365044160344,10,1,100,0.07831160333803275,-10,-1,-100,15024.588388346601,-0.007165497025681238,0.004965768576312465,0.9999619976753225,21.335789985161384,0.009342731644766745,29.981587049224135,-12.370729458267947,13.8890380859375,5356.25390625,True
1599559423.2673519,0.0,10,0.5,0.5,-5.237578967285157,-0.05075,-0.001,-0.001,0.10919908785796772,10,1,100,0.07464791326126693,-10,-1,-100,15023.804213820025,-0.007128070449512581,0.005469454734480367,0.9999596370237023,21.177630821765753,0.008815263863892902,31.104506746217616,-12.928036906224198,11.144866943359375,5356.25390625,True
1599559423.2932837,0.0,10,0.5,0.5,-5.239605374145508,-0.05075,-0.001,-0.001,0.05902471944990407,10,1,100,0.07840526382159839,-10,-1,-100,15023.804213820025,-0.007128070449512581,0.005469454734480367,0.9999596370237023,21.177630821765753,0.008815263863892902,31.104506746217616,-12.928036906224198,11.144866943359375,5356.25390625,True
1599559423.3251982,0.0,10,0.5,0.5,-5.0648042037963865,-0.05075,-0.001,-0.001,0.12245139904658633,10,1,100,0.06832068457950469,-10,-1,-100,15023.00929989887,-0.007036319226682911,0.006044427456841586,0.9999569766287243,20.884325214916252,0.008295836804217228,32.00085703471713,-13.48534572089634,7.7816162109375,5356.25390625,True
1599559423.3591077,0.0,10,0.5,0.5,-5.067078184509278,-0.05075,-0.001,-0.001,0.06519130421964862,10,1,100,0.07749468700935869,-10,-1,-100,15023.00929989887,-0.007036319226682911,0.006044427456841586,0.9999569766287243,20.884325214916252,0.008295836804217228,32.00085703471713,-13.48534572089634,7.7816162109375,5356.25390625,True
1599559423.3950105,0.0,10,0.5,0.5,-4.784114932250977,-0.05075,-0.001,-0.001,0.16087243770052453,10,1,100,0.05286588829278258,-10,-1,-100,15021.921420026338,-0.006812480959780874,0.0069122959097950645,0.9999529040251987,20.239084265964873,0.0076859464313014485,32.7279615969991,-14.228430168637846,2.334259033203125,5356.25390625,True
1599559423.4249315,0.0,10,0.5,0.5,-4.788007272338868,-0.05075,-0.001,-0.001,0.07436974399799991,10,1,100,0.07521767648824708,-10,-1,-100,15021.921420026338,-0.006812480959780874,0.0069122959097950645,0.9999529040251987,20.239084265964873,0.0076859464313014485,32.7279615969991,-14.228430168637846,2.334259033203125,5356.25390625,True
1599559423.4588392,0.0,10,0.5,0.5,-4.624142852783203,-0.05075,-0.001,-0.001,0.1270630332043322,10,1,100,0.05928917685107262,-10,-1,-100,15021.289590471773,-0.006667967676667826,0.00738874261537242,0.9999504711182583,19.789443983218273,0.007449300076590211,32.84010250905868,-14.599975101462782,-0.802154541015625,5356.25390625,True
1599559423.4957423,0.0,10,0.5,0.5,-4.355314237976074,-0.05075,-0.001,-0.001,0.16180242540192724,10,1,100,0.037602176768131226,-10,-1,-100,15020.427294846275,-0.006339879632612024,0.008134868381986486,0.9999468135069243,20.36447107539062,0.007754787308617292,35.090260453472176,-15.15727912787206,-6.02294921875,5356.25390625,True
1599559423.5286546,0.0,10,0.5,0.5,-4.261150042724609,-0.05075,-0.001,-0.001,0.11586229437293898,10,1,100,0.05600372697480542,-10,-1,-100,15020.131400500773,-0.00620965456134104,0.008392254378519157,0.9999455036434111,20.740208631739865,0.007980475323013988,36.177756329300266,-15.343037352262185,-7.900848388671875,5356.25390625,True
1599559423.5585728,0.0,10,0.5,0.5,-4.260700401306153,-0.05075,-0.001,-0.001,0.09049594280063403,10,1,100,0.06893021963023588,-10,-1,-100,15020.131400500773,-0.00620965456134104,0.008392254378519157,0.9999455036434111,20.740208631739865,0.007980475323013988,36.177756329300266,-15.343037352262185,-7.900848388671875,5356.25390625,True
1599559423.591486,0.0,10,0.5,0.5,-3.9456003692626953,-0.05075,-0.001,-0.001,0.1771232896406072,10,1,100,0.017684328910783836,-10,-1,-100,15019.149965634337,-0.005744651775222694,0.009176660726335089,0.9999413922195116,21.90707763110087,0.0088369881966153,39.607922413949325,-15.900276112846207,-13.9476318359375,5356.25390625,True
1599559423.6254811,0.0,10,0.5,0.5,-3.722715859985352,-0.05075,-0.001,-0.001,0.15844996696299024,10,1,100,0.024328986001253092,-10,-1,-100,15018.50348896347,-0.005383585596550546,0.009716629740015005,0.9999383001528745,22.68933901360954,0.009532363446807713,41.98551500304284,-16.271733256644655,-18.32293701171875,5356.25390625,True
1599559423.6613853,0.0,10,0.5,0.5,-3.483453504943848,-0.05075,-0.001,-0.001,0.16297776827897104,10,1,100,0.013848706049022358,-10,-1,-100,15017.858966457192,-0.00496165423896737,0.010244811423500632,0.9999352108142355,23.40917817502665,0.010271847578495306,44.31151197170469,-16.6431593940716,-22.973968505859375,5356.25390625,True
1599559423.6923022,0.0,10,0.5,0.5,-3.2300739990234373,-0.05075,-0.001,-0.001,0.16756517256818215,10,1,100,0.003995677301904067,-10,-1,-100,15017.208584750304,-0.004490393347997694,0.01076286173478343,0.9999319962751758,24.0718268321169,0.011019515938708075,46.588071287365935,-17.014553408770887,-27.900634765625,5356.25390625,True
1599559423.7253697,0.0,10,0.5,0.5,-3.231432440185547,-0.05075,-0.001,-0.001,0.11623198486769645,10,1,100,0.05086717381100314,-10,-1,-100,15017.208584750304,-0.004490393347997694,0.01076286173478343,0.9999319962751758,24.0718268321169,0.011019515938708075,46.588071287365935,-17.014553408770887,-27.900634765625,5356.25390625,True
1599559423.7612753,0.0,10,0.5,0.5,-3.0955800552368165,-0.05075,-0.001,-0.001,0.14422871579650098,10,1,100,0.022607504927245985,-10,-1,-100,15016.855073962826,-0.00423559825597425,0.011013876956113482,0.9999303746870627,24.39799767608027,0.011389637971793619,47.73741197107509,-17.20023818369139,-30.467376708984375,5356.25390625,True
1599559423.7942986,0.0,10,0.5,0.5,-2.6749759017944337,-0.05075,-0.001,-0.001,0.19899287923340078,10,1,100,-0.04481028653773666,-10,-1,-100,15015.793562712031,-0.0033934199614565554,0.01173619993307051,0.9999253703712574,25.18593832181864,0.012327429715493134,50.883707710807904,-17.75724755043346,-38.581207275390625,5356.25390625,True
1599559423.8252096,0.0,10,0.5,0.5,-2.5322156738281247,-0.05075,-0.001,-0.001,0.15282169813296725,10,1,100,0.005426646520805163,-10,-1,-100,15015.442982199485,-0.0030874795830774055,0.011969166940920506,0.9999236003378281,25.373656787376497,0.012555236584443715,51.801887057198286,-17.942904488619877,-41.42364501953125,5356.25390625,True
1599559423.8582063,0.0,10,0.5,0.5,-2.2266039718627932,-0.05075,-0.001,-0.001,0.17631869452072724,10,1,100,-0.03549738574464548,-10,-1,-100,15014.724241307122,-0.002440272036728204,0.012391078461982926,0.9999202499434321,25.61507666978963,0.012841703054123152,53.38302836480749,-18.314204156513842,-47.315704345703125,5356.25390625,True
1599559423.8921144,0.0,10,0.5,0.5,-2.070730311584473,-0.05075,-0.001,-0.001,0.15442744197680874,10,1,100,-0.008156258367248023,-10,-1,-100,15014.310182603891,-0.0021038839548640094,0.012571987708837263,0.9999187560983908,25.66192235384394,0.01289091758377354,54.02588616102333,-18.49984896592243,-50.365447998046875,5356.25390625,True
1599559423.9279926,0.0,10,0.5,0.5,-1.7431854736328127,-0.05075,-0.001,-0.001,0.17498398810030436,10,1,100,-0.052057981755674124,-10,-1,-100,15013.590464589885,-0.0014027025501894834,0.012919528594981786,0.999915555537786,25.626516595277565,0.012804340512466001,55.04056488844285,-18.871134421785857,-56.67169189453125,5356.25390625,True
1599559423.9589381,0.0,10,0.5,0.5,-1.4045723464965822,-0.05075,-0.001,-0.001,0.17132007063401772,10,1,100,-0.06230486806309092,-10,-1,-100,15012.817034806823,-0.0006760586242588828,0.013198763907357249,0.9999126639742364,25.396018314675345,0.012470793251828989,55.62536260651705,-19.24242162329158,-63.254241943359375,5356.25390625,True
1599559424.024117,0.0,10,0.5,0.5,-1.0517222747802735,-0.05075,-0.001,-0.001,0.16788300120499836,10,1,100,-0.07235934365216806,-10,-1,-100,15012.03286208515,7.165151651300848e-05,0.01341820252910082,0.9999099693007109,24.91376331667866,0.011909486857709902,55.62896621234321,-19.613720402328326,-70.11297607421875,5356.25390625,True
1599559424.0611434,0.0,10,0.5,0.5,-0.6846240356445313,-0.05075,-0.001,-0.001,0.16218777723331884,10,1,100,-0.08050862889638888,-10,-1,-100,15011.254548007622,0.000820896686929935,0.013563032520847342,0.9999076808773237,24.16375713589451,0.011197283999048853,54.98290304569913,-19.985039127973813,-77.24810791015625,5356.25390625,True
1599559424.0920732,0.0,10,0.5,0.5,-0.1061546127319336,-0.05075,-0.001,-0.001,0.15758490119193208,10,1,100,-0.12825547487271427,-10,-1,-100,15009.990883764345,0.0019312624506983467,0.013650306212253334,0.9999049651670193,22.5321106852213,0.010082300509047898,52.710015011173226,-20.54206488756254,-88.46878051757812,5356.25390625,True
1599559424.1250718,0.0,10,0.5,0.5,0.2929878799438476,-0.05075,-0.001,-0.001,0.1462041859957089,10,1,100,-0.09606754796080128,-10,-1,-100,15009.199871500605,0.002642230486017061,0.013623559934949962,0.9999037039799171,21.395414549643586,0.009583682518806709,50.96292549648461,-20.91344249445623,-96.28146362304688,5356.25390625,True
1599559424.1590111,0.0,10,0.5,0.5,0.29175660552978516,-0.05075,-0.001,-0.001,0.14913978202392977,10,1,100,-0.02565852730312899,-10,-1,-100,15009.199871500605,0.002642230486017061,0.013623559934949962,0.9999037039799171,21.395414549643586,0.009583682518806709,50.96292549648461,-20.91344249445623,-96.28146362304688,5356.25390625,True
1599559424.1949172,0.0,10,0.5,0.5,0.711265654373169,-0.05075,-0.001,-0.001,0.1398378797456919,10,1,100,-0.09953197135534031,-10,-1,-100,15008.354170848033,0.0033083202951758243,0.01353728140514609,0.9999028937996841,23.060306203371827,0.010595427748682116,55.911859430633804,-21.28478836187708,-104.27642059326172,5356.25390625,True
1599559424.225893,0.0,10,0.5,0.5,1.5343993797302247,-0.05075,-0.001,-0.001,0.11174540588477302,10,1,100,-0.16837687757737807,-10,-1,-100,15006.593429240049,0.004533904905631177,0.013202034693439467,0.9999025702468516,25.508431261624157,0.012664930429203912,64.02291692683016,-22.027330098685155,-120.21542358398438,5356.25390625,True
1599559424.263792,0.0,10,0.5,0.5,1.7286979042053223,-0.05075,-0.001,-0.001,0.1338560285850502,10,1,100,-0.07552444283672043,-10,-1,-100,15006.166670011706,0.004797619529364283,0.013097533383498278,0.9999027140007769,25.92373360251567,0.013089093678048534,65.61795978221451,-22.21293750167739,-124.13711547851562,5356.25390625,True
1599559424.291717,0.0,10,0.5,0.5,1.732153379058838,-0.05075,-0.001,-0.001,0.1443587141466352,10,1,100,-0.04984313081183266,-10,-1,-100,15006.166670011706,0.004797619529364283,0.013097533383498278,0.9999027140007769,25.92373360251567,0.013089093678048534,65.61795978221451,-22.21293750167739,-124.13711547851562,5356.25390625,True
1599559424.3277965,0.0,10,0.5,0.5,2.1371623497009278,-0.05075,-0.001,-0.001,0.12011582453209574,10,1,100,-0.10411838773938095,-10,-1,-100,15005.252605826827,0.0052853942995424,0.01287698165537654,0.9999031192823359,26.661428052207217,0.013792236253488957,68.62211068316482,-22.584125646634334,-131.8330078125,5356.25390625,True
1599559424.358714,0.0,10,0.5,0.5,2.33057555847168,-0.05075,-0.001,-0.001,0.12777676297928325,10,1,100,-0.0815171820341878,-10,-1,-100,15004.828777878196,0.005517940899726386,0.012746417508651194,0.999903535931803,26.911097490176843,0.014012474742735441,69.83857443591496,-22.769709699979963,-135.58665466308594,5356.25390625,True
1599559424.3926482,0.0,10,0.5,0.5,2.7113647476196294,-0.05075,-0.001,-0.001,0.11062594773471655,10,1,100,-0.10427020803184639,-10,-1,-100,15003.851236065035,0.005931241418614894,0.01247241704124159,0.9999046250460008,27.173468411659517,0.014164569207357989,71.67865649988754,-23.140866767771474,-142.8909149169922,5356.25390625,True
1599559424.4256542,0.0,10,0.5,0.5,3.074387722778321,-0.05075,-0.001,-0.001,0.10928811529241896,10,1,100,-0.10155350075440056,-10,-1,-100,15002.927404339542,0.006277626056235225,0.012212155062738886,0.9999057228958245,27.1468089668152,0.013957234536718021,72.76693162006869,-23.512020491293146,-149.92015075683594,5356.25390625,True
1599559424.4616194,0.0,10,0.5,0.5,3.423003269195557,-0.05075,-0.001,-0.001,0.10491905204524349,10,1,100,-0.09932431928408945,-10,-1,-100,15002.008455040865,0.006568304655609483,0.011937141917443482,0.9999071767003144,26.86748984288741,0.013467235242949455,73.1655996235446,-23.88318169398342,-156.67376708984375,5356.25390625,True
1599559424.6591225,0.0,10,0.5,0.5,3.919724071502686,-0.05075,-0.001,-0.001,0.09069364615325852,10,1,100,-0.10730453533133788,-10,-1,-100,15000.529932575068,0.006901536188043255,0.011559341202718258,0.9999093711078041,26.058694388581053,0.01244243418173589,72.63384478665999,-24.439954224056716,-166.28604125976562,5356.25390625,True
1599559424.6840236,0.0,10,0.5,0.5,4.075774299621582,-0.05075,-0.001,-0.001,0.11529870472517127,10,1,100,-0.08378195139779203,-10,-1,-100,15000.041650151717,0.006986760176585335,0.011441444920651108,0.9999101352223422,25.704275690148258,0.012081377643994775,72.19571901553594,-24.625555106928587,-169.3519744873047,5356.25390625,True
1599559424.7079594,0.0,10,0.5,0.5,4.385808771514893,-0.05075,-0.001,-0.001,0.10305587114826911,10,1,100,-0.0902669181802483,-10,-1,-100,14999.054340796662,0.0071198467370264555,0.011224873301240492,0.9999116510981421,24.89504718071519,0.011406850852978684,70.98827791309664,-24.996772434869765,-175.27647399902344,5356.25390625,True
1599559424.7448995,0.0,10,0.5,0.5,-13.952330619812013,-0.05075,-0.001,-0.001,0.10444941553878362,10,1,100,-0.08755759991704053,-10,-1,-100,14998.008439080091,0.007213853497006135,0.011042456015682973,0.9999130084576685,23.980351191488527,0.010858864477664284,69.4069438916452,-25.368008790195287,179.07562255859375,5356.25390625,True
1599559424.779804,0.0,10,0.5,0.5,-13.216709785461425,-0.05075,-0.001,-0.001,0.09831214251918896,10,1,100,-0.08430480665262774,-10,-1,-100,14996.514292240841,0.007267546763704235,0.010822696980786927,0.9999150223864524,24.271628837044315,0.01117825296217993,71.80995929613896,-25.92486238664454,171.1221923828125,5356.25390625,True
1599559424.8172212,0.0,10,0.5,0.5,-13.25418914642334,-0.05075,-0.001,-0.001,0.12006056236852242,10,1,100,-0.07918247270625174,-10,-1,-100,14996.514292240841,0.007267546763704235,0.010822696980786927,0.9999150223864524,24.271628837044315,0.01117825296217993,71.80995929613896,-25.92486238664454,171.1221923828125,5356.25390625,True
1599559424.843121,0.0,10,0.5,0.5,-13.150161767578126,-0.05075,-0.001,-0.001,0.11391505466750279,10,1,100,-0.07955755294240201,-10,-1,-100,14995.961556806695,0.007269154627247272,0.01076869626048183,0.9999155937237176,24.776492640210062,0.011567908878743776,73.83461264135006,-26.110463646577458,168.52658081054688,5356.25390625,True
1599559424.8670561,0.0,10,0.5,0.5,-12.616731408691408,-0.05075,-0.001,-0.001,0.10610311692289964,10,1,100,-0.07030628079403828,-10,-1,-100,14993.846317458316,0.007184921834821708,0.010650385009115504,0.9999174696930666,26.670655274305467,0.013445928850042184,81.76596127328895,-26.85276900113351,157.5809326171875,5356.25390625,True
1599559424.8919897,0.0,10,0.5,0.5,-12.657724241638185,-0.05075,-0.001,-0.001,0.11775203885631967,10,1,100,-0.07885492807821541,-10,-1,-100,14993.846317458316,0.007184921834821708,0.010650385009115504,0.9999174696930666,26.670655274305467,0.013445928850042184,81.76596127328895,-26.85276900113351,157.5809326171875,5356.25390625,True
1599559424.9261017,0.0,10,0.5,0.5,-12.538274112701417,-0.05075,-0.001,-0.001,0.11721889146864951,10,1,100,-0.07462741580387333,-10,-1,-100,14993.293581546517,0.007145665090710792,0.010646958005639978,0.999917787498371,27.079043557861723,0.013944762258801062,83.598467606779,-27.038319909798282,154.6785125732422,5356.25390625,True
1599559424.9591157,0.0,10,0.5,0.5,-12.100451508331298,-0.05075,-0.001,-0.001,0.12360329887786611,10,1,100,-0.06129457092193991,-10,-1,-100,14991.669557753718,0.006988244587651382,0.010703055509756745,0.9999183011828209,28.17193067441647,0.015374746731351788,88.78422052683673,-27.594914284594022,145.56044006347656,5356.25390625,True
1599559424.9997225,0.0,10,0.5,0.5,-11.97637201538086,-0.05075,-0.001,-0.001,0.1225425699661039,10,1,100,-0.07001514364612901,-10,-1,-100,14991.1090098446,0.006924334147453993,0.010745188692204114,0.99991829392035,28.4864654360434,0.015790312295730836,90.38618362679432,-27.780427299572132,142.38397216796875,5356.25390625,True
1599559425.0286462,0.0,10,0.5,0.5,-11.671308534240724,-0.05075,-0.001,-0.001,0.13138441788197167,10,1,100,-0.06071663377752565,-10,-1,-100,14989.986940168892,0.006781758590313729,0.010864504981144564,0.9999179817774743,28.970811491988407,0.016427650535892936,93.16529004778462,-28.15143113901682,135.82525634765625,5356.25390625,True
1599559425.0590932,0.0,10,0.5,0.5,-11.708977423095705,-0.05075,-0.001,-0.001,0.11941675215591714,10,1,100,-0.0749403806768808,-10,-1,-100,14989.986940168892,0.006781758590313729,0.010864504981144564,0.9999179817774743,28.970811491988407,0.016427650535892936,93.16529004778462,-28.15143113901682,135.82525634765625,5356.25390625,True
1599559425.093003,0.0,10,0.5,0.5,-11.351048180389407,-0.05075,-0.001,-0.001,0.13817266928766891,10,1,100,-0.05790619661218831,-10,-1,-100,14988.859012590954,0.006627295185095336,0.011035175092373705,0.9999171485024198,29.235962095004524,0.016738063147180963,95.27196657453102,-28.52241396827988,128.99232482910156,5356.25390625,True
1599559425.1290026,0.0,10,0.5,0.5,-11.171545017242433,-0.05075,-0.001,-0.001,0.13263822473813136,10,1,100,-0.06410596134655187,-10,-1,-100,14988.243780672085,0.006543817452098837,0.011139823444757505,0.9999165379104266,29.27708066935952,0.016754569753406803,96.03403809420624,-28.707901203252675,125.47303771972656,5356.25390625,True
1599559425.1589253,0.0,10,0.5,0.5,-10.602853152465821,-0.05075,-0.001,-0.001,0.16528554422829703,10,1,100,-0.04461916422297631,-10,-1,-100,14986.541638692026,0.006291433838534611,0.011531463827322492,0.999913717878825,28.993335816529466,0.016254737204923694,96.97045535850938,-29.264365455932072,114.5040283203125,5356.25390625,True
1599559425.1941388,0.0,10,0.5,0.5,-10.412114032745361,-0.05075,-0.001,-0.001,0.1435869313266521,10,1,100,-0.06033750670099494,-10,-1,-100,14985.924455310334,0.006205777049447949,0.011689546996396762,0.9999124175757753,28.753443214485202,0.015929843429648212,96.78584556953426,-29.449859865496492,110.71067810058594,5356.25390625,True
