Timestamp,Input Throttle,horizon,dT,dt,Input Roll,Roll P,Roll I,Roll D,Input Pitch,Pitch P,Pitch I,Pitch D,Input Yaw,Yaw P,Yaw I,Yaw D,Altitude,Direction X,Direction Y,Direction Z,Drag X,Drag Y,Drag Z,Vertical Velocity,Roll,Mass,Has Fuel
1599563790.383469,0.0,10,0.5,0.5,-11.641965301513672,-0.2,-0.0155,-0.2505,-0.0002849744448786203,10,1,100,0.17494830592386218,-10,-1,-100,14994.000766740763,-0.01681008492511454,-7.512119873810228e-05,0.9998586977176405,28.64457774334628,0.027275272740244046,-87.50386568177767,27.00897827051679,-31.7916259765625,5356.25390625,True
1599563790.4293463,0.0,10,0.5,0.5,-11.732736422729493,-0.2,-0.0155,-0.2505,7.044969570467116e-05,10,1,100,0.18189818977736918,-10,-1,-100,14995.574014700484,-0.01692023339814829,-6.758325507483406e-05,0.999856840319781,28.426686215065956,0.027763975390832727,-85.04924813484061,26.45108784543197,-31.789764404296875,5356.25390625,True
1599563790.474275,0.0,10,0.5,0.5,-11.760161766052248,-0.2,-0.0155,-0.2505,0.007139937505878919,10,1,100,0.17671254177585094,-10,-1,-100,14996.664837761899,-0.016957844088712305,3.598931307061885e-06,0.9998562054170144,28.28506486474461,0.028085036440712287,-83.43880770509175,26.079180209933533,-31.928131103515625,5356.25390625,True
1599563790.5221124,0.0,10,0.5,0.5,-11.884834020996095,-0.2,-0.0155,-0.2505,2.2078760820031404e-05,10,1,100,0.17464725712832055,-10,-1,-100,14996.664837761899,-0.016957844088712305,3.598931307061885e-06,0.9998562054170144,28.28506486474461,0.028085036440712287,-83.43880770509175,26.079180209933533,-31.928131103515625,5356.25390625,True
1599563790.5719771,0.0,10,0.5,0.5,-11.499282505798341,-0.2,-0.0155,-0.2505,0.024365211643672936,10,1,100,0.1797677746839983,-10,-1,-100,14998.658979839529,-0.016988978026410546,0.0002248968675772637,0.999855651605279,28.057251459018904,0.028742120184444293,-80.41237601981578,25.33540834317453,-32.9837646484375,5356.25390625,True
1599563790.6178935,0.0,10,0.5,0.5,-11.852093873596193,-0.2,-0.0155,-0.2505,0.002257907703410482,10,1,100,0.17835327871681525,-10,-1,-100,14998.658979839529,-0.016988978026410546,0.0002248968675772637,0.999855651605279,28.057251459018904,0.028742120184444293,-80.41237601981578,25.33540834317453,-32.9837646484375,5356.25390625,True
1599563790.6677363,0.0,10,0.5,0.5,-10.971690565490723,-0.2,-0.0155,-0.2505,0.04835018039926926,10,1,100,0.16940966578115915,-10,-1,-100,15000.65311681095,-0.016892227928789662,0.0006437130767509096,0.9998571089256086,27.90140185229772,0.02937369393587453,-77.6242011543884,24.591688150567972,-35.13421630859375,5356.25390625,True
1599563790.7136133,0.0,10,0.5,0.5,-11.27588572845459,-0.2,-0.0155,-0.2505,0.021676998284392845,10,1,100,0.1760192091547424,-10,-1,-100,15001.133583078743,-0.01684900348168617,0.0007813864176128468,0.9998577401395362,27.870269138713944,0.02951665836491481,-76.95282341267774,24.40576553125247,-35.843505859375,5356.25390625,True
1599563790.7614853,0.0,10,0.5,0.5,-11.187009507751466,-0.2,-0.0155,-0.2505,0.0244251801412739,10,1,100,0.17613619037319986,-10,-1,-100,15001.617956781178,-0.016795454719503805,0.0009308171203520603,0.9998585131308598,27.840708764851133,0.029649658779022023,-76.28704279776217,24.21984569537343,-36.62152099609375,5356.25390625,True
1599563790.8103557,0.0,10,0.5,0.5,-9.752964411926271,-0.2,-0.0155,-0.2505,0.0855875711586872,10,1,100,0.1463433170639038,-10,-1,-100,15003.546655588201,-0.016460661128599414,0.0016218387528911461,0.9998631987798476,27.722339062963265,0.030037546614859235,-73.63581104496859,23.476194277121888,-40.4210205078125,5356.25390625,True
1599563790.8691971,0.0,10,0.5,0.5,-9.740011430358887,-0.2,-0.0155,-0.2505,0.061686604753571,10,1,100,0.1558400315233433,-10,-1,-100,15004.44996805978,-0.01622767284910978,0.0020312843253775395,0.9998662593156605,27.648292116366296,0.030108492830839845,-72.27870129844172,23.104385875372166,-42.733062744140625,5356.25390625,True
1599563791.256166,0.0,10,0.5,0.5,-10.302218783569337,-0.2,-0.0155,-0.2505,0.020952688057343224,10,1,100,0.1790806182647061,-10,-1,-100,15004.44996805978,-0.01622767284910978,0.0020312843253775395,0.9998662593156605,27.648292116366296,0.030108492830839845,-72.27870129844172,23.104385875372166,-42.733062744140625,5356.25390625,True
1599563791.2955673,0.0,10,0.5,0.5,-9.11967315979004,-0.2,-0.0155,-0.2505,0.06734254188160475,10,1,100,0.14712456902065163,-10,-1,-100,15005.415779081522,-0.015937792911026594,0.0024511022077976876,0.9998699809750725,27.551182761569645,0.030067611429004125,-70.86844289661691,22.732590207140497,-45.32037353515625,5356.25390625,True
1599563791.3404467,0.0,10,0.5,0.5,-9.74703653717041,-0.2,-0.0155,-0.2505,0.025605503967239006,10,1,100,0.1760105577112018,-10,-1,-100,15005.415779081522,-0.015937792911026594,0.0024511022077976876,0.9998699809750725,27.551182761569645,0.030067611429004125,-70.86844289661691,22.732590207140497,-45.32037353515625,5356.25390625,True
1599563791.3859098,0.0,10,0.5,0.5,-7.023498532104493,-0.2,-0.0155,-0.2505,0.12916878875666785,10,1,100,0.0961113977168013,-10,-1,-100,15007.156967414543,-0.01521236423032994,0.0033903616119956856,0.9998785373347423,27.24160377433935,0.029564627375303548,-67.78530165459902,21.989043780296168,-51.31988525390625,5356.25390625,True
1599563791.4347801,0.0,10,0.5,0.5,-8.49795523071289,-0.2,-0.0155,-0.2505,0.03555939481130989,10,1,100,0.16847660440685863,-10,-1,-100,15007.156967414543,-0.01521236423032994,0.0033903616119956856,0.9998785373347423,27.24160377433935,0.029564627375303548,-67.78530165459902,21.989043780296168,-51.31988525390625,5356.25390625,True
1599563791.4786627,0.0,10,0.5,0.5,-6.932323977661134,-0.2,-0.0155,-0.2505,0.09222120067014361,10,1,100,0.11932682977785382,-10,-1,-100,15008.059298411827,-0.01476716320078997,0.0039025912427628844,0.9998833435319308,27.002852213033012,0.02906716653938737,-66.05787149936003,21.61729805663102,-54.73211669921875,5356.25390625,True
1599563791.53551,0.0,10,0.5,0.5,-4.309907772827148,-0.2,-0.0155,-0.2505,0.15082746802441438,10,1,100,0.047457142936674496,-10,-1,-100,15009.737981601851,-0.013711006079677457,0.00489807617562097,0.9998940029633445,26.284384458234,0.027539000429983848,-62.09415314227093,20.873877672367254,-62.3831787109375,5356.25390625,True
1599563791.5789356,0.0,10,0.5,0.5,-6.185362313842774,-0.2,-0.0155,-0.2505,0.05169064371440659,10,1,100,0.1527590553077249,-10,-1,-100,15009.737981601851,-0.013711006079677457,0.00489807617562097,0.9998940029633445,26.284384458234,0.027539000429983848,-62.09415314227093,20.873877672367254,-62.3831787109375,5356.25390625,True
1599563791.6288023,0.0,10,0.5,0.5,-4.23583857421875,-0.2,-0.0155,-0.2505,0.10509430673034294,10,1,100,0.08568307630288456,-10,-1,-100,15010.57878704858,-0.01310402849657875,0.005379957422079238,0.9998996652141141,25.77339654732678,0.026518655592940674,-59.805593569705636,20.502210967221114,-66.62200927734375,5356.25390625,True
1599563791.672684,0.0,10,0.5,0.5,-3.223163732910156,-0.2,-0.0155,-0.2505,0.10603553519260919,10,1,100,0.07549319518390504,-10,-1,-100,15011.354162527714,-0.012462646895072859,0.00582317143336264,0.9999053820771375,25.13899069211387,0.02535297572506612,-57.27888490586147,20.130578942631146,-71.13674926757812,5356.25390625,True
1599563791.7235496,0.0,10,0.5,0.5,0.1299182708740232,-0.2,-0.0155,-0.2505,0.15794956362786672,10,1,100,-0.020886273173309003,-10,-1,-100,15012.910772646079,-0.011006818477687409,0.006694591804751724,0.9999170127503417,23.433953602002322,0.022734353436488507,-51.4283304839648,19.3874323594792,-80.99246215820312,5356.25390625,True
1599563791.7704227,0.0,10,0.5,0.5,0.1268300048828126,-0.2,-0.0155,-0.2505,0.11250839195972073,10,1,100,0.03850996138457148,-10,-1,-100,15013.685171917547,-0.010228050098200842,0.00706945121132286,0.9999227019378845,22.352939791902866,0.021392055354559663,-48.11863239985755,19.015920440912588,-86.334228515625,5356.25390625,True
1599563791.8202899,0.0,10,0.5,0.5,1.3116302093505858,-0.2,-0.0155,-0.2505,0.10971927106582974,10,1,100,0.031132635199004,-10,-1,-100,15014.461524514598,-0.009458202917719555,0.007380678346439861,0.9999280314026173,21.17267115496276,0.02014991754172427,-44.69012033690751,18.64444589111944,-91.79336547851562,5356.25390625,True
1599563791.8771384,0.0,10,0.5,0.5,1.2448887001037598,-0.2,-0.0155,-0.2505,0.09544863145658797,10,1,100,0.06279283793617582,-10,-1,-100,15014.817962183617,-0.009052052405795681,0.00752939758542708,0.9999306818571191,21.64296592118667,0.02061472487488733,-45.229022027901145,18.45871176431746,-94.52086639404297,5356.25390625,True
1599563791.9250133,0.0,10,0.5,0.5,1.8543670513153077,-0.2,-0.0155,-0.2505,0.09562538075622604,10,1,100,0.058137417128989274,-10,-1,-100,15015.175378159853,-0.008646102943821858,0.007662440945436324,0.999933263724456,22.086219808579152,0.021099449315587406,-45.69222687223487,18.272976084736218,-97.24174499511719,5356.25390625,True
1599563791.974387,0.0,10,0.5,0.5,3.629379704666138,-0.2,-0.0155,-0.2505,0.10752265552882634,10,1,100,0.009390110076946512,-10,-1,-100,15015.889232648187,-0.007839869969996638,0.007887662789437967,0.9999381586951134,22.96442536851606,0.02217825156618257,-46.545893968755884,17.901496259982856,-102.53678131103516,5356.25390625,True
1599563792.028244,0.0,10,0.5,0.5,6.794985998535157,-0.2,-0.0155,-0.2505,0.11923665278192447,10,1,100,-0.09165532958298409,-10,-1,-100,15017.316942989826,-0.006194633536184153,0.008195278012152465,0.9999472305745216,24.183248111539175,0.02409090995284925,-46.9869214644311,17.158501333153737,-112.34347534179688,5356.25390625,True
1599563792.0736458,0.0,10,0.5,0.5,5.443289513397217,-0.2,-0.0155,-0.2505,0.094255832943307,10,1,100,0.027868696585394467,-10,-1,-100,15017.611858612509,-0.005792379172924875,0.008244832396235913,0.9999492342525569,24.39323852361714,0.02449186786096849,-46.88301129749602,16.97274649685739,-114.6241455078125,5356.25390625,True
1599563792.119549,0.0,10,0.5,0.5,6.914829154968262,-0.2,-0.0155,-0.2505,0.09783715359923742,10,1,100,-0.01899301927205009,-10,-1,-100,15018.322786499746,-0.005007876541173083,0.008319396791165128,0.9999528532933837,24.804938584412415,0.025263580119741967,-46.633005208571504,16.601231466379343,-118.9790267944336,5356.25390625,True
1599563792.1734035,0.0,10,0.5,0.5,8.615398795700074,-0.2,-0.0155,-0.2505,0.09457344025625097,10,1,100,-0.06937076837164838,-10,-1,-100,15019.269063742948,-0.003844072931361839,0.008354840265829005,0.9999577089794502,25.183268621973465,0.02605932270297628,-45.75814456796699,16.043953562358546,-124.9952621459961,5356.25390625,True
1599563792.2267709,0.0,10,0.5,0.5,7.191812535095215,-0.2,-0.0155,-0.2505,0.09128225967310989,10,1,100,0.04614773521310498,-10,-1,-100,15019.269063742948,-0.003844072931361839,0.008354840265829005,0.9999577089794502,25.183268621973465,0.02605932270297628,-45.75814456796699,16.043953562358546,-124.9952621459961,5356.25390625,True
1599563792.274642,0.0,10,0.5,0.5,9.69108153038025,-0.2,-0.0155,-0.2505,0.08917078507756482,10,1,100,-0.07302759772656608,-10,-1,-100,15020.21338897117,-0.0027671724005887614,0.008334135725450343,0.9999614417259375,25.32685538676693,0.026414814565029185,-44.4235507780014,15.48668153365344,-130.39163208007812,5356.25390625,True
1599563792.3275054,0.0,10,0.5,0.5,9.155865176773071,-0.2,-0.0155,-0.2505,0.08951242005931774,10,1,100,-0.0036647037380668664,-10,-1,-100,15020.508308605407,-0.0024255262976883313,0.008317269475381925,0.9999624692210469,25.331876594836935,0.026441605178716663,-43.900368946033076,15.300927840294598,-132.05264282226562,5356.25390625,True
1599563792.3763704,0.0,10,0.5,0.5,11.48519402809143,-0.2,-0.0155,-0.2505,0.07498083570852421,10,1,100,-0.11538081152198784,-10,-1,-100,15021.683104209835,-0.0011057312939432326,0.008168979762013475,0.9999660219867241,25.19053958528306,0.026155825851671567,-41.539175413422235,14.557941182683093,-138.00827026367188,5356.25390625,True
1599563792.4292307,0.0,10,0.5,0.5,11.216083451843264,-0.2,-0.0155,-0.2505,0.07753637430208993,10,1,100,-0.052311403133402365,-10,-1,-100,15022.271967879264,-0.00048649984053651305,0.008056821662368584,0.9999674249407358,25.047047366939466,0.025820005991512313,-40.250386799227044,14.186469174648895,-140.57290649414062,5356.25390625,True
1599563792.475107,0.0,10,0.5,0.5,10.640805376434328,-0.2,-0.0155,-0.2505,0.08879162233827222,10,1,100,0.008795781896941057,-10,-1,-100,15022.271967879264,-0.00048649984053651305,0.008056821662368584,0.9999674249407358,25.047047366939466,0.025820005991512313,-40.250386799227044,14.186469174648895,-140.57290649414062,5356.25390625,True
1599563792.5319538,0.0,10,0.5,0.5,11.730654070663451,-0.2,-0.0155,-0.2505,0.07985099342797158,10,1,100,-0.05314835000439379,-10,-1,-100,15022.856926498353,6.994374935793088e-05,0.007975389436935914,0.9999681936297781,24.87201477309435,0.02539108932916566,-38.92425860439939,13.815013145613577,-142.86123657226562,5356.25390625,True
1599563792.5798259,0.0,10,0.5,0.5,12.518491192245484,-0.2,-0.0155,-0.2505,0.0683176365751801,10,1,100,-0.08567249832448084,-10,-1,-100,15023.676259070518,0.0008657805637304513,0.007796711341131034,0.9999692303847546,24.606004676676235,0.024660287843246743,-36.95737695195713,13.257860078024391,-145.7774658203125,5356.25390625,True
1599563792.6366744,0.0,10,0.5,0.5,12.212097106552125,-0.2,-0.0155,-0.2505,0.07898097299266754,10,1,100,-0.03400105103016996,-10,-1,-100,15023.909657840617,0.0011134752743602297,0.007731623513335669,0.9999694906199196,24.522564906380214,0.024405574740173557,-36.316926777716645,13.072150463798042,-146.61172485351562,5356.25390625,True
1599563792.6825523,0.0,10,0.5,0.5,13.23840020828247,-0.2,-0.0155,-0.2505,0.0611163573210938,10,1,100,-0.10733992714136949,-10,-1,-100,15024.89598467364,0.0019998044742931755,0.007510581503123603,0.9999697955176193,24.18562680254749,0.02333463215142611,-33.78562482349868,12.329350544327573,-149.25868225097656,5356.25390625,True
1599563792.7304244,0.0,10,0.5,0.5,12.833493807601931,-0.2,-0.0155,-0.2505,0.07590104008606002,10,1,100,-0.041707742993530875,-10,-1,-100,15025.187976292451,0.002203589457064907,0.0074448079360329685,0.9999698590599121,24.10491491694216,0.023063296757055273,-33.16645969041501,12.143659496983812,-149.7482452392578,5356.25390625,True
1599563792.7792938,0.0,10,0.5,0.5,12.938688919067383,-0.2,-0.0155,-0.2505,0.07547350853684136,10,1,100,-0.04327687505360378,-10,-1,-100,15025.419422288076,0.0023976154943231194,0.007381954435802945,0.9999698786406764,24.026868668913536,0.02279344221015501,-32.55428201727152,11.957971841000742,-150.16880798339844,5356.25390625,True
1599563792.835144,0.0,10,0.5,0.5,13.310945546722413,-0.2,-0.0155,-0.2505,0.05934534293950737,10,1,100,-0.09904217638074879,-10,-1,-100,15026.343251568265,0.0030762648239910746,0.007179060822245022,0.999969498375047,23.753268552469198,0.02175310811431385,-30.187225273898203,11.21525082466494,-151.1609344482422,5356.25390625,True
1599563792.882018,0.0,10,0.5,0.5,13.129162649536134,-0.2,-0.0155,-0.2505,0.06862070926771449,10,1,100,-0.06351932903839158,-10,-1,-100,15026.741689741495,0.003365282155920805,0.007079968329860736,0.9999692739901858,23.64440491813408,0.02126795615583768,-29.055154262101677,10.843905676152174,-151.24334716796875,5356.25390625,True
1599563792.929891,0.0,10,0.5,0.5,13.100931375122071,-0.2,-0.0155,-0.2505,0.07442484037107462,10,1,100,-0.04930036839709283,-10,-1,-100,15026.974110946874,0.003494697348708877,0.007043639084480252,0.9999690866416264,23.59768663659799,0.021036276925530884,-28.50183438688596,10.658236215505518,-151.18096923828125,5356.25390625,True
1599563792.9777632,0.0,10,0.5,0.5,13.07382055053711,-0.2,-0.0155,-0.2505,0.07403894835795143,10,1,100,-0.05009885559508862,-10,-1,-100,15027.204581009108,0.003615987228325954,0.0070080254636313176,0.9999689056243027,23.555878571377736,0.020812122823840668,-27.956283342000997,10.472568672341849,-151.0496063232422,5356.25390625,True
1599563793.0306208,0.0,10,0.5,0.5,12.911553377532961,-0.2,-0.0155,-0.2505,0.06854255326474434,10,1,100,-0.06265266806294163,-10,-1,-100,15027.603019561502,0.003836646789441176,0.006926635667647438,0.9999686504384729,23.487313015994797,0.020388098757156612,-26.88761370729011,10.101238478606636,-150.580322265625,5356.25390625,True
1599563793.0774965,0.0,10,0.5,0.5,12.705384575653078,-0.2,-0.0155,-0.2505,0.06850559023296031,10,1,100,-0.06143809587488588,-10,-1,-100,15028.003410723177,0.004022780549618068,0.006853262328981591,0.9999684245175443,23.436945143742193,0.019997437117169677,-25.844682288357383,9.729913976231124,-149.83517456054688,5356.25390625,True
1599563793.1343436,0.0,10,0.5,0.5,12.438395406341554,-0.2,-0.0155,-0.2505,0.06840189017795857,10,1,100,-0.0598677739402642,-10,-1,-100,15028.338372193626,0.004174847404931512,0.006786474246978214,0.9999682567044019,23.401956545959884,0.019641514224938202,-24.8222032632519,9.358593841208261,-148.81422424316406,5356.25390625,True
1599563793.1762328,0.0,10,0.5,0.5,11.774690872192384,-0.2,-0.0155,-0.2505,0.0653874968066272,10,1,100,-0.06314845735734101,-10,-1,-100,15028.9038013916,0.004340131329798457,0.006699213459296092,0.9999681413920479,23.368573809045024,0.01917448728846484,-23.312879882229705,8.801620325402459,-146.76568603515625,5356.25390625,True
1599563793.2259552,0.0,10,0.5,0.5,11.914256041717529,-0.2,-0.0155,-0.2505,0.0709673486060377,10,1,100,-0.05107304899447039,-10,-1,-100,15029.071770576644,0.004378485433782761,0.006671349003255921,0.9999681604770139,23.359494799689593,0.019036687828596594,-22.812662464668254,8.615963943556,-145.94497680664062,5356.25390625,True
1599563793.2734926,0.0,10,0.5,0.5,10.81843118133545,-0.2,-0.0155,-0.2505,0.06522029188125981,10,1,100,-0.054682093195006276,-10,-1,-100,15029.576652090764,0.004444185115612711,0.006594474853842127,0.9999683805601356,23.32601611231825,0.018676651010756527,-21.308466930416955,8.058998669838918,-143.06924438476562,5356.25390625,True
1599563793.3333335,0.0,10,0.5,0.5,9.95284196548462,-0.2,-0.0155,-0.2505,0.0646481797575602,10,1,100,-0.047480585034846715,-10,-1,-100,15030.019034781493,0.004436583325255497,0.006520104134688645,0.9999689020016926,23.25804176917641,0.01839026278861221,-19.778972068400947,7.502038989057147,-139.57322692871094,5356.25390625,True
1599563793.3841958,0.0,10,0.5,0.5,9.605427657318117,-0.2,-0.0155,-0.2505,0.06673825325905898,10,1,100,-0.04353302891951631,-10,-1,-100,15030.291494120727,0.00439254907979024,0.006472094109733248,0.9999694082872816,23.175180971393985,0.018232171478606413,-18.73362680069867,7.130735360166035,-136.89796447753906,5356.25390625,True
1599563793.434063,0.0,10,0.5,0.5,8.923993858337404,-0.2,-0.0155,-0.2505,0.06562540917320966,10,1,100,-0.0399636138155132,-10,-1,-100,15030.566882935236,0.004319134840309188,0.006418884481011645,0.9999700710502543,23.047204251234533,0.01809006113413811,-17.6606068956809,6.759434004695337,-133.94712829589844,5356.25390625,True
1599563793.4804502,0.0,10,0.5,0.5,9.636465868377686,-0.2,-0.0155,-0.2505,0.07088389658502307,10,1,100,-0.04738748151277844,-10,-1,-100,15030.566882935236,0.004319134840309188,0.006418884481011645,0.9999700710502543,23.047204251234533,0.01809006113413811,-17.6606068956809,6.759434004695337,-133.94712829589844,5356.25390625,True
1599563793.5313432,0.0,10,0.5,0.5,6.578891345977785,-0.2,-0.0155,-0.2505,0.056855078163354764,10,1,100,-0.021941659550223182,-10,-1,-100,15031.109847298358,0.0040871699610023375,0.00629188535079886,0.9999718532141004,22.59494161775658,0.017794761778046193,-15.412739738803543,6.0168341048395275,-127.21890258789062,5356.25390625,True
1599563793.5794635,0.0,10,0.5,0.5,7.3927698143005385,-0.2,-0.0155,-0.2505,0.06532659779802436,10,1,100,-0.03673402604306218,-10,-1,-100,15031.214337259531,0.004010541108684136,0.006254022456663187,0.9999724010007113,22.429580986674406,0.017705760959902374,-14.828047487529489,5.831183819567707,-125.36466979980469,5356.25390625,True
1599563793.6353152,0.0,10,0.5,0.5,6.9529781051635755,-0.2,-0.0155,-0.2505,0.06462991677615264,10,1,100,-0.03526874522260888,-10,-1,-100,15031.319805021863,0.0039275689077006804,0.006213812943497667,0.9999729810005762,22.23853053096116,0.01760467904147195,-14.233850788557929,5.645532730958794,-123.44158935546875,5356.25390625,True
1599563793.6830218,0.0,10,0.5,0.5,5.5696253364562995,-0.2,-0.0155,-0.2505,0.05855909668315039,10,1,100,-0.02454248313163307,-10,-1,-100,15031.531716302037,0.003754852959158878,0.006122590168232156,0.9999742071518081,21.769704076673563,0.017351778980321142,-13.01765706612991,5.2742273059504665,-119.38885498046875,5356.25390625,True
1599563793.7378623,0.0,10,0.5,0.5,3.5711744331359867,-0.2,-0.0155,-0.2505,0.04933638706668229,10,1,100,-0.007514383902690856,-10,-1,-100,15031.845186009072,0.0034435696296492555,0.005956341760832949,0.9999763316304211,20.86680369553813,0.01683216086495564,-11.160415075210521,4.7172555213038745,-112.79345703125,5356.25390625,True
1599563793.8032103,0.0,10,0.5,0.5,4.119510993957519,-0.2,-0.0155,-0.2505,0.05883998717363122,10,1,100,-0.026132792463345333,-10,-1,-100,15031.948700497043,0.0033306929677411243,0.005892253216208136,0.9999770936558451,20.515704442278288,0.016615393491956842,-10.540868548695792,4.531592735084001,-110.45732879638672,5356.25390625,True
1599563793.855072,0.0,10,0.5,0.5,0.13436961784362778,-0.2,-0.0155,-0.2505,0.032127936330878584,10,1,100,0.015063140110859796,-10,-1,-100,15032.245567398728,0.002854581608193569,0.005591792460376585,0.999980291416247,18.933293367224355,0.015542439760072328,-8.133774208279693,3.7888977497930463,-100.42449188232422,5356.25390625,True
1599563793.9099236,0.0,10,0.5,0.5,1.3794542915344241,-0.2,-0.0155,-0.2505,0.0524600434958437,10,1,100,-0.01861040226176839,-10,-1,-100,15032.34907990077,0.0027293143953715585,0.005504327576278778,0.9999811264323264,18.423172531396872,0.015160260509388363,-7.5267943695397355,3.6032108704683337,-97.74422454833984,5356.25390625,True
1599563793.9667735,0.0,10,0.5,0.5,-0.5016276668548584,-0.2,-0.0155,-0.2505,0.04051955699449976,10,1,100,-0.0031565233862789477,-10,-1,-100,15032.433060078532,0.0024764573345602073,0.005317143955753513,0.9999827974216478,17.272665842631373,0.014254106738749293,-6.329465717766231,3.23181660361897,-92.2130355834961,5356.25390625,True
1599563794.0266116,0.0,10,0.5,0.5,-1.7262914588928224,-0.2,-0.0155,-0.2505,0.03643595445787496,10,1,100,-0.00019404986399011726,-10,-1,-100,15032.579539470724,0.0022213308631706704,0.005110854950875099,0.999984472304879,16.300485989788317,0.013447718447620537,-5.286792148436732,2.860398084686174,-86.56256103515625,5356.25390625,True
1599563794.076479,0.0,10,0.5,0.5,-1.6954290397644045,-0.2,-0.0155,-0.2505,0.044578645110538793,10,1,100,-0.011177439717314185,-10,-1,-100,15032.623483478674,0.0020911538005532544,0.0049985330701281545,0.9999853207637247,16.881693844604346,0.013910724573998405,-5.119829443074425,2.674681904386682,-83.65216064453125,5356.25390625,True
1599563794.1313334,0.0,10,0.5,0.5,-6.186853394317627,-0.2,-0.0155,-0.2505,0.002936583563593581,10,1,100,0.031068011308890607,-10,-1,-100,15032.791443928145,0.0015905760217177864,0.004519033848368404,0.9999885241346504,18.857964421741066,0.015471665185632479,-4.130813337594576,1.931806319593249,-72.2138671875,5356.25390625,True
1599563794.1812487,0.0,10,0.5,0.5,-3.4039446273803713,-0.2,-0.0155,-0.2505,0.05071300687873918,10,1,100,-0.01874777006595956,-10,-1,-100,15032.791443928145,0.0015905760217177864,0.004519033848368404,0.9999885241346504,18.857964421741066,0.015471665185632479,-4.130813337594576,1.931806319593249,-72.2138671875,5356.25390625,True
1599563794.2321162,0.0,10,0.5,0.5,-5.902227937316894,-0.2,-0.0155,-0.2505,0.020821256574736612,10,1,100,0.008763494063505628,-10,-1,-100,15032.874447743874,0.0013425981595280873,0.0042488313720548615,0.9999900723817982,19.5572554603568,0.016026192516662003,-3.4603479880225194,1.5603748275239715,-66.84454345703125,5356.25390625,True
1599563794.2799797,0.0,10,0.5,0.5,-9.106068531799316,-0.2,-0.0155,-0.2505,-0.014108476276006782,10,1,100,0.03560151398215126,-10,-1,-100,15032.980885679834,0.000875374699003974,0.0036873531483959535,0.9999928185471612,20.375068238536212,0.016678007989001816,-1.8888027874405686,0.8175077701707143,-56.927978515625,5356.25390625,True
1599563794.333843,0.0,10,0.5,0.5,-8.756020314025879,-0.2,-0.0155,-0.2505,0.010027139386276814,10,1,100,0.013417995558018307,-10,-1,-100,15033.001390330377,0.0006546291705020299,0.003398395804374467,0.99999401116537,20.518652461635806,0.01680227186402465,-1.0378728491117406,0.4460595257962421,-52.38311767578125,5356.25390625,True
1599563794.381679,0.0,10,0.5,0.5,-7.707547700881958,-0.2,-0.0155,-0.2505,0.03867348804724209,10,1,100,-0.008388950912452191,-10,-1,-100,15033.001390330377,0.0006546291705020299,0.003398395804374467,0.99999401116537,20.518652461635806,0.01680227186402465,-1.0378728491117406,0.4460595257962421,-52.38311767578125,5356.25390625,True
1599563794.432544,0.0,10,0.5,0.5,-11.504259832000733,-0.2,-0.0155,-0.2505,-0.0255902822807332,10,1,100,0.0381653205191748,-10,-1,-100,15032.9808768254,0.00023340847788514042,0.0028161737074437845,0.9999960073350953,20.450162899728106,0.016774827105042883,0.6884941301731,-0.2968836310641294,-44.120635986328125,5356.25390625,True
1599563794.4824333,0.0,10,0.5,0.5,-10.370492391586303,-0.2,-0.0155,-0.2505,0.015340034027991369,10,1,100,0.007147372681933117,-10,-1,-100,15032.960367420688,0.00013473092486060754,0.002661418452921419,0.9999964493433946,20.42871186797891,0.016766198670757102,1.1180853066045862,-0.4826283088961054,-42.22747802734375,5356.25390625,True
1599563794.5322766,0.0,10,0.5,0.5,-11.586435398864747,-0.2,-0.0155,-0.2505,-0.0014317152175062214,10,1,100,0.019047226824773607,-10,-1,-100,15032.918373151566,-6.102759154233628e-05,0.002370675706126411,0.9999971880822114,20.332204082511666,0.016706346101066496,1.9694097587365182,-0.8541264805129238,-38.647674560546875,5356.25390625,True
1599563794.5851657,0.0,10,0.5,0.5,-12.950086544799804,-0.2,-0.0155,-0.2505,-0.02113634147618493,10,1,100,0.030565565291892464,-10,-1,-100,15032.856847806135,-0.0003416271757418084,0.001929722224183641,0.9999980797296615,20.087213930495732,0.0165384549551898,3.215216465531246,-1.4113919731887528,-33.795013427734375,5356.25390625,True
1599563794.6459997,0.0,10,0.5,0.5,-12.478408473205569,-0.2,-0.0155,-0.2505,0.006970636158764105,10,1,100,0.012845571734710029,-10,-1,-100,15032.833409084356,-0.0004334152372430382,0.0017871632289587912,0.9999983090979829,19.994146329164174,0.01647474875594003,3.6215664457057755,-1.5971509197811258,-32.31524658203125,5356.25390625,True
1599563794.6948678,0.0,10,0.5,0.5,-13.40970957183838,-0.2,-0.0155,-0.2505,-0.009814638776641064,10,1,100,0.023843052656763467,-10,-1,-100,15032.729892284726,-0.0006149960367546776,0.0015074542526319803,0.9999986746798971,19.792539499377884,0.016339743385612074,4.419088528929634,-1.9686728992645226,-29.56243896484375,5356.25390625,True
1599563794.7477007,0.0,10,0.5,0.5,-14.413584239196778,-0.2,-0.0155,-0.2505,-0.027891238176340042,10,1,100,0.03479156046098741,-10,-1,-100,15032.605868962826,-0.0008775963144777742,0.0010915784428791946,0.999999019140125,19.468807980256223,0.0161384517899296,5.577506729044917,-2.5259629828981085,-25.95013427734375,5356.25390625,True
1599563794.7995648,0.0,10,0.5,0.5,-14.501821922302247,-0.2,-0.0155,-0.2505,-0.01557125937438534,10,1,100,0.02805749739951479,-10,-1,-100,15032.50040002563,-0.0010530867259635603,0.0008283795621482283,0.9999991023974214,19.255616010463328,0.016021836809912766,6.327982100726974,-2.897493625606191,-23.8863525390625,5356.25390625,True
1599563795.1875243,0.0,10,0.5,0.5,-14.036059117126465,-0.2,-0.0155,-0.2505,0.01046273134008652,10,1,100,0.010701302393432942,-10,-1,-100,15032.50040002563,-0.0010530867259635603,0.0008283795621482283,0.9999991023974214,19.255616010463328,0.016021836809912766,6.327982100726974,-2.897493625606191,-23.8863525390625,5356.25390625,True
1599563795.2319229,0.0,10,0.5,0.5,-14.885858055114747,-0.2,-0.0155,-0.2505,-0.01734963554325274,10,1,100,0.030460807741761253,-10,-1,-100,15032.39395446959,-0.001231166123769758,0.0005778762416108043,0.9999990751440848,19.06336431691721,0.01593547053712231,7.0683140210057696,-3.269028175799016,-22.098052978515625,5356.25390625,True
1599563795.2757156,0.0,10,0.5,0.5,-15.16623136291504,-0.2,-0.0155,-0.2505,-0.02011872950273005,10,1,100,0.031704151141897896,-10,-1,-100,15032.225986315985,-0.001402645247872751,0.00032753647745677395,0.9999989626525442,18.927252741455515,0.015908504561013618,7.815690180960136,-3.6405672746960516,-20.58551025390625,5356.25390625,True
1599563795.3201256,0.0,10,0.5,0.5,-14.823818855285646,-0.2,-0.0155,-0.2505,0.004666383189674286,10,1,100,0.014719844104174377,-10,-1,-100,15032.225986315985,-0.001402645247872751,0.00032753647745677395,0.9999989626525442,18.927252741455515,0.015908504561013618,7.815690180960136,-3.6405672746960516,-20.58551025390625,5356.25390625,True
1599563795.3669982,0.0,10,0.5,0.5,-15.847891981506347,-0.2,-0.0155,-0.2505,-0.045370321459162054,10,1,100,0.05427090466045251,-10,-1,-100,15031.89297980105,-0.001760802729136431,-0.00012522094482767947,0.9999984419455182,18.759918152439486,0.015978054988162408,9.328407321452355,-4.383662276711159,-18.38677978515625,5356.25390625,True
1599563795.4182954,0.0,10,0.5,0.5,-15.637504483032227,-0.2,-0.0155,-0.2505,-0.02462294270897161,10,1,100,0.037773154477092355,-10,-1,-100,15031.725988516235,-0.0019348756421295986,-0.00034593707040185664,0.9999980682900306,18.73367880622777,0.01607820542421404,10.105293598998266,-4.755219131504159,-17.700897216796875,5356.25390625,True
1599563795.4661672,0.0,10,0.5,0.5,-15.675659637451172,-0.2,-0.0155,-0.2505,-0.023346742869759934,10,1,100,0.041587844048914996,-10,-1,-100,15031.494544474524,-0.0021263543332614224,-0.0005329174957541065,0.9999975973052095,18.750696029878476,0.016226442593866974,10.905222294820414,-5.126782250420165,-17.290191650390625,5356.25390625,True
1599563795.5105574,0.0,10,0.5,0.5,-15.641985612487792,-0.2,-0.0155,-0.2505,-0.01537771615889705,10,1,100,0.032802275942854425,-10,-1,-100,15031.40958308219,-0.0022190180341479676,-0.000628344838953114,0.9999973405673275,18.77609092744823,0.016319378660286453,11.31594062473875,-5.3125659965237055,-17.188262939453125,5356.25390625,True
1599563795.5585852,0.0,10,0.5,0.5,-15.650535458374025,-0.2,-0.0155,-0.2505,-0.01595879525332846,10,1,100,0.034062662732875185,-10,-1,-100,15031.326576928026,-0.0023132576221382944,-0.000718437870818329,0.9999970663387965,18.813076930255082,0.016425316237525505,11.734987201803943,-5.498351153040784,-17.155181884765625,5356.25390625,True
1599563795.615433,0.0,10,0.5,0.5,-15.405265458679198,-0.2,-0.0155,-0.2505,-0.04210964481088551,10,1,100,0.0676094795731182,-10,-1,-100,15030.8041195377,-0.002702595890397473,-0.0010364301536611362,0.9999958108852206,19.078654236324077,0.01698403780016648,13.510362991775512,-6.2415039264399095,-17.71148681640625,5356.25390625,True
1599563795.6633084,0.0,10,0.5,0.5,-15.242739866638184,-0.2,-0.0155,-0.2505,-0.02551797965274858,10,1,100,0.05089475976161979,-10,-1,-100,15030.573652280378,-0.002903088218560892,-0.001172985445975344,0.9999950980799549,19.280482640175507,0.0173459629533228,14.46684409992544,-6.613085589021914,-18.40283203125,5356.25390625,True
1599563795.7091825,0.0,10,0.5,0.5,-15.424421299743653,-0.2,-0.0155,-0.2505,-0.012062586922140161,10,1,100,0.03103052709453765,-10,-1,-100,15030.573652280378,-0.002903088218560892,-0.001172985445975344,0.9999950980799549,19.280482640175507,0.0173459629533228,14.46684409992544,-6.613085589021914,-18.40283203125,5356.25390625,True
1599563795.76005,0.0,10,0.5,0.5,-14.994716885375977,-0.2,-0.0155,-0.2505,-0.023790305271430605,10,1,100,0.0542479121218291,-10,-1,-100,15030.281662323978,-0.0031126354259955495,-0.0012780093748892697,0.9999943390803482,19.525212200016625,0.017762426746810528,15.474488727531227,-6.984668568556145,-19.369384765625,5356.25390625,True
1599563795.8099468,0.0,10,0.5,0.5,-13.995476422119141,-0.2,-0.0155,-0.2505,-0.032970716074256994,10,1,100,0.07958612402251988,-10,-1,-100,15029.691822785651,-0.0035319257316895883,-0.0014554843667891274,0.9999927035063225,20.12586588668942,0.018748462915250622,17.649675581301466,-7.727831915073189,-22.12908935546875,5356.25390625,True
1599563795.8577478,0.0,10,0.5,0.5,-14.684389874267579,-0.2,-0.0155,-0.2505,-0.015401518968695805,10,1,100,0.037870021501497694,-10,-1,-100,15029.691822785651,-0.0035319257316895883,-0.0014554843667891274,0.9999927035063225,20.12586588668942,0.018748462915250622,17.649675581301466,-7.727831915073189,-22.12908935546875,5356.25390625,True
1599563795.906616,0.0,10,0.5,0.5,-13.870939361572265,-0.2,-0.0155,-0.2505,-0.021124083500336833,10,1,100,0.061623668604132945,-10,-1,-100,15029.399832776398,-0.0037462578662566786,-0.0015062983503295354,0.9999918482754144,20.47010125188347,0.019308139205370136,18.815879866672248,-8.099409113936838,-23.921875,5356.25390625,True
1599563795.960473,0.0,10,0.5,0.5,-13.378758729553224,-0.2,-0.0155,-0.2505,-0.018625682887118578,10,1,100,0.06393009569570808,-10,-1,-100,15029.04338970757,-0.0039604260692191464,-0.0015287252740825335,0.9999909889715941,20.833781834001936,0.01990097681413306,20.029997519708324,-8.47098062652871,-25.9898681640625,5356.25390625,True
1599563796.0073466,0.0,10,0.5,0.5,-11.647771759033203,-0.2,-0.0155,-0.2505,-0.016484406977330213,10,1,100,0.08952838432599805,-10,-1,-100,15028.329527176102,-0.004386168812427701,-0.0015287419621523388,0.9999892121773925,21.57841406038039,0.021125174565594276,22.56890502644074,-9.214098700510776,-30.95220947265625,5356.25390625,True
1599563796.059209,0.0,10,0.5,0.5,-11.565724034118652,-0.2,-0.0155,-0.2505,-0.012373428823590282,10,1,100,0.06988765637989508,-10,-1,-100,15027.911560908775,-0.00459268546058156,-0.0014905660616152542,0.9999883426585913,21.93504748893982,0.021714236004309655,23.86870449139972,-9.585641923348586,-33.846282958984375,5356.25390625,True
1599563796.1080258,0.0,10,0.5,0.5,-10.837098387145996,-0.2,-0.0155,-0.2505,-0.008543119574397066,10,1,100,0.07077869991821244,-10,-1,-100,15027.554141224478,-0.0047864560566711865,-0.0014203377695972417,0.9999875361618453,22.263448635567947,0.02225288312360639,25.16687945738063,-9.957172719467835,-37.015472412109375,5356.25390625,True
1599563796.1549368,0.0,10,0.5,0.5,-10.049275842285157,-0.2,-0.0155,-0.2505,-0.006018799163686021,10,1,100,0.07223914952897811,-10,-1,-100,15027.135198227596,-0.004973993540335741,-0.0013331964934690061,0.9999867408997835,22.547532053168844,0.02270816503616693,26.440994885622818,-10.328690783462648,-40.460052490234375,5356.25390625,True
1599563796.2038062,0.0,10,0.5,0.5,-9.202203895568848,-0.2,-0.0155,-0.2505,-0.002251465319433113,10,1,100,0.07266650693370785,-10,-1,-100,15026.71625486319,-0.005146484587963083,-0.001219583015634226,0.9999860130590096,22.769250920811487,0.023043760509950995,27.663513507118438,-10.700196108987498,-44.1798095703125,5356.25390625,True
1599563796.2636476,0.0,10,0.5,0.5,-10.094048728942871,-0.2,-0.0155,-0.2505,-0.013617472859877026,10,1,100,0.055641741807913814,-10,-1,-100,15026.71625486319,-0.005146484587963083,-0.001219583015634226,0.9999860130590096,22.769250920811487,0.023043760509950995,27.663513507118438,-10.700196108987498,-44.1798095703125,5356.25390625,True
1599563796.3111334,0.0,10,0.5,0.5,-8.255833522033692,-0.2,-0.0155,-0.2505,0.001229004518529038,10,1,100,0.07303477369413236,-10,-1,-100,15026.295358000207,-0.005302754105872372,-0.001084668154338948,0.9999853520396625,22.943404511801344,0.023257793896477866,28.845145486801428,-11.071689743714838,-48.174835205078125,5356.25390625,True
1599563796.3649929,0.0,10,0.5,0.5,-6.284048309326172,-0.2,-0.0155,-0.2505,0.01399323993431714,10,1,100,0.08005366670491712,-10,-1,-100,15025.604929974186,-0.005507015578275058,-0.0008463168823019402,0.9999844781431138,23.02514056158836,0.02323348325907269,30.408511317366322,-11.628913945467318,-54.68353271484375,5356.25390625,True
1599563796.4148552,0.0,10,0.5,0.5,-6.824628579711914,-0.2,-0.0155,-0.2505,-8.900820217858096e-06,10,1,100,0.06653791261373355,-10,-1,-100,15025.332470808877,-0.0055680417979516615,-0.0007574798850226942,0.9999842114427406,22.990950312762873,0.023118159027276167,30.84961078281506,-11.814653112924264,-56.99072265625,5356.25390625,True
1599563796.467715,0.0,10,0.5,0.5,-5.179524697875976,-0.2,-0.0155,-0.2505,0.011734892030560651,10,1,100,0.07138311595330384,-10,-1,-100,15024.849073359277,-0.0056659113153522175,-0.000570637969275672,0.9999837857791868,22.815277822054195,0.02271916847992864,31.57915435901281,-12.186132158855761,-61.81158447265625,5356.25390625,True
1599563796.5166154,0.0,10,0.5,0.5,-1.6158949890136722,-0.2,-0.0155,-0.2505,0.037595098232551985,10,1,100,0.07606795088244551,-10,-1,-100,15023.885207685991,-0.005795922571212072,-0.0001665598870373733,0.999983189628382,21.969979156290577,0.02127307643108062,32.269004655121336,-12.92911014915137,-72.27935791015625,5356.25390625,True
1599563796.5734322,0.0,10,0.5,0.5,-1.6300677215576174,-0.2,-0.0155,-0.2505,0.020397835299907893,10,1,100,0.06599085884668338,-10,-1,-100,15023.340286309016,-0.005821223100069752,4.3206722814211106e-05,0.999983055603843,21.340917577045253,0.020348157271515385,32.248828460458704,-13.300618280025663,-77.92630004882812,5356.25390625,True
1599563796.6238816,0.0,10,0.5,0.5,-2.9763027008056646,-0.2,-0.0155,-0.2505,-0.00042544840680760066,10,1,100,0.06358365972486414,-10,-1,-100,15023.340286309016,-0.005821223100069752,4.3206722814211106e-05,0.999983055603843,21.340917577045253,0.020348157271515385,32.248828460458704,-13.300618280025663,-77.92630004882812,5356.25390625,True
1599563796.6697598,0.0,10,0.5,0.5,-0.2448250152587892,-0.2,-0.0155,-0.2505,0.021927036545042557,10,1,100,0.06332140840635946,-10,-1,-100,15022.796340894885,-0.005817898299862075,0.00024508063647429303,0.9999830458537056,20.52796757864369,0.019319662087990512,31.890037962389954,-13.672143008372004,-83.8487548828125,5356.25390625,True
1599563796.716642,0.0,10,0.5,0.5,2.573580721282959,-0.2,-0.0155,-0.2505,0.035729905119267255,10,1,100,0.058576009052064615,-10,-1,-100,15021.9154800307,-0.005770968573943754,0.0005526482021764618,0.9999831951096394,18.9431496436885,0.01769600419359533,30.63238469075471,-14.229458632390692,-93.24881744384766,5356.25390625,True
1599563796.7665112,0.0,10,0.5,0.5,1.7685366855621338,-0.2,-0.0155,-0.2505,0.016168606859073942,10,1,100,0.06014588505939723,-10,-1,-100,15021.643019569921,-0.005742009074097413,0.0006528139766150299,0.9999833014434315,19.629886972796097,0.018379021471273745,32.15901296144668,-14.415227592097152,-96.51988220214844,5356.25390625,True
1599563796.8124232,0.0,10,0.5,0.5,4.0228122623443605,-0.2,-0.0155,-0.2505,0.02669870163435748,10,1,100,0.05497790554703721,-10,-1,-100,15021.037550208392,-0.005668159238228254,0.0008378997267960792,0.99998358481272,21.03855100789152,0.019906547470985175,35.35889409813688,-14.786741685335617,-103.16261291503906,5356.25390625,True
1599563796.8622518,0.0,10,0.5,0.5,5.395475561141968,-0.2,-0.0155,-0.2505,0.02723454243763529,10,1,100,0.052412057585781074,-10,-1,-100,15020.491651165532,-0.0055773649467609114,0.0010092829907348904,0.9999839370450383,22.249186046606937,0.0213788045134416,38.33715061674381,-15.158218861862007,-109.71408081054688,5356.25390625,True
1599563796.9220934,0.0,10,0.5,0.5,6.680180633163453,-0.2,-0.0155,-0.2505,0.028255399429542173,10,1,100,0.04906691059852575,-10,-1,-100,15019.822704594233,-0.005464350300662383,0.001172679567084748,0.9999843827272628,23.194190105823512,0.022656820036443426,40.94921383368525,-15.52965804300501,-116.0194091796875,5356.25390625,True
1599563796.9709618,0.0,10,0.5,0.5,10.505541430282594,-0.2,-0.0155,-0.2505,0.04128558683784151,10,1,100,0.031559140960063375,-10,-1,-100,15018.542428538902,-0.00520254243612978,0.0014379234679763328,0.9999854328580495,24.575733880619833,0.02461661994668609,45.473307965798966,-16.272436139763776,-127.81375122070312,5356.25390625,True
1599563797.0218594,0.0,10,0.5,0.5,7.653362107467652,-0.2,-0.0155,-0.2505,0.014962052892408217,10,1,100,0.05769359052540141,-10,-1,-100,15018.542428538902,-0.00520254243612978,0.0014379234679763328,0.9999854328580495,24.575733880619833,0.02461661994668609,45.473307965798966,-16.272436139763776,-127.81375122070312,5356.25390625,True
1599563797.0737212,0.0,10,0.5,0.5,10.210123858261108,-0.2,-0.0155,-0.2505,0.026627729857816355,10,1,100,0.04162844702305178,-10,-1,-100,15017.931098723318,-0.005057035113503949,0.0015425164555209398,0.9999860234217502,24.97791167420913,0.02515525782409977,47.277260080036115,-16.643786830784837,-133.29806518554688,5356.25390625,True
1599563797.1231046,0.0,10,0.5,0.5,12.395411855697631,-0.2,-0.0155,-0.2505,0.029466088178411114,10,1,100,0.0315018961887016,-10,-1,-100,15016.864689311595,-0.0048333908926105245,0.0016620412382644379,0.9999869378903914,25.24276826504799,0.025367274812626697,49.38559518875081,-17.20078692002159,-141.00790405273438,5356.25390625,True
1599563797.171976,0.0,10,0.5,0.5,13.75585518913269,-0.2,-0.0155,-0.2505,0.02587305606318418,10,1,100,0.028358260025915644,-10,-1,-100,15015.858828139491,-0.00460239748323432,0.0017365645356060546,0.9999879010673178,25.201510341210135,0.02498640097690799,50.91006906824764,-17.757776334215265,-148.09776306152344,5356.25390625,True
1599563797.2218394,0.0,10,0.5,0.5,14.053537923049928,-0.2,-0.0155,-0.2505,0.021704069853676643,10,1,100,0.03484000837192146,-10,-1,-100,15015.124451422831,-0.004452433460416576,0.0017650572186491543,0.9999885301388688,25.080696592811663,0.024518141257526046,51.73154218731731,-18.129104178974355,-152.47979736328125,5356.25390625,True
1599563797.2757304,0.0,10,0.5,0.5,13.988151712799072,-0.2,-0.0155,-0.2505,0.019838314687039303,10,1,100,0.041496510406966884,-10,-1,-100,15014.72405899642,-0.004377814853731337,0.0017728960571584758,0.9999888457261296,24.987030121317858,0.024226447484452476,52.069296723222166,-18.314769770989187,-154.56748962402344,5356.25390625,True
1599563797.3235686,0.0,10,0.5,0.5,14.464606842803956,-0.2,-0.0155,-0.2505,0.01961236963332075,10,1,100,0.040702295767637155,-10,-1,-100,15014.39007442852,-0.00430399980022391,0.001776949971605378,0.999989158958495,24.875056955826388,0.023906201105328154,52.364654840786,-18.50043685705939,-156.58624267578125,5356.25390625,True
1599563797.373434,0.0,10,0.5,0.5,17.369143914794922,-0.2,-0.0155,-0.2505,0.016199998740706417,10,1,100,0.016580659271760154,-10,-1,-100,15012.861751099234,-0.004018847746561916,0.0017487601127653323,0.9999903953043038,24.293899147594185,0.02247300473225777,53.20785121515608,-19.24312245071703,-163.97232055664062,5356.25390625,True
1599563797.424334,0.0,10,0.5,0.5,17.08049240112305,-0.2,-0.0155,-0.2505,0.014828083582506736,10,1,100,0.030213557178545215,-10,-1,-100,15012.061944356421,-0.0038849708762037855,0.0017099887604525386,0.9999909914292878,23.955730742123063,0.021747261611881535,53.486852991452544,-19.614475458028167,-167.25192260742188,5356.25390625,True
1599563797.4721715,0.0,10,0.5,0.5,16.33836248321533,-0.2,-0.0155,-0.2505,0.018758949733122882,10,1,100,0.04344330627191244,-10,-1,-100,15012.061944356421,-0.0038849708762037855,0.0017099887604525386,0.9999909914292878,23.955730742123063,0.021747261611881535,53.486852991452544,-19.614475458028167,-167.25192260742188,5356.25390625,True
1599563797.5180485,0.0,10,0.5,0.5,17.752717044067385,-0.2,-0.0155,-0.2505,0.01391482307801584,10,1,100,0.029297086417546664,-10,-1,-100,15011.265068381326,-0.0037575666698549384,0.0016657039133220416,0.9999915530259217,23.607218772300314,0.021065003486144304,53.714007169709646,-19.98583419539473,-170.25575256347656,5356.25390625,True
1599563797.583873,0.0,10,0.5,0.5,19.40007625808716,-0.2,-0.0155,-0.2505,0.0024930656831484987,10,1,100,0.015839334551142226,-10,-1,-100,15009.609792124946,-0.0035207150796307415,0.0015214037301179361,0.9999926449209604,22.934420513882483,0.019928389209855523,54.13777689159151,-20.72856212979688,-175.43673706054688,5356.25390625,True
1599563797.6387622,0.0,10,0.5,0.5,18.167554582977296,-0.2,-0.0155,-0.2505,0.01692097273101875,10,1,100,0.039370861570174595,-10,-1,-100,15009.609792124946,-0.0035207150796307415,0.0015214037301179361,0.9999926449209604,22.934420513882483,0.019928389209855523,54.13777689159151,-20.72856212979688,-175.43673706054688,5356.25390625,True
1599563797.6806505,0.0,10,0.5,0.5,20.05815583114624,-0.2,-0.0155,-0.2505,-0.00299511751189397,10,1,100,0.01580978236230257,-10,-1,-100,15007.952562796301,-0.003307716792116432,0.0013404762165534082,0.9999936310462862,22.35910983231493,0.019174333592330773,54.68690772426177,-21.471292759138827,-179.51495361328125,5356.25390625,True
1599563797.7334754,0.0,10,0.5,0.5,19.085259230041505,-0.2,-0.0155,-0.2505,0.015058025012653556,10,1,100,0.03698014304462173,-10,-1,-100,15007.952562796301,-0.003307716792116432,0.0013404762165534082,0.9999936310462862,22.35910983231493,0.019174333592330773,54.68690772426177,-21.471292759138827,-179.51495361328125,5356.25390625,True
1599563797.7823415,0.0,10,0.5,0.5,-142.3204438217163,-0.2,-0.0155,-0.2505,0.0028992547782348953,10,1,100,0.026348329432175424,-10,-1,-100,15007.09416311013,-0.0032121045926108292,0.0012303279244242347,0.9999940843211446,22.223035936560862,0.01903132391310043,55.302440774998026,-21.842654023646464,178.85931396484375,5356.25390625,True
1599563797.8411849,0.0,10,0.5,0.5,-52.19877914047241,-0.2,-0.0155,-0.2505,-0.005452203160166119,10,1,100,0.020614307857486056,-10,-1,-100,15005.770918541006,-0.0030741166789823057,0.0010547640122601897,0.9999947186258148,22.835808535979552,0.019622081350924803,58.28978047610837,-22.39966941514183,176.9376220703125,5356.25390625,True
1599563797.8900542,0.0,10,0.5,0.5,-52.48403492355347,-0.2,-0.0155,-0.2505,-0.009909237118542007,10,1,100,0.02055588448164821,-10,-1,-100,15004.388105309452,-0.0029492600751044326,0.0008552984979070456,0.9999952851536296,23.339231772620476,0.0202168569172577,61.070332242825735,-22.9566504568327,175.354736328125,5356.25390625,True
1599563797.9389598,0.0,10,0.5,0.5,-53.40650474014282,-0.2,-0.0155,-0.2505,0.009947968155286584,10,1,100,0.03293458610228977,-10,-1,-100,15004.388105309452,-0.0029492600751044326,0.0008552984979070456,0.9999952851536296,23.339231772620476,0.0202168569172577,61.070332242825735,-22.9566504568327,175.354736328125,5356.25390625,True
1599563797.987793,0.0,10,0.5,0.5,-53.34621569290161,-0.2,-0.0155,-0.2505,-0.005830414520361602,10,1,100,0.02414388353082758,-10,-1,-100,15003.466229734942,-0.0028701952433648668,0.0007126356465489216,0.9999956270552888,23.688796533214184,0.020678374454549737,62.99745028551007,-23.327951760109908,174.04212951660156,5356.25390625,True
1599563798.0436435,0.0,10,0.5,0.5,-53.08899111175538,-0.2,-0.0155,-0.2505,-0.017299676599195197,10,1,100,0.019903851313612067,-10,-1,-100,15002.018962187925,-0.002760694899474974,0.0004795828110647795,0.9999960742742942,24.277352617106622,0.021526207217264382,66.11973921913263,-23.8848713969196,171.5670166015625,5356.25390625,True
1599563798.0895557,0.0,10,0.5,0.5,-53.80522868881226,-0.2,-0.0155,-0.2505,-0.00321995597867165,10,1,100,0.02719411226362451,-10,-1,-100,15001.559978046105,-0.0027283304789118934,0.00039679234908600737,0.9999961993770923,24.489138157254125,0.02185289821618603,67.22028540431873,-24.07050188466041,170.60452270507812,5356.25390625,True
1599563798.141461,0.0,10,0.5,0.5,-52.53786345443726,-0.2,-0.0155,-0.2505,-0.03335966306927494,10,1,100,0.015456630729772462,-10,-1,-100,14999.588297159062,-0.002592924250456546,4.855332953712269e-05,0.9999966371875485,25.427435638163274,0.023409294851725382,71.97195297509377,-24.812970637732917,166.06549072265625,5356.25390625,True
1599563798.1902926,0.0,10,0.5,0.5,-53.61537159500123,-0.2,-0.0155,-0.2505,-0.008999684846624462,10,1,100,0.025752715276754132,-10,-1,-100,14999.062905598315,-0.0025642718939507675,-4.52342949372401e-05,0.9999967112263481,25.694029077655248,0.02387014678511979,73.27648360869081,-24.998572952844935,164.75839233398438,5356.25390625,True
1599563798.2471502,0.0,10,0.5,0.5,-52.52361976242066,-0.2,-0.0155,-0.2505,-0.03191253189600239,10,1,100,0.018628885084639196,-10,-1,-100,14997.554117153632,-0.0024741380634700745,-0.00033753464444328683,0.9999968823507436,26.50171884100165,0.025351146110066572,77.28205140028669,-25.55534039730024,160.42364501953125,5356.25390625,True
1599563798.3079872,0.0,10,0.5,0.5,-52.679265358734135,-0.2,-0.0155,-0.2505,-0.02557840722955028,10,1,100,0.021870379651828274,-10,-1,-100,14996.506265622447,-0.002422424148851751,-0.0005441538189710404,0.9999969178741824,27.047253129315923,0.026403998310683956,80.03133293833584,-25.926484363055582,157.189208984375,5356.25390625,True
1599563798.3558571,0.0,10,0.5,0.5,-52.680781157684336,-0.2,-0.0155,-0.2505,-0.016925153359569768,10,1,100,0.023601353431231886,-10,-1,-100,14995.980873881723,-0.0023918655157785435,-0.0006517103226842706,0.9999969271217837,27.33536252465395,0.026955537188073076,81.46931017081734,-26.112045270369666,155.4686279296875,5356.25390625,True
1599563798.412704,0.0,10,0.5,0.5,-51.43514989242554,-0.2,-0.0155,-0.2505,-0.030702472944509097,10,1,100,0.020166950392922253,-10,-1,-100,14994.933999033528,-0.002333483322784816,-0.0008731859819821606,0.9999968961960948,27.89024961307197,0.028039807477871454,84.31796202352322,-26.48314480236996,151.82077026367188,5356.25390625,True
1599563798.475537,0.0,10,0.5,0.5,-50.5449409980774,-0.2,-0.0155,-0.2505,-0.034178472856035244,10,1,100,0.02011449643059415,-10,-1,-100,14993.884194788174,-0.002280491544726008,-0.001104556140103308,0.9999967896518708,28.401890068093575,0.029053470708233217,87.08177303434944,-26.854215094242107,147.89730834960938,5356.25390625,True
1599563798.5279145,0.0,10,0.5,0.5,-49.59354363632202,-0.2,-0.0155,-0.2505,-0.03789624144464998,10,1,100,0.019353596433175475,-10,-1,-100,14992.77482034848,-0.0022260078997236297,-0.0013469088577117486,0.9999966153569518,28.85155910713204,0.02993595552708065,89.69699097657902,-27.22525794187661,143.69827270507812,5356.25390625,True
1599563798.5797706,0.0,10,0.5,0.5,-47.528127998352055,-0.2,-0.0155,-0.2505,-0.056390834427363104,10,1,100,0.015872589201697526,-10,-1,-100,14991.138103173114,-0.0021454174179295236,-0.0017334898603765768,0.9999961960912686,29.365236381344513,0.030873239601577625,93.18227264738839,-27.78177720566493,136.88308715820312,5356.25390625,True
1599563798.6341758,0.0,10,0.5,0.5,-46.97960328216553,-0.2,-0.0155,-0.2505,-0.048110769735386014,10,1,100,0.018147907082940413,-10,-1,-100,14990.026776476181,-0.0020933973947475856,-0.002007641935898046,0.9999957935217552,29.56867841537652,0.03115298356036629,95.09590103109139,-28.152766921630207,131.99525451660156,5356.25390625,True
1599563798.6820126,0.0,10,0.5,0.5,-48.14416099319458,-0.2,-0.0155,-0.2505,-0.020936005611737515,10,1,100,0.023286416092717782,-10,-1,-100,14990.026776476181,-0.0020933973947475856,-0.002007641935898046,0.9999957935217552,29.56867841537652,0.03115298356036629,95.09590103109139,-28.152766921630207,131.99525451660156,5356.25390625,True
1599563798.7393718,0.0,10,0.5,0.5,-43.315073257446294,-0.2,-0.0155,-0.2505,-0.08729952303929922,10,1,100,0.011477804019680533,-10,-1,-100,14987.740646885708,-0.0019865004912251643,-0.0026090773713618475,0.9999946232510796,29.540811728820497,0.030704111157940757,97.54174075474504,-28.894720499979357,121.39308166503906,5356.25390625,True
1599563799.1797109,0.0,10,0.5,0.5,-44.63210568313598,-0.2,-0.0155,-0.2505,-0.044656386117724434,10,1,100,0.019797577535012954,-10,-1,-100,14987.155685722944,-0.0019654810394375537,-0.0027658412106087832,0.999994243486772,29.426869785298962,0.030374957153746274,97.79741008998501,-29.080209224065232,118.57044982910156,5356.25390625,True
1599563799.2275836,0.0,10,0.5,0.5,-43.97169786834717,-0.2,-0.0155,-0.2505,-0.04690497445069959,10,1,100,0.01957570355605386,-10,-1,-100,14986.566820537206,-0.0019448178262074002,-0.0029265879524365303,0.999993826364233,29.265024672634773,0.029965139717173985,97.88818769617966,-29.265700207268036,115.67898559570312,5356.25390625,True
1599563799.272463,0.0,10,0.5,0.5,-41.93333631591797,-0.2,-0.0155,-0.2505,-0.06910269913003836,10,1,100,0.01675268711615615,-10,-1,-100,14985.392995150294,-0.001900803488656049,-0.003272353001970775,0.9999928393003262,28.78734592028005,0.028932040366009125,97.52794997311067,-29.636692878491584,109.68934631347656,5356.25390625,True
1599563799.3263197,0.0,10,0.5,0.5,-37.59415449142457,-0.2,-0.0155,-0.2505,-0.11513550246711937,10,1,100,0.015551683406002142,-10,-1,-100,14982.982845351333,-0.0018503186589962591,-0.00400278249308511,0.999990276979318,27.15675009632853,0.02631794131146761,94.34169423994318,-30.37874588129426,96.8843994140625,5356.25390625,True
1599563799.4090984,0.0,10,0.5,0.5,-37.64622937393189,-0.2,-0.0155,-0.2505,-0.08670091358944759,10,1,100,0.019472091801859468,-10,-1,-100,14981.747498188866,-0.001840502676234961,-0.0044054679529273956,0.9999886021360515,25.978905354979396,0.024941812135628797,91.3695943154112,-30.749815550916008,90.06883239746094,5356.25390625,True
1599563799.478914,0.0,10,0.5,0.5,-36.06935648956299,-0.2,-0.0155,-0.2505,-0.09534544123677503,10,1,100,0.021196637283774654,-10,-1,-100,14980.50726886047,-0.001847656731622547,-0.004847131429748065,0.9999865456502426,26.369938722730815,0.025371874874844103,93.88207969656854,-31.12088719798703,82.97773742675781,5356.25390625,True
1599563799.5427406,0.0,10,0.5,0.5,-34.43306717453003,-0.2,-0.0155,-0.2505,-0.10162596973805473,10,1,100,0.023424862018686373,-10,-1,-100,14979.270947141806,-0.0018747609624450965,-0.005302557374531182,0.999984183953238,27.85866506072399,0.027129734888215507,100.38392692839619,-31.49190378160378,75.61149597167969,5356.25390625,True
1599563799.598593,0.0,10,0.5,0.5,-34.47754937896728,-0.2,-0.0155,-0.2505,-0.08308451517699675,10,1,100,0.02319880362488734,-10,-1,-100,14978.621535736835,-0.0018975921472996816,-0.005544777676038804,0.9999828271448294,28.52802373323925,0.02801201362600144,103.41114025355121,-31.677390342352137,71.82505798339844,5356.25390625,True
1599563799.6514492,0.0,10,0.5,0.5,-31.828221922302248,-0.2,-0.0155,-0.2505,-0.11473938119698879,10,1,100,0.028301411545872998,-10,-1,-100,14977.320762835094,-0.0019649131194013993,-0.006049533881463714,0.9999797709235173,29.68503095207944,0.02966455276992511,108.88555796108292,-32.04832090495193,64.0457763671875,5356.25390625,True
1599563799.7043083,0.0,10,0.5,0.5,-28.18236511306763,-0.2,-0.0155,-0.2505,-0.15233112026631473,10,1,100,0.039047073906746645,-10,-1,-100,14975.37155920139,-0.002123918646661218,-0.006846471794347899,0.9999743070667122,30.99860334094372,0.031578465944010405,115.70906823944516,-32.60462349357104,51.860992431640625,5356.25390625,True
1599563799.7721274,0.0,10,0.5,0.5,-27.31247677307129,-0.2,-0.0155,-0.2505,-0.13497023075123676,10,1,100,0.041027638960497444,-10,-1,-100,14974.07078954205,-0.0022863493372447547,-0.007409282360993735,0.9999699371189131,31.51760727994691,0.03217370905574773,119.00577699695927,-32.975446054983685,43.393951416015625,5356.25390625,True
1599563799.8244982,0.0,10,0.5,0.5,-27.363304671478275,-0.2,-0.0155,-0.2505,-0.11099564523128647,10,1,100,0.036311389849556244,-10,-1,-100,14973.420404495671,-0.002390846911041407,-0.00769875624308096,0.9999675059737481,31.629046851152737,0.03218912517002456,120.10889113532149,-33.16085061257846,39.057342529296875,5356.25390625,True
1599563799.878354,0.0,10,0.5,0.5,-22.284348207855228,-0.2,-0.0155,-0.2505,-0.1790946711653045,10,1,100,0.06839205973391668,-10,-1,-100,14971.407731075771,-0.002777081677909973,-0.008576658036841652,0.9999593635514761,31.313264732768133,0.03110013056065726,120.93804903119171,-33.71707056938642,25.63555908203125,5356.25390625,True
1599563799.9317248,0.0,10,0.5,0.5,-21.330619052124025,-0.2,-0.0155,-0.2505,-0.1567914475820605,10,1,100,0.06533184476961461,-10,-1,-100,14970.047396110138,-0.003099587440670238,-0.009167171903108362,0.9999531766622859,30.524216417635145,0.029600885602321457,119.2107366420085,-34.08791544126228,16.34454345703125,5356.25390625,True
1599563799.9815881,0.0,10,0.5,0.5,-19.22407934875488,-0.2,-0.0155,-0.2505,-0.16177754325852994,10,1,100,0.07886124668493437,-10,-1,-100,14968.682179584284,-0.003514633361699137,-0.009744635933673255,0.9999463432719042,29.25386552337001,0.027771599994217713,115.51640997779805,-34.45880516327065,6.779388427734375,5356.25390625,True
1599563800.0404658,0.0,10,0.5,0.5,-17.058504895782473,-0.2,-0.0155,-0.2505,-0.16576804572511072,10,1,100,0.08876940503858378,-10,-1,-100,14967.256417887285,-0.003980500065226345,-0.010301026740264122,0.9999390203744062,27.646381116500233,0.02602033266423186,110.3675328140236,-34.82974566955325,-3.059783935546875,5356.25390625,True
1599563800.0878487,0.0,10,0.5,0.5,-19.389859414672852,-0.2,-0.0155,-0.2505,-0.11067435459707559,10,1,100,0.042396019019223366,-10,-1,-100,14967.256417887285,-0.003980500065226345,-0.010301026740264122,0.9999390203744062,27.646381116500233,0.02602033266423186,110.3675328140236,-34.82974566955325,-3.059783935546875,5356.25390625,True
1599563800.1367161,0.0,10,0.5,0.5,-10.033040131378172,-0.2,-0.0155,-0.2505,-0.2194283035400566,10,1,100,0.16756673488445076,-10,-1,-100,14964.467397915549,-0.0051165013557258835,-0.011285154940322374,0.9999232303991391,31.370217894006977,0.030296032063391,127.9547543706453,-35.5714556630672,-23.5589599609375,5356.25390625,True
1599563800.1865826,0.0,10,0.5,0.5,-10.217893099975587,-0.2,-0.0155,-0.2505,-0.16958308350074788,10,1,100,0.12470228531634285,-10,-1,-100,14963.040662161773,-0.005756626706280459,-0.011721460051595902,0.999914730676183,32.48692925014457,0.031877258765210935,133.91789859807182,-35.94220241344724,-34.218994140625,5356.25390625,True
1599563800.2394762,0.0,10,0.5,0.5,-7.811052188110352,-0.2,-0.0155,-0.2505,-0.15981188203323365,10,1,100,0.13632416254182567,-10,-1,-100,14961.553379397374,-0.006440765260119118,-0.012024115661076133,0.9999069642648925,33.17037894458586,0.032734533751467385,138.17270620996138,-36.31289933804685,-45.1510009765625,5356.25390625,True
1599563800.286316,0.0,10,0.5,0.5,-5.351139881896971,-0.2,-0.0155,-0.2505,-0.15894699626989114,10,1,100,0.14527590385719708,-10,-1,-100,14960.126642364077,-0.007140164460463587,-0.012286687577421658,0.9998990225817066,33.22553969588004,0.03249617243518014,139.842881478408,-36.68357669329393,-56.356353759765625,5356.25390625,True
1599563800.3351893,0.0,10,0.5,0.5,-8.003467781066895,-0.2,-0.0155,-0.2505,-0.13317754515698144,10,1,100,0.07582136533507212,-10,-1,-100,14960.126642364077,-0.007140164460463587,-0.012286687577421658,0.9998990225817066,33.22553969588004,0.03249617243518014,139.842881478408,-36.68357669329393,-56.356353759765625,5356.25390625,True
1599563800.3966572,0.0,10,0.5,0.5,2.608718507385254,-0.2,-0.0155,-0.2505,-0.16130663130081663,10,1,100,0.2290197449527227,-10,-1,-100,14957.15011699195,-0.008528559441033663,-0.012538235695698032,0.9998850215497279,31.15950686130172,0.029066017758593337,133.8541772276975,-37.42502026140327,-79.58453369140625,5356.25390625,True
1599563800.4485168,0.0,10,0.5,0.5,-3.0468494216918947,-0.2,-0.0155,-0.2505,-0.1365479772390649,10,1,100,0.09075539467202745,-10,-1,-100,14957.15011699195,-0.008528559441033663,-0.012538235695698032,0.9998850215497279,31.15950686130172,0.029066017758593337,133.8541772276975,-37.42502026140327,-79.58453369140625,5356.25390625,True
1599563800.4969056,0.0,10,0.5,0.5,2.5182651969909666,-0.2,-0.0155,-0.2505,-0.13919960640124898,10,1,100,0.16673441832095287,-10,-1,-100,14955.597399067017,-0.009214342408750836,-0.012559276811906443,0.9998786728698317,29.122786379856414,0.026780537833426363,126.37297412198835,-37.7958396647524,-91.60767364501953,5356.25390625,True
1599563800.5487657,0.0,10,0.5,0.5,7.777248598861695,-0.2,-0.0155,-0.2505,-0.12733957695565923,10,1,100,0.19631558930169257,-10,-1,-100,14953.334722455707,-0.010101519652821307,-0.012468027885428515,0.9998712455018155,32.13294376752407,0.02998950816942285,141.5348917696801,-38.35198044170529,-109.6282730102539,5356.25390625,True
