Timestamp,Input Throttle,horizon,dT,dt,Input Roll,Roll P,Roll I,Roll D,Input Pitch,Pitch P,Pitch I,Pitch D,Input Yaw,Yaw P,Yaw I,Yaw D,Altitude,Direction X,Direction Y,Direction Z,Drag X,Drag Y,Drag Z,Vertical Velocity,Roll,Mass,Has Fuel
1599558622.0208905,0.0,10,0.5,0.5,-0.05835298156738281,-0.001,-0.00825,-0.2505,-0.0005243912580264299,10,1,100,0.17113698261562738,-10,-1,-100,14993.427524837665,-0.01677682957059058,-7.702027097145136e-05,0.9998592561242994,28.717135780300886,0.027109190503510277,-88.32794761030004,27.194949808867932,-31.792266845703125,5356.25390625,True
1599558622.0569832,0.0,10,0.5,0.5,-0.10652844467163086,-0.001,-0.00825,-0.2505,-0.0002838535652894275,10,1,100,0.17721183078529198,-10,-1,-100,14994.460730808787,-0.016847428226248098,-7.252889668488563e-05,0.9998580693787096,28.571789750661587,0.02743949721159301,-86.6821367686197,26.82301080293195,-31.79107666015625,5356.25390625,True
1599558622.0749352,0.0,10,0.5,0.5,-0.15425266494750978,-0.001,-0.00825,-0.2505,-0.00074024388361449,10,1,100,0.17183670804216486,-10,-1,-100,14994.460730808787,-0.016847428226248098,-7.252889668488563e-05,0.9998580693787096,28.571789750661587,0.02743949721159301,-86.6821367686197,26.82301080293195,-31.79107666015625,5356.25390625,True
1599558622.1220627,0.0,10,0.5,0.5,-0.2020984977722168,-0.001,-0.00825,-0.2505,0.0033944525483481478,10,1,100,0.17953580168124805,-10,-1,-100,14995.548624437302,-0.016902104142761356,-3.4874811942784476e-05,0.9998571486263899,28.42662846919025,0.02776384787517281,-85.04907811449654,26.451087583657145,-31.791778564453125,5356.25390625,True
1599558622.1547356,0.0,10,0.5,0.5,-0.23978879852294924,-0.001,-0.00825,-0.2505,0.012989316160929413,10,1,100,0.18112028418470982,-10,-1,-100,14997.119916369556,-0.016950848358584188,8.66139114025397e-05,0.9998563202970487,28.21382289712332,0.028242560188515356,-82.63678436579201,25.893232030598384,-31.83355712890625,5356.25390625,True
1599558622.1907096,0.0,10,0.5,0.5,-0.2792072204589844,-0.001,-0.00825,-0.2505,0.015543965106802655,10,1,100,0.1784011735688562,-10,-1,-100,14998.135541428928,-0.01695503223249847,0.00022020354675949793,0.9998562288611264,28.077701476957934,0.02855745935961643,-81.0600589775691,25.52134760642692,-31.90924072265625,5356.25390625,True
1599558622.222073,0.0,10,0.5,0.5,-0.346090837097168,-0.001,-0.00825,-0.2505,0.0022070219257827824,10,1,100,0.1796782894006778,-10,-1,-100,14998.135541428928,-0.01695503223249847,0.00022020354675949793,0.9998562288611264,28.077701476957934,0.02855745935961643,-81.0600589775691,25.52134760642692,-31.90924072265625,5356.25390625,True
1599558622.2555597,0.0,10,0.5,0.5,-0.3375111053466797,-0.001,-0.00825,-0.2505,0.03479636003944975,10,1,100,0.17517431109595427,-10,-1,-100,14999.635539360112,-0.016898673309516894,0.0005162700718412344,0.999857073938866,27.88504268836785,0.0290229931164062,-78.74890865912202,24.963549031250054,-32.1339111328125,5356.25390625,True
1599558622.2889156,0.0,10,0.5,0.5,-0.44153056640625,-0.001,-0.00825,-0.2505,0.005241334538460221,10,1,100,0.18250007072506355,-10,-1,-100,14999.635539360112,-0.016898673309516894,0.0005162700718412344,0.999857073938866,27.88504268836785,0.0290229931164062,-78.74890865912202,24.963549031250054,-32.1339111328125,5356.25390625,True
1599558622.3248916,0.0,10,0.5,0.5,-0.4283138824462891,-0.001,-0.00825,-0.2505,0.03423125137621956,10,1,100,0.17583000876770544,-10,-1,-100,15000.637489402085,-0.01682267395235044,0.0007793454339373728,0.9998581850751573,27.765506658426116,0.02932765817374573,-77.24636008262615,24.59170146474096,-32.37628173828125,5356.25390625,True
1599558622.356127,0.0,10,0.5,0.5,-0.45312282867431647,-0.001,-0.00825,-0.2505,0.04180212127075765,10,1,100,0.17199715176373284,-10,-1,-100,15001.602328960667,-0.016703446133115415,0.0010866224481260835,0.9998598972550771,27.653803396029783,0.02962623423578422,-75.77528018777824,24.21986831855816,-32.70806884765625,5356.25390625,True
1599558622.3888924,0.0,10,0.5,0.5,-0.4253105598449707,-0.001,-0.00825,-0.2505,0.05152692551679529,10,1,100,0.167925314834023,-10,-1,-100,15002.550565634272,-0.016558107219393006,0.0014533146426078923,0.9998618489380724,27.55022785513749,0.02991666140285746,-74.33547337907456,23.848048826724856,-33.1461181640625,5356.25390625,True
1599558622.421854,0.0,10,0.5,0.5,-0.31326284103393554,-0.001,-0.00825,-0.2505,0.0838336816207255,10,1,100,0.14902484622522572,-10,-1,-100,15003.964618416736,-0.0162544215113898,0.002078981835318636,0.9998657267932822,27.41051322911808,0.030331047539334438,-72.23322685998643,23.29034472616766,-34.02349853515625,5356.25390625,True
1599558622.457992,0.0,10,0.5,0.5,-0.5312048759460449,-0.001,-0.00825,-0.2505,0.02148211342285148,10,1,100,0.1793341163540605,-10,-1,-100,15003.964618416736,-0.0162544215113898,0.002078981835318636,0.9998657267932822,27.41051322911808,0.030331047539334438,-72.23322685998643,23.29034472616766,-34.02349853515625,5356.25390625,True
1599558622.4894729,0.0,10,0.5,0.5,-0.2427728256225587,-0.001,-0.00825,-0.2505,0.10021167011960866,10,1,100,0.13507804685136926,-10,-1,-100,15005.325934473542,-0.015852682409212036,0.002792783390155282,0.9998704380175305,27.28671775230765,0.030706660698300116,-70.18941650497278,22.73266965333111,-35.16302490234375,5356.25390625,True
1599558622.522478,0.0,10,0.5,0.5,-0.4154230941772461,-0.001,-0.00825,-0.2505,0.05847240307749177,10,1,100,0.1585496463288089,-10,-1,-100,15005.792726863292,-0.015701841553344767,0.0030597858582795765,0.9998720367538715,27.247918192613422,0.030820029342326062,-69.51787613791073,22.54678429920783,-35.600616455078125,5356.25390625,True
1599558622.5555117,0.0,10,0.5,0.5,-0.4032518241882324,-0.001,-0.00825,-0.2505,0.06236767720978849,10,1,100,0.15552482866707892,-10,-1,-100,15006.259519305546,-0.015538354424430753,0.003335345519312069,0.9998737095313825,27.210117507058246,0.03092641013607093,-68.85047871627698,22.360901977202218,-36.07275390625,5356.25390625,True
1599558622.5904193,0.0,10,0.5,0.5,-0.39329675369262695,-0.001,-0.00825,-0.2505,0.06427308609749846,10,1,100,0.15151876392361963,-10,-1,-100,15006.672600295627,-0.01535459888030299,0.003600344253800287,0.9998756291731883,27.173272860129547,0.03102513340401491,-68.18705384448509,22.17502272462395,-36.568939208984375,5356.25390625,True
1599558622.6228049,0.0,10,0.5,0.5,-0.10579738616943357,-0.001,-0.00825,-0.2505,0.133808383216361,10,1,100,0.10256608260425369,-10,-1,-100,15008.016335427179,-0.014743927714037347,0.0044705875551592725,0.9998813081773631,27.063131643834428,0.0312652304580092,-66.20694056656127,21.617403394194834,-38.191741943359375,5356.25390625,True
1599558622.6559985,0.0,10,0.5,0.5,-0.20154830245971683,-0.001,-0.00825,-0.2505,0.11486732457610001,10,1,100,0.11183111986964608,-10,-1,-100,15008.840543832514,-0.014274958579477129,0.005085931552862052,0.999885172836258,26.9878730951925,0.03137137020429603,-64.8901037058035,21.24567272815443,-39.407501220703125,5356.25390625,True
1599558622.688888,0.0,10,0.5,0.5,-0.17007101745605469,-0.001,-0.00825,-0.2505,0.12218864349877182,10,1,100,0.10078715435731572,-10,-1,-100,15009.701861687237,-0.013750539421012902,0.005707977553598937,0.9998891646867061,26.908917672922264,0.03142703721738926,-63.570802786923714,20.873954511478072,-40.72052001953125,5356.25390625,True
1599558622.7248883,0.0,10,0.5,0.5,-0.32172987976074224,-0.001,-0.00825,-0.2505,0.0952694901091832,10,1,100,0.12202388739045053,-10,-1,-100,15010.113966065925,-0.01346954040153947,0.006024553109722142,0.9998911321945002,26.86720364413308,0.031433964275850046,-62.908384496043375,20.6881002442541,-41.399017333984375,5356.25390625,True
1599558622.7561023,0.0,10,0.5,0.5,0.04701987838745125,-0.001,-0.00825,-0.2505,0.16935872687025466,10,1,100,0.04828669057004449,-10,-1,-100,15011.31902901805,-0.012546556382576162,0.006981731914510147,0.9998969143578815,26.72947938038441,0.03136413611935558,-60.902906780517185,20.13055695983227,-43.513946533203125,5356.25390625,True
1599558622.7898934,0.0,10,0.5,0.5,-0.474940266418457,-0.001,-0.00825,-0.2505,0.07413112139937332,10,1,100,0.14021430595349396,-10,-1,-100,15011.31902901805,-0.012546556382576162,0.006981731914510147,0.9998969143578815,26.72947938038441,0.03136413611935558,-60.902906780517185,20.13055695983227,-43.513946533203125,5356.25390625,True
1599558622.8227687,0.0,10,0.5,0.5,0.09961629714965825,-0.001,-0.00825,-0.2505,0.17908106003482535,10,1,100,0.02500886265754318,-10,-1,-100,15012.526045807637,-0.011502604957275531,0.007931365220214991,0.9999023869983211,26.568743743328223,0.031150541687030204,-58.863712256728284,19.57304461432464,-45.767333984375,5356.25390625,True
1599558622.8590908,0.0,10,0.5,0.5,-0.4561087043762207,-0.001,-0.00825,-0.2505,0.08463158764734688,10,1,100,0.12896899744241264,-10,-1,-100,15012.526045807637,-0.011502604957275531,0.007931365220214991,0.9999023869983211,26.568743743328223,0.031150541687030204,-58.863712256728284,19.57304461432464,-45.767333984375,5356.25390625,True
1599558622.8898103,0.0,10,0.5,0.5,0.1601370223999023,-0.001,-0.00825,-0.2505,0.18936093582045094,10,1,100,0.0008731344779414896,-10,-1,-100,15013.65982239542,-0.010341914599958583,0.008879021495095996,0.9999070995746039,26.379337050903228,0.030784450708329664,-56.7829805988221,19.015564849222315,-48.18426513671875,5356.25390625,True
1599558622.9235363,0.0,10,0.5,0.5,-0.018811410522460936,-0.001,-0.00825,-0.2505,0.16245111949077115,10,1,100,0.024215480602496287,-10,-1,-100,15014.399073113687,-0.009503668730643195,0.009490852800194563,0.9999097979286847,26.235227352248447,0.030453944607882283,-55.371401864662666,18.643930663176146,-49.84033203125,5356.25390625,True
1599558623.0217469,0.0,10,0.5,0.5,-0.4227072685241699,-0.001,-0.00825,-0.2505,0.10185703983555396,10,1,100,0.10745497451906914,-10,-1,-100,15014.399073113687,-0.009503668730643195,0.009490852800194563,0.9999097979286847,26.235227352248447,0.030453944607882283,-55.371401864662666,18.643930663176146,-49.84033203125,5356.25390625,True
1599558623.0893004,0.0,10,0.5,0.5,0.007003297424316379,-0.001,-0.00825,-0.2505,0.1623509169726878,10,1,100,0.010445583719346743,-10,-1,-100,15015.139301262097,-0.008626529049721532,0.010036233260309384,0.9999124246745307,26.075023367882142,0.030054165159997023,-53.9386142813258,18.272312468454647,-51.510711669921875,5356.25390625,True
1599558623.123216,0.0,10,0.5,0.5,0.6751545684814453,-0.001,-0.00825,-0.2505,0.25201183346713985,10,1,100,-0.16732789196140982,-10,-1,-100,15016.927375912666,-0.006218141769540192,0.011342632645174742,0.9999163361989893,25.606411620679236,0.028778286230548514,-50.28173242025664,17.343342341317296,-55.791412353515625,5356.25390625,True
1599558623.156692,0.0,10,0.5,0.5,0.07440125656127927,-0.001,-0.00825,-0.2505,0.16993169209135278,10,1,100,-0.04001398405033023,-10,-1,-100,15017.596319540171,-0.005192945584613764,0.011778962932461935,0.9999171412414086,25.38328381023659,0.028156895076198157,-48.7779488036302,16.971786553636992,-57.616973876953125,5356.25390625,True
1599558623.1926167,0.0,10,0.5,0.5,-0.3695220909118653,-0.001,-0.00825,-0.2505,0.12687410434490748,10,1,100,0.061677974960620024,-10,-1,-100,15017.596319540171,-0.005192945584613764,0.011778962932461935,0.9999171412414086,25.38328381023659,0.028156895076198157,-48.7779488036302,16.971786553636992,-57.616973876953125,5356.25390625,True
1599558623.2226348,0.0,10,0.5,0.5,-0.13428633956909183,-0.001,-0.00825,-0.2505,0.1464081875461353,10,1,100,0.0052060637576551855,-10,-1,-100,15017.9400690021,-0.00468624967440314,0.011952184387911322,0.9999175887803688,25.26466091735852,0.027825424681139542,-48.01966664617836,16.786015916037073,-58.50604248046875,5356.25390625,True
1599558623.2565942,0.0,10,0.5,0.5,0.07857170257568358,-0.001,-0.00825,-0.2505,0.1673986081082961,10,1,100,-0.060536668567643295,-10,-1,-100,15018.592412329628,-0.003635101559170926,0.012295961850272772,0.999917794300527,25.022358862318953,0.027136761356561432,-46.50864482944925,16.41448940981651,-60.188751220703125,5356.25390625,True
1599558623.2896864,0.0,10,0.5,0.5,0.31549187850952143,-0.001,-0.00825,-0.2505,0.18258669049038906,10,1,100,-0.13770890232881608,-10,-1,-100,15019.53284346615,-0.0019850988778565286,0.012742592477138518,0.9999168394018608,24.64345637698501,0.02605089238617738,-44.25250708516482,15.857236882544074,-62.759490966796875,5356.25390625,True
1599558623.323562,0.0,10,0.5,0.5,-0.3144598983764649,-0.001,-0.00825,-0.2505,0.13840475052950674,10,1,100,0.026339615194681767,-10,-1,-100,15019.53284346615,-0.0019850988778565286,0.012742592477138518,0.9999168394018608,24.64345637698501,0.02605089238617738,-44.25250708516482,15.857236882544074,-62.759490966796875,5356.25390625,True
1599558623.3574977,0.0,10,0.5,0.5,0.36129041671752926,-0.001,-0.00825,-0.2505,0.16915082123285702,10,1,100,-0.1557581200268225,-10,-1,-100,15020.514294170192,-0.0003372620264993099,0.013018589873548937,0.999915197690299,24.264948977908823,0.024938394624639173,-42.044759936770305,15.300029470863189,-65.3985595703125,5356.25390625,True
1599558623.3916152,0.0,10,0.5,0.5,-0.07217874832153326,-0.001,-0.00825,-0.2505,0.14831741775734839,10,1,100,-0.0520823447560278,-10,-1,-100,15020.771132026915,0.00020993132981444266,0.01307689498680528,0.9999144717156268,24.131321421417194,0.024557546204371433,-41.3066655929056,15.114303884284292,-66.2525634765625,5356.25390625,True
1599558623.4245317,0.0,10,0.5,0.5,0.3559531089782715,-0.001,-0.00825,-0.2505,0.15290811451686162,10,1,100,-0.18038855852030433,-10,-1,-100,15021.697897257167,0.0018649694151744976,0.013168373203773339,0.9999115540067764,23.714738880088976,0.023405068226420512,-39.10012763777757,14.557157074058876,-68.75164794921875,5356.25390625,True
1599558623.459548,0.0,10,0.5,0.5,0.15934459075927737,-0.001,-0.00825,-0.2505,0.1421051381357858,10,1,100,-0.13702324421977877,-10,-1,-100,15022.227200340945,0.0029657816368925914,0.013150478943058645,0.9999091303927826,23.42188913284611,0.022634818370714956,-37.63391163219412,14.185750550369079,-70.40249633789062,5356.25390625,True
1599558623.4894884,0.0,10,0.5,0.5,-0.24213878631591798,-0.001,-0.00825,-0.2505,0.1440753488370436,10,1,100,-0.02786041438861267,-10,-1,-100,15022.227200340945,0.0029657816368925914,0.013150478943058645,0.9999091303927826,23.42188913284611,0.022634818370714956,-37.63391163219412,14.185750550369079,-70.40249633789062,5356.25390625,True
1599558623.5234642,0.0,10,0.5,0.5,0.36817014923095703,-0.001,-0.00825,-0.2505,0.1253262392142688,10,1,100,-0.2002472110772365,-10,-1,-100,15023.06803033955,0.004525517309315075,0.012978785659205605,0.9999055309457466,22.960830259338657,0.021493283487585692,-35.44699601100548,13.628676888051565,-72.7872314453125,5356.25390625,True
1599558623.593392,0.0,10,0.5,0.5,0.18007742691040038,-0.001,-0.00825,-0.2505,0.12294853406066591,10,1,100,-0.16205850887816714,-10,-1,-100,15023.59733455244,0.0055874538434404035,0.012799994606373048,0.999902465492322,22.643904468553664,0.020754373240920023,-34.00691144334438,13.257317528258122,-74.36483764648438,5356.25390625,True
1599558623.6234672,0.0,10,0.5,0.5,0.37450639190673823,-0.001,-0.00825,-0.2505,0.09669709628244874,10,1,100,-0.21452620736734984,-10,-1,-100,15024.368830623105,0.007020490039348869,0.01239803711470651,0.9998984955460777,22.144379677751207,0.019682517794968882,-31.861856096981942,12.700311274050923,-76.6572265625,5356.25390625,True
1599558623.6583762,0.0,10,0.5,0.5,0.17558794021606447,-0.001,-0.00825,-0.2505,0.09993395335722861,10,1,100,-0.17421288453083988,-10,-1,-100,15024.883486308856,0.007947078562935092,0.012061954390903627,0.9998956711570395,21.81041374893281,0.0190111848482853,-30.465371830184033,12.328993931321808,-78.09555053710938,5356.25390625,True
1599558623.6912963,0.0,10,0.5,0.5,-0.17205996627807618,-0.001,-0.00825,-0.2505,0.1334741619288935,10,1,100,-0.0825472499162967,-10,-1,-100,15024.883486308856,0.007947078562935092,0.012061954390903627,0.9998956711570395,21.81041374893281,0.0190111848482853,-30.465371830184033,12.328993931321808,-78.09555053710938,5356.25390625,True
1599558623.727235,0.0,10,0.5,0.5,0.3460329872131348,-0.001,-0.00825,-0.2505,0.06720380002057486,10,1,100,-0.2215932647822474,-10,-1,-100,15025.600292904419,0.009202103991315743,0.011460115317270035,0.9998919876861938,21.310815697687847,0.018075963932686068,-28.424901273048036,11.772044551811067,-80.10525512695312,5356.25390625,True
1599558623.7581167,0.0,10,0.5,0.5,0.1843529006958008,-0.001,-0.00825,-0.2505,0.07521503485436555,10,1,100,-0.18640343232364942,-10,-1,-100,15026.043658467825,0.010014456480203793,0.01098723508932512,0.9998894895569699,20.978667380259687,0.01750122403636793,-27.100642068892963,11.400760748076738,-81.41586303710938,5356.25390625,True
1599558623.7899446,0.0,10,0.5,0.5,-0.13144465866088867,-0.001,-0.00825,-0.2505,0.12229409165910902,10,1,100,-0.1061486359498833,-10,-1,-100,15026.043658467825,0.010014456480203793,0.01098723508932512,0.9998894895569699,20.978667380259687,0.01750122403636793,-27.100642068892963,11.400760748076738,-81.41586303710938,5356.25390625,True
1599558623.8238845,0.0,10,0.5,0.5,0.20007874298095701,-0.001,-0.00825,-0.2505,0.06688585189944321,10,1,100,-0.18343239454223087,-10,-1,-100,15026.48897591792,0.010709627479166017,0.01048550667161402,0.999887672705838,20.636998699406018,0.01695808932452579,-25.792302206925307,11.02948812953464,-82.6925048828125,5356.25390625,True
1599558623.8606412,0.0,10,0.5,0.5,0.04484365615844728,-0.001,-0.00825,-0.2505,0.08713731732919591,10,1,100,-0.15229294409978938,-10,-1,-100,15026.69112678687,0.011051475341616504,0.010215916861484813,0.999886743554215,20.467209768988536,0.01670223698243077,-25.150148410805794,10.843855631377629,-83.3065185546875,5356.25390625,True
1599558623.891197,0.0,10,0.5,0.5,0.21170222778320313,-0.001,-0.00825,-0.2505,0.04956344647304986,10,1,100,-0.19251503728859767,-10,-1,-100,15027.136444049771,0.011720550887647273,0.009631922355476545,0.9998849207576981,20.126885155472735,0.016219010901102036,-23.886286539977526,10.472597331207838,-84.53921508789062,5356.25390625,True
1599558623.9253285,0.0,10,0.5,0.5,0.06671688919067383,-0.001,-0.00825,-0.2505,0.07515247450716844,10,1,100,-0.15840153608282342,-10,-1,-100,15027.3239456726,0.012012137706187904,0.00933668838969168,0.9998842607010281,19.952681901328635,0.01598880901384849,-23.26033440723934,10.286971208909964,-85.1519775390625,5356.25390625,True
1599558623.9575174,0.0,10,0.5,0.5,0.22355394744873047,-0.001,-0.00825,-0.2505,0.03542121371094355,10,1,100,-0.19127752988310204,-10,-1,-100,15027.767308504554,0.01257024868135215,0.008710249055573103,0.999883053366482,19.60251168365587,0.015556048219696347,-22.02833858269825,9.91572410185384,-86.35052490234375,5356.25390625,True
1599558623.99442,0.0,10,0.5,0.5,0.36419444274902346,-0.001,-0.00825,-0.2505,-0.01139410840917672,10,1,100,-0.21517518861260312,-10,-1,-100,15028.328834853135,0.013289828503004197,0.0077185174489725165,0.9998818954990388,19.07593422109576,0.014975788501285819,-20.233950662459428,9.358862864489003,-88.07171630859375,5356.25390625,True
1599558624.0245254,0.0,10,0.5,0.5,0.21912286911010742,-0.001,-0.00825,-0.2505,0.0111678019283976,10,1,100,-0.187913032896884,-10,-1,-100,15028.702859160723,0.013691297152599459,0.007026000115988051,0.9998815848412499,18.724755441239967,0.01463264753169375,-19.07433235572787,8.98762605835279,-89.176513671875,5356.25390625,True
1599558624.0584927,0.0,10,0.5,0.5,-0.04848707580566406,-0.001,-0.00825,-0.2505,0.07991593979935262,10,1,100,-0.14834058979632425,-10,-1,-100,15028.702859160723,0.013691297152599459,0.007026000115988051,0.9998815848412499,18.724755441239967,0.01463264753169375,-19.07433235572787,8.98762605835279,-89.176513671875,5356.25390625,True
1599558624.0903752,0.0,10,0.5,0.5,0.34040473632812496,-0.001,-0.00825,-0.2505,-0.03526237555643054,10,1,100,-0.19977160436337071,-10,-1,-100,15029.195045767468,0.014154770745789623,0.005982955535663915,0.9998819163822259,18.500484842285267,0.014413014254372481,-17.67915913607773,8.430771336505273,-90.69304656982422,5356.25390625,True
1599558624.1266608,0.0,10,0.5,0.5,-0.03183307819366455,-0.001,-0.00825,-0.2505,0.06854165452061693,10,1,100,-0.1538382764709129,-10,-1,-100,15029.195045767468,0.014154770745789623,0.005982955535663915,0.9998819163822259,18.500484842285267,0.014413014254372481,-17.67915913607773,8.430771336505273,-90.69304656982422,5356.25390625,True
1599558624.1572115,0.0,10,0.5,0.5,0.21088613853454588,-0.001,-0.00825,-0.2505,-0.011755507780828983,10,1,100,-0.1800903637022493,-10,-1,-100,15029.499731427408,0.014389662162196695,0.005257530677972281,0.9998826411104594,18.548315282717155,0.014453000468326508,-16.944927743939044,8.059530389449964,-91.62770080566406,5356.25390625,True
1599558624.1902113,0.0,10,0.5,0.5,0.3109144592285156,-0.001,-0.00825,-0.2505,-0.05681513998601087,10,1,100,-0.18031662634267495,-10,-1,-100,15029.990937117953,0.014601911260495147,0.004193173220017906,0.999884594083681,18.590825819332665,0.014530108924235294,-15.811001716086086,7.502659449719547,-92.92705535888672,5356.25390625,True
1599558624.2251885,0.0,10,0.5,0.5,-0.006636913490295411,-0.001,-0.00825,-0.2505,0.04901833144527986,10,1,100,-0.15944676010471762,-10,-1,-100,15029.990937117953,0.014601911260495147,0.004193173220017906,0.999884594083681,18.590825819332665,0.014530108924235294,-15.811001716086086,7.502659449719547,-92.92705535888672,5356.25390625,True
1599558624.291131,0.0,10,0.5,0.5,0.2094045986175537,-0.001,-0.00825,-0.2505,-0.03092871241817275,10,1,100,-0.16685507597624405,-10,-1,-100,15030.296596503467,0.014666640168079162,0.0034713262295642086,0.9998864133292282,18.60106516240676,0.014589090489996945,-15.037324515713347,7.131403778829757,-93.75855255126953,5356.25390625,True
1599558624.3248832,0.0,10,0.5,0.5,0.47739817333221435,-0.001,-0.00825,-0.2505,-0.15599537803477564,10,1,100,-0.14840147579624074,-10,-1,-100,15030.940134558477,0.014555311443826517,0.001683464152782755,0.9998926486664552,18.563179783506644,0.0147405903536292,-13.054333483791142,6.203225878258567,-95.62409210205078,5356.25390625,True
1599558624.358099,0.0,10,0.5,0.5,0.19305321884155274,-0.001,-0.00825,-0.2505,-0.05377343791857677,10,1,100,-0.14320873403294895,-10,-1,-100,15031.17450112151,0.014405092166873756,0.0009938133430403234,0.9998957473930484,18.52853484712185,0.014799427313770526,-12.250334406015908,5.831936114585547,-96.32119750976562,5356.25390625,True
1599558624.3942633,0.0,10,0.5,0.5,0.10504823837280274,-0.001,-0.00825,-0.2505,-0.020718532391060803,10,1,100,-0.14842843347402784,-10,-1,-100,15031.290707668406,0.014314967124868445,0.0006734705699845601,0.9998973088040618,18.50575971526476,0.014826074295997896,-11.84590755461882,5.64628659259954,-96.6385498046875,5356.25390625,True
1599558624.4252126,0.0,10,0.5,0.5,0.03170766830444336,-0.001,-0.00825,-0.2505,0.010680491959915184,10,1,100,-0.1575033046717858,-10,-1,-100,15031.290707668406,0.014314967124868445,0.0006734705699845601,0.9998973088040618,18.50575971526476,0.014826074295997896,-11.84590755461882,5.64628659259954,-96.6385498046875,5356.25390625,True
1599558624.4585752,0.0,10,0.5,0.5,0.30394475402832033,-0.001,-0.00825,-0.2505,-0.1325174547997151,10,1,100,-0.10177291736882753,-10,-1,-100,15031.690103032975,0.013807760267594034,-0.0006225539191520756,0.9999044745289474,18.359056980933875,0.014888211447641098,-10.206680991463246,4.90365511597923,-97.69652557373047,5356.25390625,True
1599558624.492487,0.0,10,0.5,0.5,0.1053834327697754,-0.001,-0.00825,-0.2505,-0.03816489947378529,10,1,100,-0.13461052192287068,-10,-1,-100,15031.793613591231,0.013645502266452413,-0.0009370024886270953,0.9999064567719487,18.31314765328419,0.014894628260356221,-9.795748583142048,4.717988337438993,-97.93781280517578,5356.25390625,True
1599558624.527723,0.0,10,0.5,0.5,0.16693004035949707,-0.001,-0.00825,-0.2505,-0.07186268181241882,10,1,100,-0.11269044041636955,-10,-1,-100,15031.959618574358,0.013299184495791235,-0.0015229174293880626,0.9999104021932415,18.215394124538662,0.014899029230431111,-8.976705185045862,4.346643628538839,-98.39909362792969,5356.25390625,True
1599558624.5588906,0.0,10,0.5,0.5,0.056965593338012696,-0.001,-0.00825,-0.2505,-0.013949232547058127,10,1,100,-0.1472131697158468,-10,-1,-100,15031.959618574358,0.013299184495791235,-0.0015229174293880626,0.9999104021932415,18.215394124538662,0.014899029230431111,-8.976705185045862,4.346643628538839,-98.39909362792969,5356.25390625,True
1599558624.5917852,0.0,10,0.5,0.5,0.1669023347854614,-0.001,-0.00825,-0.2505,-0.07884271898083303,10,1,100,-0.10265932798912746,-10,-1,-100,15032.124646846787,0.012895333868061699,-0.002107661769104738,0.9999146304191664,18.105051282446045,0.014886513776377185,-8.160152375398525,3.9752835721267434,-98.81826782226562,5356.25390625,True
1599558624.624777,0.0,10,0.5,0.5,0.11577692832946779,-0.001,-0.00825,-0.2505,-0.05130139649578962,10,1,100,-0.11953525354907948,-10,-1,-100,15032.22718029318,0.012683165872845716,-0.0023831438417203006,0.9999167254971143,18.043969890057774,0.01487196452629988,-7.752795609872631,3.7895968874482913,-99.01316833496094,5356.25390625,True
1599558624.6596484,0.0,10,0.5,0.5,0.1620598165512085,-0.001,-0.00825,-0.2505,-0.08409062925478415,10,1,100,-0.0892396393052809,-10,-1,-100,15032.337520245695,0.01221667436070141,-0.002926343778205958,0.9999210915765585,17.9143359587407,0.01482791240946618,-6.942852624932736,3.418209599716041,-99.37408447265625,5356.25390625,True
1599558624.6917586,0.0,10,0.5,0.5,0.1560970417022705,-0.001,-0.00825,-0.2505,-0.08544809402322116,10,1,100,-0.08155133686840117,-10,-1,-100,15032.485946071567,0.011724823543037794,-0.0034283117566050844,0.9999253848119789,17.785008702219674,0.014770503067674674,-6.143869296236516,3.0468032090085044,-99.69755554199219,5356.25390625,True
1599558624.725479,0.0,10,0.5,0.5,0.11487805862426759,-0.001,-0.00825,-0.2505,-0.06289277727853564,10,1,100,-0.10118671387008507,-10,-1,-100,15032.534768895363,0.011458626471198757,-0.003675577834652926,0.9999275923820559,17.71780816710505,0.014734083602640937,-5.747617105256875,2.8610930484467363,-99.84477233886719,5356.25390625,True
1599558624.7583582,0.0,10,0.5,0.5,0.14780312995910644,-0.001,-0.00825,-0.2505,-0.08985994416923815,10,1,100,-0.06688285941098684,-10,-1,-100,15032.615811769618,0.010907372584129348,-0.00414156756060768,0.9999319360043724,17.58121225049862,0.014647791486273746,-4.962943866699345,2.4896602768874936,-100.11180114746094,5356.25390625,True
1599558624.7940073,0.0,10,0.5,0.5,0.14030164184570312,-0.001,-0.00825,-0.2505,-0.09124933719932893,10,1,100,-0.05826970196388648,-10,-1,-100,15032.71150372515,0.010331029068675099,-0.004573448122539561,0.99993617466849,17.443794933562344,0.014545249957298827,-4.189532492817815,2.118212853242312,-100.3365478515625,5356.25390625,True
1599558624.824978,0.0,10,0.5,0.5,0.1533402750015259,-0.001,-0.00825,-0.2505,-0.11387611105729502,10,1,100,-0.013762757925065941,-10,-1,-100,15032.838440282852,0.00940563250081734,-0.005168173037365156,0.999942410374075,17.24485021942529,0.014370188806545815,-3.0523199740103815,1.561020881363095,-100.60358428955078,5356.25390625,True
1599558624.8589544,0.0,10,0.5,0.5,0.08864690876007081,-0.001,-0.00825,-0.2505,-0.05482673662960932,10,1,100,-0.10587842773427837,-10,-1,-100,15032.838440282852,0.00940563250081734,-0.005168173037365156,0.999942410374075,17.24485021942529,0.014370188806545815,-3.0523199740103815,1.561020881363095,-100.60358428955078,5356.25390625,True
1599558624.8919437,0.0,10,0.5,0.5,0.13576830978393556,-0.001,-0.00825,-0.2505,-0.11145326015132946,10,1,100,-0.000726375347111799,-10,-1,-100,15032.897019112832,0.008453244344565802,-0.0056796457461008145,0.9999481407974365,17.067145582909767,0.014185368991398054,-1.9425980078860006,1.003812866614176,-100.7837142944336,5356.25390625,True
1599558624.9268596,0.0,10,0.5,0.5,0.09261305561065673,-0.001,-0.00825,-0.2505,-0.06072166210943488,10,1,100,-0.09548059695714306,-10,-1,-100,15032.897019112832,0.008453244344565802,-0.0056796457461008145,0.9999481407974365,17.067145582909767,0.014185368991398054,-1.9425980078860006,1.003812866614176,-100.7837142944336,5356.25390625,True
1599558625.0156295,0.0,10,0.5,0.5,0.11203327026367185,-0.001,-0.00825,-0.2505,-0.09439584351476897,10,1,100,-0.02179427643933124,-10,-1,-100,15032.92337705195,0.007787406966697963,-0.005982527409806582,0.9999517816667591,16.95208315467064,0.014053933418389645,-1.215473986015019,0.6323361836286234,-100.85448455810547,5356.25390625,True
1599558625.0465083,0.0,10,0.5,0.5,0.1047640604019165,-0.001,-0.00825,-0.2505,-0.09285178771343358,10,1,100,-0.017143991663963562,-10,-1,-100,15032.93118039216,0.0071442756333203565,-0.006240565339010517,0.9999550063227469,16.838414436720235,0.013918268820821448,-0.4980641563441423,0.2608578615666719,-100.89002990722656,5356.25390625,True
1599558625.0795867,0.0,10,0.5,0.5,0.0954662000656128,-0.001,-0.00825,-0.2505,-0.10415315184418035,10,1,100,0.03057809818572299,-10,-1,-100,15032.920426469878,0.00613038487591391,-0.006574872019874696,0.9999595939032713,16.743951031142828,0.013776591309947591,0.5626877548665362,-0.29636044947595996,-100.88349151611328,5356.25390625,True
1599558625.1146326,0.0,10,0.5,0.5,0.09808246421813965,-0.001,-0.00825,-0.2505,-0.07103713978408935,10,1,100,-0.07025153368820927,-10,-1,-100,15032.920426469878,0.00613038487591391,-0.006574872019874696,0.9999595939032713,16.743951031142828,0.013776591309947591,0.5626877548665362,-0.29636044947595996,-100.88349151611328,5356.25390625,True
1599558625.1534946,0.0,10,0.5,0.5,0.07989538974761963,-0.001,-0.00825,-0.2505,-0.09935063799783511,10,1,100,0.04033731423192279,-10,-1,-100,15032.893072027247,0.005129875568999332,-0.006829631736194911,0.999963519588087,16.809387512947158,0.013775590180277322,1.6270204429332633,-0.8535751118457566,-100.80776977539062,5356.25390625,True
1599558625.1824186,0.0,10,0.5,0.5,0.07789749279022218,-0.001,-0.00825,-0.2505,-0.08886886843019083,10,1,100,0.017905653110672076,-10,-1,-100,15032.848144029733,0.0044294981156475675,-0.006963498969347805,0.9999659440343692,16.850736671754863,0.013779848992025692,2.340880640578577,-1.2250496093525336,-100.72212219238281,5356.25390625,True
1599558625.2258496,0.0,10,0.5,0.5,0.0864766923904419,-0.001,-0.00825,-0.2505,-0.08153641391750961,10,1,100,-0.015949618598988247,-10,-1,-100,15032.811031716177,0.004105931565372901,-0.007016365003147146,0.9999669554280898,16.86926030313653,0.013783172179530264,2.698782934811621,-1.4107867254170747,-100.66966247558594,5356.25390625,True
1599558625.2588508,0.0,10,0.5,0.5,0.08500703315734864,-0.001,-0.00825,-0.2505,-0.0813757609224095,10,1,100,-0.011816264156625733,-10,-1,-100,15032.787591758068,0.0037790221164975845,-0.007061284377585834,0.999967928113088,16.886609741989485,0.01378786774685226,3.057260781099581,-1.5965241272187343,-100.6113510131836,5356.25390625,True
1599558625.2948575,0.0,10,0.5,0.5,0.08354481658935548,-0.001,-0.00825,-0.2505,-0.08137629447988334,10,1,100,-0.007181115224100469,-10,-1,-100,15032.769034751342,0.0034448090912100856,-0.0071004040127432945,0.9999688582916874,16.902050108493405,0.013793569393539314,3.4160922437710215,-1.7822620403993443,-100.54743194580078,5356.25390625,True
1599558625.3258762,0.0,10,0.5,0.5,0.020585574722290043,-0.001,-0.00825,-0.2505,-0.08646047847312102,10,1,100,0.10587286559807574,-10,-1,-100,15032.577620567754,0.0021177687291592624,-0.007180895573491653,0.999971974504472,16.973081348991315,0.013853053234735421,4.860684759700864,-2.5252253422556596,-100.23420715332031,5356.25390625,True
1599558625.3588774,0.0,10,0.5,0.5,0.09859504184722902,-0.001,-0.00825,-0.2505,-0.07856144738102423,10,1,100,-0.026197623045465912,-10,-1,-100,15032.577620567754,0.0021177687291592624,-0.007180895573491653,0.999971974504472,16.973081348991315,0.013853053234735421,4.860684759700864,-2.5252253422556596,-100.23420715332031,5356.25390625,True
1599558625.391994,0.0,10,0.5,0.5,0.04977194976806641,-0.001,-0.00825,-0.2505,-0.07829738282926929,10,1,100,0.0463446087915343,-10,-1,-100,15032.447734625312,0.001463448110857023,-0.007177405561054167,0.9999731712246279,16.999772298223757,0.013894454384325607,5.584651531255562,-2.8967185966297637,-100.0421142578125,5356.25390625,True
1599558625.4280496,0.0,10,0.5,0.5,0.07147986717224122,-0.001,-0.00825,-0.2505,-0.07772205697942429,10,1,100,0.014677084868368592,-10,-1,-100,15032.413553268416,0.0011616621549041875,-0.007168150914546913,0.9999736337291619,17.01141180231354,0.013918539088993076,5.946906300939035,-3.082469195925588,-99.93988037109375,5356.25390625,True
1599558625.4590895,0.0,10,0.5,0.5,-0.015594933891296375,-0.001,-0.00825,-0.2505,-0.06662107147060972,10,1,100,0.12048985837821183,-10,-1,-100,15032.097143593128,-7.010599812331986e-05,-0.0070582802050104835,0.9999750875725337,17.063077099094915,0.014048706146817701,7.403230590560844,-3.825501167836352,-99.49492645263672,5356.25390625,True
1599558625.4924762,0.0,10,0.5,0.5,0.06406006755828858,-0.001,-0.00825,-0.2505,-0.0727645643055517,10,1,100,0.03108098317647226,-10,-1,-100,15032.06101010146,-0.0003714504618833876,-0.00701380821467217,0.9999753339552341,17.083362323937244,0.014093859551758047,7.772075065692328,-4.011266641317706,-99.37301635742188,5356.25390625,True
1599558625.52561,0.0,10,0.5,0.5,0.09341487483978272,-0.001,-0.00825,-0.2505,-0.0772301809872308,10,1,100,0.0014966694035537594,-10,-1,-100,15032.06101010146,-0.0003714504618833876,-0.00701380821467217,0.9999753339552341,17.083362323937244,0.014093859551758047,7.772075065692328,-4.011266641317706,-99.37301635742188,5356.25390625,True
1599558625.561617,0.0,10,0.5,0.5,0.02823721103668214,-0.001,-0.00825,-0.2505,-0.06613248495312882,10,1,100,0.064412763758626,-10,-1,-100,15031.860813758685,-0.0009390504573135616,-0.0069128743332300385,0.9999756648802468,17.128850230999266,0.014194350123136123,8.514836896336949,-4.382805500202396,-99.1182861328125,5356.25390625,True
1599558625.5926592,0.0,10,0.5,0.5,0.02371887264251711,-0.001,-0.00825,-0.2505,-0.06203184395794749,10,1,100,0.07079073178726747,-10,-1,-100,15031.678196013789,-0.0015084456333989272,-0.006783931787117286,0.9999758511390556,17.181611520724555,0.014307556780782252,9.26544261414168,-4.754353426734788,-98.85169219970703,5356.25390625,True
1599558625.6255744,0.0,10,0.5,0.5,-0.021191464042663588,-0.001,-0.00825,-0.2505,-0.048937005286938944,10,1,100,0.10434330339844639,-10,-1,-100,15031.373508534976,-0.002326294201078253,-0.006547919441451496,0.9999758562616792,17.264991943988466,0.014491661984113774,10.402420719346278,-5.311690930610502,-98.41336059570312,5356.25390625,True
1599558625.659067,0.0,10,0.5,0.5,0.009353793334960947,-0.001,-0.00825,-0.2505,-0.05262735933294728,10,1,100,0.07945204818252134,-10,-1,-100,15031.171360373613,-0.002838262303103514,-0.00636741369542021,0.9999756998597167,17.324104600635135,0.014623235560580646,11.168664773435175,-5.683259314964694,-98.105224609375,5356.25390625,True
1599558625.6952143,0.0,10,0.5,0.5,0.08478544731140138,-0.001,-0.00825,-0.2505,-0.07059658574826876,10,1,100,0.028750841083221526,-10,-1,-100,15031.171360373613,-0.002838262303103514,-0.00636741369542021,0.9999756998597167,17.324104600635135,0.014623235560580646,11.168664773435175,-5.683259314964694,-98.105224609375,5356.25390625,True
1599558625.726077,0.0,10,0.5,0.5,-0.03352610855102539,-0.001,-0.00825,-0.2505,-0.03756138551067381,10,1,100,0.10775938525023382,-10,-1,-100,15030.79538490437,-0.003552016312774296,-0.006067833222240321,0.9999752819845602,17.421287637783703,0.014834432187020168,12.333611232721521,-6.2406252429522215,-97.64178466796875,5356.25390625,True
1599558625.7594748,0.0,10,0.5,0.5,-9.2234039306624e-05,-0.001,-0.00825,-0.2505,-0.041946156682656464,10,1,100,0.08791179305088569,-10,-1,-100,15030.527807936538,-0.004015891424823086,-0.005836357595766458,0.9999749044581461,17.49126253583189,0.014982884518265308,13.121109033264974,-6.612210098250004,-97.32099914550781,5356.25390625,True
1599558625.7925055,0.0,10,0.5,0.5,0.03701493492126465,-0.001,-0.00825,-0.2505,-0.05264249772137025,10,1,100,0.064500264696853,-10,-1,-100,15030.364722360624,-0.004220057129303755,-0.005724375393250145,0.9999747110023246,17.526498154235345,0.01505796019684992,13.517308949277574,-6.798004487515975,-97.15762329101562,5356.25390625,True
1599558625.8287687,0.0,10,0.5,0.5,0.07601231136322022,-0.001,-0.00825,-0.2505,-0.0637073274918255,10,1,100,0.04449868936190412,-10,-1,-100,15030.364722360624,-0.004220057129303755,-0.005724375393250145,0.9999747110023246,17.526498154235345,0.01505796019684992,13.517308949277574,-6.798004487515975,-97.15762329101562,5356.25390625,True
1599558625.8595092,0.0,10,0.5,0.5,-0.09004869480133054,-0.001,-0.00825,-0.2505,-0.008244765981948815,10,1,100,0.1309527956501218,-10,-1,-100,15029.811990187736,-0.005002504816771716,-0.005221342500270741,0.9999738559222701,17.6774545999069,0.01536880777317695,15.125865315334716,-7.54119281537956,-96.50460815429688,5356.25390625,True
1599558625.8928607,0.0,10,0.5,0.5,0.07116516017913818,-0.001,-0.00825,-0.2505,-0.05836880870844911,10,1,100,0.0531711323388146,-10,-1,-100,15029.811990187736,-0.005002504816771716,-0.005221342500270741,0.9999738559222701,17.6774545999069,0.01536880777317695,15.125865315334716,-7.54119281537956,-96.50460815429688,5356.25390625,True
1599558625.9260452,0.0,10,0.5,0.5,-0.060801289558410646,-0.001,-0.00825,-0.2505,-0.01298177275139567,10,1,100,0.11016171940079494,-10,-1,-100,15029.31296839402,-0.00551690701337203,-0.004810270838691127,0.9999732121569379,17.7938131066844,0.015604066112938894,16.35224991381656,-8.098592328147848,-95.98846435546875,5356.25390625,True
1599558625.9634612,0.0,10,0.5,0.5,0.06613056907653808,-0.001,-0.00825,-0.2505,-0.053891572814514434,10,1,100,0.05912234587876086,-10,-1,-100,15029.31296839402,-0.00551690701337203,-0.004810270838691127,0.9999732121569379,17.7938131066844,0.015604066112938894,16.35224991381656,-8.098592328147848,-95.98846435546875,5356.25390625,True
1599558625.9934304,0.0,10,0.5,0.5,-0.024769556045532215,-0.001,-0.00825,-0.2505,-0.020431282865945817,10,1,100,0.09507546229824354,-10,-1,-100,15028.97312565893,-0.0058408529691743325,-0.004507666065161195,0.9999727823212178,17.872663476299316,0.015760252944681044,17.179435706767304,-8.470194371699243,-95.6349868774414,5356.25390625,True
1599558626.0258965,0.0,10,0.5,0.5,0.017086380577087404,-0.001,-0.00825,-0.2505,-0.034681599260765875,10,1,100,0.07828585194517425,-10,-1,-100,15028.795391849824,-0.005979986843361186,-0.004363809827023492,0.999972598085141,17.91157852723218,0.01583708924727382,17.595080873292666,-8.655995798202795,-95.45744323730469,5356.25390625,True
1599558626.0600388,0.0,10,0.5,0.5,-0.11716380062103271,-0.001,-0.00825,-0.2505,0.01926030718589767,10,1,100,0.1202575878286919,-10,-1,-100,15028.104963731137,-0.006485177305617343,-0.003744471919081727,0.9999719603095687,18.071239633864625,0.016140991392380136,19.278759950274033,-9.399202770157192,-94.7554931640625,5356.25390625,True
1599558626.0951116,0.0,10,0.5,0.5,0.0562935022354126,-0.001,-0.00825,-0.2505,-0.042441147477962966,10,1,100,0.07003185770236052,-10,-1,-100,15028.104963731137,-0.006485177305617343,-0.003744471919081727,0.9999719603095687,18.071239633864625,0.016140991392380136,19.278759950274033,-9.399202770157192,-94.7554931640625,5356.25390625,True
1599558626.1256874,0.0,10,0.5,0.5,0.010125316429138186,-0.001,-0.00825,-0.2505,-0.02439821205238646,10,1,100,0.0823752046307467,-10,-1,-100,15027.872542470926,-0.006595144745074677,-0.0035823469476461995,0.9999718350314364,18.111790286150033,0.016215463546198825,19.704688325223607,-9.585004331386726,-94.58033752441406,5356.25390625,True
1599558626.159553,0.0,10,0.5,0.5,-0.03544679470062256,-0.001,-0.00825,-0.2505,-0.005601897635125502,10,1,100,0.09223304942480068,-10,-1,-100,15027.519027242553,-0.006782572744876589,-0.0032660323229529876,0.9999716644684619,18.192864361911134,0.016361441873088408,20.561781545429625,-9.956606541204572,-94.2331314086914,5356.25390625,True
1599558626.194013,0.0,10,0.5,0.5,-0.08231207618713379,-0.001,-0.00825,-0.2505,0.0187044535248825,10,1,100,0.10009719675731082,-10,-1,-100,15026.879378843587,-0.007022124524432444,-0.002759741601841174,0.9999715363916386,18.315959710069443,0.016573597324422217,21.86236855915563,-10.514006292915777,-93.71055603027344,5356.25390625,True
1599558626.2292564,0.0,10,0.5,0.5,0.04628796310424805,-0.001,-0.00825,-0.2505,-0.03167845849645589,10,1,100,0.07634398077249141,-10,-1,-100,15026.879378843587,-0.007022124524432444,-0.002759741601841174,0.9999715363916386,18.315959710069443,0.016573597324422217,21.86236855915563,-10.514006292915777,-93.71055603027344,5356.25390625,True
1599558626.2592516,0.0,10,0.5,0.5,-0.04476321220397949,-0.001,-0.00825,-0.2505,0.00551700022911868,10,1,100,0.08950238970944326,-10,-1,-100,15026.453597758547,-0.007139910405943224,-0.0024238388869708867,0.9999715729381737,18.395884743860872,0.016706751402621938,22.735681643525954,-10.885602789447214,-93.3576889038086,5356.25390625,True
1599558626.2933302,0.0,10,0.5,0.5,-0.08586955318450926,-0.001,-0.00825,-0.2505,0.027811542458324314,10,1,100,0.09118129070545197,-10,-1,-100,15025.799300185405,-0.007260775758741674,-0.0019179646095066835,0.9999718008759735,18.51734660625786,0.0168971416407281,24.060721827734977,-11.442991140224866,-92.85140991210938,5356.25390625,True
1599558626.3265,0.0,10,0.5,0.5,-0.04636094722747802,-0.001,-0.00825,-0.2505,0.0149929842666131,10,1,100,0.08417487680398358,-10,-1,-100,15025.305159056792,-0.007305373345140217,-0.0015772406192176775,0.9999720715261586,18.598377439732822,0.01701649595873071,24.95296066804712,-11.81457812275069,-92.5145263671875,5356.25390625,True
1599558626.3620188,0.0,10,0.5,0.5,0.03545400085449219,-0.001,-0.00825,-0.2505,-0.018786372217693147,10,1,100,0.07986157020172589,-10,-1,-100,15025.305159056792,-0.007305373345140217,-0.0015772406192176775,0.9999720715261586,18.598377439732822,0.01701649595873071,24.95296066804712,-11.81457812275069,-92.5145263671875,5356.25390625,True
1599558626.3937597,0.0,10,0.5,0.5,-0.048064004898071284,-0.001,-0.00825,-0.2505,0.017391797543658227,10,1,100,0.08135370410649999,-10,-1,-100,15024.826642206637,-0.0073177333020001826,-0.0012508814115761249,0.9999724426578038,18.67897884326689,0.017128829210770302,25.851660811500647,-12.1861605829469,-92.19210052490234,5356.25390625,True
1599558626.426914,0.0,10,0.5,0.5,-0.08439478435516357,-0.001,-0.00825,-0.2505,0.04001709593294764,10,1,100,0.07675320509544911,-10,-1,-100,15024.10105466249,-0.007286390039048431,-0.0007507735924607238,0.9999731720697369,18.804144336613582,0.017288728186195833,27.219057925447846,-12.743524673649038,-91.73490905761719,5356.25390625,True
1599558626.460019,0.0,10,0.5,0.5,0.027639696311950686,-0.001,-0.00825,-0.2505,-0.009694316145930368,10,1,100,0.07996765266396733,-10,-1,-100,15024.10105466249,-0.007286390039048431,-0.0007507735924607238,0.9999731720697369,18.804144336613582,0.017288728186195833,27.219057925447846,-12.743524673649038,-91.73490905761719,5356.25390625,True
1599558626.4962356,0.0,10,0.5,0.5,-0.08469873752593994,-0.001,-0.00825,-0.2505,0.04247251973011318,10,1,100,0.06961000879809123,-10,-1,-100,15023.29245824262,-0.007191601235455036,-0.00027910378754686014,0.9999741011509978,18.92961703423971,0.017433433071626862,28.60329101227433,-13.300875810557693,-91.29756927490234,5356.25390625,True
1599558626.5274303,0.0,10,0.5,0.5,-0.04595465221405029,-0.001,-0.00825,-0.2505,0.030232671281212223,10,1,100,0.06846683578719587,-10,-1,-100,15022.743628541124,-0.007094665269825102,3.5700205079910756e-05,0.9999748319083858,19.015591261993386,0.017523315479383073,29.538853474336374,-13.67243548588403,-91.02565002441406,5356.25390625,True
1599558626.560509,0.0,10,0.5,0.5,-0.04486498928070068,-0.001,-0.00825,-0.2505,0.031050781917603642,10,1,100,0.0650185403078172,-10,-1,-100,15022.199680883321,-0.006975127577853181,0.00032678171161060524,0.9999756201073031,19.10236724021548,0.017606972983447558,30.48320133552928,-14.043988442242814,-90.76795196533203,5356.25390625,True
1599558626.5936227,0.0,10,0.5,0.5,-0.013526303100585935,-0.001,-0.00825,-0.2505,0.018311595650879395,10,1,100,0.06936901190712776,-10,-1,-100,15021.879367484595,-0.006906049415096603,0.00047278454847424185,0.9999760411911113,19.14668300607904,0.017647082578129643,30.959717504754906,-14.22976221016341,-90.64553833007812,5356.25390625,True
1599558626.6285279,0.0,10,0.5,0.5,0.014900788307189944,-0.001,-0.00825,-0.2505,0.0040009743080602475,10,1,100,0.07625344208370094,-10,-1,-100,15021.879367484595,-0.006906049415096603,0.00047278454847424185,0.9999760411911113,19.14668300607904,0.017647082578129643,30.959717504754906,-14.22976221016341,-90.64553833007812,5356.25390625,True
1599558626.6606352,0.0,10,0.5,0.5,-0.04588931255340576,-0.001,-0.00825,-0.2505,0.03527556187048552,10,1,100,0.05912114268315448,-10,-1,-100,15021.315888745012,-0.006750623717222222,0.0007549255725344889,0.9999769293172759,19.236595551801877,0.01772343112840065,31.920683047648915,-14.601304441409413,-90.41106414794922,5356.25390625,True
1599558626.6937394,0.0,10,0.5,0.5,-0.04575422744750977,-0.001,-0.00825,-0.2505,0.03758439314782022,10,1,100,0.05479026631970532,-10,-1,-100,15020.69772174873,-0.00657046034278499,0.0010302866367543453,0.999977883535596,19.327574392431536,0.017794144020629527,32.891318689570426,-14.972839062966962,-90.1849594116211,5356.25390625,True
1599558626.7266161,0.0,10,0.5,0.5,-0.019327563667297362,-0.001,-0.00825,-0.2505,0.025389150562999986,10,1,100,0.061743452271146096,-10,-1,-100,15020.435025222017,-0.006470554341039109,0.0011673785559504198,0.9999783843432951,19.373104309573705,0.01782702382947792,33.37968832428851,-15.15860348119362,-90.07247161865234,5356.25390625,True
1599558626.7627995,0.0,10,0.5,0.5,-0.04934702854156494,-0.001,-0.00825,-0.2505,0.040725235406356204,10,1,100,0.0481826586672779,-10,-1,-100,15019.816858405946,-0.006257220923926744,0.0014292281083705199,0.9999794020345237,19.51614234002523,0.01793540381655594,34.45416304226886,-15.530125711184168,-89.8480224609375,5356.25390625,True
1599558626.793055,0.0,10,0.5,0.5,-0.07478495464324951,-0.001,-0.00825,-0.2505,0.055959012500394575,10,1,100,0.029969716355824252,-10,-1,-100,15018.868612109683,-0.0058986448592796715,0.001803780218970204,0.9999809760019166,19.80220167051506,0.018150363302509732,36.219876285442155,-16.087391235333545,-89.52951049804688,5356.25390625,True
1599558626.8259432,0.0,10,0.5,0.5,-0.047550041389465336,-0.001,-0.00825,-0.2505,0.044835608924200854,10,1,100,0.03675308684196761,-10,-1,-100,15018.180132824229,-0.005635595209637971,0.002040837965357764,0.999982037362188,19.988935764302,0.018281244736042722,37.41013403960308,-16.45888907307836,-89.32778930664062,5356.25390625,True
1599558626.8608966,0.0,10,0.5,0.5,0.001356048583984375,-0.001,-0.00825,-0.2505,0.021361828460735314,10,1,100,0.06290245120355593,-10,-1,-100,15018.180132824229,-0.005635595209637971,0.002040837965357764,0.999982037362188,19.988935764302,0.018281244736042722,37.41013403960308,-16.45888907307836,-89.32778930664062,5356.25390625,True
1599558626.8955555,0.0,10,0.5,0.5,-0.047377465438842775,-0.001,-0.00825,-0.2505,0.04572911011025792,10,1,100,0.032399342110623425,-10,-1,-100,15017.547317592427,-0.005359620645211482,0.002260535855116808,0.9999830820789855,20.172238948085344,0.018402136945805957,38.60994021926756,-16.830376890995385,-89.13958740234375,5356.25390625,True
1599558626.926473,0.0,10,0.5,0.5,-0.023757533073425294,-0.001,-0.00825,-0.2505,0.03562465436268067,10,1,100,0.043984622468383826,-10,-1,-100,15017.17622279562,-0.00521552405074217,0.0023666445625165943,0.9999835985166912,20.262115887989076,0.018458493999933552,39.212346272580966,-17.016117051426434,-89.0513916015625,5356.25390625,True
1599558627.0172684,0.0,10,0.5,0.5,-0.04523914699554443,-0.001,-0.00825,-0.2505,0.047809476823003696,10,1,100,0.02475071892969825,-10,-1,-100,15016.473094999907,-0.004911210319385976,0.0025721564461429346,0.9999846318941183,20.438475808809358,0.018563387290813523,40.422099605331276,-17.387589452917407,-88.88336181640625,5356.25390625,True
1599558627.0611145,0.0,10,0.5,0.5,-0.0444509687423706,-0.001,-0.00825,-0.2505,0.04768426487970163,10,1,100,0.02098489655464894,-10,-1,-100,15015.77094388858,-0.004602140213921452,0.0027559386209571627,0.9999856124503838,20.611870976342452,0.018659427079338573,41.64112250946194,-17.759051426914567,-88.72491455078125,5356.25390625,True
1599558627.0963433,0.0,10,0.5,0.5,-0.06095939750671387,-0.001,-0.00825,-0.2505,0.057304921714954896,10,1,100,-0.002173847603481903,-10,-1,-100,15014.694768234156,-0.004112586519791878,0.003008654739246561,0.9999870172301125,20.86512143937025,0.018786238086402077,43.483559346610065,-18.316224722092112,-88.50698852539062,5356.25390625,True
1599558627.127544,0.0,10,0.5,0.5,-0.04044948215484619,-0.001,-0.00825,-0.2505,0.048532917797334665,10,1,100,0.009431480011182762,-10,-1,-100,15013.9779689383,-0.003775275116010119,0.003156852658347201,0.9999878907162286,21.02927595686293,0.018859559950127284,44.72020634582893,-18.68766042045404,-88.37698364257812,5356.25390625,True
1599558627.1618478,0.0,10,0.5,0.5,-0.009282036590576173,-0.001,-0.00825,-0.2505,0.03391207329751036,10,1,100,0.042893092466855735,-10,-1,-100,15013.9779689383,-0.003775275116010119,0.003156852658347201,0.9999878907162286,21.02927595686293,0.018859559950127284,44.72020634582893,-18.68766042045404,-88.37698364257812,5356.25390625,True
1599558627.1947443,0.0,10,0.5,0.5,-0.05256325531005859,-0.001,-0.00825,-0.2505,0.054598424956230476,10,1,100,-0.013073974713367492,-10,-1,-100,15012.818786512013,-0.003268739910560741,0.003343339832926496,0.9999890686493321,21.267697778842635,0.018952899448767435,46.58481245497333,-19.244794280017135,-88.209716796875,5356.25390625,True
1599558627.23061,0.0,10,0.5,0.5,-0.011751740264892577,-0.001,-0.00825,-0.2505,0.03610366345969661,10,1,100,0.0373165553366984,-10,-1,-100,15012.818786512013,-0.003268739910560741,0.003343339832926496,0.9999890686493321,21.267697778842635,0.018952899448767435,46.58481245497333,-19.244794280017135,-88.209716796875,5356.25390625,True
1599558627.260111,0.0,10,0.5,0.5,-0.049476594543457035,-0.001,-0.00825,-0.2505,0.05317623904449774,10,1,100,-0.020889025773034198,-10,-1,-100,15011.605892972904,-0.0027417499507441513,0.0034973609729087164,0.9999901255879643,21.49798697485928,0.01902846744813351,48.46221539203218,-19.801904911862774,-88.06338500976562,5356.25390625,True
1599558627.2941196,0.0,10,0.5,0.5,-0.035208265686035155,-0.001,-0.00825,-0.2505,0.046966310233760356,10,1,100,-0.0075204578796291485,-10,-1,-100,15010.833430381026,-0.0023868313729044736,0.0035796021809698943,0.9999907446992814,21.647732944288947,0.01907001422288753,49.72187076976111,-20.173299055897076,-87.978515625,5356.25390625,True
1599558627.327515,0.0,10,0.5,0.5,-0.014906369018554688,-0.001,-0.00825,-0.2505,0.03887409606022787,10,1,100,0.02767412097710792,-10,-1,-100,15010.833430381026,-0.0023868313729044736,0.0035796021809698943,0.9999907446992814,21.647732944288947,0.01907001422288753,49.72187076976111,-20.173299055897076,-87.978515625,5356.25390625,True
1599558627.3633626,0.0,10,0.5,0.5,-0.04263923950195313,-0.001,-0.00825,-0.2505,0.04857591940462286,10,1,100,-0.02944935454600187,-10,-1,-100,15009.602959699929,-0.0018700985887651462,0.0036666978862658003,0.9999915289930605,21.866254201528537,0.019119411862294437,51.62148620423003,-20.730370653901325,-87.87176513671875,5356.25390625,True
1599558627.394714,0.0,10,0.5,0.5,-0.016732809448242188,-0.001,-0.00825,-0.2505,0.03997580301904455,10,1,100,0.02191981269486879,-10,-1,-100,15009.602959699929,-0.0018700985887651462,0.0036666978862658003,0.9999915289930605,21.866254201528537,0.019119411862294437,51.62148620423003,-20.730370653901325,-87.87176513671875,5356.25390625,True
1599558627.427611,0.0,10,0.5,0.5,-0.04443023376464844,-0.001,-0.00825,-0.2505,0.04670235814965534,10,1,100,-0.05374388898262852,-10,-1,-100,15007.918386869598,-0.00118473042953804,0.003727020424484709,0.9999923528370429,22.16943388419743,0.019182864656795532,54.22784850574103,-21.473096208838335,-87.76443481445312,5356.25390625,True
1599558627.461373,0.0,10,0.5,0.5,-0.023490838623046878,-0.001,-0.00825,-0.2505,0.041431661152986854,10,1,100,-0.005019828840017426,-10,-1,-100,15007.461355358246,-0.0010072761552555479,0.003733290608636514,0.9999925239400437,22.24649412489585,0.019197740807543294,54.890855731714,-21.65877091795984,-87.74322509765625,5356.25390625,True
1599558627.4970014,0.0,10,0.5,0.5,-0.018700655364990236,-0.001,-0.00825,-0.2505,0.04086228653283529,10,1,100,0.012448798692156336,-10,-1,-100,15007.461355358246,-0.0010072761552555479,0.003733290608636514,0.9999925239400437,22.24649412489585,0.019197740807543294,54.890855731714,-21.65877091795984,-87.74322509765625,5356.25390625,True
1599558627.5281484,0.0,10,0.5,0.5,-0.03577117462158203,-0.001,-0.00825,-0.2505,0.03893556075035026,10,1,100,-0.06139446812303548,-10,-1,-100,15005.706471406156,-0.00033849009235449004,0.0037152508852045687,0.999993041143446,22.548574433234972,0.01924447092013496,57.56092297537914,-22.40144341360602,-87.67742919921875,5356.25390625,True
1599558627.5617151,0.0,10,0.5,0.5,-0.02273710632324219,-0.001,-0.00825,-0.2505,0.03925400885580135,10,1,100,-0.013469169136974917,-10,-1,-100,15005.250416401075,-0.0001688511621524483,0.003701408018450285,0.9999931355104226,22.62253261341804,0.019253107599279742,58.232702482566026,-22.587104738276558,-87.66546630859375,5356.25390625,True
1599558627.5947204,0.0,10,0.5,0.5,-0.024948014831542964,-0.001,-0.00825,-0.2505,0.03631327327530613,10,1,100,-0.03186716346604333,-10,-1,-100,15004.338306657854,0.00014980246034238591,0.0036617641177732305,0.9999932844988353,22.76888173029304,0.01926718477623015,59.58191132200759,-22.95841949492472,-87.64654541015625,5356.25390625,True
1599558627.631854,0.0,10,0.5,0.5,-0.023445761871337893,-0.001,-0.00825,-0.2505,0.03445642288291746,10,1,100,-0.03584857754439487,-10,-1,-100,15003.411548743374,0.0004730535611308069,0.003608694292549771,0.999993376750982,22.91288619570392,0.01927699901443788,60.937760195205406,-23.329723378439965,-87.63504028320312,5356.25390625,True
1599558627.6607,0.0,10,0.5,0.5,-0.021645312500000003,-0.001,-0.00825,-0.2505,0.036269665745739914,10,1,100,-0.020738229858953194,-10,-1,-100,15002.954517406644,0.0006269515056762331,0.0035769065755435754,0.9999934063138413,22.984090535159208,0.019280454663520005,61.61830320578428,-23.515371290605675,-87.63186645507812,5356.25390625,True
1599558627.6947627,0.0,10,0.5,0.5,-0.021404885101318362,-0.001,-0.00825,-0.2505,0.031343133894401506,10,1,100,-0.038633036228471376,-10,-1,-100,15001.986743723508,0.0009267989832780762,0.0035032244483488907,0.9999934342094997,23.12497309330905,0.019284664570686987,62.98465196683784,-23.88665912386255,-87.63079833984375,5356.25390625,True
1599558627.7276747,0.0,10,0.5,0.5,-0.0213361198425293,-0.001,-0.00825,-0.2505,0.038694999270078294,10,1,100,-0.00892797822549139,-10,-1,-100,15001.986743723508,0.0009267989832780762,0.0035032244483488907,0.9999934342094997,23.12497309330905,0.019284664570686987,62.98465196683784,-23.88665912386255,-87.63079833984375,5356.25390625,True
1599558627.7636435,0.0,10,0.5,0.5,-0.020161061859130858,-0.001,-0.00825,-0.2505,0.028999646553227794,10,1,100,-0.041619078176622346,-10,-1,-100,15001.005298480159,0.0012214481668592274,0.0034152334904119924,0.9999934221006566,23.263882904129225,0.01928553356415015,64.35798205937472,-24.25793621616402,-87.63626098632812,5356.25390625,True
1599558627.7940087,0.0,10,0.5,0.5,-0.016654012298583987,-0.001,-0.00825,-0.2505,0.02068215409100973,10,1,100,-0.05796336176423623,-10,-1,-100,14999.5521736925,0.0016357080221873117,0.0032599115852983505,0.9999933486957412,23.468867789273723,0.01928132723611773,66.43144062841424,-24.81483140444915,-87.65606689453125,5356.25390625,True
1599558627.8270643,0.0,10,0.5,0.5,-0.021687297821044924,-0.001,-0.00825,-0.2505,0.03616700670004011,10,1,100,-0.01680167464917208,-10,-1,-100,14999.5521736925,0.0016357080221873117,0.0032599115852983505,0.9999933486957412,23.468867789273723,0.01928132723611773,66.43144062841424,-24.81483140444915,-87.65606689453125,5356.25390625,True
1599558627.86162,0.0,10,0.5,0.5,-0.016563112640380864,-0.001,-0.00825,-0.2505,0.023246789303678694,10,1,100,-0.045073965968334316,-10,-1,-100,14998.553150680265,0.0018903261394729294,0.0031428854080799177,0.9999932744465826,23.603311038505655,0.019275211563329002,67.8225178773587,-25.18608149564609,-87.67672729492188,5356.25390625,True
1599558627.896819,0.0,10,0.5,0.5,-0.01142369232177734,-0.001,-0.00825,-0.2505,0.013236876750164286,10,1,100,-0.05902016327423902,-10,-1,-100,14996.991627383512,0.0022465545704845997,0.0029460191014649612,0.9999931369584573,23.802328734383863,0.019262174298298733,69.92372696832692,-25.74293635043989,-87.71774291992188,5356.25390625,True
1599558627.9274695,0.0,10,0.5,0.5,-0.02165497817993164,-0.001,-0.00825,-0.2505,0.032847968519961405,10,1,100,-0.023638860746335692,-10,-1,-100,14996.991627383512,0.0022465545704845997,0.0029460191014649612,0.9999931369584573,23.802328734383863,0.019262174298298733,69.92372696832692,-25.74293635043989,-87.71774291992188,5356.25390625,True
1599558627.9614637,0.0,10,0.5,0.5,-0.013092150878906254,-0.001,-0.00825,-0.2505,0.01712478924063396,10,1,100,-0.047316003435964676,-10,-1,-100,14995.92522146646,0.002459895183926552,0.002803731785304083,0.999993043977687,23.933364747747607,0.019251280142171916,71.33438077558311,-26.114159343937715,-87.75155639648438,5356.25390625,True
1599558627.9944527,0.0,10,0.5,0.5,-0.0067299728393554695,-0.001,-0.00825,-0.2505,0.005875157595228657,10,1,100,-0.057826106977604944,-10,-1,-100,14994.347096825833,0.002747581372322515,0.002572842085206187,0.9999929156150094,24.12807582609054,0.019232639971084237,73.4666304423994,-26.670973695590753,-87.81015014648438,5356.25390625,True
1599558628.0307586,0.0,10,0.5,0.5,-0.010070223999023438,-0.001,-0.00825,-0.2505,0.011036987287669248,10,1,100,-0.047587495480881425,-10,-1,-100,14993.278737851302,0.0029141081391971346,0.0024107808682215025,0.9999928480291038,24.256696871409254,0.019218975417259792,74.89893792126247,-27.042169480025223,-87.85464477539062,5356.25390625,True
1599558628.062091,0.0,10,0.5,0.5,-0.01514459915161133,-0.001,-0.00825,-0.2505,0.018081372084415088,10,1,100,-0.03930263043401645,-10,-1,-100,14992.753346957616,0.0029883725094244536,0.0023284854814605038,0.9999928238668054,24.320699612452433,0.01921186547633079,75.61844330423139,-27.227763343820865,-87.8780517578125,5356.25390625,True
1599558628.0945454,0.0,10,0.5,0.5,-0.0208040641784668,-0.001,-0.00825,-0.2505,0.02619343686382612,10,1,100,-0.032082350763899196,-10,-1,-100,14992.753346957616,0.0029883725094244536,0.0023284854814605038,0.9999928238668054,24.320699612452433,0.01921186547633079,75.61844330423139,-27.227763343820865,-87.8780517578125,5356.25390625,True
1599558628.128492,0.0,10,0.5,0.5,-0.008362689208984378,-0.001,-0.00825,-0.2505,0.0073450525698806925,10,1,100,-0.04734298849918064,-10,-1,-100,14991.632253368734,0.0031254992848883164,0.0021581244860691376,0.9999927868504466,24.448491031176246,0.019197536286679154,77.06536259688617,-27.598942738361522,-87.92672729492188,5356.25390625,True
1599558628.1646874,0.0,10,0.5,0.5,-0.007200399017333985,-0.001,-0.00825,-0.2505,0.004540808910881086,10,1,100,-0.047109149224399904,-10,-1,-100,14990.566823994508,0.003246679822573184,0.0019787593543581076,0.9999927717646498,24.575942480007303,0.019183098635163747,78.5226322394329,-27.970111195368467,-87.97894287109375,5356.25390625,True
1599558628.195161,0.0,10,0.5,0.5,0.0019753364562988297,-0.001,-0.00825,-0.2505,-0.008456931216808187,10,1,100,-0.051341698229209226,-10,-1,-100,14988.830495800357,0.0033938571461482525,0.0016987035536699417,0.9999927980440201,24.76543970517733,0.019160849697837646,80.7244749672459,-28.52684325376194,-88.06637573242188,5356.25390625,True
