Timestamp,Input Throttle,horizon,dT,dt,Input Roll,Roll P,Roll I,Roll D,Input Pitch,Pitch P,Pitch I,Pitch D,Input Yaw,Yaw P,Yaw I,Yaw D,Altitude,Direction X,Direction Y,Direction Z,Drag X,Drag Y,Drag Z,Vertical Velocity,Roll,Mass,Has Fuel
1599559058.593679,0.0,10,0.5,0.5,-0.05836952209472657,-0.001,-0.02275,-0.2505,-0.0005115023740508615,10,1,100,0.17113119357388057,-10,-1,-100,14993.381624890026,-0.01677644354979402,-7.588036382470855e-05,0.9998592626885,28.71708028717588,0.027109246789895014,-88.32777240230892,27.194949814989155,-31.791015625,5356.25390625,True
1599559058.6305504,0.0,10,0.5,0.5,-0.1909567810058594,-0.001,-0.02275,-0.2505,-0.000233034457891199,10,1,100,0.1772066981582306,-10,-1,-100,14994.467565473053,-0.016847030988933212,-7.103166185435984e-05,0.9998580761794952,28.571748737400004,0.027439585886484326,-86.68200844162548,26.823010808619003,-31.78973388671875,5356.25390625,True
1599559058.661467,0.0,10,0.5,0.5,-0.32322523956298826,-0.001,-0.02275,-0.2505,-0.0004931209315402795,10,1,100,0.17586439717316876,-10,-1,-100,14995.010535352514,-0.01688368316920561,-6.892359922189415e-05,0.9998574580869912,28.499149139423363,0.027602520043387292,-85.86389951014948,26.637047373705375,-31.789093017578125,5356.25390625,True
1599559058.694115,0.0,10,0.5,0.5,-0.4551798332214355,-0.001,-0.02275,-0.2505,0.0031632089056819633,10,1,100,0.1758555406338261,-10,-1,-100,14995.536904409295,-0.01690157401621449,-3.3705158672885056e-05,0.9998571576278967,28.426562756823035,0.027763931163029772,-85.04887727915776,26.451087764866884,-31.79034423828125,5356.25390625,True
1599559058.7299855,0.0,10,0.5,0.5,-0.5799841041564942,-0.001,-0.02275,-0.2505,0.00781802129179775,10,1,100,0.1796836922450997,-10,-1,-100,14996.568156730966,-0.016937274733583037,4.0658722753332995e-05,0.9998565532472483,28.28395092928744,0.028084159764252364,-83.4355216319461,26.07918027732503,-31.8218994140625,5356.25390625,True
1599559058.763897,0.0,10,0.5,0.5,-0.6703398933410645,-0.001,-0.02275,-0.2505,0.02030609435960359,10,1,100,0.17953352733441533,-10,-1,-100,14998.110148462234,-0.016952967273154054,0.00022175322582744492,0.9998562635329851,28.08207849950078,0.02856075645521148,-81.0726886531683,25.521347603942612,-32.02032470703125,5356.25390625,True
1599559058.7945895,0.0,10,0.5,0.5,-0.7772237266540528,-0.001,-0.02275,-0.2505,0.0226966372531576,10,1,100,0.1765241775985508,-10,-1,-100,14999.126749439165,-0.01692446370491698,0.00040791520654001275,0.999856687797549,27.960370581442433,0.02887730290761129,-79.5481894234207,25.14947762543031,-32.31744384765625,5356.25390625,True
1599559058.9693236,0.0,10,0.5,0.5,-0.9828798866271973,-0.001,-0.02275,-0.2505,0.004121230702554822,10,1,100,0.18106698079274994,-10,-1,-100,14999.126749439165,-0.01692446370491698,0.00040791520654001275,0.999856687797549,27.960370581442433,0.02887730290761129,-79.5481894234207,25.14947762543031,-32.31744384765625,5356.25390625,True
1599559058.9947643,0.0,10,0.5,0.5,-0.9202942863464355,-0.001,-0.02275,-0.2505,0.04497429596079555,10,1,100,0.1707006880471595,-10,-1,-100,15000.6150270293,-0.016814838803861688,0.0007789358768817103,0.9998583171904407,27.801824826268,0.02934644719139255,-77.34735095337992,24.59169891154823,-33.08807373046875,5356.25390625,True
1599559059.026685,0.0,10,0.5,0.5,-1.2428117042541502,-0.001,-0.02275,-0.2505,0.007950122514313969,10,1,100,0.18334466203307487,-10,-1,-100,15000.6150270293,-0.016814838803861688,0.0007789358768817103,0.9998583171904407,27.801824826268,0.02934644719139255,-77.34735095337992,24.59169891154823,-33.08807373046875,5356.25390625,True
1599559059.0536075,0.0,10,0.5,0.5,-1.1721639305114744,-0.001,-0.02275,-0.2505,0.04271236637154063,10,1,100,0.17270850003997448,-10,-1,-100,15001.560334997484,-0.01670286020501181,0.001094248152059333,0.9998598987267935,27.71342948276838,0.029650018441635735,-75.93857087118161,24.21986290895087,-33.8837890625,5356.25390625,True
1599559059.101994,0.0,10,0.5,0.5,-1.2424608695983885,-0.001,-0.02275,-0.2505,0.02988283604262938,10,1,100,0.17549149352012577,-10,-1,-100,15002.033964706468,-0.016626428313463098,0.0012631998278526293,0.9998609734396738,27.674774839724215,0.0297970494902525,-75.25201559643384,24.033949568229634,-34.377899169921875,5356.25390625,True
1599559059.1668208,0.0,10,0.5,0.5,-0.6978496490478513,-0.001,-0.02275,-0.2505,0.10142253517725967,10,1,100,0.13955479801762893,-10,-1,-100,15003.927506032167,-0.016230448091737452,0.002065940223897986,0.9998661432640534,27.546444229662686,0.030319030039936586,-72.5911381301295,23.290325766283583,-37.0120849609375,5356.25390625,True
1599559059.1977372,0.0,10,0.5,0.5,-0.6685047264099121,-0.001,-0.02275,-0.2505,0.0998637907716144,10,1,100,0.13380709741704044,-10,-1,-100,15005.330814140383,-0.015818808098415578,0.0027795930313214263,0.9998710112674163,27.459253097413825,0.030587309371464037,-70.63274042738945,22.732637787464817,-39.705230712890625,5356.25390625,True
1599559059.2286541,0.0,10,0.5,0.5,-1.0678826675415038,-0.001,-0.02275,-0.2505,0.05530095764065701,10,1,100,0.156442519780728,-10,-1,-100,15005.802488369634,-0.015651350822263578,0.0030206941021613098,0.999872947241088,27.4272174489558,0.03064087900093761,-69.97476727755553,22.54674753416731,-40.72808837890625,5356.25390625,True
1599559059.2616036,0.0,10,0.5,0.5,-0.7514802337646483,-0.001,-0.02275,-0.2505,0.08744957321511442,10,1,100,0.13242478318458795,-10,-1,-100,15006.67943117139,-0.015281942896625322,0.0035294279123477186,0.999876995114857,27.351858831139392,0.03067929141458038,-68.63449109373349,22.174976056639057,-42.92437744140625,5356.25390625,True
1599559059.2975059,0.0,10,0.5,0.5,-1.2768439239501954,-0.001,-0.02275,-0.2505,0.03690695966512557,10,1,100,0.16919847331076063,-10,-1,-100,15006.67943117139,-0.015281942896625322,0.0035294279123477186,0.999876995114857,27.351858831139392,0.03067929141458038,-68.63449109373349,22.174976056639057,-42.92437744140625,5356.25390625,True
1599559059.3274276,0.0,10,0.5,0.5,0.009553131103515744,-0.001,-0.02275,-0.2505,0.15553782582234207,10,1,100,0.07047041573483095,-10,-1,-100,15008.41671241331,-0.014385908301215318,0.004605052593135316,0.9998859130585668,27.12630887636887,0.030421445293120183,-65.79131865605002,21.43147333915866,-47.943328857421875,5356.25390625,True
1599559059.3613546,0.0,10,0.5,0.5,-1.2121453102111817,-0.001,-0.02275,-0.2505,0.04839507148224185,10,1,100,0.15982001973546126,-10,-1,-100,15008.41671241331,-0.014385908301215318,0.004605052593135316,0.9998859130585668,27.12630887636887,0.030421445293120183,-65.79131865605002,21.43147333915866,-47.943328857421875,5356.25390625,True
1599559059.3942966,0.0,10,0.5,0.5,-0.08249637908935559,-0.001,-0.02275,-0.2505,0.14040906734227881,10,1,100,0.06996517244362632,-10,-1,-100,15009.695990881184,-0.013571254171746497,0.005438065176666331,0.9998931185418469,26.855596620378584,0.02987428319791923,-63.443881538394386,20.873888084630035,-52.30059814453125,5356.25390625,True
1599559059.4300933,0.0,10,0.5,0.5,-1.1302838424682617,-0.001,-0.02275,-0.2505,0.057573721919155815,10,1,100,0.1511062269272969,-10,-1,-100,15009.695990881184,-0.013571254171746497,0.005438065176666331,0.9998931185418469,26.855596620378584,0.02987428319791923,-63.443881538394386,20.873888084630035,-52.30059814453125,5356.25390625,True
1599559059.4605048,0.0,10,0.5,0.5,-0.7001908081054687,-0.001,-0.02275,-0.2505,0.09016486069515829,10,1,100,0.11783752379597376,-10,-1,-100,15010.09832771204,-0.013271658330582891,0.005730399331880347,0.9998955073449692,26.741242394702354,0.029618999956162337,-62.612524603998516,20.68803568309817,-53.8441162109375,5356.25390625,True
1599559059.496406,0.0,10,0.5,0.5,0.6360801872253419,-0.001,-0.02275,-0.2505,0.18635758597835136,10,1,100,0.0009158202138498106,-10,-1,-100,15011.708653973648,-0.011939423687853832,0.006866575885100273,0.9999051456501342,26.12202572373051,0.028215434099517208,-58.969994127633655,19.94468169308209,-60.51861572265625,5356.25390625,True
1599559059.5283177,0.0,10,0.5,0.5,-0.5290245628356933,-0.001,-0.02275,-0.2505,0.10347893060166338,10,1,100,0.09348509460910032,-10,-1,-100,15012.099273591419,-0.011573741074787768,0.007141657124911041,0.9999075183490942,25.920121464841205,0.027770944904433683,-57.97032238395639,19.75885904528317,-62.321319580078125,5356.25390625,True
1599559059.5642676,0.0,10,0.5,0.5,-0.46307552413940434,-0.001,-0.02275,-0.2505,0.1065058434378411,10,1,100,0.08793455039816164,-10,-1,-100,15012.501610526815,-0.011194701994649748,0.007415282855891909,0.9999098420494809,25.697024736667483,0.02729181204386754,-56.93220146096777,19.573043686039213,-64.17449951171875,5356.25390625,True
1599559059.5941858,0.0,10,0.5,0.5,-0.40932469100952135,-0.001,-0.02275,-0.2505,0.10623059550191477,10,1,100,0.08383036086169479,-10,-1,-100,15012.850237944047,-0.010816861697672406,0.007657536185771795,0.99991217496467,25.451480640774914,0.026780429098816647,-55.8542123673001,19.38723589859782,-66.02194213867188,5356.25390625,True
1599559059.6271434,0.0,10,0.5,0.5,0.6115042053222657,-0.001,-0.02275,-0.2505,0.1667639562603385,10,1,100,-0.014824534601437386,-10,-1,-100,15014.045532973949,-0.009580566997299943,0.008424316939581521,0.9999186184985814,24.602551556694927,0.02512059894034136,-52.442883825923666,18.82986096685854,-71.71206665039062,5356.25390625,True
1599559059.6601124,0.0,10,0.5,0.5,-0.7483799919128418,-0.001,-0.02275,-0.2505,0.09057536978208924,10,1,100,0.10823479784587645,-10,-1,-100,15014.045532973949,-0.009580566997299943,0.008424316939581521,0.9999186184985814,24.602551556694927,0.02512059894034136,-52.442883825923666,18.82986096685854,-71.71206665039062,5356.25390625,True
1599559059.6970117,0.0,10,0.5,0.5,0.298515618133545,-0.001,-0.02275,-0.2505,0.14168391428983867,10,1,100,0.011763884257241855,-10,-1,-100,15014.77989708248,-0.008707927184043188,0.008885468012973383,0.9999226072363538,23.922340714532577,0.02393485694274472,-49.98941835499714,18.458320327522816,-75.65966796875,5356.25390625,True
1599559059.7279282,0.0,10,0.5,0.5,0.8524307327270507,-0.001,-0.02275,-0.2505,0.1614256006512161,10,1,100,-0.049686363232511896,-10,-1,-100,15015.836524214945,-0.007361141450373078,0.009480274850778654,0.9999279663982308,22.809101813324602,0.022210396843040107,-46.22806791894562,17.90107474348901,-81.54330444335938,5356.25390625,True
1599559059.7618382,0.0,10,0.5,0.5,-0.051401836395263634,-0.001,-0.02275,-0.2505,0.12283365549525355,10,1,100,0.031989901428141315,-10,-1,-100,15016.183199212886,-0.006884947837334711,0.009666497738570957,0.999929575677581,22.402908868392664,0.0216557736253458,-44.935013235744634,17.715343006707556,-83.54525756835938,5356.25390625,True
1599559059.7948387,0.0,10,0.5,0.5,1.0156854248046874,-0.001,-0.02275,-0.2505,0.15308615841218323,10,1,100,-0.07360059207243448,-10,-1,-100,15017.237876153435,-0.005498209435780426,0.010106969997116135,0.9999338072344977,21.05053249224317,0.020073477776379512,-40.898126876035896,17.158194921611848,-89.49951171875,5356.25390625,True
1599559059.830744,0.0,10,0.5,0.5,0.09342851715087891,-0.001,-0.02275,-0.2505,0.1237855920029641,10,1,100,0.01135967074658839,-10,-1,-100,15017.570880306186,-0.005016970958990195,0.01023705183692318,0.9999350142744703,20.918655925517367,0.01992490802690461,-40.20321126209923,16.97249050630495,-91.44053649902344,5356.25390625,True
1599559059.8615837,0.0,10,0.5,0.5,-0.32245082054138186,-0.001,-0.02275,-0.2505,0.11111445561744182,10,1,100,0.058791273152725095,-10,-1,-100,15017.570880306186,-0.005016970958990195,0.01023705183692318,0.9999350142744703,20.918655925517367,0.01992490802690461,-40.20321126209923,16.97249050630495,-91.44053649902344,5356.25390625,True
1599559059.89447,0.0,10,0.5,0.5,1.6476714279174807,-0.001,-0.02275,-0.2505,0.1522055313772998,10,1,100,-0.14914228041488684,-10,-1,-100,15018.904854537686,-0.00313262662666263,0.01060779307591097,0.9999388288172814,22.083104042759693,0.02126095693915477,-40.588386911915975,16.22967324991447,-99.0106201171875,5356.25390625,True
1599559059.9284072,0.0,10,0.5,0.5,-0.16938234405517577,-0.001,-0.02275,-0.2505,0.11545065850052283,10,1,100,0.03848594528107097,-10,-1,-100,15018.904854537686,-0.00313262662666263,0.01060779307591097,0.9999388288172814,22.083104042759693,0.02126095693915477,-40.588386911915975,16.22967324991447,-99.0106201171875,5356.25390625,True
1599559059.9643111,0.0,10,0.5,0.5,0.3762316261291504,-0.001,-0.02275,-0.2505,0.12244994597153017,10,1,100,-0.015017325339126725,-10,-1,-100,15019.222235927358,-0.002653218925634478,0.010668740910292728,0.9999395673723096,22.36246351227041,0.021651057887238458,-40.63270101751559,16.043967596222764,-100.88165283203125,5356.25390625,True
1599559059.994407,0.0,10,0.5,0.5,0.9148132904052734,-0.001,-0.02275,-0.2505,0.12584753489250794,10,1,100,-0.06723395641834445,-10,-1,-100,15019.832584487624,-0.0017489946858629656,0.010752994819038932,0.9999406552991086,22.877232091196866,0.02244928028505916,-40.608011293771916,15.672552500227155,-104.62286376953125,5356.25390625,True
1599559060.0285046,0.0,10,0.5,0.5,1.4445942169189454,-0.001,-0.02275,-0.2505,0.12146290373490234,10,1,100,-0.1303084858706581,-10,-1,-100,15020.748596967082,-0.00036068744769640913,0.010787612018394106,0.9999417469690451,23.493470783343042,0.0235906823333612,-40.22265283304192,15.115420398934674,-110.1579818725586,5356.25390625,True
1599559060.0611978,0.0,10,0.5,0.5,0.13653079624176023,-0.001,-0.02275,-0.2505,0.11819139819992705,10,1,100,0.007687513972362864,-10,-1,-100,15020.748596967082,-0.00036068744769640913,0.010787612018394106,0.9999417469690451,23.493470783343042,0.0235906823333612,-40.22265283304192,15.115420398934674,-110.1579818725586,5356.25390625,True
1599559060.0972433,0.0,10,0.5,0.5,1.103645972061157,-0.001,-0.02275,-0.2505,0.11514242058025662,10,1,100,-0.08914464371972293,-10,-1,-100,15021.345275640953,0.0005132408458655739,0.01075870555169927,0.9999419917368637,23.852001007886848,0.0243216050935221,-39.83504315370051,14.743993105986583,-113.7445297241211,5356.25390625,True
1599559060.1285274,0.0,10,0.5,0.5,1.1178348203659056,-0.001,-0.02275,-0.2505,0.11231513261878867,10,1,100,-0.09263323857125492,-10,-1,-100,15021.926330989576,0.001332709985314758,0.010705731411587776,0.9999418039061262,24.161509524031775,0.024989308223633797,-39.33732464699515,14.372561976221567,-117.10005950927734,5356.25390625,True
1599559060.1614935,0.0,10,0.5,0.5,1.1471772331237793,-0.001,-0.02275,-0.2505,0.10523488081598795,10,1,100,-0.10272567119705656,-10,-1,-100,15022.523011429352,0.0021632213910293993,0.010592662848356891,0.9999415562756627,24.38385491828001,0.025532619597901388,-38.67519093083246,14.001129567642765,-120.30924987792969,5356.25390625,True
1599559060.1955721,0.0,10,0.5,0.5,1.5288221229553223,-0.001,-0.02275,-0.2505,0.09574045016434933,10,1,100,-0.14190008311419428,-10,-1,-100,15023.310123955715,0.003267835329698489,0.010403236956758068,0.9999405451891025,24.590433208768733,0.026117651551980817,-37.453348769628796,13.443983413692523,-124.76201629638672,5356.25390625,True
1599559060.2304428,0.0,10,0.5,0.5,0.8294105329513549,-0.001,-0.02275,-0.2505,0.10652691391207868,10,1,100,-0.0705647482037895,-10,-1,-100,15023.576725827064,0.003615995132676992,0.010328939284720465,0.9999401170032398,24.626439783907927,0.02624856052359981,-36.990870121131955,13.258269814194389,-126.11470031738281,5356.25390625,True
1599559060.2613618,0.0,10,0.5,0.5,0.5522249681472778,-0.001,-0.02275,-0.2505,0.11392879573671998,10,1,100,-0.03642363008187315,-10,-1,-100,15023.576725827064,0.003615995132676992,0.010328939284720465,0.9999401170032398,24.626439783907927,0.02624856052359981,-36.990870121131955,13.258269814194389,-126.11470031738281,5356.25390625,True
1599559060.2943084,0.0,10,0.5,0.5,1.2425983747482299,-0.001,-0.02275,-0.2505,0.0969620445774114,10,1,100,-0.10887591768340997,-10,-1,-100,15024.08844694437,0.0042685171820006544,0.01017494959580965,0.9999391232279042,24.655794647445777,0.026418675606688858,-35.99900753051781,12.886846906546822,-128.6145477294922,5356.25390625,True
1599559060.3283474,0.0,10,0.5,0.5,1.245069952583313,-0.001,-0.02275,-0.2505,0.09234027851865777,10,1,100,-0.11191150245415608,-10,-1,-100,15024.614817102323,0.004883022782840189,0.009993391815642499,0.9999381421910665,24.63740594920875,0.026477248899555512,-34.936878081683645,12.515431510642125,-130.86341857910156,5356.25390625,True
1599559060.4520233,0.0,10,0.5,0.5,1.0051401014328003,-0.001,-0.02275,-0.2505,0.0996248287990596,10,1,100,-0.08306751012170668,-10,-1,-100,15024.864819033537,0.005173417019245951,0.00989525302077001,0.9999376579187323,24.613716996894127,0.02646949577406621,-34.38611091108495,12.329727230059797,-131.9119873046875,5356.25390625,True
1599559060.4769444,0.0,10,0.5,0.5,1.2839501277923582,-0.001,-0.02275,-0.2505,0.08828323300302299,10,1,100,-0.11338007843118927,-10,-1,-100,15025.32087631314,0.005707949578367446,0.009703741753647074,0.9999366263456847,24.543148424941407,0.026389126463832686,-33.256079212688384,11.958325643710026,-133.86819458007812,5356.25390625,True
1599559060.5108557,0.0,10,0.5,0.5,1.2759359209060668,-0.001,-0.02275,-0.2505,0.08555818526761179,10,1,100,-0.11411249749120658,-10,-1,-100,15025.777910510194,0.006195029680817996,0.009505852777090436,0.9999356281132472,24.448769962598334,0.026235620128292513,-32.10064200159257,11.586934392706489,-135.57028198242188,5356.25390625,True
1599559060.5612414,0.0,10,0.5,0.5,1.2588213951110838,-0.001,-0.02275,-0.2505,0.08299842352944496,10,1,100,-0.11420867692505446,-10,-1,-100,15026.232990521588,0.006633538869867156,0.009303822103305256,0.9999347153971262,24.34927359511267,0.02603809937515302,-30.94656150842104,11.215553566264354,-137.0001220703125,5356.25390625,True
1599559060.5972729,0.0,10,0.5,0.5,1.355458539390564,-0.001,-0.02275,-0.2505,0.070904771043138,10,1,100,-0.1326422727127888,-10,-1,-100,15026.923422907945,0.007194942795359839,0.009011490022087105,0.9999335107124641,24.21400226536577,0.025703995610622286,-29.247868261253842,10.658501463930591,-138.62850952148438,5356.25390625,True
1599559060.6284652,0.0,10,0.5,0.5,1.0910502908706665,-0.001,-0.02275,-0.2505,0.08964666451765275,10,1,100,-0.09484861525500352,-10,-1,-100,15027.13240883057,0.007357157004005748,0.008917551864226438,0.9999331725218277,24.16478921898622,0.025578406942768396,-28.680499275502235,10.472822339963242,-139.03338623046875,5356.25390625,True
1599559060.6616251,0.0,10,0.5,0.5,1.1736921798706053,-0.001,-0.02275,-0.2505,0.07960259635879041,10,1,100,-0.11042471131495345,-10,-1,-100,15027.506433683331,0.00764250777452493,0.008742194451174839,0.9999325807828715,24.06371887019315,0.025315787753428947,-27.54888588067273,10.101471222286742,-139.6361541748047,5356.25390625,True
1599559060.6937528,0.0,10,0.5,0.5,1.053460117340088,-0.001,-0.02275,-0.2505,0.09697966318059577,10,1,100,-0.08229228552722,-10,-1,-100,15027.506433683331,0.00764250777452493,0.008742194451174839,0.9999325807828715,24.06371887019315,0.025315787753428947,-27.54888588067273,10.101471222286742,-139.6361541748047,5356.25390625,True
1599559060.7298145,0.0,10,0.5,0.5,1.1815579421997071,-0.001,-0.02275,-0.2505,0.06855264199456909,10,1,100,-0.11991555910030782,-10,-1,-100,15028.083582801628,0.00798087706824223,0.008485209481150547,0.9999321511089053,23.911069035387108,0.02491308600525497,-25.8661303401224,9.544460688199795,-140.02317810058594,5356.25390625,True
1599559060.76211,0.0,10,0.5,0.5,1.0887310592651367,-0.001,-0.02275,-0.2505,0.07641555914974557,10,1,100,-0.10459130279221804,-10,-1,-100,15028.458582793945,0.00814579922346965,0.008324603973552485,0.9999321711614715,23.811115227751223,0.02465139734402182,-24.756779463344348,9.173129948360796,-139.93637084960938,5356.25390625,True
1599559060.8209565,0.0,10,0.5,0.5,1.0398441097259523,-0.001,-0.02275,-0.2505,0.07722947398088972,10,1,100,-0.10131543935897827,-10,-1,-100,15028.845301304827,0.008262981718428188,0.008187515272239276,0.9999323415745627,23.71288769017668,0.024402588184073995,-23.65747826276736,8.801805783288753,-139.57345581054688,5356.25390625,True
1599559060.8778052,0.0,10,0.5,0.5,1.0765441226959227,-0.001,-0.02275,-0.2505,0.0830833694191423,10,1,100,-0.09449734721105812,-10,-1,-100,15029.024012283655,0.008304719908228328,0.0081176589002555,0.9999325653468962,23.664057510410167,0.024284344292126808,-23.11117334638409,8.61614597883352,-139.28860473632812,5356.25390625,True
1599559060.9097204,0.0,10,0.5,0.5,0.8412429721832275,-0.001,-0.02275,-0.2505,0.06882498319135293,10,1,100,-0.09667667947919009,-10,-1,-100,15029.521079007187,0.008360115128366145,0.007925973308066157,0.9999336415093555,23.515038280866932,0.023957933277005322,-21.48215218600736,8.059174094321303,-138.020263671875,5356.25390625,True
1599559060.9634829,0.0,10,0.5,0.5,0.8651584011077879,-0.001,-0.02275,-0.2505,0.0749030516546246,10,1,100,-0.08913390055861968,-10,-1,-100,15029.836505919113,0.008339935442443023,0.0078084051007137915,0.9999347350135404,23.408607160921434,0.0237640758826417,-20.400312631811016,7.687864991084064,-136.82989501953125,5356.25390625,True
1599559060.9954278,0.0,10,0.5,0.5,0.987262307357788,-0.001,-0.02275,-0.2505,0.080225988225441,10,1,100,-0.08834427974002478,-10,-1,-100,15029.960528132273,0.008312860632732434,0.007751274714675964,0.9999354049579394,23.35129043998594,0.023673560520454735,-19.859233641943305,7.502211790690954,-136.1313018798828,5356.25390625,True
1599559061.0323656,0.0,10,0.5,0.5,0.7587592834472656,-0.001,-0.02275,-0.2505,0.07428701181804766,10,1,100,-0.08190554337476146,-10,-1,-100,15030.262282194803,0.008228696913459167,0.007646492955762919,0.9999369078559827,23.22457570869588,0.023502787209467815,-18.77448565843201,7.130907640423436,-134.5495147705078,5356.25390625,True
1599559061.067272,0.0,10,0.5,0.5,0.9233789791107178,-0.001,-0.02275,-0.2505,0.07875702503920579,10,1,100,-0.08393218729294974,-10,-1,-100,15030.386302880943,0.008169816168003859,0.007593028803223828,0.9999377980741475,23.153535539779075,0.023421016747645892,-18.23003238712216,6.945256542803508,-133.66912841796875,5356.25390625,True
1599559061.0952744,0.0,10,0.5,0.5,0.0933906501770021,-0.001,-0.02275,-0.2505,0.06100234367970035,10,1,100,-0.0525758830653821,-10,-1,-100,15030.93609598896,0.007830751535163438,0.00738406353005456,0.9999420757904823,22.79361999094268,0.023090933226829254,-16.028646991733904,6.202654650071107,-129.5460662841797,5356.25390625,True
1599559061.128381,0.0,10,0.5,0.5,1.1032627647399904,-0.001,-0.02275,-0.2505,0.0817630579045151,10,1,100,-0.08650117072548803,-10,-1,-100,15030.93609598896,0.007830751535163438,0.00738406353005456,0.9999420757904823,22.79361999094268,0.023090933226829254,-16.028646991733904,6.202654650071107,-129.5460662841797,5356.25390625,True
1599559061.165281,0.0,10,0.5,0.5,0.7853339744567869,-0.001,-0.02275,-0.2505,0.07591952885795629,10,1,100,-0.07439630595141848,-10,-1,-100,15031.059140190482,0.0077208437877019686,0.007331941580495931,0.9999433139952815,22.679683738476914,0.023001488260202672,-15.471375605734345,6.017004193213785,-128.376708984375,5356.25390625,True
1599559061.1961648,0.0,10,0.5,0.5,-0.24696698760986324,-0.001,-0.02275,-0.2505,0.056154935165000676,10,1,100,-0.026307329863925984,-10,-1,-100,15031.468305092538,0.007184141466883217,0.007105782285863995,0.9999489466815243,22.095576218114697,0.0225683147157613,-13.21328286460547,5.274395963161108,-123.21199035644531,5356.25390625,True
1599559061.2310753,0.0,10,0.5,0.5,0.6503535900115966,-0.001,-0.02275,-0.2505,0.07186388031118109,10,1,100,-0.06267983450532862,-10,-1,-100,15031.594276979682,0.007027870163107598,0.007043974912969672,0.9999504945038009,21.910438698866784,0.022429953795633967,-12.641509247489191,5.088740994130258,-121.78368377685547,5356.25390625,True
1599559061.2639844,0.0,10,0.5,0.5,0.9683206930160523,-0.001,-0.02275,-0.2505,0.07793724920188486,10,1,100,-0.07817927990837842,-10,-1,-100,15031.594276979682,0.007027870163107598,0.007043974912969672,0.9999504945038009,21.910438698866784,0.022429953795633967,-12.641509247489191,5.088740994130258,-121.78368377685547,5356.25390625,True
1599559061.299605,0.0,10,0.5,0.5,0.18210158996582027,-0.001,-0.02275,-0.2505,0.06328601022842129,10,1,100,-0.04173676556404041,-10,-1,-100,15031.755401164177,0.0066977857099456695,0.006911583648115545,0.9999536837664326,21.485146149504757,0.022103502736492166,-11.491851451822326,4.717425572550547,-118.80443572998047,5356.25390625,True
1599559061.3294923,0.0,10,0.5,0.5,0.10925961704254139,-0.001,-0.02275,-0.2505,0.06058250629694949,10,1,100,-0.03360022896883051,-10,-1,-100,15031.934103397885,0.0063252332832351875,0.006767465936555321,0.9999570954939567,20.99277623575477,0.0217100734440654,-10.344861325713026,4.346100551467422,-115.71045684814453,5356.25390625,True
1599559061.3634298,0.0,10,0.5,0.5,-0.4258326892852784,-0.001,-0.02275,-0.2505,0.047715274904579094,10,1,100,-0.003260189686066242,-10,-1,-100,15032.205574405729,0.005712537653972799,0.0065203693759136785,0.9999624251424418,20.14349264979244,0.020989217853965816,-8.654373520803743,3.789087756058901,-110.68589782714844,5356.25390625,True
1599559061.3960338,0.0,10,0.5,0.5,0.7785296169281005,-0.001,-0.02275,-0.2505,0.07231231861075846,10,1,100,-0.06427813668635647,-10,-1,-100,15032.205574405729,0.005712537653972799,0.0065203693759136785,0.9999624251424418,20.14349264979244,0.020989217853965816,-8.654373520803743,3.789087756058901,-110.68589782714844,5356.25390625,True
1599559061.432505,0.0,10,0.5,0.5,-0.1509870529174805,-0.001,-0.02275,-0.2505,0.05170027447943627,10,1,100,-0.016265820286518094,-10,-1,-100,15032.312010284164,0.005278295939896115,0.0063339623014719406,0.9999660096790962,19.52536666872602,0.020432309480958373,-7.566741798642381,3.417724164468657,-107.19790649414062,5356.25390625,True
1599559061.4634125,0.0,10,0.5,0.5,0.23487888755798342,-0.001,-0.02275,-0.2505,0.05926234886575417,10,1,100,-0.03538872963423402,-10,-1,-100,15032.365715843043,0.005059695789892244,0.006234202092971962,0.9999677665818921,19.211606131663878,0.02014095061784188,-7.040693214739062,3.2320348989489824,-105.46019744873047,5356.25390625,True
1599559061.4956954,0.0,10,0.5,0.5,-1.1275135061264039,-0.001,-0.02275,-0.2505,0.019500186542391267,10,1,100,0.045463914911959724,-10,-1,-100,15032.6215566725,0.004128463481055392,0.005783082119975121,0.9999747555565988,17.757863870762254,0.018698935938728185,-5.01232275985092,2.4892140806808025,-98.53020477294922,5356.25390625,True
1599559061.5286133,0.0,10,0.5,0.5,0.10206059226989733,-0.001,-0.02275,-0.2505,0.05054879094505145,10,1,100,-0.020609125892329338,-10,-1,-100,15032.67526369635,0.003885818462430561,0.005656641147693559,0.999976451135627,17.36335918709036,0.018290208665001983,-4.535329454263821,2.3034924335778038,-96.78671264648438,5356.25390625,True
1599559061.5645652,0.0,10,0.5,0.5,0.47868786315917966,-0.001,-0.02275,-0.2505,0.06304797405939061,10,1,100,-0.04454379545436721,-10,-1,-100,15032.67526369635,0.003885818462430561,0.005656641147693559,0.999976451135627,17.36335918709036,0.018290208665001983,-4.535329454263821,2.3034924335778038,-96.78671264648438,5356.25390625,True
1599559061.587504,0.0,10,0.5,0.5,-1.3123160341262818,-0.001,-0.02275,-0.2505,0.0024868705903694083,10,1,100,0.06222221397470045,-10,-1,-100,15032.805130069493,0.002918074787348743,0.005107346874125436,0.9999826997740724,15.934823821312392,0.01678419229566563,-2.8198425095039283,1.5605615022678707,-89.89154052734375,5356.25390625,True
1599559061.6294806,0.0,10,0.5,0.5,-0.09254360313415527,-0.001,-0.02275,-0.2505,0.04031699855533262,10,1,100,-0.006489062860608904,-10,-1,-100,15032.846141102607,0.0026666919588460474,0.004953659268780302,0.9999841748817057,15.56339852087781,0.016388374946718756,-2.4263300407288177,1.374822655946196,-88.16226196289062,5356.25390625,True
1599559061.6630979,0.0,10,0.5,0.5,-0.17092985668182376,-0.001,-0.02275,-0.2505,0.03808312206817192,10,1,100,-0.0035456902938384473,-10,-1,-100,15032.843208507751,0.0024150688130103195,0.004795415227109933,0.9999855856138268,15.87286276327805,0.016708613015057976,-2.140268683897931,1.1890827598361935,-86.40536499023438,5356.25390625,True
1599559061.6986766,0.0,10,0.5,0.5,-1.0670078914642334,-0.001,-0.02275,-0.2505,0.0017496292309954406,10,1,100,0.050102391573318195,-10,-1,-100,15032.905698414077,0.0017021653584311654,0.004323045300443853,0.999989206897966,16.825957832626155,0.01770707888096246,-1.205622030464923,0.631863018728124,-81.35760498046875,5356.25390625,True
1599559061.7289848,0.0,10,0.5,0.5,-0.27936560668945315,-0.001,-0.02275,-0.2505,0.029966728147615272,10,1,100,0.006075936815049886,-10,-1,-100,15032.891047576442,0.0014579575996121388,0.004152134742785297,0.9999903170214779,17.105730266856337,0.01800746453865983,-0.8653836297209928,0.4461242371514609,-79.72698974609375,5356.25390625,True
1599559061.7620049,0.0,10,0.5,0.5,0.05867199363708497,-0.001,-0.02275,-0.2505,0.046820960450158065,10,1,100,-0.017919381061416717,-10,-1,-100,15032.891047576442,0.0014579575996121388,0.004152134742785297,0.9999903170214779,17.105730266856337,0.01800746453865983,-0.8653836297209928,0.4461242371514609,-79.72698974609375,5356.25390625,True
1599559061.7959988,0.0,10,0.5,0.5,-1.5735042430877686,-0.001,-0.02275,-0.2505,-0.02997863910981656,10,1,100,0.08544701474615018,-10,-1,-100,15032.881272636936,0.0005217361271254251,0.0034559400445661518,0.999993892116258,18.084424028209742,0.019091522020196164,0.6087448177873027,-0.296829249129106,-73.4857177734375,5356.25390625,True
1599559061.8323462,0.0,10,0.5,0.5,-0.46216822719573974,-0.001,-0.02275,-0.2505,0.01876540400366835,10,1,100,0.01803545308995784,-10,-1,-100,15032.91935569828,0.00028758349415994924,0.0032686891308971607,0.9999946164690585,18.337109900548143,0.0193710722460581,1.0035002879953634,-0.48256872012384155,-71.97732543945312,5356.25390625,True
1599559061.97098,0.0,10,0.5,0.5,-0.14472374801635743,-0.001,-0.02275,-0.2505,0.037239056071659664,10,1,100,-0.004995722207900197,-10,-1,-100,15032.91935569828,0.00028758349415994924,0.0032686891308971607,0.9999946164690585,18.337109900548143,0.0193710722460581,1.0035002879953634,-0.48256872012384155,-71.97732543945312,5356.25390625,True
1599559061.9929192,0.0,10,0.5,0.5,-0.9493100624084473,-0.001,-0.02275,-0.2505,-0.002426010780986025,10,1,100,0.04439342290576006,-10,-1,-100,15032.88810269942,-0.00015813761144762526,0.002910268479524742,0.9999957526559167,18.79417436882265,0.019871233520602823,1.8202980257850276,-0.8540518074673262,-69.00259399414062,5356.25390625,True
1599559062.0282557,0.0,10,0.5,0.5,-1.325133083343506,-0.001,-0.02275,-0.2505,-0.03018599498838936,10,1,100,0.0736999376556505,-10,-1,-100,15032.808998809429,-0.0008260851542045348,0.0023345647333626665,0.9999969336907106,19.343813015211712,0.020446451542553624,3.096045178002179,-1.4112939354826555,-64.79669189453125,5356.25390625,True
1599559062.0932503,0.0,10,0.5,0.5,-1.003576891326904,-0.001,-0.02275,-0.2505,-0.014869151114716928,10,1,100,0.05427270193497844,-10,-1,-100,15032.707435198943,-0.001253295177485113,0.0019529624376494043,0.9999973075908332,19.643455751657633,0.020744190575358118,3.9717172563269307,-1.7828026299752968,-62.113067626953125,5356.25390625,True
1599559062.1558661,0.0,10,0.5,0.5,-0.7075678123474121,-0.001,-0.02275,-0.2505,0.003200982601609354,10,1,100,0.03455905723079842,-10,-1,-100,15032.691809267504,-0.0014588893493964281,0.0017730531088140692,0.9999973639587955,19.774330321343133,0.02087134605770305,4.414818630624299,-1.968561046203075,-60.85272216796875,5356.25390625,True
1599559062.1993122,0.0,10,0.5,0.5,-1.0342482467651366,-0.001,-0.02275,-0.2505,-0.019505895361681794,10,1,100,0.05915664932788128,-10,-1,-100,15032.575598665979,-0.00186588583550528,0.001405820612132296,0.9999972710655042,19.995758729372064,0.021080440412400498,5.306920682121937,-2.3400859384911636,-58.52960205078125,5356.25390625,True
1599559062.2232842,0.0,10,0.5,0.5,-1.4767996444702147,-0.001,-0.02275,-0.2505,-0.0614555379820082,10,1,100,0.10397981228751522,-10,-1,-100,15032.355874718633,-0.002640122257788239,0.0006932645228625451,0.9999962745624432,20.33749032626275,0.021387391691156683,7.111991650925412,-3.0831651881457183,-54.662567138671875,5356.25390625,True
1599559062.2631445,0.0,10,0.5,0.5,-0.7714452293395996,-0.001,-0.02275,-0.2505,-0.008684360638216312,10,1,100,0.047190670496299686,-10,-1,-100,15032.325602984638,-0.0028239830982549692,0.000528368663215355,0.9999958729644921,20.41243843480525,0.021453520829334015,7.568426255787842,-3.2689401034367744,-53.84222412109375,5356.25390625,True
1599559062.2965038,0.0,10,0.5,0.5,-0.9871589378356933,-0.001,-0.02275,-0.2505,-0.026650830288893576,10,1,100,0.06857617913352626,-10,-1,-100,15032.151777544292,-0.0031816503583832682,0.0002184261267840888,0.9999949146825818,20.547991214022773,0.021572591474857045,8.484915750708238,-3.640494576899358,-52.401580810546875,5356.25390625,True
1599559062.330473,0.0,10,0.5,0.5,-0.9701911148071289,-0.001,-0.02275,-0.2505,-0.02893456176990407,10,1,100,0.071288622638807,-10,-1,-100,15032.037522563944,-0.003528094275379266,-8.115781623735582e-05,0.9999937729627085,20.669178895984892,0.021679671163915202,9.406387203974328,-4.012054320125677,-51.224853515625,5356.25390625,True
1599559062.3662155,0.0,10,0.5,0.5,-0.9545227394104003,-0.001,-0.02275,-0.2505,-0.029346826730692728,10,1,100,0.07361846494573093,-10,-1,-100,15031.849049252924,-0.0038607548774662642,-0.00035420940322117094,0.9999924845254963,20.781360431300232,0.02178027440814352,10.333693195417789,-4.383617908574518,-50.302825927734375,5356.25390625,True
1599559062.397209,0.0,10,0.5,0.5,-0.7728643150329589,-0.001,-0.02275,-0.2505,-0.0024039578857230452,10,1,100,0.040767238574193745,-10,-1,-100,15031.849049252924,-0.0038607548774662642,-0.00035420940322117094,0.9999924845254963,20.781360431300232,0.02178027440814352,10.333693195417789,-4.383617908574518,-50.302825927734375,5356.25390625,True
1599559062.4292605,0.0,10,0.5,0.5,-0.9062189094543457,-0.001,-0.02275,-0.2505,-0.016646928224783208,10,1,100,0.058886806477131626,-10,-1,-100,15031.763112807646,-0.004022112206342046,-0.00048072324459194887,0.9999917957256259,20.835329156990376,0.021829365289772293,10.79983038730067,-4.569400760531382,-49.941741943359375,5356.25390625,True
1599559062.4631662,0.0,10,0.5,0.5,-0.9809766586303712,-0.001,-0.02275,-0.2505,-0.030250420849261186,10,1,100,0.07759280116508083,-10,-1,-100,15031.57756980951,-0.004335949705163079,-0.0007168445897170426,0.9999903427903635,20.941773809051003,0.021927719248342213,11.738170869474374,-4.940967757914178,-49.419219970703125,5356.25390625,True
1599559062.4980953,0.0,10,0.5,0.5,-0.9642575820922852,-0.001,-0.02275,-0.2505,-0.04339038544061122,10,1,100,0.09616992093392204,-10,-1,-100,15031.233826953685,-0.004787337016055595,-0.001048527484272704,0.9999879909250958,21.101906443536766,0.022077727180383117,13.16300389109925,-5.4983196843818956,-49.080078125,5356.25390625,True
1599559062.5291252,0.0,10,0.5,0.5,-0.9045119049072264,-0.001,-0.02275,-0.2505,-0.021316464068816765,10,1,100,0.06723658640633196,-10,-1,-100,15031.134218794876,-0.004931632941464646,-0.0011468203026769133,0.9999871818177092,21.156016766047827,0.022128227511961748,13.642978774425803,-5.684103559612835,-49.086334228515625,5356.25390625,True
1599559062.563482,0.0,10,0.5,0.5,-0.9096486442565919,-0.001,-0.02275,-0.2505,-0.021594748791298402,10,1,100,0.06854625250998742,-10,-1,-100,15030.99164349027,-0.005071930068137051,-0.0012363866887807463,0.9999863733438269,21.21047580034159,0.022178502355937282,14.12549681415852,-5.86988717701282,-49.157562255859375,5356.25390625,True
1599559062.5964684,0.0,10,0.5,0.5,-0.7872638999938963,-0.001,-0.02275,-0.2505,-0.03864567652119667,10,1,100,0.09906956946198439,-10,-1,-100,15030.635203764657,-0.005474746875757075,-0.0014710648816818122,0.9999839314282808,21.374410315039846,0.022322359872872052,15.587419516419002,-6.427235480541928,-49.764923095703125,5356.25390625,True
1599559062.6316607,0.0,10,0.5,0.5,-0.9486836502075194,-0.001,-0.02275,-0.2505,-0.015377800585579799,10,1,100,0.05905296507773221,-10,-1,-100,15030.635203764657,-0.005474746875757075,-0.0014710648816818122,0.9999839314282808,21.374410315039846,0.022322359872872052,15.587419516419002,-6.427235480541928,-49.764923095703125,5356.25390625,True
1599559062.6635733,0.0,10,0.5,0.5,-0.7729570251464843,-0.001,-0.02275,-0.2505,-0.029922996602126863,10,1,100,0.0871301935753807,-10,-1,-100,15030.381301915739,-0.005727909774356267,-0.0016017580354609074,0.9999823125539834,21.481338799318724,0.02240477100495375,16.571895145400408,-6.798797881951151,-50.48748779296875,5356.25390625,True
1599559062.6966755,0.0,10,0.5,0.5,-0.5726075851440429,-0.001,-0.02275,-0.2505,-0.03207421925236148,10,1,100,0.10040011615593075,-10,-1,-100,15029.91158201627,-0.006076693691543281,-0.0017387441991538327,0.9999800250816958,21.630625106030184,0.02248944948333802,18.056502595860586,-7.356135089743539,-52.010467529296875,5356.25390625,True
1599559062.7304735,0.0,10,0.5,0.5,-0.9502291244506836,-0.001,-0.02275,-0.2505,-0.018514056362662217,10,1,100,0.06574331831863706,-10,-1,-100,15029.91158201627,-0.006076693691543281,-0.0017387441991538327,0.9999800250816958,21.630625106030184,0.02248944948333802,18.056502595860586,-7.356135089743539,-52.010467529296875,5356.25390625,True
1599559062.7663743,0.0,10,0.5,0.5,-0.23438003692626952,-0.001,-0.02275,-0.2505,-0.028952239260328062,10,1,100,0.110800400256736,-10,-1,-100,15029.314909684239,-0.006484289037513202,-0.0018323781029544925,0.999977297935391,21.78373085839117,0.022479515783157815,20.02363878264778,-8.099237171447003,-54.841339111328125,5356.25390625,True
1599559062.7969952,0.0,10,0.5,0.5,-0.9323667846679687,-0.001,-0.02275,-0.2505,-0.019724014366098337,10,1,100,0.07028708334286107,-10,-1,-100,15029.314909684239,-0.006484289037513202,-0.0018323781029544925,0.999977297935391,21.78373085839117,0.022479515783157815,20.02363878264778,-8.099237171447003,-54.841339111328125,5356.25390625,True
1599559062.8304706,0.0,10,0.5,0.5,-0.2517159576416016,-0.001,-0.02275,-0.2505,-0.021008891798215548,10,1,100,0.09918354192639912,-10,-1,-100,15028.776827753172,-0.006745031079788684,-0.0018430446855071604,0.9999755535721961,21.84167687789,0.022339226907492862,21.46046005602995,-8.656552671662986,-57.4986572265625,5356.25390625,True
1599559062.864505,0.0,10,0.5,0.5,-0.8982218780517578,-0.001,-0.02275,-0.2505,-0.020021685263072204,10,1,100,0.07330510710522421,-10,-1,-100,15028.776827753172,-0.006745031079788684,-0.0018430446855071604,0.9999755535721961,21.84167687789,0.022339226907492862,21.46046005602995,-8.656552671662986,-57.4986572265625,5356.25390625,True
1599559062.899012,0.0,10,0.5,0.5,-0.37047329330444334,-0.001,-0.02275,-0.2505,-0.01793359331891232,10,1,100,0.09041243793881709,-10,-1,-100,15028.450658643851,-0.00689890372542287,-0.001823429100212225,0.9999745397927409,21.842402462424726,0.02216656629640172,22.38377577936532,-9.028091696266692,-59.520965576171875,5356.25390625,True
1599559062.9309225,0.0,10,0.5,0.5,-0.01864877853393554,-0.001,-0.02275,-0.2505,-0.011416656413603548,10,1,100,0.09501434408867762,-10,-1,-100,15027.886209017248,-0.007078962574036966,-0.001745818194067266,0.9999734198506022,21.77068999904983,0.021773282674804523,23.689972984784983,-9.58539566623193,-62.84039306640625,5356.25390625,True
1599559062.9638293,0.0,10,0.5,0.5,-0.8204186706542969,-0.001,-0.02275,-0.2505,-0.01920522235933798,10,1,100,0.07716888079709601,-10,-1,-100,15027.886209017248,-0.007078962574036966,-0.001745818194067266,0.9999734198506022,21.77068999904983,0.021773282674804523,23.689972984784983,-9.58539566623193,-62.84039306640625,5356.25390625,True
1599559062.9969032,0.0,10,0.5,0.5,-0.19011287918090825,-0.001,-0.02275,-0.2505,-0.010749890471080784,10,1,100,0.08726819034369396,-10,-1,-100,15027.488749415614,-0.007169316101098511,-0.001668701764799123,0.9999729078035376,21.66958262094768,0.021422108598730432,24.49570493652957,-9.956930051724047,-65.22830200195312,5356.25390625,True
1599559063.0327787,0.0,10,0.5,0.5,-0.13934583740234385,-0.001,-0.02275,-0.2505,-0.008104797293798767,10,1,100,0.08528696688551843,-10,-1,-100,15027.093242617557,-0.007232134179419463,-0.0015744887604624853,0.9999726082350225,21.525203285882867,0.02100537134920272,25.242347650436198,-10.328464665202755,-67.67523193359375,5356.25390625,True
1599559063.0647879,0.0,10,0.5,0.5,-0.39915797653198243,-0.001,-0.02275,-0.2505,-0.011662735733137872,10,1,100,0.08193660058670404,-10,-1,-100,15026.866679460858,-0.007257733247460311,-0.0015213347927310714,0.9999725050462924,21.43923186970707,0.020777090932095555,25.594717512422488,-10.514232358007666,-68.93768310546875,5356.25390625,True
1599559063.0967135,0.0,10,0.5,0.5,0.30392518463134766,-0.001,-0.02275,-0.2505,0.0030812217860485946,10,1,100,0.0824242086915086,-10,-1,-100,15026.18796927249,-0.007284364256126653,-0.0013391746713521115,0.9999725719481427,21.104696242037114,0.020006709224472816,26.53401921330157,-11.071539194703368,-72.83755493164062,5356.25390625,True
1599559063.1445868,0.0,10,0.5,0.5,0.039395658874511796,-0.001,-0.02275,-0.2505,2.8257107773242002e-05,10,1,100,0.07817195066491567,-10,-1,-100,15025.77878883481,-0.00726919003174647,-0.0012017771521115625,0.9999728569356066,20.82507371084439,0.0194444345103971,27.063378371429604,-11.443081462139453,-75.50732421875,5356.25390625,True
1599559063.1914618,0.0,10,0.5,0.5,0.08854328231811526,-0.001,-0.02275,-0.2505,0.001978730655318813,10,1,100,0.07489374973770413,-10,-1,-100,15025.313943674206,-0.007224879909340533,-0.0010597120123250518,0.999973338704961,20.547954700906722,0.01890335991739685,27.57268103274624,-11.814627813741087,-78.17495727539062,5356.25390625,True
1599559063.2223787,0.0,10,0.5,0.5,0.12977610931396488,-0.001,-0.02275,-0.2505,0.004447762181246888,10,1,100,0.0716604608798125,-10,-1,-100,15024.790504221455,-0.007154768218600164,-0.0009088282647135887,0.999973991323236,20.249372585258378,0.01837322421101446,28.029068398100282,-12.186178223434768,-80.80889892578125,5356.25390625,True
1599559063.2682552,0.0,10,0.5,0.5,0.18002218017578125,-0.001,-0.02275,-0.2505,0.006320269051303111,10,1,100,0.06803288244093558,-10,-1,-100,15024.324681684957,-0.007057679843811119,-0.0007554877193579235,0.9999748088794679,19.92171547372893,0.017859055970270443,28.41895098588742,-12.557732368478161,-83.42129516601562,5356.25390625,True
1599559063.2972152,0.0,10,0.5,0.5,-0.0941911483764648,-0.001,-0.02275,-0.2505,-0.0004452869927278353,10,1,100,0.07136653662537366,-10,-1,-100,15024.02975809027,-0.006999579290117435,-0.0006785631343265585,0.9999752724151904,19.74778826958679,0.017612216824357062,28.58896007043214,-12.743510562631872,-84.716796875,5356.25390625,True
1599559063.3343303,0.0,10,0.5,0.5,-0.04525285034179688,-0.001,-0.02275,-0.2505,0.0005056946669106544,10,1,100,0.0700445804074048,-10,-1,-100,15023.788546719588,-0.006934814987763387,-0.0006009566374465502,0.9999757733026362,19.567882828344228,0.01737452034900303,28.742883625482794,-12.929289445081686,-86.00384521484375,5356.25390625,True
1599559063.3642192,0.0,10,0.5,0.5,0.006520602416992205,-0.001,-0.02275,-0.2505,0.0013634880570600168,10,1,100,0.06868764401653349,-10,-1,-100,15023.549286688678,-0.006863733607148398,-0.0005236479381512037,0.999976307196229,19.382364375470168,0.017147356223565727,28.88088406257004,-13.115068919070602,-87.2821044921875,5356.25390625,True
1599559063.5038476,0.0,10,0.5,0.5,0.37381222000122066,-0.001,-0.02275,-0.2505,0.010732870855307816,10,1,100,0.05812738820673234,-10,-1,-100,15023.013150549377,-0.006703389646949261,-0.00036923205319558855,0.9999774638635274,18.9963588458485,0.01672991274046154,29.110544959162226,-13.486628889050646,-89.81619262695312,5356.25390625,True
1599559063.5267518,0.0,10,0.5,0.5,1.0677491859436035,-0.001,-0.02275,-0.2505,0.02884859565882597,10,1,100,0.03068743233235588,-10,-1,-100,15021.887167344219,-0.006308648942939778,-6.526125657419787e-05,0.9999800981466996,19.669305683878534,0.017379984099282146,31.809165724770217,-14.229730088693657,-94.89911651611328,5356.25390625,True
1599559063.5635405,0.0,10,0.5,0.5,-0.14646098728179932,-0.001,-0.02275,-0.2505,-0.0014028766496974124,10,1,100,0.07006659430285211,-10,-1,-100,15021.887167344219,-0.006308648942939778,-6.526125657419787e-05,0.9999800981466996,19.669305683878534,0.017379984099282146,31.809165724770217,-14.229730088693657,-94.89911651611328,5356.25390625,True
1599559063.6247833,0.0,10,0.5,0.5,0.8281496738433838,-0.001,-0.02275,-0.2505,0.021877715463116842,10,1,100,0.032161477584762774,-10,-1,-100,15020.984818664961,-0.005964943986696409,0.00014522238680158818,0.9999821990184096,20.52950518551711,0.01836252518223741,34.50609442845632,-14.787015604923026,-98.57474517822266,5356.25390625,True
1599559063.658799,0.0,10,0.5,0.5,0.548868016242981,-0.001,-0.02275,-0.2505,0.016266497029808043,10,1,100,0.03711966447345592,-10,-1,-100,15020.37836964347,-0.005698745040049693,0.000284335531805029,0.9999837215966438,21.042845213989683,0.019041210384406995,36.26150277605988,-15.158517697192874,-100.91663360595703,5356.25390625,True
1599559063.6957376,0.0,10,0.5,0.5,0.013962278747558593,-0.001,-0.02275,-0.2505,0.0024895872838769707,10,1,100,0.06358694565119846,-10,-1,-100,15020.37836964347,-0.005698745040049693,0.000284335531805029,0.9999837215966438,21.042845213989683,0.019041210384406995,36.26150277605988,-15.158517697192874,-100.91663360595703,5356.25390625,True
1599559063.7326326,0.0,10,0.5,0.5,0.345707268333435,-0.001,-0.02275,-0.2505,0.00939013669965572,10,1,100,0.04922397593884997,-10,-1,-100,15020.082468293258,-0.0055694962455542976,0.00034598310486072797,0.9999844303824246,21.28817712080886,0.019391236450020628,37.13583886266052,-15.344261898294143,-102.0538101196289,5356.25390625,True
1599559063.7695289,0.0,10,0.5,0.5,0.6406355579376221,-0.001,-0.02275,-0.2505,0.01663329607108372,10,1,100,0.03167989110670451,-10,-1,-100,15019.477972345427,-0.005293858555355577,0.0004668719193568737,0.9999858784463942,21.784269216003263,0.020133023297084173,38.925594521835414,-15.715735842637425,-104.19059753417969,5356.25390625,True
1599559063.7976346,0.0,10,0.5,0.5,0.9188327835083008,-0.001,-0.02275,-0.2505,0.023115247285724963,10,1,100,0.008996376610532701,-10,-1,-100,15018.492615809198,-0.004838615724059507,0.0006346563662558508,0.9999880924336907,22.451162148373253,0.021250306126079855,41.5466288528566,-16.272911081057483,-107.24888610839844,5356.25390625,True
1599559063.8315525,0.0,10,0.5,0.5,0.6904021595001221,-0.001,-0.02275,-0.2505,0.01740842156744074,10,1,100,0.01935158702645494,-10,-1,-100,15017.830502971774,-0.0045208025169021036,0.000734184163267153,0.9999895116041057,22.856811252436938,0.021997860268548535,43.267706134909986,-16.64433699838924,-109.19456481933594,5356.25390625,True
1599559063.8676903,0.0,10,0.5,0.5,0.7054365356445312,-0.001,-0.02275,-0.2505,0.017421438081090403,10,1,100,0.01563130952030197,-10,-1,-100,15017.155694275047,-0.004200190652239661,0.0008236388269456807,0.9999908399668306,23.269831621966308,0.02277550052097027,45.03771397658953,-17.01574353483632,-110.99407196044922,5356.25390625,True
1599559063.8976638,0.0,10,0.5,0.5,0.30283967227935793,-0.001,-0.02275,-0.2505,0.00859525880125176,10,1,100,0.04744217608707526,-10,-1,-100,15017.155694275047,-0.004200190652239661,0.0008236388269456807,0.9999908399668306,23.269831621966308,0.02277550052097027,45.03771397658953,-17.01574353483632,-110.99407196044922,5356.25390625,True
1599559063.930667,0.0,10,0.5,0.5,0.9248409803390503,-0.001,-0.02275,-0.2505,0.021809101179177434,10,1,100,-0.007708001121624543,-10,-1,-100,15016.114673002507,-0.0037007421851521175,0.0009429565757599869,0.9999927076434982,23.808498798473853,0.023889796494969643,47.59726849756485,-17.57281814634426,-113.32164764404297,5356.25390625,True
1599559063.9644597,0.0,10,0.5,0.5,0.383694529914856,-0.001,-0.02275,-0.2505,0.009978148080980229,10,1,100,0.04197605491135104,-10,-1,-100,15016.114673002507,-0.0037007421851521175,0.0009429565757599869,0.9999927076434982,23.808498798473853,0.023889796494969643,47.59726849756485,-17.57281814634426,-113.32164764404297,5356.25390625,True
1599559064.0002892,0.0,10,0.5,0.5,0.7507049642562866,-0.001,-0.02275,-0.2505,0.017475263445585774,10,1,100,0.003968895191975422,-10,-1,-100,15015.424240898225,-0.003357280916613743,0.0010103869570846206,0.9999938538726346,24.11776181783201,0.024591999626315527,49.24029988409058,-17.944178993097513,-114.64753723144531,5356.25390625,True
1599559064.0308113,0.0,10,0.5,0.5,0.7348114681243896,-0.001,-0.02275,-0.2505,0.017643530123356007,10,1,100,0.0020065675336358307,-10,-1,-100,15014.679120913614,-0.0030293326611607117,0.0010725569540637628,0.9999948363692727,24.395804944555223,0.02526481357759603,50.8448003338976,-18.31552354600098,-115.78075408935547,5356.25390625,True
1599559064.0647562,0.0,10,0.5,0.5,0.610015308380127,-0.001,-0.02275,-0.2505,0.014323138605041152,10,1,100,0.015047142835237858,-10,-1,-100,15014.31193266646,-0.002852175306562419,0.0010981731907671582,0.9999953295449253,24.52150071261551,0.025587562209613536,51.62795575261508,-18.501189944913158,-116.27880096435547,5356.25390625,True
1599559064.0975611,0.0,10,0.5,0.5,0.7412613063812254,-0.001,-0.02275,-0.2505,0.017073986222311537,10,1,100,-0.005319296004207025,-10,-1,-100,15013.567789989058,-0.0025084440137862827,0.001145784575121879,0.9999961974359388,24.755400953526564,0.026214060122964882,53.17293321871294,-18.872511623467574,-117.16804504394531,5356.25390625,True
1599559064.133592,0.0,10,0.5,0.5,0.7947016750335694,-0.001,-0.02275,-0.2505,0.01891952886502257,10,1,100,-0.02758752016005914,-10,-1,-100,15012.387122223736,-0.0019960548139743846,0.001205228118872848,0.9999972815914856,25.06110103027534,0.027103083652644883,55.428376306570804,-19.429467821692825,-118.14884948730469,5356.25390625,True
1599559064.1638427,0.0,10,0.5,0.5,0.5738075786590575,-0.001,-0.02275,-0.2505,0.013032231665187357,10,1,100,0.023367143730122168,-10,-1,-100,15012.387122223736,-0.0019960548139743846,0.001205228118872848,0.9999972815914856,25.06110103027534,0.027103083652644883,55.428376306570804,-19.429467821692825,-118.14884948730469,5356.25390625,True
1599559064.1978865,0.0,10,0.5,0.5,0.735944739151001,-0.001,-0.02275,-0.2505,0.018410037755770627,10,1,100,-0.03224865683498133,-10,-1,-100,15011.206456855172,-0.001492751852203378,0.0012536890433730544,0.9999980999760402,25.316817326586712,0.02793685488204868,57.60978136164647,-19.9863950226936,-118.71253204345703,5356.25390625,True
1599559064.2317975,0.0,10,0.5,0.5,0.6333221298217773,-0.001,-0.02275,-0.2505,0.015180595285340527,10,1,100,-0.00013417244651398735,-10,-1,-100,15010.825596477254,-0.0013296148712158354,0.0012679949066271253,0.9999983121551812,25.391297840879773,0.02820357782950914,58.319623350916295,-20.172031498913267,-118.79611206054688,5356.25390625,True
1599559064.2669256,0.0,10,0.5,0.5,0.639805692100525,-0.001,-0.02275,-0.2505,0.014830442316249803,10,1,100,-0.0030558205193461,-10,-1,-100,15010.390049491194,-0.0011573577021841627,0.0012774130679757455,0.9999985143683979,25.46026336897329,0.028464970441039225,59.019935107555966,-20.35766514456653,-118.83456420898438,5356.25390625,True
1599559064.2977135,0.0,10,0.5,0.5,0.6291571247100831,-0.001,-0.02275,-0.2505,0.01636122725556409,10,1,100,-0.021799017473398366,-10,-1,-100,15009.575595473638,-0.0008326797439212288,0.0012995872082026067,0.9999988088580568,25.58490333399933,0.028976392971091985,60.398249507649176,-20.728924281209576,-118.78065490722656,5356.25390625,True
1599559064.3316205,0.0,10,0.5,0.5,0.5496832807540893,-0.001,-0.02275,-0.2505,0.016749787671745925,10,1,100,-0.04277395765115602,-10,-1,-100,15008.309969399124,-0.00034944401883097456,0.0013229536752537312,0.9999990638407871,25.737481730228776,0.02971745473264621,62.40294154894132,-21.28579403052263,-118.36157989501953,5356.25390625,True
1599559064.3651462,0.0,10,0.5,0.5,0.5374895774841308,-0.001,-0.02275,-0.2505,0.015896742190715657,10,1,100,-0.028915204597598165,-10,-1,-100,15007.438875433523,-3.886187550652651e-05,0.0013361568075470518,0.999999106586971,25.830767388513426,0.030213748606058764,63.729904238711974,-21.657028937978,-117.86209106445312,5356.25390625,True
1599559064.4002962,0.0,10,0.5,0.5,0.5007742559432984,-0.001,-0.02275,-0.2505,0.0162862418987681,10,1,100,-0.030428504678024913,-10,-1,-100,15006.55313346046,0.0002545241911689838,0.0013514609252928353,0.9999990543849547,25.905890011992273,0.03070057224374051,65.01962886672064,-22.02825494119499,-117.19977569580078,5356.25390625,True
1599559064.4321268,0.0,10,0.5,0.5,0.6687794733047485,-0.001,-0.02275,-0.2505,0.014781158897642324,10,1,100,-0.0014005679602470207,-10,-1,-100,15006.55313346046,0.0002545241911689838,0.0013514609252928353,0.9999990543849547,25.905890011992273,0.03070057224374051,65.01962886672064,-22.02825494119499,-117.19977569580078,5356.25390625,True
1599559064.4651842,0.0,10,0.5,0.5,0.34818110160827637,-0.001,-0.02275,-0.2505,0.016853987582276075,10,1,100,-0.048437911761657064,-10,-1,-100,15005.220126751461,0.0006796246182682067,0.001370117843925714,0.9999988304430519,25.98257871015495,0.031411974109457494,66.87436217202911,-22.585079207144656,-115.92474365234375,5356.25390625,True
1599559064.4987504,0.0,10,0.5,0.5,0.39831437988281254,-0.001,-0.02275,-0.2505,0.015909622576080445,10,1,100,-0.03655018898276722,-10,-1,-100,15004.334385204827,0.0009555769090664629,0.0013783436428765044,0.9999985935197976,26.007665113146203,0.031870571660707114,68.04871539115874,-22.956286476697905,-114.87423706054688,5356.25390625,True
1599559064.533658,0.0,10,0.5,0.5,0.5082420169830322,-0.001,-0.02275,-0.2505,0.01602227631292786,10,1,100,-0.022856036093661592,-10,-1,-100,15003.82852570084,0.0010792670274156985,0.0013866883890540143,0.9999984561378058,26.010443273291102,0.03209224099249257,68.61110645521768,-23.141887789285263,-114.29461669921875,5356.25390625,True
1599559064.5660815,0.0,10,0.5,0.5,0.6433861600875854,-0.001,-0.02275,-0.2505,0.01520110162974496,10,1,100,-0.010744226146699945,-10,-1,-100,15003.82852570084,0.0010792670274156985,0.0013866883890540143,0.9999984561378058,26.010443273291102,0.03209224099249257,68.61110645521768,-23.141887789285263,-114.29461669921875,5356.25390625,True
1599559064.5982704,0.0,10,0.5,0.5,-0.022525403785705445,-0.001,-0.02275,-0.2505,0.017725795615748205,10,1,100,-0.0639388296666654,-10,-1,-100,15001.973058834672,0.0015606644395075376,0.0014095322493972921,0.9999977887702279,25.96804062528881,0.03293354769208316,70.7173025555863,-23.88427998295989,-111.68757629394531,5356.25390625,True
1599559064.6331704,0.0,10,0.5,0.5,0.6142788202285767,-0.001,-0.02275,-0.2505,0.015454621499562582,10,1,100,-0.01607089067165066,-10,-1,-100,15001.973058834672,0.0015606644395075376,0.0014095322493972921,0.9999977887702279,25.96804062528881,0.03293354769208316,70.7173025555863,-23.88427998295989,-111.68757629394531,5356.25390625,True
1599559064.6683712,0.0,10,0.5,0.5,0.014341704750061135,-0.001,-0.02275,-0.2505,0.017247360676521096,10,1,100,-0.05196085297646074,-10,-1,-100,15000.513100063894,0.0018847610566572394,0.0014257299282412835,0.9999972074810666,25.865411223493766,0.03348182947704128,72.09607093704402,-24.44106309000387,-109.36630249023438,5356.25390625,True
1599559064.6981177,0.0,10,0.5,0.5,0.14803755912780753,-0.001,-0.02275,-0.2505,0.016316471313933215,10,1,100,-0.042684549535946095,-10,-1,-100,14999.488686848432,0.0020930332181745732,0.001431899027300488,0.9999967844333916,25.761869451257333,0.03379389633417016,72.90918673798618,-24.812248383737263,-107.66722106933594,5356.25390625,True
1599559064.7320454,0.0,10,0.5,0.5,0.5504641258239746,-0.001,-0.02275,-0.2505,0.015709135629988106,10,1,100,-0.022070522893580826,-10,-1,-100,14999.488686848432,0.0020930332181745732,0.001431899027300488,0.9999967844333916,25.761869451257333,0.03379389633417016,72.90918673798618,-24.812248383737263,-107.66722106933594,5356.25390625,True
1599559064.7649605,0.0,10,0.5,0.5,-0.14419293308258052,-0.001,-0.02275,-0.2505,0.017112088980965858,10,1,100,-0.05132761024710035,-10,-1,-100,14998.013101903023,0.002357335367727473,0.0014445800231257333,0.9999961780719568,25.60303092529535,0.03422631381902717,74.10305264981284,-25.369022301182383,-104.99139404296875,5356.25390625,True
1599559064.8018582,0.0,10,0.5,0.5,0.49832766876220697,-0.001,-0.02275,-0.2505,0.015853301308224616,10,1,100,-0.025107676409466227,-10,-1,-100,14998.013101903023,0.002357335367727473,0.0014445800231257333,0.9999961780719568,25.60303092529535,0.03422631381902717,74.10305264981284,-25.369022301182383,-104.99139404296875,5356.25390625,True
1599559064.834771,0.0,10,0.5,0.5,-0.48649659500122067,-0.001,-0.02275,-0.2505,0.01682868213050208,10,1,100,-0.058693544046046334,-10,-1,-100,14995.96427580819,0.002661136245560511,0.001453379428619892,0.9999954030104933,25.32073783429639,0.0346078443522477,75.45494339290019,-26.111381540146834,-101.17449188232422,5356.25390625,True
1599559064.867682,0.0,10,0.5,0.5,0.19118606357574458,-0.001,-0.02275,-0.2505,0.015998869646662355,10,1,100,-0.03606375670514946,-10,-1,-100,14995.38810490002,0.002730043013821943,0.0014537669239562722,0.9999952167019966,25.248848780075726,0.03467597530257918,75.78175256394206,-26.29697047165463,-100.19125366210938,5356.25390625,True
1599559064.8995967,0.0,10,0.5,0.5,-0.10116878643035893,-0.001,-0.02275,-0.2505,0.0159439092069723,10,1,100,-0.04213661681909681,-10,-1,-100,14994.362715437543,0.0028463926441987604,0.001453558571596797,0.9999948925951543,25.09774076303908,0.03476391739596935,76.40422127061763,-26.66814700920985,-98.17705535888672,5356.25390625,True
1599559065.0367415,0.0,10,0.5,0.5,0.3667204364776611,-0.001,-0.02275,-0.2505,0.015971431461174097,10,1,100,-0.030678366343093365,-10,-1,-100,14994.362715437543,0.0028463926441987604,0.001453558571596797,0.9999948925951543,25.09774076303908,0.03476391739596935,76.40422127061763,-26.66814700920985,-98.17705535888672,5356.25390625,True
1599559065.0586836,0.0,10,0.5,0.5,0.0827129556655884,-0.001,-0.02275,-0.2505,0.01583324457539726,10,1,100,-0.03672975078787507,-10,-1,-100,14993.788496379973,0.0029002363862379657,0.0014522623032513717,0.9999947397677181,25.01522161189883,0.03477701667733855,76.68944650660045,-26.85373475859203,-97.17001342773438,5356.25390625,True
1599559065.0806246,0.0,10,0.5,0.5,-0.20931089878082276,-0.001,-0.02275,-0.2505,0.015345130087019331,10,1,100,-0.04168873887643291,-10,-1,-100,14992.749434872996,0.002993049159854378,0.0014466076275395001,0.9999944744762835,24.83486597824552,0.03473463592904878,77.20206292043196,-27.224909057596413,-95.13716888427734,5356.25390625,True
1599559065.1326141,0.0,10,0.5,0.5,-0.2564692375183105,-0.001,-0.02275,-0.2505,0.014775997217641758,10,1,100,-0.041187792099279474,-10,-1,-100,14991.654708565213,0.0030718628123468147,0.001436274098353186,0.9999942503712593,24.634198990627535,0.03459459649335203,77.6357074583319,-27.596081697560017,-93.0536117553711,5356.25390625,True
1599559065.1685934,0.0,10,0.5,0.5,-0.3050787202835083,-0.001,-0.02275,-0.2505,0.014191616141979013,10,1,100,-0.04002690533299481,-10,-1,-100,14990.503341877484,0.0031320682261971947,0.001421563448340464,0.9999940846354985,24.404694170098256,0.03433644763259541,77.96050087817363,-27.967252992184054,-90.91725158691406,5356.25390625,True
1599559065.1995578,0.0,10,0.5,0.5,-0.6036464067459106,-0.001,-0.02275,-0.2505,0.012183928016059848,10,1,100,-0.04055033100656691,-10,-1,-100,14988.819749274757,0.0031906142585409023,0.0013899478158923243,0.9999939439945236,24.591833510756288,0.03453830377458811,80.14339346853212,-28.52399798188646,-87.75375366210938,5356.25390625,True
1599559065.2325652,0.0,10,0.5,0.5,0.1495941915512085,-0.001,-0.02275,-0.2505,0.015340028040150477,10,1,100,-0.034779055661277494,-10,-1,-100,14988.819749274757,0.0031906142585409023,0.0013899478158923243,0.9999939439945236,24.591833510756288,0.03453830377458811,80.14339346853212,-28.52399798188646,-87.75375366210938,5356.25390625,True
