Timestamp,Input Throttle,horizon,dT,dt,Input Roll,Roll P,Roll I,Roll D,Input Pitch,Pitch P,Pitch I,Pitch D,Input Yaw,Yaw P,Yaw I,Yaw D,Altitude,Direction X,Direction Y,Direction Z,Drag X,Drag Y,Drag Z,Vertical Velocity,Roll,Mass,Has Fuel
1599563917.9750767,0.0,10,0.5,0.5,-11.641845703125,-0.2,-0.0155,-0.5,-0.0005283429458611968,10,1,100,0.17116976855242377,-10,-1,-100,14993.45584406762,-0.016775669771055178,-7.726608676572403e-05,0.9998592755651589,28.717171782487423,0.027109290317583225,-88.32805684040679,27.19495067172346,-31.792144775390625,5356.25390625,True
1599563918.0189593,0.0,10,0.5,0.5,-11.732199104309084,-0.2,-0.0155,-0.5,-0.0005444206713694418,10,1,100,0.17324800019506603,-10,-1,-100,14994.000766780926,-0.016810340093849803,-7.512093399332066e-05,0.9998586934276135,28.6445576183223,0.027275271114309003,-87.5038055108637,27.008979149852387,-31.79156494140625,5356.25390625,True
1599563918.0648794,0.0,10,0.5,0.5,-11.726108702087403,-0.2,-0.0155,-0.5,0.007387988245238349,10,1,100,0.1834732050425842,-10,-1,-100,14996.118936427287,-0.01691953284946431,-9.89695018343748e-07,0.9998568544582651,28.357600028408733,0.027926676732446525,-84.24766545490534,26.26513220485712,-31.928741455078125,5356.25390625,True
1599563918.1127539,0.0,10,0.5,0.5,-11.88470740966797,-0.2,-0.0155,-0.5,-2.5234621761176324e-05,10,1,100,0.17424588276608002,-10,-1,-100,14996.118936427287,-0.01691953284946431,-9.89695018343748e-07,0.9998568544582651,28.357600028408733,0.027926676732446525,-84.24766545490534,26.26513220485712,-31.928741455078125,5356.25390625,True
1599563918.1599567,0.0,10,0.5,0.5,-11.700212245178225,-0.2,-0.0155,-0.5,0.009361943718510991,10,1,100,0.17929035259077777,-10,-1,-100,14997.14823508414,-0.016950010272552957,8.434918961596536e-05,0.9998563346986278,28.233377486041807,0.02825656364213384,-82.69404156249959,25.893231606163262,-32.320892333984375,5356.25390625,True
1599563918.2078285,0.0,10,0.5,0.5,-10.864660638427734,-0.2,-0.0155,-0.5,0.03562065683930701,10,1,100,0.17491060101693573,-10,-1,-100,14999.202921508113,-0.016922491997169026,0.0004005688865729229,0.9998567241406006,28.043975203324013,0.028915938929842122,-79.78593452483113,25.149470982116068,-33.92236328125,5356.25390625,True
1599563918.2666714,0.0,10,0.5,0.5,-10.903506634521486,-0.2,-0.0155,-0.5,0.029825782376353287,10,1,100,0.1722281880924779,-10,-1,-100,15000.169715721626,-0.016857705727509317,0.0006349965078827842,0.9998576971434684,27.973278812395783,0.029225375746057925,-78.41100615693644,24.777609296299385,-35.13494873046875,5356.25390625,True
1599563918.3125484,0.0,10,0.5,0.5,-10.553556008911134,-0.2,-0.0155,-0.5,0.036831434760141016,10,1,100,0.1685974952734443,-10,-1,-100,15001.13357930968,-0.016750477633347905,0.0009112230066462895,0.9998592856855844,27.912408915989456,0.02950337058486073,-77.06907556901966,24.405759088516653,-36.62249755859375,5356.25390625,True
1599563918.3628452,0.0,10,0.5,0.5,-11.380065551757815,-0.2,-0.0155,-0.5,0.009299907184455117,10,1,100,0.1809953524529203,-10,-1,-100,15001.13357930968,-0.016750477633347905,0.0009112230066462895,0.9998592856855844,27.912408915989456,0.02950337058486073,-77.06907556901966,24.405759088516653,-36.62249755859375,5356.25390625,True
1599563918.4077258,0.0,10,0.5,0.5,-10.229170309448243,-0.2,-0.0155,-0.5,0.044950769058664485,10,1,100,0.16683936651534495,-10,-1,-100,15002.101347484044,-0.016606559145157813,0.0012344933664057871,0.9998613394963758,27.85517682135218,0.02973305862449849,-75.74207496438936,24.03392002262602,-38.38482666015625,5356.25390625,True
1599563918.4575922,0.0,10,0.5,0.5,-8.145825439453127,-0.2,-0.0155,-0.5,0.09765857726689522,10,1,100,0.13664068719480485,-10,-1,-100,15004.030043511535,-0.016186093835575403,0.002006415137747059,0.999866983485624,27.71992556505111,0.029967541645592673,-73.04751480775653,23.290276269501305,-42.734130859375,5356.25390625,True
1599563918.5074596,0.0,10,0.5,0.5,-8.492506718444824,-0.2,-0.0155,-0.5,0.06829387290674074,10,1,100,0.14727437360327367,-10,-1,-100,15004.933354510344,-0.015901058499609728,0.0024393160891245267,0.9998705946649341,27.62276531296995,0.029927924518691314,-71.63208924571946,22.918473064975597,-45.3212890625,5356.25390625,True
1599563918.561315,0.0,10,0.5,0.5,-8.787319337463378,-0.2,-0.0155,-0.5,0.049221356277444686,10,1,100,0.1577019268478758,-10,-1,-100,15005.415771649103,-0.01573755802513208,0.002657190041907608,0.9998726261921999,27.561957346120906,0.029859003777928703,-70.8959735871421,22.732576765886048,-46.7181396484375,5356.25390625,True
1599563918.6081889,0.0,10,0.5,0.5,-6.240744647216797,-0.2,-0.0155,-0.5,0.10486234286926244,10,1,100,0.1119455321492375,-10,-1,-100,15006.736066227313,-0.015174028528186898,0.0033586678955115465,0.999879226811015,27.312859018681213,0.02942630348879436,-68.5356448348922,22.17491196694764,-51.32110595703125,5356.25390625,True
1599563918.6560616,0.0,10,0.5,0.5,-6.12339400177002,-0.2,-0.0155,-0.5,0.08913374612893482,10,1,100,0.11923091248394524,-10,-1,-100,15007.575897042756,-0.014729546537935238,0.0038503335578843946,0.9998841009788483,27.074086714289866,0.028929469437479687,-66.8001777119181,21.80315895140644,-54.733642578125,5356.25390625,True
1599563918.7069259,0.0,10,0.5,0.5,-6.528095156860352,-0.2,-0.0155,-0.5,0.06599667930912391,10,1,100,0.13682496052280135,-10,-1,-100,15008.059289633413,-0.014487436496000254,0.0040835417486175495,0.9998867130183108,26.927391646713687,0.02861453393005514,-65.87318209249304,21.617290608037422,-56.54339599609375,5356.25390625,True
1599563918.7557952,0.0,10,0.5,0.5,-3.3085019165039062,-0.2,-0.0155,-0.5,0.12174412231569094,10,1,100,0.0720975157675395,-10,-1,-100,15009.32098594273,-0.01368111882873986,0.004798995974014623,0.9998948927888547,26.355763811738,0.027403460729713416,-62.81578668924589,21.059723889257413,-62.385406494140625,5356.25390625,True
1599563918.8026693,0.0,10,0.5,0.5,-3.2200661972045905,-0.2,-0.0155,-0.5,0.10314073916770677,10,1,100,0.08566670498231543,-10,-1,-100,15010.157885348424,-0.013074346839454529,0.005276501787151986,0.9999006050521281,25.844812826649388,0.02638522860420752,-60.51361856784939,20.68804997260776,-66.624267578125,5356.25390625,True
1599563918.857524,0.0,10,0.5,0.5,-2.1325264663696286,-0.2,-0.0155,-0.5,0.10307776665970407,10,1,100,0.0753639872615526,-10,-1,-100,15010.935213380144,-0.012432416807000832,0.005706057068312741,0.9999064335851982,25.210695579023728,0.02522291328397704,-57.971290400774485,20.316410939256038,-71.13922119140625,5356.25390625,True
1599563918.9093845,0.0,10,0.5,0.5,-4.336502351379394,-0.2,-0.0155,-0.5,0.0606017219497952,10,1,100,0.1391251844242876,-10,-1,-100,15010.935213380144,-0.012432416807000832,0.005706057068312741,0.9999064335851982,25.210695579023728,0.02522291328397704,-57.971290400774485,20.316410939256038,-71.13922119140625,5356.25390625,True
1599563918.9582546,0.0,10,0.5,0.5,2.6139709396362303,-0.2,-0.0155,-0.5,0.1491994000515255,10,1,100,-0.017285063244350196,-10,-1,-100,15012.550417070976,-0.01101430013941154,0.006507425447690374,0.9999181659548353,23.506244719291566,0.02261494621598175,-52.08029725112566,19.57325038671719,-80.99594116210938,5356.25390625,True
1599563919.0121448,0.0,10,0.5,0.5,-0.40955101318359377,-0.2,-0.0155,-0.5,0.09018424319155764,10,1,100,0.08118942156434064,-10,-1,-100,15012.91076180467,-0.010625027388678614,0.006695348902661293,0.9999211374383788,22.977707109966634,0.02193717043732675,-50.42753060731214,19.38748599518101,-83.63241577148438,5356.25390625,True
1599563919.0679631,0.0,10,0.5,0.5,0.22542632598876944,-0.2,-0.0155,-0.5,0.09119951319897418,10,1,100,0.07586223669357646,-10,-1,-100,15013.327745382441,-0.010227510508378944,0.006871549013780882,0.9999240870400874,22.41687403818038,0.0212722438879106,-48.726747301489716,19.201731682764382,-86.337890625,5356.25390625,True
1599563919.1317909,0.0,10,0.5,0.5,2.670094233703613,-0.2,-0.0155,-0.5,0.10544685630131373,10,1,100,0.032003432928922104,-10,-1,-100,15014.104098125943,-0.009472424262533979,0.007157420998481892,0.9999295197678889,21.22804153919963,0.020030429591826642,-45.252558534922855,18.83025083923254,-91.6750259399414,5356.25390625,True
1599563919.186644,0.0,10,0.5,0.5,7.488586870956421,-0.2,-0.0155,-0.5,0.13122353543919507,10,1,100,-0.07541541110645533,-10,-1,-100,15015.53180482192,-0.00781463055168572,0.0076481846557335765,0.9999402166233801,22.972336170844528,0.021988645331833992,-47.04418326000297,18.087290083741753,-102.2814712524414,5356.25390625,True
1599563919.2385046,0.0,10,0.5,0.5,5.912850580596924,-0.2,-0.0155,-0.5,0.10135970193726523,10,1,100,-0.002315702304255665,-10,-1,-100,15016.248588398332,-0.006978374454558434,0.007819391447674065,0.9999450781954778,23.69610424939314,0.023022624358768434,-47.53229081317094,17.715792635940566,-107.50116729736328,5356.25390625,True
1599563919.295934,0.0,10,0.5,0.5,5.150577649307252,-0.2,-0.0155,-0.5,0.09244812217280554,10,1,100,0.03716643745544345,-10,-1,-100,15016.603075376479,-0.006583896602295841,0.00789062339730755,0.9999471937897182,23.99505052212037,0.023503663089480004,-47.628541871253944,17.530039303538285,-110.02772521972656,5356.25390625,True
1599563919.3408127,0.0,10,0.5,0.5,7.359769465255737,-0.2,-0.0155,-0.5,0.09795329792556687,10,1,100,-0.01321900566444792,-10,-1,-100,15017.316931904992,-0.005773682910263966,0.008002616197069193,0.9999513101744775,24.465513682929455,0.02435351884939922,-47.53561557600622,17.15852490406548,-114.88290405273438,5356.25390625,True
1599563919.391677,0.0,10,0.5,0.5,9.746720925521851,-0.2,-0.0155,-0.5,0.0965863761565574,10,1,100,-0.06425312577534725,-10,-1,-100,15018.324729110696,-0.004579815429162441,0.008089522985852493,0.9999567915207616,25.05693420315378,0.025454035917061912,-47.106883913221495,16.601238819918766,-121.65396118164062,5356.25390625,True
1599563919.438552,0.0,10,0.5,0.5,9.35857971611023,-0.2,-0.0155,-0.5,0.09012787555516764,10,1,100,-0.02876973736771142,-10,-1,-100,15018.974135347991,-0.003824196342210324,0.008107648728445096,0.9999598199699987,25.283437395702805,0.025924011485379463,-46.47105968836166,16.229711588121933,-125.82408905029297,5356.25390625,True
1599563919.50737,0.0,10,0.5,0.5,7.358277326965332,-0.2,-0.0155,-0.5,0.0885554604619206,10,1,100,0.045931349281021217,-10,-1,-100,15018.974135347991,-0.003824196342210324,0.008107648728445096,0.9999598199699987,25.283437395702805,0.025924011485379463,-46.47105968836166,16.229711588121933,-125.82408905029297,5356.25390625,True
1599563919.5582318,0.0,10,0.5,0.5,12.68742205848694,-0.2,-0.0155,-0.5,0.08456614114177921,10,1,100,-0.11105653698055633,-10,-1,-100,15020.213380718254,-0.002403570197829802,0.008069927440734034,0.9999645489323137,25.4126560917945,0.026231729673186776,-44.57401599435172,15.486669868580943,-133.337890625,5356.25390625,True
1599563919.6071012,0.0,10,0.5,0.5,9.007564757156372,-0.2,-0.0155,-0.5,0.08847572776669273,10,1,100,0.030183931738410996,-10,-1,-100,15020.213380718254,-0.002403570197829802,0.008069927440734034,0.9999645489323137,25.4126560917945,0.026231729673186776,-44.57401599435172,15.486669868580943,-133.337890625,5356.25390625,True
1599563919.6589625,0.0,10,0.5,0.5,12.518976768875122,-0.2,-0.0155,-0.5,0.07800913118656208,10,1,100,-0.08010271335063514,-10,-1,-100,15021.157710512634,-0.001408077006393518,0.007973687127799252,0.9999672182790454,25.29342445845983,0.025975390869060925,-42.77127843876773,14.929415600855377,-138.2501220703125,5356.25390625,True
1599563919.709863,0.0,10,0.5,0.5,13.139671280670168,-0.2,-0.0155,-0.5,0.07180090752205454,10,1,100,-0.08362822384491386,-10,-1,-100,15021.977040113532,-0.00047836432537267206,0.007829015477154548,0.9999692383689766,25.04714825510859,0.025397836746824207,-40.77665482412758,14.372195880278879,-142.5424346923828,5356.25390625,True
1599563919.759728,0.0,10,0.5,0.5,11.05591946296692,-0.2,-0.0155,-0.5,0.08628615566866701,10,1,100,0.008609417634539434,-10,-1,-100,15021.977040113532,-0.00047836432537267206,0.007829015477154548,0.9999692383689766,25.04714825510859,0.025397836746824207,-40.77665482412758,14.372195880278879,-142.5424346923828,5356.25390625,True
1599563919.8081129,0.0,10,0.5,0.5,12.871801115417481,-0.2,-0.0155,-0.5,0.07717375633890249,10,1,100,-0.05358778809142525,-10,-1,-100,15022.56492844643,8.115571747320162e-05,0.0077461667341298885,0.9999699947071794,24.83568844353104,0.024884735244364922,-39.38914028962766,14.000738211516204,-145.0589599609375,5356.25390625,True
1599563920.2520223,0.0,10,0.5,0.5,13.948583354949951,-0.2,-0.0155,-0.5,0.06787294055642241,10,1,100,-0.08540826814036105,-10,-1,-100,15023.384263497079,0.0008730282547599858,0.007586428148505995,0.9999708415396991,24.531445241860688,0.024045983812127372,-37.360852983886396,13.443585959512403,-148.31716918945312,5356.25390625,True
1599563920.2998931,0.0,10,0.5,0.5,13.035124788665772,-0.2,-0.0155,-0.5,0.07683561486293297,10,1,100,-0.03427362697040062,-10,-1,-100,15023.676253860584,0.0011220095405983094,0.007523068462587609,0.9999710718493301,24.42847116967146,0.023749359313486696,-36.69092082682006,13.25787746371644,-149.26548767089844,5356.25390625,True
1599563920.3457708,0.0,10,0.5,0.5,14.775829148864748,-0.2,-0.0155,-0.5,0.061216406199434414,10,1,100,-0.10785483763210217,-10,-1,-100,15024.665511367377,0.002012092783767017,0.007323990900742057,0.9999711549039381,24.012093037955527,0.022517566175255285,-34.04799789954268,12.515085824978396,-152.36843872070312,5356.25390625,True
1599563920.3956375,0.0,10,0.5,0.5,14.062140432357788,-0.2,-0.0155,-0.5,0.0684179072762515,10,1,100,-0.06342186546202246,-10,-1,-100,15025.186996463104,0.0024120175404415017,0.007209191906878714,0.9999711044442406,23.815132920490434,0.02190257017267181,-32.768149704421255,12.143713544447257,-153.50650024414062,5356.25390625,True
1599563920.444507,0.0,10,0.5,0.5,13.536017407989503,-0.2,-0.0155,-0.5,0.0798079609804292,10,1,100,-0.02405301118283917,-10,-1,-100,15025.186996463104,0.0024120175404415017,0.007209191906878714,0.9999711044442406,23.815132920490434,0.02190257017267181,-32.768149704421255,12.143713544447257,-153.50650024414062,5356.25390625,True
1599563920.4983628,0.0,10,0.5,0.5,14.580695806121827,-0.2,-0.0155,-0.5,0.062235645524175265,10,1,100,-0.09978679181483444,-10,-1,-100,15026.114732582937,0.00309612864824303,0.007050226071398092,0.9999703537104165,23.47382869974409,0.020730386308553388,-30.32587848582347,11.401008643190668,-154.95423889160156,5356.25390625,True
1599563920.5422451,0.0,10,0.5,0.5,14.023109226989746,-0.2,-0.0155,-0.5,0.07317844746256774,10,1,100,-0.04857829732980319,-10,-1,-100,15026.343249439145,0.0032475163428840694,0.007006118694373218,0.9999701835247106,23.40242802616724,0.020454416644202233,-29.741923270695235,11.215339566940386,-155.1439208984375,5356.25390625,True
1599563920.590119,0.0,10,0.5,0.5,14.062696409606934,-0.2,-0.0155,-0.5,0.06810997706780517,10,1,100,-0.07763828167047623,-10,-1,-100,15026.974110287149,0.003645090838064517,0.0069208236829740605,0.9999694072882087,23.22735232114309,0.01967632374422721,-28.055187698265453,10.658345704239823,-155.29855346679688,5356.25390625,True
1599563920.6369922,0.0,10,0.5,0.5,13.836122873687746,-0.2,-0.0155,-0.5,0.06973319173417618,10,1,100,-0.06324468263161254,-10,-1,-100,15027.372548855492,0.003871922701363038,0.00685886488939109,0.9999689816124416,23.14406609243764,0.01920129221287116,-26.981818975174985,10.287025778379887,-155.0570831298828,5356.25390625,True
1599563920.6888912,0.0,10,0.5,0.5,13.9762557472229,-0.2,-0.0155,-0.5,0.07583205603369685,10,1,100,-0.040996525004433994,-10,-1,-100,15027.372548855492,0.003871922701363038,0.00685886488939109,0.9999689816124416,23.14406609243764,0.01920129221287116,-26.981818975174985,10.287025778379887,-155.0570831298828,5356.25390625,True
1599563920.736726,0.0,10,0.5,0.5,13.629416107177736,-0.2,-0.0155,-0.5,0.07194050431901433,10,1,100,-0.06213722646079444,-10,-1,-100,15027.770987612312,0.004060664744617324,0.006824293784571012,0.999968469511001,23.086990239288458,0.018762035534332047,-25.9448085653462,9.915711300664098,-154.53945922851562,5356.25390625,True
1599563920.7886276,0.0,10,0.5,0.5,13.342538134765626,-0.2,-0.0155,-0.5,0.07176768023237619,10,1,100,-0.0608383800427373,-10,-1,-100,15028.169426225359,0.004217542874239012,0.006791987228823262,0.9999680401100765,23.05432874864495,0.01835834931256375,-24.93890685566626,9.544400924645185,-153.74612426757812,5356.25390625,True
1599563920.8384538,0.0,10,0.5,0.5,12.997775662994385,-0.2,-0.0155,-0.5,0.07163715632694052,10,1,100,-0.059192099541610144,-10,-1,-100,15028.567864451325,0.004342379048126991,0.00676209567103386,0.9999677083817949,23.042820188546727,0.0179894838510517,-23.957643311064402,9.173093491724451,-152.67701721191406,5356.25390625,True
1599563920.9002874,0.0,10,0.5,0.5,12.591295951843263,-0.2,-0.0155,-0.5,0.07298343509772028,10,1,100,-0.05666747001837006,-10,-1,-100,15028.903803256806,0.004430796859391734,0.006747671239350318,0.9999674179552233,23.04794711886673,0.01765463349553008,-22.993843701716756,8.801788033493544,-151.33200073242188,5356.25390625,True
1599563920.9461668,0.0,10,0.5,0.5,10.798385377502441,-0.2,-0.0155,-0.5,0.07216034417328056,10,1,100,-0.05667895978106038,-10,-1,-100,15029.57763191103,0.004509445886276003,0.00672749503911358,0.9999672023163046,23.083646346089918,0.017087362303449222,-21.087904677414066,8.059180244426905,-147.81478881835938,5356.25390625,True
1599563920.9935484,0.0,10,0.5,0.5,11.027632377624514,-0.2,-0.0155,-0.5,0.07362830439513193,10,1,100,-0.04772637850593514,-10,-1,-100,15029.851069187862,0.0044976511460825324,0.006722936038067709,0.9999672860974984,23.098430473412023,0.01685513563011892,-20.1298731279708,7.687877133790417,-145.64259338378906,5356.25390625,True
1599563921.040421,0.0,10,0.5,0.5,12.09929704437256,-0.2,-0.0155,-0.5,0.07405147549638601,10,1,100,-0.049046004775066154,-10,-1,-100,15029.851069187862,0.0044976511460825324,0.006722936038067709,0.9999672860974984,23.098430473412023,0.01685513563011892,-20.1298731279708,7.687877133790417,-145.64259338378906,5356.25390625,True
1599563921.089882,0.0,10,0.5,0.5,9.441935404205323,-0.2,-0.0155,-0.5,0.07354468519615705,10,1,100,-0.04043075791983772,-10,-1,-100,15030.290522044408,0.004418194233941184,0.006718586292298633,0.9999676695563432,23.08844984397071,0.0165678679361323,-18.664339978550377,7.13092371074676,-141.86740112304688,5356.25390625,True
1599563921.138752,0.0,10,0.5,0.5,8.231996634674074,-0.2,-0.0155,-0.5,0.07285974673451268,10,1,100,-0.03162027110247108,-10,-1,-100,15030.73094888113,0.004265162521476738,0.006708589116848774,0.9999684011111184,23.00257148997271,0.016340873900458238,-17.143325666409243,6.573972357547678,-137.4720916748047,5356.25390625,True
1599563921.1916475,0.0,10,0.5,0.5,8.110165923309328,-0.2,-0.0155,-0.5,0.07220055422653421,10,1,100,-0.031670502901678804,-10,-1,-100,15030.942861482967,0.004126141944847208,0.006693644730705954,0.9999690845585528,22.878975659985095,0.016208004435854323,-16.08859241954282,6.20267223546402,-134.19747924804688,5356.25390625,True
1599563921.2375247,0.0,10,0.5,0.5,7.230094889831543,-0.2,-0.0155,-0.5,0.07080364070974471,10,1,100,-0.027296782595992195,-10,-1,-100,15031.214343140717,0.003959767400365499,0.006667509911476837,0.99996993182481,22.682925754027227,0.016072554250127387,-14.996285572554603,5.8313717567126195,-130.6474151611328,5356.25390625,True
1599563921.2903838,0.0,10,0.5,0.5,8.968094264984131,-0.2,-0.0155,-0.5,0.07340144424534704,10,1,100,-0.04392414730973793,-10,-1,-100,15031.214343140717,0.003959767400365499,0.006667509911476837,0.99996993182481,22.682925754027227,0.016072554250127387,-14.996285572554603,5.8313717567126195,-130.6474151611328,5356.25390625,True
1599563921.338256,0.0,10,0.5,0.5,6.254446264648438,-0.2,-0.0155,-0.5,0.06929965671311268,10,1,100,-0.0225467165022072,-10,-1,-100,15031.428207988502,0.0037656614616369227,0.006630334095108658,0.9999709288092049,22.39771369312224,0.015917275861946086,-13.865207816383776,5.460069246889113,-126.8219223022461,5356.25390625,True
1599563921.3886478,0.0,10,0.5,0.5,5.256509539413453,-0.2,-0.0155,-0.5,0.06716572254277159,10,1,100,-0.01799612832738105,-10,-1,-100,15031.636213167687,0.0035483568226456976,0.006577258280112599,0.9999720740287579,22.00431814955113,0.015720045543806554,-12.695640252330179,5.088762608608549,-122.72105407714844,5356.25390625,True
1599563921.4385145,0.0,10,0.5,0.5,0.9431943714141848,-0.2,-0.0155,-0.5,0.05510417203240219,10,1,100,0.016087085757311617,-10,-1,-100,15031.992651191773,0.0030417619682807833,0.006419512000893949,0.9999747684565841,20.822732358940385,0.015096054321855701,-10.261052771864868,4.346124437548946,-113.6933364868164,5356.25390625,True
1599563921.497291,0.0,10,0.5,0.5,1.9554184249877933,-0.2,-0.0155,-0.5,0.05882204140142644,10,1,100,-0.0037365094165845297,-10,-1,-100,15032.20163148793,0.002762769951273549,0.006310185089539232,0.9999762740517056,20.120794100481085,0.01469815931942734,-9.068140885012932,3.974784829866073,-108.76655578613281,5356.25390625,True
1599563921.550148,0.0,10,0.5,0.5,0.725829383850098,-0.2,-0.0155,-0.5,0.05527390845901607,10,1,100,-0.0009040159383364929,-10,-1,-100,15032.34908837569,0.002484968068914544,0.006178916462420785,0.9999778227166074,19.325590105287716,0.014209680379192393,-7.896131607067228,3.603425301149849,-103.57252502441406,5356.25390625,True
1599563921.5990267,0.0,10,0.5,0.5,3.2576361587524416,-0.2,-0.0155,-0.5,0.06834636921329608,10,1,100,-0.028482935866520204,-10,-1,-100,15032.34908837569,0.002484968068914544,0.006178916462420785,0.9999778227166074,19.325590105287716,0.014209680379192393,-7.896131607067228,3.603425301149849,-103.57252502441406,5356.25390625,True
1599563921.649929,0.0,10,0.5,0.5,-4.614647382354736,-0.2,-0.0155,-0.5,0.03196553008116937,10,1,100,0.036189451654902276,-10,-1,-100,15032.579548308277,0.001898794751597091,0.005848672170155886,0.9999810936274433,17.169382197344174,0.012718076384758643,-5.569194905856762,2.8606275247266324,-92.41120147705078,5356.25390625,True
1599563921.7062554,0.0,10,0.5,0.5,-3.263481935501099,-0.2,-0.0155,-0.5,0.0423395119159787,10,1,100,0.011244272116020967,-10,-1,-100,15032.665481398231,0.0015948355205436728,0.00564354075472851,0.9999828033258434,16.13510326108265,0.01194784921403701,-4.554180865816025,2.489190086827725,-86.46884155273438,5356.25390625,True
1599563921.7601383,0.0,10,0.5,0.5,-2.458890004348755,-0.2,-0.0155,-0.5,0.0514871162712567,10,1,100,-0.003738937771702224,-10,-1,-100,15032.706495612976,0.0014570211334965066,0.00554117232936613,0.9999835861146085,16.75325589390452,0.012392438714014404,-4.375860610633504,2.3034654977217093,-83.47940063476562,5356.25390625,True
1599563921.805577,0.0,10,0.5,0.5,-3.096777038192749,-0.2,-0.0155,-0.5,0.049698004710425694,10,1,100,-0.0019072180628591558,-10,-1,-100,15032.748484918498,0.0013173585536158448,0.0054328694171946945,0.9999843741260844,17.327464520321982,0.01280336683438404,-4.1609480648381,2.1177393134940647,-80.53726196289062,5356.25390625,True
1599563921.8594337,0.0,10,0.5,0.5,-9.49203200416565,-0.2,-0.0155,-0.5,0.005661092220297384,10,1,100,0.04645565213859819,-10,-1,-100,15032.916445327573,0.0007531323053899489,0.004935199056668843,0.9999875382233531,19.101892022903726,0.014091583802396956,-2.9780008287630615,1.3748430951727757,-69.41061401367188,5356.25390625,True
1599563921.9068177,0.0,10,0.5,0.5,-7.625382935333253,-0.2,-0.0155,-0.5,0.025084382042615202,10,1,100,0.01968498378169038,-10,-1,-100,15032.938902622438,0.0004863077276621572,0.004660887850064994,0.9999890197543387,19.699822898639045,0.014527760247225789,-2.241498714802527,1.003401596305423,-64.25677490234375,5356.25390625,True
1599563921.9577174,0.0,10,0.5,0.5,-8.553996952819825,-0.2,-0.0155,-0.5,0.023145997429957953,10,1,100,0.020622389961178347,-10,-1,-100,15032.959406646434,0.00023800173636425917,0.0043956345025192,0.9999903108293068,20.09366665232172,0.014814887153236752,-1.4399714735613833,0.6319559286511662,-59.378326416015625,5356.25390625,True
1599563922.0045567,0.0,10,0.5,0.5,-9.420631507492066,-0.2,-0.0155,-0.5,0.017610654967101503,10,1,100,0.022795378967055427,-10,-1,-100,15032.980887883808,-4.9365555673338425e-06,0.004106013689177396,0.9999915702780773,20.312228581137358,0.014981171609376643,-0.6000387323453404,0.26049950461421645,-54.77593994140625,5356.25390625,True
1599563922.0534253,0.0,10,0.5,0.5,-8.74159418373108,-0.2,-0.0155,-0.5,0.03057051709813518,10,1,100,0.01148052078795299,-10,-1,-100,15032.960379132419,-0.00012041110432526817,0.003962542761330937,0.99999214184714,20.36358746315275,0.015023462102676324,-0.17265387764884704,0.07476591279493494,-52.578125,5356.25390625,True
1599563922.103296,0.0,10,0.5,0.5,-12.047594732284546,-0.2,-0.0155,-0.5,-0.0029867699222644456,10,1,100,0.036243499729436364,-10,-1,-100,15032.960374300717,-0.00044813743068847564,0.0035290632846496956,0.9999936724225691,20.43975102563375,0.015098643882817769,1.1183160476917247,-0.48245751625261146,-46.3983154296875,5356.25390625,True
1599563922.1641302,0.0,10,0.5,0.5,-11.688869786453248,-0.2,-0.0155,-0.5,0.007311335336677056,10,1,100,0.02607824497786624,-10,-1,-100,15032.918379609124,-0.0006509925882774786,0.0032310191292732817,0.9999945683472667,20.431817576764594,0.01510961025925621,1.9787022692116274,-0.8539555540555106,-42.62322998046875,5356.25390625,True
1599563922.2129984,0.0,10,0.5,0.5,-12.328242070007326,-0.2,-0.0155,-0.5,0.005943458239981835,10,1,100,0.027464126171009795,-10,-1,-100,15032.877362175379,-0.0008456872993507185,0.002950014335361933,0.9999952911031197,20.35209981175895,0.015070342958454741,2.8285049268439684,-1.2254642878931172,-39.12359619140625,5356.25390625,True
1599563922.2628663,0.0,10,0.5,0.5,-12.908481448364258,-0.2,-0.0155,-0.5,0.002114955212059934,10,1,100,0.02844262273916633,-10,-1,-100,15032.834391722688,-0.0010293592574733648,0.0026621995192062957,0.9999959265483229,20.220438519466622,0.014996791966231628,3.662243313496909,-1.5969822470840558,-35.8997802734375,5356.25390625,True
1599563922.3147619,0.0,10,0.5,0.5,-11.370321900939942,-0.2,-0.0155,-0.5,0.030608539546607687,10,1,100,0.01032406496599869,-10,-1,-100,15032.834391722688,-0.0010293592574733648,0.0026621995192062957,0.9999959265483229,20.220438519466622,0.014996791966231628,3.662243313496909,-1.5969822470840558,-35.8997802734375,5356.25390625,True
1599563922.3665884,0.0,10,0.5,0.5,-14.462810168457032,-0.2,-0.0155,-0.5,-0.015400050331038542,10,1,100,0.03917033893032096,-10,-1,-100,15032.70939065318,-0.0012894647318662134,0.0022464584020440467,0.9999966453470497,19.979707259863822,0.014865984975804642,4.881593917820087,-2.154272156531698,-31.580780029296875,5356.25390625,True
1599563922.4134636,0.0,10,0.5,0.5,-13.273240844726562,-0.2,-0.0155,-0.5,0.011026863983039172,10,1,100,0.02251828217041993,-10,-1,-100,15032.688881449867,-0.0013726850134631063,0.002111200917165095,0.999996829278244,19.887537217142622,0.014818273144861413,5.278144790946623,-2.340037756867901,-30.2789306640625,5356.25390625,True
1599563922.4633296,0.0,10,0.5,0.5,-15.837799203491212,-0.2,-0.0155,-0.5,-0.03403880504976786,10,1,100,0.04869834367553651,-10,-1,-100,15032.415442623198,-0.0016846503806512275,0.00158086956418862,0.9999973313986973,19.501649114367073,0.014646879608608712,6.819636712315073,-3.0831090192565296,-25.7606201171875,5356.25390625,True
1599563922.5112023,0.0,10,0.5,0.5,-14.300822785949709,-0.2,-0.0155,-0.5,0.004250849504128625,10,1,100,0.025590210899787205,-10,-1,-100,15032.393958735862,-0.0017564334600272391,0.0014493967982802751,0.9999974070918491,19.407887923127934,0.014614810082352157,7.195889285725731,-3.2688788791968637,-24.803375244140625,5356.25390625,True
1599563922.5660558,0.0,10,0.5,0.5,-14.490535876464845,-0.2,-0.0155,-0.5,0.0030031951362322652,10,1,100,0.026441839518457952,-10,-1,-100,15032.310950171086,-0.0018278406133529293,0.001320948895828992,0.9999974570431202,19.317676052433313,0.01458892088624283,7.569597829239467,-3.4546497112832277,-23.91497802734375,5356.25390625,True
1599563922.6159225,0.0,10,0.5,0.5,-15.1900266204834,-0.2,-0.0155,-0.5,-0.009860347944893287,10,1,100,0.03623458589139955,-10,-1,-100,15032.143957840977,-0.001980228965667546,0.001089638223649868,0.9999974456876303,19.182546581328058,0.014581514422744734,8.32532033374809,-3.826194868726371,-22.3446044921875,5356.25390625,True
1599563923.028484,0.0,10,0.5,0.5,-15.348354794311525,-0.2,-0.0155,-0.5,-0.012953384715630442,10,1,100,0.03641837762155932,-10,-1,-100,15031.975989694824,-0.0021190418548323055,0.0008534549374448716,0.9999973906347392,19.093180436325977,0.014622040438779604,9.091519962355564,-4.197744817824645,-21.04998779296875,5356.25390625,True
1599563923.069332,0.0,10,0.5,0.5,-15.447879135131837,-0.2,-0.0155,-0.5,-0.013776198628189101,10,1,100,0.03804471508916766,-10,-1,-100,15031.80997408263,-0.0022586856862634765,0.0006334241545914585,0.9999972485526203,19.03368006062096,0.01469775662192127,9.865751049929528,-4.5693000358016125,-20.030853271484375,5356.25390625,True
1599563923.1152105,0.0,10,0.5,0.5,-15.488462266540528,-0.2,-0.0155,-0.5,-0.014519860467872653,10,1,100,0.03970920921843214,-10,-1,-100,15031.642005778616,-0.00239948184475157,0.00042874159907375106,0.9999970293293465,19.01025768556545,0.014812899521861987,10.655280027989676,-4.940860748264266,-19.287200927734375,5356.25390625,True
1599563923.161088,0.0,10,0.5,0.5,-15.47006198425293,-0.2,-0.0155,-0.5,-0.015577086732499076,10,1,100,0.041075306953311914,-10,-1,-100,15031.40958500572,-0.002538651856796673,0.00023508581703389733,0.999996749985423,19.02685145254509,0.014970691948373213,11.467051085536024,-5.312426754178544,-18.819091796875,5356.25390625,True
1599563923.2089584,0.0,10,0.5,0.5,-15.354019961547852,-0.2,-0.0155,-0.5,-0.006485675895600922,10,1,100,0.03498011804510008,-10,-1,-100,15031.326578305103,-0.002608387157127274,0.00014389076251689748,0.9999965878001219,19.05108464926339,0.015066476896305057,11.883442222049423,-5.498211702537677,-18.688323974609375,5356.25390625,True
1599563923.2648108,0.0,10,0.5,0.5,-15.351920748901367,-0.2,-0.0155,-0.5,-0.007270263036550866,10,1,100,0.035806352550661835,-10,-1,-100,15031.182046558475,-0.002678095087091781,5.576498225601371e-05,0.99999641234205,19.086270582430974,0.01517389299904655,12.307946680964381,-5.683997975642089,-18.62646484375,5356.25390625,True
1599563923.3131926,0.0,10,0.5,0.5,-15.28107521057129,-0.2,-0.0155,-0.5,-0.016674010634935454,10,1,100,0.04439277972066015,-10,-1,-100,15030.94864921528,-0.002818337624901655,-0.00010796939984382317,0.9999960226499107,19.190104002256987,0.015424690895804075,13.184484747644115,-6.055573590189168,-18.70928955078125,5356.25390625,True
1599563923.3610642,0.0,10,0.5,0.5,-15.082538220214843,-0.2,-0.0155,-0.5,-0.01722465959961693,10,1,100,0.04576377316866628,-10,-1,-100,15030.719158045016,-0.002957263793125005,-0.0002602894296462042,0.9999955934104263,19.338567514445227,0.0157244871664499,14.10245126059778,-6.427152562909598,-19.06768798828125,5356.25390625,True
1599563923.4104502,0.0,10,0.5,0.5,-14.190485542297363,-0.2,-0.0155,-0.5,-0.03020268130889942,10,1,100,0.06294480231822679,-10,-1,-100,15030.132246506284,-0.0032386598198394204,-0.000515189939343731,0.9999946228164919,19.763515115221814,0.01647219809585378,16.080523574143697,-7.170315605778676,-20.610748291015625,5356.25390625,True
1599563923.4643078,0.0,10,0.5,0.5,-14.13785258178711,-0.2,-0.0155,-0.5,-0.016271834898066502,10,1,100,0.05039976526667759,-10,-1,-100,15029.839279235224,-0.0033791460352870905,-0.0006186044000292082,0.9999940993329253,20.033649446321682,0.016917566892000642,17.14601668071309,-7.54189652178253,-21.795440673828125,5356.25390625,True
1599563923.5156817,0.0,10,0.5,0.5,-14.244160328674317,-0.2,-0.0155,-0.5,-0.010510506205050826,10,1,100,0.044413436732033115,-10,-1,-100,15029.691819829633,-0.003451167865315823,-0.0006586888828761549,0.9999938277656122,20.181095730853457,0.01715684077462075,17.69822535023344,-7.727686115866778,-22.490997314453125,5356.25390625,True
1599563923.563553,0.0,10,0.5,0.5,-14.054600714111329,-0.2,-0.0155,-0.5,-0.010649499764189706,10,1,100,0.04524407148070214,-10,-1,-100,15029.545335310511,-0.0035229824575930407,-0.0006950182234379863,0.9999935527513527,20.335850196311256,0.017406387668882348,18.263258912642424,-7.913474923245814,-23.25543212890625,5356.25390625,True
1599563923.6096191,0.0,10,0.5,0.5,-13.216988481140138,-0.2,-0.0155,-0.5,-0.014164925977628239,10,1,100,0.05369214707607222,-10,-1,-100,15029.19084466109,-0.003663919777101758,-0.0007587956419090655,0.9999929999360199,20.664100389261858,0.01793288996767932,19.430662240596572,-8.285049050346135,-24.99090576171875,5356.25390625,True
1599563923.6624775,0.0,10,0.5,0.5,-12.668300936889649,-0.2,-0.0155,-0.5,-0.01278733013693786,10,1,100,0.055171119141668036,-10,-1,-100,15028.83342429332,-0.0038043403245856897,-0.0008031719353846952,0.9999924409261987,21.010766056244698,0.018487910321903035,20.6440330821963,-8.65661692243404,-27.001739501953125,5356.25390625,True
1599563923.7038753,0.0,10,0.5,0.5,-10.267611241149902,-0.2,-0.0155,-0.5,-0.011600703332257269,10,1,100,0.07128490121322058,-10,-1,-100,15028.120536488015,-0.004077333669796297,-0.0008317826332723364,0.999991341706415,21.718786202674902,0.019624063918040162,23.174759228897596,-9.399726044322216,-31.8494873046875,5356.25390625,True
1599563923.7627208,0.0,10,0.5,0.5,-12.67108533935547,-0.2,-0.0155,-0.5,-0.008837200883072082,10,1,100,0.04413246134342673,-10,-1,-100,15028.120536488015,-0.004077333669796297,-0.0008317826332723364,0.999991341706415,21.718786202674902,0.019624063918040162,23.174759228897596,-9.399726044322216,-31.8494873046875,5356.25390625,True
1599563923.8041804,0.0,10,0.5,0.5,-9.599561212158203,-0.2,-0.0155,-0.5,-0.005487166926094349,10,1,100,0.06507842953042309,-10,-1,-100,15027.55413314898,-0.004266479527330169,-0.0008005209176493312,0.9999905781149657,22.21622444983108,0.02041861041881302,25.113772707173915,-9.957028840010947,-36.208099365234375,5356.25390625,True
1599563923.8550458,0.0,10,0.5,0.5,-10.638383491516112,-0.2,-0.0155,-0.5,-0.0063255245465768314,10,1,100,0.052728780991362884,-10,-1,-100,15027.345148569788,-0.00432484428209457,-0.000779093016798435,0.9999903443213876,22.366613799594255,0.020655147227783235,25.756440657100995,-10.142790076779004,-37.798614501953125,5356.25390625,True
1599563923.9069052,0.0,10,0.5,0.5,-9.033328216552736,-0.2,-0.0155,-0.5,-0.00260622823095884,10,1,100,0.059337496841916734,-10,-1,-100,15026.925227976288,-0.0044367391300772704,-0.0007253296826218637,0.9999898945703117,22.632471782632837,0.021062293666330403,27.019273833625192,-10.5143028882006,-41.1861572265625,5356.25390625,True
1599563923.9637547,0.0,10,0.5,0.5,-8.131218437194825,-0.2,-0.0155,-0.5,0.0004338344367674036,10,1,100,0.05889034921262856,-10,-1,-100,15026.506283521187,-0.004533307577695071,-0.0006486259548063075,0.9999895141484118,22.83668749115303,0.02135302928490153,28.228548443690595,-10.885803121466422,-44.8489990234375,5356.25390625,True
1599563924.0046444,0.0,10,0.5,0.5,-5.719536325073243,-0.2,-0.0155,-0.5,0.008558367738447405,10,1,100,0.06310445299697576,-10,-1,-100,15025.81390296889,-0.004658357872166766,-0.0005050086071816408,0.9999890222738655,23.04149571111564,0.021550464269077627,29.94324476831321,-11.443033029749177,-50.859527587890625,5356.25390625,True
1599563924.0505219,0.0,10,0.5,0.5,-4.03980460510254,-0.2,-0.0155,-0.5,0.013685710169550273,10,1,100,0.06050673528058275,-10,-1,-100,15025.123473627376,-0.004747326896985779,-0.000327974887490731,0.9999886775958048,23.012226120452763,0.021331499683545904,31.365340468944485,-12.000247643408523,-57.48956298828125,5356.25390625,True
1599563924.110362,0.0,10,0.5,0.5,-3.9667832061767587,-0.2,-0.0155,-0.5,0.01037458216918797,10,1,100,0.055534591203224154,-10,-1,-100,15024.640075395815,-0.00478189347844581,-0.00019746998171678596,0.9999885471846,22.825590310295908,0.02092802602211646,32.07678978701769,-12.37172322064205,-62.253814697265625,5356.25390625,True
1599563924.160228,0.0,10,0.5,0.5,-2.7634019180297855,-0.2,-0.0155,-0.5,0.012480562864200571,10,1,100,0.05386610448260956,-10,-1,-100,15024.097106872941,-0.004797133242584483,-6.019417529507799e-05,0.9999884918784386,22.48349223776526,0.020321413772064315,32.54767732718121,-12.743204006307515,-67.29345703125,5356.25390625,True
1599563924.209098,0.0,10,0.5,0.5,-5.220770922851562,-0.2,-0.0155,-0.5,-0.0011727200019612644,10,1,100,0.05244140736054208,-10,-1,-100,15024.097106872941,-0.004797133242584483,-6.019417529507799e-05,0.9999884918784386,22.48349223776526,0.020321413772064315,32.54767732718121,-12.743204006307515,-67.29345703125,5356.25390625,True
1599563924.2649515,0.0,10,0.5,0.5,2.467986810302734,-0.2,-0.0155,-0.5,0.030483523059716817,10,1,100,0.04930550752885478,-10,-1,-100,15023.067809515283,-0.0047679706990484275,0.00022688840848565252,0.999988607423636,21.348392520459917,0.018663809757290258,32.71260468061294,-13.486200449752344,-78.19891357421875,5356.25390625,True
1599563924.310833,0.0,10,0.5,0.5,-0.8839936004638673,-0.2,-0.0155,-0.5,0.010153177444767188,10,1,100,0.0501684692525067,-10,-1,-100,15022.796325857169,-0.004748676550567711,0.00030208882356699455,0.9999886793426019,20.967313003168133,0.018192318911715723,32.572840714252294,-13.671959008380657,-81.09735107421875,5356.25390625,True
1599563924.364688,0.0,10,0.5,0.5,-0.1864916763305664,-0.2,-0.0155,-0.5,0.01088995384606899,10,1,100,0.049381250889145044,-10,-1,-100,15022.522887111641,-0.00472354152407901,0.0003761484320698525,0.999988773270894,20.5367296223104,0.01770397881048768,32.33906185740292,-13.857721824685818,-84.064697265625,5356.25390625,True
1599563924.4053206,0.0,10,0.5,0.5,4.779915270996094,-0.2,-0.0155,-0.5,0.026889074265034636,10,1,100,0.04078260960956683,-10,-1,-100,15021.643004257581,-0.004622159581782221,0.0005878716786549853,0.9999891449649292,19.00465423215659,0.016255771733066925,31.134960396308344,-14.41503186122386,-93.17665100097656,5356.25390625,True
1599563924.4621716,0.0,10,0.5,0.5,2.476140795135498,-0.2,-0.0155,-0.5,0.013574486187622171,10,1,100,0.04618333314627816,-10,-1,-100,15021.36956526956,-0.004578923102344603,0.000658111828154741,0.9999893001187786,19.66370993826354,0.01685965835894639,32.63158734201843,-14.600798726274567,-96.27896118164062,5356.25390625,True
1599563924.5060513,0.0,10,0.5,0.5,7.659011991119385,-0.2,-0.0155,-0.5,0.028000258745003156,10,1,100,0.033811507790404885,-10,-1,-100,15020.491635719198,-0.0044271046036891476,0.0008519219529643815,0.9999898374352683,21.62001782386348,0.018891371770839147,37.25347310835141,-15.158051529641408,-105.78511810302734,5356.25390625,True
1599563924.5579157,0.0,10,0.5,0.5,9.379983448410034,-0.2,-0.0155,-0.5,0.027305990439556258,10,1,100,0.02895132027005334,-10,-1,-100,15019.546320374706,-0.004245114494061427,0.0010205678722325865,0.9999904686766523,23.11322483874235,0.020741480884493343,41.29711078125948,-15.715222013161682,-114.91213989257812,5356.25390625,True
1599563924.6047873,0.0,10,0.5,0.5,8.930643105697632,-0.2,-0.0155,-0.5,0.020944715287463694,10,1,100,0.032754276929162815,-10,-1,-100,15018.879326880327,-0.00411469782984897,0.0011148266222212738,0.9999909131704003,23.876627713748434,0.021780997015236035,43.674069636088696,-16.086625265942743,-120.6623764038086,5356.25390625,True
1599563924.655652,0.0,10,0.5,0.5,9.97882942199707,-0.2,-0.0155,-0.5,0.020585105030948736,10,1,100,0.030722446868004655,-10,-1,-100,15018.206474479986,-0.003978272585144024,0.0011960542138754553,0.9999913713635511,24.5060935693762,0.022639914683887354,45.865248285654005,-16.4579977535102,-126.13776397705078,5356.25390625,True
1599563924.7045343,0.0,10,0.5,0.5,10.972262066268922,-0.2,-0.0155,-0.5,0.019936338617848083,10,1,100,0.02846050563079347,-10,-1,-100,15017.599050853634,-0.0038344309520352807,0.001262857558542732,0.9999918511318284,24.945217457510214,0.02322164589444118,47.74569155745527,-16.829345762201587,-131.337646484375,5356.25390625,True
1599563924.7653708,0.0,10,0.5,0.5,11.918578747177126,-0.2,-0.0155,-0.5,0.019141806465575506,10,1,100,0.02682573006287501,-10,-1,-100,15016.865651634638,-0.0036896794188558454,0.0013151620780070168,0.9999923282778196,25.21549449156366,0.023522502888672553,49.33328931076412,-17.20067627127295,-136.2619171142578,5356.25390625,True
1599563924.8142788,0.0,10,0.5,0.5,12.80046483039856,-0.2,-0.0155,-0.5,0.018226335254835732,10,1,100,0.025120091612097693,-10,-1,-100,15016.19279841322,-0.003543561576667649,0.001353399835904622,0.9999928057142393,25.339412304599428,0.0235591517476731,50.65156678611927,-17.571996157004584,-140.9105224609375,5356.25390625,True
1599563924.8651426,0.0,10,0.5,0.5,13.629951979446412,-0.2,-0.0155,-0.5,0.01728124490444004,10,1,100,0.023522113058846272,-10,-1,-100,15015.463305153768,-0.0033972956559887306,0.001378613966251268,0.999993278880292,25.35004215675507,0.023372470855667175,51.74946085023411,-17.94331115243888,-145.2834930419922,5356.25390625,True
1599563924.915011,0.0,10,0.5,0.5,11.538355822372438,-0.2,-0.0155,-0.5,0.014860078423193587,10,1,100,0.038016080539929095,-10,-1,-100,15015.463305153768,-0.0033972956559887306,0.001378613966251268,0.999993278880292,25.35004215675507,0.023372470855667175,51.74946085023411,-17.94331115243888,-145.2834930419922,5356.25390625,True
1599563924.9628816,0.0,10,0.5,0.5,17.162372465133668,-0.2,-0.0155,-0.5,0.016257299393003116,10,1,100,0.006281994918925504,-10,-1,-100,15013.992599620833,-0.003109917481184874,0.0013905971184426306,0.9999941973096217,25.19622639753355,0.02256217622933371,53.576946062272334,-18.685939563933278,-153.20242309570312,5356.25390625,True
1599563925.0117905,0.0,10,0.5,0.5,13.291138804244996,-0.2,-0.0155,-0.5,0.015132232702895631,10,1,100,0.03487291183719521,-10,-1,-100,15013.992599620833,-0.003109917481184874,0.0013905971184426306,0.9999941973096217,25.19622639753355,0.02256217622933371,53.576946062272334,-18.685939563933278,-153.20242309570312,5356.25390625,True
1599563925.0676413,0.0,10,0.5,0.5,15.846849982452394,-0.2,-0.0155,-0.5,0.013278292839501157,10,1,100,0.018993639853958803,-10,-1,-100,15013.25822356646,-0.0029667579059940922,0.0013732534149886097,0.9999946562470149,25.022886141939868,0.02198352117272521,54.27242750645533,-19.057257951931298,-156.74844360351562,5356.25390625,True
1599563925.1121037,0.0,10,0.5,0.5,17.500087366485594,-0.2,-0.0155,-0.5,0.010960134737032307,10,1,100,0.010943125301882628,-10,-1,-100,15012.061933424557,-0.0027645884840636595,0.0013360916240600048,0.9999952859437318,24.693814310520906,0.021022072492325936,55.1347255327674,-19.614243765425243,-161.55044555664062,5356.25390625,True
1599563925.159977,0.0,10,0.5,0.5,17.16224164466858,-0.2,-0.0155,-0.5,0.009738563629429181,10,1,100,0.01653481438524773,-10,-1,-100,15011.266033706837,-0.002632859009744572,0.0012910018358723004,0.9999957006746052,24.451468947451193,0.020372411011643273,55.63461377677458,-19.985572699086664,-164.4072723388672,5356.25390625,True
1599563925.2103503,0.0,10,0.5,0.5,16.7206331741333,-0.2,-0.0155,-0.5,0.011693500253127792,10,1,100,0.022624955598480115,-10,-1,-100,15010.866618275875,-0.0025696929655524225,0.0012676969544425593,0.9999958948028208,24.32851859567378,0.02005609158701624,55.87291889160309,-20.171238572038433,-165.7322540283203,5356.25390625,True
1599563925.2671986,0.0,10,0.5,0.5,17.821688040924073,-0.2,-0.0155,-0.5,0.008176182796667007,10,1,100,0.015196627437044714,-10,-1,-100,15010.06974256679,-0.0024458887948069492,0.0012145306859059695,0.9999962712646564,24.087005866061684,0.019454916508217925,56.34443961594083,-20.542572254156557,-168.17544555664062,5356.25390625,True
1599563925.3130753,0.0,10,0.5,0.5,18.85312269897461,-0.2,-0.0155,-0.5,0.002422063206445269,10,1,100,0.008030522466956725,-10,-1,-100,15008.813882344402,-0.0022693238586048545,0.001113979019499873,0.9999968046048793,23.755525986741723,0.018661862918596814,57.08798193420581,-21.099574808273232,-171.32339477539062,5356.25390625,True
1599563925.3719206,0.0,10,0.5,0.5,18.554097184753417,-0.2,-0.0155,-0.5,0.003965977899205253,10,1,100,0.01340035761086026,-10,-1,-100,15007.95255383337,-0.002158785361291221,0.0010368216570797895,0.9999971323191958,23.568225745308872,0.018220213551618167,57.64306669883325,-21.470909145084274,-173.07740783691406,5356.25390625,True
1599563925.8082619,0.0,10,0.5,0.5,18.26169496459961,-0.2,-0.0155,-0.5,0.007189163738541775,10,1,100,0.018396170854829908,-10,-1,-100,15007.49259140226,-0.00210483822076464,0.0009962910100638378,0.9999972885264679,23.487519340184605,0.018027308988035378,57.94671203846911,-21.65657549409719,-173.85101318359375,5356.25390625,True
1599563925.8541389,0.0,10,0.5,0.5,19.60284199142456,-0.2,-0.0155,-0.5,-0.008071966287886858,10,1,100,0.0010932628816808683,-10,-1,-100,15005.772863093182,-0.0018996711636529605,0.0008210549879510646,0.9999978585567956,23.269943529530448,0.017442612218068344,59.396544253791006,-22.399231452805317,-176.25625610351562,5356.25390625,True
1599563925.9000165,0.0,10,0.5,0.5,18.988340447235107,-0.2,-0.0155,-0.5,-0.0014464444952529982,10,1,100,0.011076773191613903,-10,-1,-100,15004.851964012487,-0.0018050150657485812,0.0007224992951729345,0.9999981099559043,23.232524070635158,0.017256317624615807,60.29335476975558,-22.770551171831514,-177.04537963867188,5356.25390625,True
1599563925.9448967,0.0,10,0.5,0.5,18.99010263290405,-0.2,-0.0155,-0.5,-0.002249635491459706,10,1,100,0.00973922342762959,-10,-1,-100,15003.927159185172,-0.0017079907992678665,0.0006262088361575459,0.9999983453135924,23.247456385718813,0.017132795575752504,61.32547161929597,-23.1418633606018,-177.5587615966797,5356.25390625,True
1599563925.9927683,0.0,10,0.5,0.5,18.932133406066892,-0.2,-0.0155,-0.5,-0.004319918141659223,10,1,100,0.00938660720881021,-10,-1,-100,15003.004306979361,-0.0016177256523931553,0.0005205304353043162,0.9999985560048472,23.317161847404368,0.01706397022620477,62.506097856698695,-23.513166884897082,-177.79656982421875,5356.25390625,True
1599563926.0486195,0.0,10,0.5,0.5,18.83841078491211,-0.2,-0.0155,-0.5,0.0061663658247881805,10,1,100,0.018298435613114273,-10,-1,-100,15003.004306979361,-0.0016177256523931553,0.0005205304353043162,0.9999985560048472,23.317161847404368,0.01706397022620477,62.506097856698695,-23.513166884897082,-177.79656982421875,5356.25390625,True
1599563926.0984852,0.0,10,0.5,0.5,18.83266425704956,-0.2,-0.0155,-0.5,-0.00571233869333971,10,1,100,0.008310093153559068,-10,-1,-100,15002.019931435701,-0.0015278453876311547,0.00041324264095821535,0.9999987474587111,23.442839523473737,0.017040253804246234,63.845527518399656,-23.88446041526948,-177.7587127685547,5356.25390625,True
1599563926.1473548,0.0,10,0.5,0.5,18.650800202178953,-0.2,-0.0155,-0.5,-0.00726079284092801,10,1,100,0.00746742369191826,-10,-1,-100,15001.034579392755,-0.0014394225587216207,0.0003024082032232158,0.999998918305403,23.62491893461131,0.01705104107138865,65.35213686191862,-24.25574245003077,-177.4452362060547,5356.25390625,True
1599563926.1952267,0.0,10,0.5,0.5,17.804345318603517,-0.2,-0.0155,-0.5,-0.02231091934208325,10,1,100,-0.002192531262480585,-10,-1,-100,14999.063875802443,-0.0012721353657966779,6.565949389242563e-05,0.9999991886798919,24.15487897624732,0.017128874072023972,68.88618716929042,-24.99826640708029,-175.9915771484375,5356.25390625,True
1599563926.2416115,0.0,10,0.5,0.5,18.16345935821533,-0.2,-0.0155,-0.5,-0.005458003662129547,10,1,100,0.009868826876283375,-10,-1,-100,14998.600985886413,-0.001230611344847137,4.59473661456591e-06,0.9999992427870165,24.32058238478839,0.017150944510892593,69.8795723813536,-25.183887942320332,-175.4559326171875,5356.25390625,True
1599563926.2954683,0.0,10,0.5,0.5,18.01180244369507,-0.2,-0.0155,-0.5,-0.006309572015582528,10,1,100,0.009416124309552196,-10,-1,-100,14998.077546993736,-0.001189590551574038,-5.772182146900164e-05,0.999999290771004,24.498706037555632,0.017170730442504056,70.91611174787747,-25.36950528857454,-174.85140991210938,5356.25390625,True
1599563926.3473299,0.0,10,0.5,0.5,16.75676431350708,-0.2,-0.0155,-0.5,-0.020616605373231713,10,1,100,-0.0006682722946560575,-10,-1,-100,14996.506258836482,-0.0010614546318958647,-0.0002434789840403894,0.9999994070158484,25.10317102000139,0.017200984960603988,74.27954444051015,-25.926329885272338,-172.62448120117188,5356.25390625,True
1599563926.3961985,0.0,10,0.5,0.5,15.871859549713136,-0.2,-0.0155,-0.5,-0.02346581674630567,10,1,100,-0.0018884395443465856,-10,-1,-100,14994.933992063743,-0.0009346370176746633,-0.00043728329524960385,0.9999994676183408,25.798239498402122,0.01715607392080604,77.99552764587425,-26.483108481011104,-169.7777099609375,5356.25390625,True
1599563926.4417396,0.0,10,0.5,0.5,16.52328997421265,-0.2,-0.0155,-0.5,-0.011118407536865856,10,1,100,0.005712328777002053,-10,-1,-100,14994.409578560619,-0.0008892374240749895,-0.00050016551027178,0.9999994795454975,26.046385758504982,0.01711860558398836,79.30435685288396,-26.66869000334182,-168.69100952148438,5356.25390625,True
1599563926.495597,0.0,10,0.5,0.5,16.24402219238281,-0.2,-0.0155,-0.5,-0.011915741343790937,10,1,100,0.0051720838380728395,-10,-1,-100,14993.884187477524,-0.0008437980698806504,-0.0005635556727672324,0.9999994852047781,26.300898705417772,0.01706820760961333,80.64344231070567,-26.854265474334905,-167.5354766845703,5356.25390625,True
1599563926.5474575,0.0,10,0.5,0.5,13.08836224899292,-0.2,-0.0155,-0.5,-0.03395672933545691,10,1,100,-0.010795034925811164,-10,-1,-100,14991.663484591874,-0.0006580375114709535,-0.0008205701784981784,0.9999994468254549,27.360874349678078,0.016732219550959614,86.241969201625,-27.59650267775024,-162.2247314453125,5356.25390625,True
1599563926.5943322,0.0,10,0.5,0.5,15.719598519134522,-0.2,-0.0155,-0.5,-0.00838938882374256,10,1,100,0.007685052101066309,-10,-1,-100,14991.663484591874,-0.0006580375114709535,-0.0008205701784981784,0.9999994468254549,27.360874349678078,0.016732219550959614,86.241969201625,-27.59650267775024,-162.2247314453125,5356.25390625,True
1599563926.6432018,0.0,10,0.5,0.5,12.401325291442873,-0.2,-0.0155,-0.5,-0.02909365369011162,10,1,100,-0.008871221402119779,-10,-1,-100,14990.02579010895,-0.0005083166686021347,-0.001007669120174755,0.9999993631083515,28.16050759957702,0.016352822706958373,90.57601825436231,-28.15310771875272,-157.51873779296875,5356.25390625,True
1599563926.7051737,0.0,10,0.5,0.5,10.99558570327759,-0.2,-0.0155,-0.5,-0.031026824885166997,10,1,100,-0.010960806792437617,-10,-1,-100,14988.328524316428,-0.0003540570405277004,-0.0011941423713599662,0.9999992243335037,28.914090837421345,0.015913920709307024,94.86253291135732,-28.70964729006441,-152.1932373046875,5356.25390625,True
1599563926.7510514,0.0,10,0.5,0.5,10.895255283355713,-0.2,-0.0155,-0.5,-0.02481200334972907,10,1,100,-0.007858676192078057,-10,-1,-100,14987.155672820867,-0.00024285681894081887,-0.0013060198567832204,0.9999991176659603,29.3648971657919,0.015627956491389892,97.60298190087111,-29.080638165731507,-148.29867553710938,5356.25390625,True
1599563926.7999203,0.0,10,0.5,0.5,12.800442418670654,-0.2,-0.0155,-0.5,-0.013755316266743435,10,1,100,0.0031625705140194654,-10,-1,-100,14987.155672820867,-0.00024285681894081887,-0.0013060198567832204,0.9999991176659603,29.3648971657919,0.015627956491389892,97.60298190087111,-29.080638165731507,-148.29867553710938,5356.25390625,True
1599563926.8473032,0.0,10,0.5,0.5,9.84038309249878,-0.2,-0.0155,-0.5,-0.025668791733830493,10,1,100,-0.009421713220789765,-10,-1,-100,14985.98282187956,-0.0001293149065631288,-0.0014131893628155443,0.999998993086233,29.754056029638544,0.015382415225310283,100.17484827271672,-29.451602417542077,-144.12881469726562,5356.25390625,True
1599563926.9011588,0.0,10,0.5,0.5,8.769576015472413,-0.2,-0.0155,-0.5,-0.026239484709340663,10,1,100,-0.010883795256115662,-10,-1,-100,14984.806064321427,-1.3650731103477598e-05,-0.001514740931368863,0.999998852686126,30.06251978365238,0.015208764596681627,102.50529327506523,-29.822543274274167,-139.6837158203125,5356.25390625,True
1599563926.9485438,0.0,10,0.5,0.5,4.14441622543335,-0.2,-0.0155,-0.5,-0.03623370192359267,10,1,100,-0.025815255676069276,-10,-1,-100,14982.332432392403,0.00022640180832617343,-0.0016969375523322443,0.9999985345715086,30.356330604411728,0.015173371395399416,106.11744543494655,-30.56437311474499,-129.96791076660156,5356.25390625,True
1599563927.0043938,0.0,10,0.5,0.5,5.252814306640626,-0.2,-0.0155,-0.5,-0.026540815521562965,10,1,100,-0.015235041226960134,-10,-1,-100,14981.096104858909,0.0003474334044226811,-0.0017733657204240842,0.9999983672306925,30.299829835793947,0.015322528700329477,107.223572962237,-30.935274636920678,-124.69721984863281,5356.25390625,True
1599563927.0499794,0.0,10,0.5,0.5,7.821760467529297,-0.2,-0.0155,-0.5,-0.01901897971714467,10,1,100,-0.0032510047647396983,-10,-1,-100,14981.096104858909,0.0003474334044226811,-0.0017733657204240842,0.9999983672306925,30.299829835793947,0.015322528700329477,107.223572962237,-30.935274636920678,-124.69721984863281,5356.25390625,True
1599563927.0998468,0.0,10,0.5,0.5,3.881437215423584,-0.2,-0.0155,-0.5,-0.02566337098842919,10,1,100,-0.01627230007037549,-10,-1,-100,14979.858800566988,0.0004648947518231032,-0.0018329030996703745,0.9999982121679503,30.07982489133636,0.015550942882219736,107.74003216169261,-31.30617747905658,-119.15128326416016,5356.25390625,True
1599563927.1497128,0.0,10,0.5,0.5,2.512947601699829,-0.2,-0.0155,-0.5,-0.02560273303673086,10,1,100,-0.017485947567633504,-10,-1,-100,14978.62247305212,0.0005816901064682925,-0.0018855564331323152,0.9999980531548837,29.67625826308485,0.015796833991705082,107.57315854449223,-31.67708997738759,-113.33029174804688,5356.25390625,True
1599563927.2005763,0.0,10,0.5,0.5,-3.372148340988159,-0.2,-0.0155,-0.5,-0.028108203780553807,10,1,100,-0.0303303475575101,-10,-1,-100,14976.025793742272,0.0008036440589854605,-0.0019554020273025085,0.9999977652770721,28.49493185879774,0.01610486729791881,105.74976193180035,-32.41896631288366,-100.86300659179688,5356.25390625,True
1599563927.2484498,0.0,10,0.5,0.5,-1.8703930599212646,-0.2,-0.0155,-0.5,-0.02318105155953511,10,1,100,-0.01930747896402667,-10,-1,-100,14974.723060250632,0.0009041600276062064,-0.0019734136748516574,0.999997644063781,27.58422446232544,0.01589356593781298,103.56168774410061,-32.78994006289818,-94.21682739257812,5356.25390625,True
1599563927.3072915,0.0,10,0.5,0.5,-3.279055129623413,-0.2,-0.0155,-0.5,-0.02218103936414331,10,1,100,-0.018897626809970272,-10,-1,-100,14973.42032598937,0.0009907695096367836,-0.0019800901582854415,0.9999975488063677,26.485165649438194,0.015321861765350093,100.58047727558579,-33.160940845911824,-87.57693481445312,5356.25390625,True
1599563927.3551633,0.0,10,0.5,0.5,-4.53802978477478,-0.2,-0.0155,-0.5,-0.021542997477923778,10,1,100,-0.01912991488985152,-10,-1,-100,14972.05997454212,0.001070495633728431,-0.001979746516712793,0.9999974673182066,27.48669334803943,0.015675286328586845,105.57280012465809,-33.53192175872939,-81.17007446289062,5356.25390625,True
1599563927.4050303,0.0,10,0.5,0.5,-1.4321856563568116,-0.2,-0.0155,-0.5,-0.021634017350578367,10,1,100,-0.011277283534715942,-10,-1,-100,14972.05997454212,0.001070495633728431,-0.001979746516712793,0.9999974673182066,27.48669334803943,0.015675286328586845,105.57280012465809,-33.53192175872939,-81.17007446289062,5356.25390625,True
1599563927.4529023,0.0,10,0.5,0.5,-7.895043665695191,-0.2,-0.0155,-0.5,-0.020095629521210766,10,1,100,-0.02170276750342593,-10,-1,-100,14970.046303595183,0.001164287173112311,-0.0019653384404591384,0.9999973909366929,29.3571022675443,0.01599731669049889,114.66188908045238,-34.088290104219816,-72.06698608398438,5356.25390625,True
1599563927.5077555,0.0,10,0.5,0.5,-9.371154845046998,-0.2,-0.0155,-0.5,-0.01843643196045702,10,1,100,-0.019921359607582637,-10,-1,-100,14967.970131138223,0.0012325049686220026,-0.001936912574323394,0.9999973646471183,30.74996867908451,0.015831681144571595,122.09762126913765,-34.64454511640075,-63.584259033203125,5356.25390625,True
1599563927.5576265,0.0,10,0.5,0.5,-8.941301076889038,-0.2,-0.0155,-0.5,-0.01885340255625816,10,1,100,-0.016136839558931297,-10,-1,-100,14966.545326301595,0.0012593118081301654,-0.0019147128406582737,0.9999973740008059,31.438004484427633,0.015629727305254793,126.18973512926507,-35.01532869457308,-58.274566650390625,5356.25390625,True
1599563927.6064913,0.0,10,0.5,0.5,-9.912737634658814,-0.2,-0.0155,-0.5,-0.018312831958164917,10,1,100,-0.015255831375319606,-10,-1,-100,14965.183021599078,0.0012748435165559275,-0.0018894884890525584,0.999997402300255,31.954694183231823,0.01545701498335981,129.6463728971153,-35.38607804876119,-53.241241455078125,5356.25390625,True
1599563927.655361,0.0,10,0.5,0.5,-10.828106207275392,-0.2,-0.0155,-0.5,-0.017745405024232552,10,1,100,-0.014124225073402245,-10,-1,-100,14963.757240165141,0.00127793960441216,-0.0018613473923849027,0.9999974511248779,32.31977609016141,0.015372933689783918,132.52641209527027,-35.756800884151765,-48.484283447265625,5356.25390625,True
1599563927.7072217,0.0,10,0.5,0.5,-11.686552090454102,-0.2,-0.0155,-0.5,-0.017351757200588888,10,1,100,-0.012767448436005009,-10,-1,-100,14962.270912093809,0.0012677869425797201,-0.001832207968872771,0.999997517862033,32.553556664654195,0.015410232072973417,134.8945137233481,-36.12750405081504,-44.003692626953125,5356.25390625,True
1599563927.7730458,0.0,10,0.5,0.5,-12.47734515991211,-0.2,-0.0155,-0.5,-0.01698654365092758,10,1,100,-0.011344489706432398,-10,-1,-100,14960.84317734663,0.00124519931347812,-0.0018025094552815756,0.9999976002162871,32.67633690624379,0.015578003226214209,136.81881604557432,-36.4981932907952,-39.799468994140625,5356.25390625,True
1599563927.8189232,0.0,10,0.5,0.5,-10.459580249023437,-0.2,-0.0155,-0.5,-0.019939304588090123,10,1,100,-0.013637356545179604,-10,-1,-100,14960.84317734663,0.00124519931347812,-0.0018025094552815756,0.9999976002162871,32.67633690624379,0.015578003226214209,136.81881604557432,-36.4981932907952,-39.799468994140625,5356.25390625,True
1599563927.8677928,0.0,10,0.5,0.5,-14.58540228881836,-0.2,-0.0155,-0.5,-0.014797523792703882,10,1,100,-0.007444065741537012,-10,-1,-100,14958.640052808798,0.001188665369986968,-0.0017559274305080678,0.9999977518942216,32.69548216462762,0.016052151194829497,139.02521192512714,-37.05421253144952,-34.01123046875,5356.25390625,True
1599563927.9146678,0.0,10,0.5,0.5,-13.018261070251466,-0.2,-0.0155,-0.5,-0.017758128443110588,10,1,100,-0.010363243490871116,-10,-1,-100,14957.864660945605,0.001163701428410541,-0.0017406981948869442,0.9999978078819871,32.66715438327871,0.016258830513296504,139.6134000135102,-37.23955020596722,-32.219970703125,5356.25390625,True
1599563927.9635365,0.0,10,0.5,0.5,-15.67007062072754,-0.2,-0.0155,-0.5,-0.01403153935897139,10,1,100,-0.0025350675313623294,-10,-1,-100,14955.60391929443,0.0010697569675321803,-0.001693192669304499,0.9999979943572962,32.50926730979351,0.01697837856017082,141.05593381578973,-37.79556174222642,-27.260589599609375,5356.25390625,True
1599563928.0124283,0.0,10,0.5,0.5,-15.332507595825195,-0.2,-0.0155,-0.5,-0.01533887426780969,10,1,100,-0.0034270724499388307,-10,-1,-100,14954.110754663358,0.000992547984362166,-0.0016621380959200376,0.9999981260709685,32.362840649129645,0.017507860342792406,141.82721365402628,-38.166236674130744,-24.29962158203125,5356.25390625,True
1599563928.0672667,0.0,10,0.5,0.5,-15.792242167663575,-0.2,-0.0155,-0.5,-0.014897586503062797,10,1,100,-0.0013997071015332523,-10,-1,-100,14952.560949884355,0.0009041455482987023,-0.0016301447535986494,0.9999982625729456,32.20042575324618,0.018050634938538097,142.5161568996336,-38.53691270925191,-21.6148681640625,5356.25390625,True
1599563928.1171331,0.0,10,0.5,0.5,-15.373869387817384,-0.2,-0.0155,-0.5,-0.016271951243703647,10,1,100,-0.004946237155393829,-10,-1,-100,14951.7855582661,0.0008563437580577691,-0.0016138128201187221,0.9999983311403823,32.11715496281288,0.01832138629482161,142.84658125825686,-38.72225104378234,-20.37603759765625,5356.25390625,True
