Timestamp,Input Throttle,horizon,dT,dt,Input Roll,Roll P,Roll I,Roll D,Input Pitch,Pitch P,Pitch I,Pitch D,Input Yaw,Yaw P,Yaw I,Yaw D,Altitude,Direction X,Direction Y,Direction Z,Drag X,Drag Y,Drag Z,Vertical Velocity,Roll,Mass,Has Fuel
1599558665.3680146,0.0,10,0.5,0.5,-0.05863190460205078,-0.001,-0.00825,-0.37525,-0.0002998609679247692,10,1,100,0.17487662609325094,-10,-1,-100,14994.986119574402,-0.01680833186973484,-7.556773142177969e-05,0.9998587271556292,28.50851129379884,0.027124053664651274,-85.88460307531099,26.637681691323213,-31.79180908203125,5356.25390625,True
1599558665.3982959,0.0,10,0.5,0.5,-0.10644811096191406,-0.001,-0.00825,-0.37525,-0.0005075758573201518,10,1,100,0.17368280388964752,-10,-1,-100,14995.5242080834,-0.016843955978874163,-7.324356569414493e-05,0.9998581278273243,28.43596072084712,0.02728698208411156,-85.06957875382004,26.451721994832333,-31.791229248046875,5356.25390625,True
1599558665.4142551,0.0,10,0.5,0.5,-0.1542297996520996,-0.001,-0.00825,-0.37525,0.0037223651841527,10,1,100,0.1819055861184734,-10,-1,-100,14997.08378239919,-0.016935781411100262,-3.2610093232274556e-05,0.9998565788374736,28.218829394630948,0.02776699013244979,-82.64428805198177,25.893866534069467,-31.791290283203125,5356.25390625,True
1599558665.4662988,0.0,10,0.5,0.5,-0.20227488861083984,-0.001,-0.00825,-0.37525,-0.00034424307135756546,10,1,100,0.17441662103697356,-10,-1,-100,14997.08378239919,-0.016935781411100262,-3.2610093232274556e-05,0.9998565788374736,28.218829394630948,0.02776699013244979,-82.64428805198177,25.893866534069467,-31.791290283203125,5356.25390625,True
1599558665.483286,0.0,10,0.5,0.5,-0.2345664070129395,-0.001,-0.00825,-0.37525,0.013083460148173506,10,1,100,0.18161686058745047,-10,-1,-100,14998.648238854366,-0.016985841969367234,8.94895815754918e-05,0.999855726174635,28.00654317607953,0.02823671577034032,-80.26019803169228,25.336045832708106,-31.833099365234375,5356.25390625,True
1599558665.5307016,0.0,10,0.5,0.5,-0.2855436019897461,-0.001,-0.00825,-0.37525,0.007510298123389286,10,1,100,0.17903207293518497,-10,-1,-100,14999.130660482566,-0.016992411823708097,0.00014974282246489967,0.9998556073341294,27.938134977082587,0.028391750317955662,-79.47812994528957,25.150113266057264,-31.866851806640625,5356.25390625,True
1599558665.5650568,0.0,10,0.5,0.5,-0.32858974533081053,-0.001,-0.00825,-0.37525,0.009562024464838755,10,1,100,0.18002536033095362,-10,-1,-100,14999.654098694213,-0.016991966656867044,0.0002230344238116612,0.9998556012368875,27.87100776824073,0.02854583969976845,-78.70254554061295,24.964184462813872,-31.91357421875,5356.25390625,True
1599558665.5997686,0.0,10,0.5,0.5,-0.3709184028625488,-0.001,-0.00825,-0.37525,0.011739227436021769,10,1,100,0.18054142508914428,-10,-1,-100,15000.137495934148,-0.016980806215125214,0.00030925314802509755,0.9998557678899366,27.805565155529965,0.028699227954703536,-77.93449566072034,24.77825942767728,-31.97503662109375,5356.25390625,True
1599558665.6319094,0.0,10,0.5,0.5,-0.2822266807556152,-0.001,-0.00825,-0.37525,0.05553369976626536,10,1,100,0.17022937792803222,-10,-1,-100,15002.09647573391,-0.016861477379154236,0.0007854842338140495,0.9998575266482274,27.560834133954447,0.029301880018484668,-74.93602467167298,24.034595512061735,-32.3992919921875,5356.25390625,True
1599558665.665238,0.0,10,0.5,0.5,-0.42836880111694337,-0.001,-0.00825,-0.37525,0.02471498363380837,10,1,100,0.17825738335769706,-10,-1,-100,15002.580849580583,-0.016810649870923795,0.0009375373612963841,0.9998582514909868,27.504373911168095,0.029449091532633254,-74.20554835529163,23.848688442382063,-32.560302734375,5356.25390625,True
1599558665.6982634,0.0,10,0.5,0.5,-0.38826163253784185,-0.001,-0.00825,-0.37525,0.04641051936830365,10,1,100,0.17025632916700498,-10,-1,-100,15003.51541505591,-0.016676423780007173,0.001272147313538194,0.9998601294836805,27.39776773394696,0.029738134778104604,-72.76844801128885,23.47688461984361,-32.95343017578125,5356.25390625,True
1599558665.7352395,0.0,10,0.5,0.5,-0.5348243675231934,-0.001,-0.00825,-0.37525,0.01308429564861865,10,1,100,0.18366574744969447,-10,-1,-100,15003.51541505591,-0.016676423780007173,0.001272147313538194,0.9998601294836805,27.39776773394696,0.029738134778104604,-72.76844801128885,23.47688461984361,-32.95343017578125,5356.25390625,True
1599558665.765434,0.0,10,0.5,0.5,-0.3476466033935548,-0.001,-0.00825,-0.37525,0.05602642240855599,10,1,100,0.16531190684444236,-10,-1,-100,15004.400174490176,-0.01650972298559476,0.001661307201465595,0.9998623250754682,27.29879693343216,0.0300171649631162,-71.36021435078679,23.105094375203777,-33.4483642578125,5356.25390625,True
1599558665.798592,0.0,10,0.5,0.5,-0.3046437217712403,-0.001,-0.00825,-0.37525,0.06422590026174871,10,1,100,0.15843125998691104,-10,-1,-100,15005.35133981239,-0.016296012799629105,0.002088089700706168,0.9998650308157779,27.2075113329992,0.030283383686694032,-69.98001048356228,22.733317129034354,-34.052642822265625,5356.25390625,True
1599558665.8325405,0.0,10,0.5,0.5,-0.09940897293090828,-0.001,-0.00825,-0.37525,0.10244805712639145,10,1,100,0.13671374102642958,-10,-1,-100,15006.68824117526,-0.01590488042966638,0.0028216200353362243,0.9998695281079898,27.08330948520228,0.030649720450135125,-67.95591146275665,22.1756753045844,-35.195831298828125,5356.25390625,True
1599558665.868584,0.0,10,0.5,0.5,-0.36175316543579117,-0.001,-0.00825,-0.37525,0.05786119138174842,10,1,100,0.15860125392542052,-10,-1,-100,15007.101323276409,-0.015749265630181728,0.003080646895999738,0.9998712268321417,27.044641510599543,0.030760355477165834,-67.29145937908565,21.98980091076993,-35.63134765625,5356.25390625,True
1599558665.9002612,0.0,10,0.5,0.5,-0.5220749694824219,-0.001,-0.00825,-0.37525,0.03225159572275051,10,1,100,0.17403841925453292,-10,-1,-100,15007.101323276409,-0.015749265630181728,0.003080646895999738,0.9998712268321417,27.044641510599543,0.030760355477165834,-67.29145937908565,21.98980091076993,-35.63134765625,5356.25390625,True
1599558665.9335015,0.0,10,0.5,0.5,0.20776049652099604,-0.001,-0.00825,-0.37525,0.15642551374129637,10,1,100,0.09289782249801515,-10,-1,-100,15008.851304593962,-0.01501275356969219,0.004206902866648166,0.9998784522123308,26.894068860955155,0.031123826515254836,-64.65960078909973,21.246334206337977,-37.562957763671875,5356.25390625,True
1599558665.9665802,0.0,10,0.5,0.5,-0.3103213478088379,-0.001,-0.00825,-0.37525,0.07734965819742542,10,1,100,0.1427866988848503,-10,-1,-100,15009.249736361322,-0.014798521529714231,0.004508357198912798,0.999880332077745,26.856330937308506,0.031191852711958578,-64.0053265723045,21.06047522747662,-38.1002197265625,5356.25390625,True
1599558666.0012865,0.0,10,0.5,0.5,-0.29339190139770516,-0.001,-0.00825,-0.37525,0.0822363239020322,10,1,100,0.13930800801925675,-10,-1,-100,15009.664771153126,-0.014574016081728364,0.004823446395590617,0.99988215926684,26.81811725611134,0.031249442210237413,-63.35149955687506,20.874619265668144,-38.668548583984375,5356.25390625,True
1599558666.032266,0.0,10,0.5,0.5,-0.2862112030029298,-0.001,-0.00825,-0.37525,0.0830945997336219,10,1,100,0.13433498625261991,-10,-1,-100,15010.117890098016,-0.014326744234580146,0.005114160982826455,0.999884288183927,26.779674492684983,0.031296224733944444,-62.698727299777616,20.68876637796944,-39.241058349609375,5356.25390625,True
1599558666.0655227,0.0,10,0.5,0.5,-0.04756863327026378,-0.001,-0.00825,-0.37525,0.12517669027502001,10,1,100,0.10191416549083143,-10,-1,-100,15010.930379889789,-0.013809352984379531,0.005757518690990574,0.9998880701101877,26.699253022553776,0.03135379459612309,-61.38985625889934,20.317070097774597,-40.432525634765625,5356.25390625,True
1599558666.099496,0.0,10,0.5,0.5,-0.2535354263305665,-0.001,-0.00825,-0.37525,0.09708727658391052,10,1,100,0.12260925814135579,-10,-1,-100,15011.329789815703,-0.013529740936288856,0.006082953418150185,0.9998899658401966,26.65696639309725,0.03136360762073857,-60.73320518459573,20.13122669865838,-41.0570068359375,5356.25390625,True
1599558666.1374216,0.0,10,0.5,0.5,0.5201271255493163,-0.001,-0.00825,-0.37525,0.2094433500508741,10,1,100,0.012399843877639177,-10,-1,-100,15012.870786222746,-0.012276353473853823,0.007396202341434332,0.9998972883933177,26.471480591312023,0.03126630826344759,-58.088386014064035,19.387885806951623,-43.719390869140625,5356.25390625,True
1599558666.1663442,0.0,10,0.5,0.5,-0.21036800689697266,-0.001,-0.00825,-0.37525,0.1157841565527009,10,1,100,0.09929583887396387,-10,-1,-100,15013.270195040037,-0.011930528152811995,0.007733792228399502,0.9998989203693357,26.419974659103715,0.031205907901885366,-57.42086325452339,19.202059105046555,-44.4119873046875,5356.25390625,True
1599558666.2012508,0.0,10,0.5,0.5,-0.1962276222229004,-0.001,-0.00825,-0.37525,0.11963887821115185,10,1,100,0.09389686719886989,-10,-1,-100,15013.667652691947,-0.011570672984161165,0.008071269438723699,0.999900482116266,26.365801091528077,0.031130262509658828,-56.749751605002764,19.016235715563255,-45.1201171875,5356.25390625,True
1599558666.2335515,0.0,10,0.5,0.5,-0.1932371788024903,-0.001,-0.00825,-0.37525,0.11953428676640632,10,1,100,0.08839300667983643,-10,-1,-100,15014.012374513783,-0.011197295546711034,0.008372579141754623,0.9999022554684805,26.30916264674847,0.03103959986888925,-56.07565157016256,18.830415742714827,-45.813507080078125,5356.25390625,True
1599558666.2694597,0.0,10,0.5,0.5,0.054882257080078045,-0.001,-0.00825,-0.37525,0.15930877143585379,10,1,100,0.03884488803190621,-10,-1,-100,15014.752601062297,-0.010411562225032886,0.009003272430372482,0.9999052657414995,26.189672804811323,0.030816921432017818,-54.721578115134726,18.458786677219166,-47.142181396484375,5356.25390625,True
1599558666.3003755,0.0,10,0.5,0.5,0.33382009735107415,-0.001,-0.00825,-0.37525,0.19831282577770987,10,1,100,-0.023426887052400397,-10,-1,-100,15015.883451122208,-0.009135335060326927,0.009926851941711296,0.9999089974912031,25.99099753126678,0.030379768586642843,-52.66982603424315,17.90137067148318,-49.18768310546875,5356.25390625,True
1599558666.333288,0.0,10,0.5,0.5,0.09922395324707028,-0.001,-0.00825,-0.37525,0.16847123524259888,10,1,100,0.0036910985932192553,-10,-1,-100,15016.556296866736,-0.008226804040526586,0.010490256588297574,0.9999111331573374,25.845167183958626,0.030020071552650206,-51.28930769545787,17.529779316125552,-50.579925537109375,5356.25390625,True
1599558666.3670967,0.0,10,0.5,0.5,-0.41338813323974616,-0.001,-0.00825,-0.37525,0.11269745160324181,10,1,100,0.09390947936913316,-10,-1,-100,15016.556296866736,-0.008226804040526586,0.010490256588297574,0.9999111331573374,25.845167183958626,0.030020071552650206,-51.28930769545787,17.529779316125552,-50.579925537109375,5356.25390625,True
1599558666.403965,0.0,10,0.5,0.5,0.3461355377197265,-0.001,-0.00825,-0.37525,0.19707126442731288,10,1,100,-0.06463749632309752,-10,-1,-100,15017.612930355011,-0.006791013298046356,0.011252403890693246,0.9999136290425621,25.609987341261157,0.029388401448633257,-49.20986811432952,16.972421985074316,-52.57373046875,5356.25390625,True
1599558666.433441,0.0,10,0.5,0.5,-0.3920232688903809,-0.001,-0.00825,-0.37525,0.12140602270771592,10,1,100,0.07823974395629217,-10,-1,-100,15017.612930355011,-0.006791013298046356,0.011252403890693246,0.9999136290425621,25.609987341261157,0.029388401448633257,-49.20986811432952,16.972421985074316,-52.57373046875,5356.25390625,True
1599558666.4663522,0.0,10,0.5,0.5,0.3800364692687988,-0.001,-0.00825,-0.37525,0.19863778241657193,10,1,100,-0.09105431433851288,-10,-1,-100,15018.601209411747,-0.005258102520491985,0.011949811296707807,0.9999147735521549,25.35339076412126,0.028656342893851678,-47.12019780099285,16.41510136727949,-54.6004638671875,5356.25390625,True
1599558666.5012596,0.0,10,0.5,0.5,0.13108220214843747,-0.001,-0.00825,-0.37525,0.17394271872970243,10,1,100,-0.055659343323625085,-10,-1,-100,15019.255505842739,-0.004192699960080957,0.012355177805971982,0.9999148818016599,25.170418111273957,0.02811722524832964,-45.72338151194096,16.043575663401906,-55.936279296875,5356.25390625,True
1599558666.5367923,0.0,10,0.5,0.5,-0.3606749969482422,-0.001,-0.00825,-0.37525,0.13386820636104216,10,1,100,0.05010712989820465,-10,-1,-100,15019.255505842739,-0.004192699960080957,0.012355177805971982,0.9999148818016599,25.170418111273957,0.02811722524832964,-45.72338151194096,16.043575663401906,-55.936279296875,5356.25390625,True
1599558666.5677154,0.0,10,0.5,0.5,0.37441956329345694,-0.001,-0.00825,-0.37525,0.18504647424903625,10,1,100,-0.12844587214052594,-10,-1,-100,15020.190076564904,-0.0025761980988416606,0.012816540324619884,0.9999145460975468,24.880122835938195,0.02724481093239641,-43.629150836626515,15.486319250346593,-57.866302490234375,5356.25390625,True
1599558666.6016183,0.0,10,0.5,0.5,-0.10777610931396489,-0.001,-0.00825,-0.37525,0.15370255994854665,10,1,100,-0.028403288619501522,-10,-1,-100,15020.460586277884,-0.00202396634558604,0.012946976155947285,0.9999141359980112,24.78172740459237,0.02694241852640483,-42.93636162307324,15.300575696104433,-58.483184814453125,5356.25390625,True
1599558666.6355278,0.0,10,0.5,0.5,-0.09381856231689459,-0.001,-0.00825,-0.37525,0.1555122218005457,10,1,100,-0.036793875605700896,-10,-1,-100,15020.77992294461,-0.0014532845026422516,0.013078420470603482,0.9999134176928263,24.688869075827636,0.026642032031474482,-42.25717321891715,15.114836302895174,-59.11065673828125,5356.25390625,True
1599558666.6714673,0.0,10,0.5,0.5,0.4040698410034179,-0.001,-0.00825,-0.37525,0.1713076469534688,10,1,100,-0.16704143598533028,-10,-1,-100,15021.69692247326,0.000242602221159928,0.013338645013927605,0.9999110068867902,24.423072580223284,0.02573281275179961,-40.264021076003246,14.557643392374267,-61.037994384765625,5356.25390625,True
1599558666.7019796,0.0,10,0.5,0.5,0.1778957687377929,-0.001,-0.00825,-0.37525,0.157801580580742,10,1,100,-0.12566169142787748,-10,-1,-100,15022.2262257135,0.0014004384684017147,0.013449840914992356,0.9999085660956495,24.232831621703685,0.025098723470580446,-38.932855532543904,14.186202606466857,-62.336151123046875,5356.25390625,True
1599558666.7338934,0.0,10,0.5,0.5,0.17238135223388673,-0.001,-0.00825,-0.37525,0.14898778911572003,10,1,100,-0.13383774390745556,-10,-1,-100,15022.81607630162,0.002518592586155023,0.013468112189617661,0.9999061289168264,24.03305775559626,0.024447832559276905,-37.6027131308745,13.81477866386057,-63.590423583984375,5356.25390625,True
1599558666.7686603,0.0,10,0.5,0.5,-0.06352369613647466,-0.001,-0.00825,-0.37525,0.1466699960376893,10,1,100,-0.08543249198669872,-10,-1,-100,15023.074868718162,0.0030865853067564217,0.013461637312841364,0.9999046241077204,23.93276161725816,0.024120811419061344,-36.94328582660353,13.629072963963639,-64.19021606445312,5356.25390625,True
1599558666.8045938,0.0,10,0.5,0.5,-0.05844989929199221,-0.001,-0.00825,-0.37525,0.14474504448115783,10,1,100,-0.09158138818924866,-10,-1,-100,15023.332686127396,0.003649861746776508,0.013436243107601583,0.9999030682423087,23.83161338750326,0.023792856138553566,-36.286760941971174,13.443371320537091,-64.77642822265625,5356.25390625,True
1599558666.8351011,0.0,10,0.5,0.5,0.3766832931518554,-0.001,-0.00825,-0.37525,0.12787906563347295,10,1,100,-0.21953113428433255,-10,-1,-100,15024.125667266082,0.005317012598325287,0.013258479084394743,0.9998979658492149,23.523149027161427,0.02280820642561884,-34.335267062320895,12.886289936847902,-66.49526977539062,5356.25390625,True
1599558666.86801,0.0,10,0.5,0.5,-0.25960083236694337,-0.001,-0.00825,-0.37525,0.14574579808199922,10,1,100,-0.053767020385295274,-10,-1,-100,15024.125667266082,0.005317012598325287,0.013258479084394743,0.9998979658492149,23.523149027161427,0.02280820642561884,-34.335267062320895,12.886289936847902,-66.49526977539062,5356.25390625,True
1599558666.9019191,0.0,10,0.5,0.5,0.18464313354492184,-0.001,-0.00825,-0.37525,0.12366418299958795,10,1,100,-0.17471107183027365,-10,-1,-100,15024.646184727782,0.006407858781862903,0.013056915946119711,0.9998942225514694,23.30760628348636,0.02214966300562554,-33.04175644145043,12.51492122975213,-67.65283203125,5356.25390625,True
1599558666.937071,0.0,10,0.5,0.5,0.18691634597778317,-0.001,-0.00825,-0.37525,0.11436621504379968,10,1,100,-0.18297439948575922,-10,-1,-100,15025.09248389618,0.007466490966600873,0.012788931224797516,0.9998903413628781,23.084720745849616,0.021493864215544247,-31.756188046080542,12.143567142781881,-68.79190063476562,5356.25390625,True
1599558666.9689531,0.0,10,0.5,0.5,-0.011842528533935581,-0.001,-0.00825,-0.37525,0.12432734875475458,10,1,100,-0.137336667060594,-10,-1,-100,15025.353232433437,0.008005367696759174,0.012636008189087064,0.9998881164335764,22.96999334097287,0.021167524522207413,-31.11595072922355,11.957895415008398,-69.3770751953125,5356.25390625,True
1599558667.0028608,0.0,10,0.5,0.5,0.42460433273315423,-0.001,-0.00825,-0.37525,0.07739076229575918,10,1,100,-0.24912434949230022,-10,-1,-100,15026.060280147358,0.009502908517010049,0.012070693199978983,0.9998819895844656,22.61130546117206,0.02019826008217645,-29.205311461785005,11.400900096642934,-71.09817504882812,5356.25390625,True
1599558667.0347767,0.0,10,0.5,0.5,0.20060557327270503,-0.001,-0.00825,-0.37525,0.08436085929785239,10,1,100,-0.20679342057234196,-10,-1,-100,15026.507556653116,0.010471064175878632,0.011621287684276074,0.999877643758267,22.368597841720973,0.019571460392578077,-27.95209379292328,11.029585126012512,-72.19729614257812,5356.25390625,True
1599558667.0706806,0.0,10,0.5,0.5,-0.20370417251586914,-0.001,-0.00825,-0.37525,0.12911855554507168,10,1,100,-0.11088491725623134,-10,-1,-100,15026.507556653116,0.010471064175878632,0.011621287684276074,0.999877643758267,22.368597841720973,0.019571460392578077,-27.95209379292328,11.029585126012512,-72.19729614257812,5356.25390625,True
1599558667.102594,0.0,10,0.5,0.5,0.3740867286682128,-0.001,-0.00825,-0.37525,0.04361791338122191,10,1,100,-0.25535983711144156,-10,-1,-100,15027.148198226583,0.011777243018571703,0.01084568805051866,0.9998718255844558,22.004479769279904,0.018669839895822382,-26.110286235314128,10.472632832496,-73.71408081054688,5356.25390625,True
1599558667.1355057,0.0,10,0.5,0.5,-0.18722952957153322,-0.001,-0.00825,-0.37525,0.12091628183073111,10,1,100,-0.12561101861331594,-10,-1,-100,15027.148198226583,0.011777243018571703,0.01084568805051866,0.9998718255844558,22.004479769279904,0.018669839895822382,-26.110286235314128,10.472632832496,-73.71408081054688,5356.25390625,True
1599558667.1684208,0.0,10,0.5,0.5,0.17450888671874992,-0.001,-0.00825,-0.37525,0.055992731537894795,10,1,100,-0.2176038047549717,-10,-1,-100,15027.525161346071,0.012606152545976032,0.010257829006999314,0.9998679222087539,21.768083845839865,0.01810140366234597,-24.9150742993498,10.101342853419295,-74.65591430664062,5356.25390625,True
1599558667.2043605,0.0,10,0.5,0.5,0.16417910156249996,-0.001,-0.00825,-0.37525,0.045993700206206974,10,1,100,-0.21390184877701698,-10,-1,-100,15027.91774803854,0.013319426025682516,0.009635239273582197,0.9998648683969684,21.52921463950667,0.01755358923433638,-23.736914676589596,9.730060535416927,-75.54989624023438,5356.25390625,True
1599558667.235239,0.0,10,0.5,0.5,0.16716946258544915,-0.001,-0.00825,-0.37525,0.03208422910177797,10,1,100,-0.22240529891052857,-10,-1,-100,15028.28201393655,0.014037885632604554,0.008946092723899839,0.9998614429969491,21.2933098552591,0.017031354920485384,-22.581885836503634,9.35878437865378,-76.42959594726562,5356.25390625,True
1599558667.2691834,0.0,10,0.5,0.5,0.009647216033935535,-0.001,-0.00825,-0.37525,0.061944111864488935,10,1,100,-0.1852572136255111,-10,-1,-100,15028.47244653874,0.014346384475532846,0.008594786452233449,0.9998601456695435,21.17184374331838,0.016776250336312644,-22.008121024822028,9.173148203333096,-76.86904907226562,5356.25390625,True
1599558667.3011932,0.0,10,0.5,0.5,0.17204759597778316,-0.001,-0.00825,-0.37525,0.015957452069533667,10,1,100,-0.2191879057318118,-10,-1,-100,15028.850383217796,0.014929044357789543,0.00786116942964856,0.9998576526935028,20.926869742139708,0.016282582316147643,-20.873802300997443,8.801878914321906,-77.72125244140625,5356.25390625,True
1599558667.3370924,0.0,10,0.5,0.5,0.013509445953369142,-0.001,-0.00825,-0.37525,0.04703447722411458,10,1,100,-0.1909506421129713,-10,-1,-100,15029.039840073441,0.015195738511796146,0.007481104036667067,0.9998565510179316,20.8043209265042,0.016044797995824797,-20.314271185516304,8.616245293953643,-78.13153076171875,5356.25390625,True
1599558667.3695512,0.0,10,0.5,0.5,0.16390471496582026,-0.001,-0.00825,-0.37525,-0.0023073288169720846,10,1,100,-0.21862471077375198,-10,-1,-100,15029.348438655492,0.015684594885086712,0.006691200523731569,0.9998546000888539,20.560383806408456,0.015587961567928346,-19.211679896944723,8.244979298960263,-78.92501831054688,5356.25390625,True
1599558667.4024637,0.0,10,0.5,0.5,0.2968287734985351,-0.001,-0.00825,-0.37525,-0.058711689175691986,10,1,100,-0.23494927305814128,-10,-1,-100,15029.832818088587,0.016272675308200577,0.0054648214061296125,0.9998526570276808,20.193602119955777,0.014945545446098087,-17.59531916811375,7.688080452926952,-80.054931640625,5356.25390625,True
1599558667.4355803,0.0,10,0.5,0.5,0.15299050674438475,-0.001,-0.00825,-0.37525,-0.02979638470084571,10,1,100,-0.20993743497995337,-10,-1,-100,15030.14141339797,0.016574639336563907,0.004618394491061115,0.9998519649244021,19.946657352735947,0.01454368619718048,-16.54132834440421,7.316812408664195,-80.78231811523438,5356.25390625,True
1599558667.4722486,0.0,10,0.5,0.5,-0.11412997207641602,-0.001,-0.00825,-0.37525,0.054223577450058284,10,1,100,-0.1802207717754195,-10,-1,-100,15030.14141339797,0.016574639336563907,0.004618394491061115,0.9998519649244021,19.946657352735947,0.01454368619718048,-16.54132834440421,7.316812408664195,-80.78231811523438,5356.25390625,True
1599558667.5021758,0.0,10,0.5,0.5,0.26139496536254875,-0.001,-0.00825,-0.37525,-0.08577390480763844,10,1,100,-0.21361876804917257,-10,-1,-100,15030.570125660393,0.016873896215127124,0.003351351282863379,0.9998520090848945,19.577205417885985,0.013982227633853338,-14.999861302686986,6.759902748945057,-81.764892578125,5356.25390625,True
1599558667.5350852,0.0,10,0.5,0.5,-0.1014511947631836,-0.001,-0.00825,-0.37525,0.04023976823972158,10,1,100,-0.184119854559766,-10,-1,-100,15030.570125660393,0.016873896215127124,0.003351351282863379,0.9998520090848945,19.577205417885985,0.013982227633853338,-14.999861302686986,6.759902748945057,-81.764892578125,5356.25390625,True
1599558667.5690265,0.0,10,0.5,0.5,0.23888865585327146,-0.001,-0.00825,-0.37525,-0.10219315166396468,10,1,100,-0.19955273602106688,-10,-1,-100,15030.927543116151,0.017010963800966727,0.002062219181912339,0.9998531764027195,19.21370865952029,0.0134706580642925,-13.509005976180065,6.202978399340468,-82.65582275390625,5356.25390625,True
1599558667.6064792,0.0,10,0.5,0.5,0.012940553283691397,-0.001,-0.00825,-0.37525,-0.019796193574439007,10,1,100,-0.18644492109473304,-10,-1,-100,15031.049612592557,0.017013705944973912,0.0016456022305361613,0.9998539022293792,19.091399465965623,0.013308968399319639,-13.0214258878789,6.017332454462698,-82.93020629882812,5356.25390625,True
1599558667.636399,0.0,10,0.5,0.5,0.017710173034667945,-0.001,-0.00825,-0.37525,-0.02786219352822976,10,1,100,-0.1858735376511427,-10,-1,-100,15031.15312541963,0.01700857957052104,0.001199849715361263,0.999854623723696,18.970456694639594,0.013152815125851734,-12.539874168931735,5.831684006823263,-83.2032470703125,5356.25390625,True
1599558667.6692798,0.0,10,0.5,0.5,0.12436479949951171,-0.001,-0.00825,-0.37525,-0.0776678714052619,10,1,100,-0.1783337627523219,-10,-1,-100,15031.390424813027,0.01693348533538121,0.00034789701151496087,0.999856557733191,18.722518657253485,0.012849727799789375,-11.588229688949228,5.4603786792865145,-83.74700927734375,5356.25390625,True
1599558667.7023203,0.0,10,0.5,0.5,0.22048066253662107,-0.001,-0.00825,-0.37525,-0.1350391848325021,10,1,100,-0.1596721691777172,-10,-1,-100,15031.679478530306,0.01669398722837261,-0.0009416781076609956,0.9998602022446742,18.342059233740937,0.012421069099438332,-10.194986812791036,4.903396597133115,-84.532470703125,5356.25390625,True
1599558667.7383516,0.0,10,0.5,0.5,-0.06963758926391601,-0.001,-0.00825,-0.37525,-0.006844960778045724,10,1,100,-0.1837229191129059,-10,-1,-100,15031.679478530306,0.01669398722837261,-0.0009416781076609956,0.9998602022446742,18.342059233740937,0.012421069099438332,-10.194986812791036,4.903396597133115,-84.532470703125,5356.25390625,True
1599558667.769316,0.0,10,0.5,0.5,0.12645277328491208,-0.001,-0.00825,-0.37525,-0.1000101853958098,10,1,100,-0.15670396366930253,-10,-1,-100,15031.90700952569,0.016447977349866968,-0.0017828106046281322,0.9998631334474967,18.08111849954317,0.012150147366351767,-9.289000460550405,4.532057294424843,-85.0438232421875,5356.25390625,True
1599558667.8022273,0.0,10,0.5,0.5,0.11434732208251952,-0.001,-0.00825,-0.37525,-0.10450075858849206,10,1,100,-0.14755251363131203,-10,-1,-100,15032.056415113388,0.016141252152686195,-0.002582480626262923,0.9998663864600902,17.816929346765328,0.011891653440685691,-8.403377067042134,4.16070190947326,-85.51229858398438,5356.25390625,True
1599558667.8351405,0.0,10,0.5,0.5,0.19599349822998047,-0.001,-0.00825,-0.37525,-0.15914060288050672,10,1,100,-0.11367025354230337,-10,-1,-100,15032.276126764598,0.015554784506425303,-0.0037996329802971168,0.9998717975161485,17.41152826248717,0.01152417663724574,-7.112785947949835,3.6036323815739855,-86.1861572265625,5356.25390625,True
1599558667.8720808,0.0,10,0.5,0.5,0.027759815979003906,-0.001,-0.00825,-0.37525,-0.0799542744579813,10,1,100,-0.14772283614559717,-10,-1,-100,15032.327880399884,0.015332400225953256,-0.0041797585126114615,0.9998737155871672,17.273188598436832,0.011406174394530124,-6.692689671901918,3.4179320315506394,-86.40139770507812,5356.25390625,True
1599558667.901115,0.0,10,0.5,0.5,0.029032953643798827,-0.001,-0.00825,-0.37525,-0.08432350100408934,10,1,100,-0.14359370942210548,-10,-1,-100,15032.432366434834,0.015094096542573446,-0.004558200956229598,0.9998756878000415,17.13953082184767,0.011294305358109451,-6.2801166246877544,3.2322262801391055,-86.60928344726562,5356.25390625,True
1599558667.9350872,0.0,10,0.5,0.5,0.028219569396972635,-0.001,-0.00825,-0.37525,-0.08662337320252494,10,1,100,-0.14014316198051877,-10,-1,-100,15032.481190064922,0.014847830823903188,-0.004917128906651735,0.9998776743997939,17.009087691638726,0.01118729748290823,-5.874265820705221,3.0465153934131153,-86.8057861328125,5356.25390625,True
1599558667.9673576,0.0,10,0.5,0.5,0.223550528717041,-0.001,-0.00825,-0.37525,-0.20460281968432292,10,1,100,-0.03959779028853923,-10,-1,-100,15032.664761689142,0.013711873041658659,-0.006310001346745307,0.999886077721204,16.51497372509934,0.010800877066160001,-4.312876823497284,2.303625259106438,-87.51242065429688,5356.25390625,True
1599558668.0042243,0.0,10,0.5,0.5,0.02539184417724609,-0.001,-0.00825,-0.37525,-0.10193643414639317,10,1,100,-0.11820419712515075,-10,-1,-100,15032.714559921995,0.013396784853159066,-0.006636091104610914,0.9998882379798503,16.397460148582766,0.010713028724609878,-3.9369503196188984,2.1178930804684937,-87.68106079101562,5356.25390625,True
1599558668.0344114,0.0,10,0.5,0.5,0.08660766677856445,-0.001,-0.00825,-0.37525,-0.13634014997202853,10,1,100,-0.0780301704461836,-10,-1,-100,15032.798532614834,0.012748337803334482,-0.0072389483118889455,0.9998925329807149,16.170120327100854,0.010546578500027996,-3.201440282070388,1.7464204661486544,-88.00332641601562,5356.25390625,True
1599558668.0684562,0.0,10,0.5,0.5,0.025355064392089836,-0.001,-0.00825,-0.37525,-0.1098043994313492,10,1,100,-0.10397670392975292,-10,-1,-100,15032.84833251161,0.012398305016458253,-0.007540041431586228,0.9998947093609052,16.062927335334987,0.010469305227817778,-2.842001191751117,1.5606810410910952,-88.15432739257812,5356.25390625,True
1599558668.1014986,0.0,10,0.5,0.5,0.08091051712036132,-0.001,-0.00825,-0.37525,-0.1420300220741422,10,1,100,-0.05929261158159117,-10,-1,-100,15032.863946155761,0.011677779536325587,-0.008100724143223761,0.9998989987661036,15.858701770465892,0.010323883869315181,-2.1380192972106387,1.1891983066786729,-88.44464111328125,5356.25390625,True
1599558668.1375077,0.0,10,0.5,0.5,-0.025224031829833987,-0.001,-0.00825,-0.37525,-0.08659354226424841,10,1,100,-0.13086813981350362,-10,-1,-100,15032.863946155761,0.011677779536325587,-0.008100724143223761,0.9998989987661036,15.858701770465892,0.010323883869315181,-2.1380192972106387,1.1891983066786729,-88.44464111328125,5356.25390625,True
1599558668.1676018,0.0,10,0.5,0.5,0.1311375259399414,-0.001,-0.00825,-0.37525,-0.17059963047944954,10,1,100,-0.00450949134409287,-10,-1,-100,15032.927405099734,0.010533122252618545,-0.008859399269255625,0.999905277703943,15.586662511285748,0.01013204998161494,-1.1167265981579286,0.6319708324334536,-88.85379028320312,5356.25390625,True
1599558668.2014759,0.0,10,0.5,0.5,0.027720479583740232,-0.001,-0.00825,-0.37525,-0.1202524966564065,10,1,100,-0.07521639462950212,-10,-1,-100,15032.909822388552,0.010139879899346596,-0.009086802925176057,0.9999073021276653,15.504156879585464,0.010073978425846234,-0.7843407965127803,0.44622866030061603,-88.98114013671875,5356.25390625,True
1599558668.2345648,0.0,10,0.5,0.5,0.02960868530273437,-0.001,-0.00825,-0.37525,-0.12331056880888258,10,1,100,-0.06808551683730685,-10,-1,-100,15032.942043112707,0.00972228116219451,-0.009316873227932992,0.9999093324508268,15.424456572638814,0.010017870289448819,-0.4555101764525198,0.26048722952461834,-89.10751342773438,5356.25390625,True
1599558668.2706373,0.0,10,0.5,0.5,0.07757578430175781,-0.001,-0.00825,-0.37525,-0.14536681160774167,10,1,100,-0.01830636726090734,-10,-1,-100,15032.955704670632,0.008894991691707509,-0.009722213281091012,0.9999131750765772,15.27123404206216,0.009909801856750867,0.19216660914024172,-0.11099325276690086,-89.35556030273438,5356.25390625,True
1599558668.3005679,0.0,10,0.5,0.5,0.07441592025756835,-0.001,-0.00825,-0.37525,-0.14613331180275582,10,1,100,-0.0049687099687812375,-10,-1,-100,15032.914679368725,0.008027070596911084,-0.010093304163576214,0.9999168422167386,15.25900178543031,0.00989314126735228,0.8346579746843531,-0.48246894826820297,-89.58895874023438,5356.25390625,True
1599558668.3345172,0.0,10,0.5,0.5,0.11273819503784178,-0.001,-0.00825,-0.37525,-0.16047085519139562,10,1,100,0.05534931683763804,-10,-1,-100,15032.85607324203,0.006694873723805748,-0.010557561448626004,0.9999218552277377,15.244315599778373,0.009870150522944793,1.7969146968586387,-1.0396734071497682,-89.91903686523438,5356.25390625,True
1599558668.3678281,0.0,10,0.5,0.5,-0.009277291107177735,-0.001,-0.00825,-0.37525,-0.1144372737208181,10,1,100,-0.07720017935996026,-10,-1,-100,15032.85607324203,0.006694873723805748,-0.010557561448626004,0.9999218552277377,15.244315599778373,0.009870150522944793,1.7969146968586387,-1.0396734071497682,-89.91903686523438,5356.25390625,True
1599558668.4035022,0.0,10,0.5,0.5,0.06676548843383788,-0.001,-0.00825,-0.37525,-0.1420280134216628,10,1,100,0.02221608337599977,-10,-1,-100,15032.798448093701,0.00579659266627841,-0.010805369433963923,0.9999248189263313,15.2494161174497,0.009864285996659623,2.4397907753466135,-1.411139260352182,-90.116943359375,5356.25390625,True
1599558668.435745,0.0,10,0.5,0.5,0.02778328819274902,-0.001,-0.00825,-0.37525,-0.12883434698566504,10,1,100,-0.018436140001746218,-10,-1,-100,15032.766217270866,0.005355540746824139,-0.010907738518487161,0.9999261669862037,15.274563057138566,0.00987593844571057,2.7654891648759894,-1.5968717700285426,-90.20641326904297,5356.25390625,True
1599558668.468881,0.0,10,0.5,0.5,0.05635253963470458,-0.001,-0.00825,-0.37525,-0.1383037698890622,10,1,100,0.03858742918648465,-10,-1,-100,15032.710546622751,0.004441935862690431,-0.011084335154107113,0.9999287008182048,15.35507118380108,0.009918748535939773,3.426828071649799,-1.9683381319206097,-90.36771392822266,5356.25390625,True
1599558668.5020819,0.0,10,0.5,0.5,0.05235064430236816,-0.001,-0.00825,-0.37525,-0.13411253160017433,10,1,100,0.04576106330886524,-10,-1,-100,15032.59921302204,0.003552749152068724,-0.011204063010216377,0.9999309210868147,15.428516546344223,0.009957048725794521,4.093111146358447,-2.339808714610915,-90.51373291015625,5356.25390625,True
1599558668.5375931,0.0,10,0.5,0.5,0.07224918022155762,-0.001,-0.00825,-0.37525,-0.132859040955353,10,1,100,0.10605711103468458,-10,-1,-100,15032.440026359633,0.002202597502269314,-0.011299379633780094,0.9999337340964823,15.523579892806083,0.010005358576199361,5.099263511671746,-2.8970295385135856,-90.70861053466797,5356.25390625,True
1599558668.5697093,0.0,10,0.5,0.5,0.0005465147018432618,-0.001,-0.00825,-0.37525,-0.12354863626984164,10,1,100,-0.0281643257055487,-10,-1,-100,15032.440026359633,0.002202597502269314,-0.011299379633780094,0.9999337340964823,15.523579892806083,0.010005358576199361,5.099263511671746,-2.8970295385135856,-90.70861053466797,5356.25390625,True
1599558668.6026802,0.0,10,0.5,0.5,0.063007470703125,-0.001,-0.00825,-0.37525,-0.12234407638523279,10,1,100,0.11626977906489872,-10,-1,-100,15032.279863625648,0.0008963962622288149,-0.01128662681082379,0.9999359022102238,15.608505281439376,0.010048731120124488,6.113594844615832,-3.454277271200591,-90.87110900878906,5356.25390625,True
1599558668.6358817,0.0,10,0.5,0.5,0.03630890579223632,-0.001,-0.00825,-0.37525,-0.11659867800096511,10,1,100,0.0819361604999447,-10,-1,-100,15032.100173077197,2.8335844991105565e-05,-0.011221380246888594,0.9999370379291063,15.670362318120176,0.010082378224541874,6.798142252386382,-3.825793536456649,-90.95889282226562,5356.25390625,True
1599558668.6710796,0.0,10,0.5,0.5,0.004498225402832031,-0.001,-0.00825,-0.37525,-0.12323614200281587,10,1,100,-0.004070007748634231,-10,-1,-100,15032.100173077197,2.8335844991105565e-05,-0.011221380246888594,0.9999370379291063,15.670362318120176,0.010082378224541874,6.798142252386382,-3.825793536456649,-90.95889282226562,5356.25390625,True
1599558668.7030277,0.0,10,0.5,0.5,0.045388932037353516,-0.001,-0.00825,-0.37525,-0.10353927564139186,10,1,100,0.12970138493800631,-10,-1,-100,15031.87067833182,-0.0011817072359067045,-0.011041714353786319,0.9999383401551007,15.78066024118804,0.010146745396814604,7.843592291659062,-4.3830945204787115,-91.06529235839844,5356.25390625,True
1599558668.735941,0.0,10,0.5,0.5,0.006408166885375976,-0.001,-0.00825,-0.37525,-0.1215542802421354,10,1,100,0.00948473494419658,-10,-1,-100,15031.87067833182,-0.0011817072359067045,-0.011041714353786319,0.9999383401551007,15.78066024118804,0.010146745396814604,7.843592291659062,-4.3830945204787115,-91.06529235839844,5356.25390625,True
1599558668.7698803,0.0,10,0.5,0.5,0.046250260543823245,-0.001,-0.00825,-0.37525,-0.0795289751316949,10,1,100,0.17901533113830892,-10,-1,-100,15031.481026811292,-0.002716550565033012,-0.010659451266491567,0.9999394963955194,15.956383815236999,0.010255477340960693,9.276176244590726,-5.126202825624922,-91.16910552978516,5356.25390625,True
1599558668.804864,0.0,10,0.5,0.5,0.008088589096069337,-0.001,-0.00825,-0.37525,-0.11773045513597055,10,1,100,0.02633820735686388,-10,-1,-100,15031.481026811292,-0.002716550565033012,-0.010659451266491567,0.9999394963955194,15.956383815236999,0.010255477340960693,9.276176244590726,-5.126202825624922,-91.16910552978516,5356.25390625,True
1599558668.835789,0.0,10,0.5,0.5,0.030304769897460938,-0.001,-0.00825,-0.37525,-0.07477127713205536,10,1,100,0.14724399893243592,-10,-1,-100,15031.123602786683,-0.0038091864098766456,-0.010269299542717443,0.999940013993738,16.120066323210892,0.010360496083443851,10.390856140093154,-5.683558775088843,-91.22639465332031,5356.25390625,True
1599558668.8689966,0.0,10,0.5,0.5,0.009394972229003908,-0.001,-0.00825,-0.37525,-0.11369297316271787,10,1,100,0.0387166080042671,-10,-1,-100,15031.123602786683,-0.0038091864098766456,-0.010269299542717443,0.999940013993738,16.120066323210892,0.010360496083443851,10.390856140093154,-5.683558775088843,-91.22639465332031,5356.25390625,True
1599558668.9018798,0.0,10,0.5,0.5,0.0262876745223999,-0.001,-0.00825,-0.37525,-0.06133613601261837,10,1,100,0.15339809473195953,-10,-1,-100,15030.769110644469,-0.004846280122026444,-0.009794264732344777,0.9999402911910948,16.301793252360472,0.010479405894538772,11.539242240564308,-6.240932797095976,-91.27015686035156,5356.25390625,True
1599558668.9381242,0.0,10,0.5,0.5,0.010329182052612304,-0.001,-0.00825,-0.37525,-0.10868910555974141,10,1,100,0.05039361127940926,-10,-1,-100,15030.769110644469,-0.004846280122026444,-0.009794264732344777,0.9999402911910948,16.301793252360472,0.010479405894538772,11.539242240564308,-6.240932797095976,-91.27015686035156,5356.25390625,True
1599558668.9691243,0.0,10,0.5,0.5,0.018552435684204102,-0.001,-0.00825,-0.37525,-0.06906775010040914,10,1,100,0.122469174821573,-10,-1,-100,15030.504461931065,-0.005496291902969519,-0.00943542728460401,0.9999403799663629,16.42857872090792,0.010563400280327458,12.321969443851092,-6.612524160487064,-91.2911376953125,5356.25390625,True
1599558669.0023847,0.0,10,0.5,0.5,0.018442769622802738,-0.001,-0.00825,-0.37525,-0.04040756687634172,10,1,100,0.15590122393311057,-10,-1,-100,15030.083562359563,-0.006386117034160873,-0.008850287896404777,0.999940443183181,16.625380998671307,0.010695034252378645,13.521722798657846,-7.16992150023503,-91.31104278564453,5356.25390625,True
1599558669.035768,0.0,10,0.5,0.5,0.013970845985412596,-0.001,-0.00825,-0.37525,-0.05143638061719605,10,1,100,0.12868903942761212,-10,-1,-100,15029.800359210116,-0.0069418341553037985,-0.008420760479640953,0.9999404490925969,16.76002846979771,0.010785756640206352,14.338499130827588,-7.54152477785887,-91.3182373046875,5356.25390625,True
1599558669.13946,0.0,10,0.5,0.5,0.011479782295227052,-0.001,-0.00825,-0.37525,-0.0941270269061639,10,1,100,0.07369334000525929,-10,-1,-100,15029.800359210116,-0.0069418341553037985,-0.008420760479640953,0.9999404490925969,16.76002846979771,0.010785756640206352,14.338499130827588,-7.54152477785887,-91.3182373046875,5356.25390625,True
1599558669.168423,0.0,10,0.5,0.5,0.011585121726989746,-0.001,-0.00825,-0.37525,0.006191717061919524,10,1,100,0.18027508782590268,-10,-1,-100,15029.131413871306,-0.007905522656473832,-0.007511154583453054,0.9999405408664814,17.036457577684704,0.010973149613758943,16.01324853896199,-8.284739832914868,-91.31796264648438,5356.25390625,True
1599558669.2024055,0.0,10,0.5,0.5,0.011810994338989259,-0.001,-0.00825,-0.37525,-0.08445404288856652,10,1,100,0.08442513491804342,-10,-1,-100,15029.131413871306,-0.007905522656473832,-0.007511154583453054,0.9999405408664814,17.036457577684704,0.010973149613758943,16.01324853896199,-8.284739832914868,-91.31796264648438,5356.25390625,True
1599558669.2714286,0.0,10,0.5,0.5,0.00942780284881592,-0.001,-0.00825,-0.37525,-0.02864800077430734,10,1,100,0.13354488192256775,-10,-1,-100,15028.797428929363,-0.008347348563704561,-0.007006689015762551,0.9999406122770454,17.17647026032959,0.011068503959324521,16.87010249912445,-8.656349706843468,-91.3113021850586,5356.25390625,True
1599558669.3033416,0.0,10,0.5,0.5,0.003107066345214845,-0.001,-0.00825,-0.37525,0.036236457523693685,10,1,100,0.17085424959281048,-10,-1,-100,15028.11188144295,-0.009084058947140315,-0.00596119125199568,0.999940970293698,17.45779354450431,0.011260917107163182,18.621118626346032,-9.399570144368454,-91.28767395019531,5356.25390625,True
1599558669.3362896,0.0,10,0.5,0.5,0.005769167327880859,-0.001,-0.00825,-0.37525,-0.008459048952530468,10,1,100,0.1308993517754249,-10,-1,-100,15027.709536982118,-0.009385773976889982,-0.005420977987710309,0.9999412583969677,17.598603856411785,0.011357650763582097,19.514853405745402,-9.771179394139233,-91.27104949951172,5356.25390625,True
1599558669.3708074,0.0,10,0.5,0.5,0.008635321235656739,-0.001,-0.00825,-0.37525,-0.0328319855061771,10,1,100,0.11553043202547035,-10,-1,-100,15027.477115524467,-0.009516216102703853,-0.005155422885888245,0.9999414299077494,17.66931827709843,0.011406334550679843,19.966593679754606,-9.956983327543211,-91.2620849609375,5356.25390625,True
1599558669.4067123,0.0,10,0.5,0.5,0.004793241310119628,-0.001,-0.00825,-0.37525,0.0014742927346099374,10,1,100,0.1289946338459011,-10,-1,-100,15027.077700124937,-0.009752956291828855,-0.004606351029175993,0.9999418289949499,17.811094448888024,0.011504055827171521,20.879572432639982,-10.328589393741833,-91.24295043945312,5356.25390625,True
1599558669.43665,0.0,10,0.5,0.5,0.008024013710021975,-0.001,-0.00825,-0.37525,-0.02176708861395783,10,1,100,0.11738393614431879,-10,-1,-100,15026.898011199548,-0.00985875315339278,-0.004322870150111314,0.9999420572112795,17.881900027079126,0.011552928620287005,21.340522232531224,-10.514391408107612,-91.23255920410156,5356.25390625,True
1599558669.4708567,0.0,10,0.5,0.5,0.00775367546081543,-0.001,-0.00825,-0.37525,-0.018695903963413456,10,1,100,0.11728112612029284,-10,-1,-100,15026.672425399185,-0.009950840539942267,-0.0040413562339078335,0.9999423224428192,17.95234669108141,0.011601606805941326,21.804073261904676,-10.700192622972047,-91.22164916992188,5356.25390625,True
1599558669.5035746,0.0,10,0.5,0.5,-0.0014021472930908184,-0.001,-0.00825,-0.37525,0.04518709921916986,10,1,100,0.13068771783942207,-10,-1,-100,15026.023008250166,-0.010153698992084213,-0.003208661194104578,0.999943301837719,18.16217780177688,0.011746735480409914,23.21093959904117,-11.257590558424079,-91.1866455078125,5356.25390625,True
1599558669.5388067,0.0,10,0.5,0.5,0.0018645107269287132,-0.001,-0.00825,-0.37525,0.024584064933226873,10,1,100,0.12004418038964598,-10,-1,-100,15025.546443469124,-0.010238436458272762,-0.002643704287142497,0.9999440910603613,18.300901238618565,0.011842807940190707,24.162336158036673,-11.62918371766608,-91.16070556640625,5356.25390625,True
1599558669.5696864,0.0,10,0.5,0.5,0.01146873664855957,-0.001,-0.00825,-0.37525,-0.031424880733350175,10,1,100,0.11180372515097096,-10,-1,-100,15025.546443469124,-0.010238436458272762,-0.002643704287142497,0.9999440910603613,18.300901238618565,0.011842807940190707,24.162336158036673,-11.62918371766608,-91.16070556640625,5356.25390625,True
1599558669.6036162,0.0,10,0.5,0.5,0.0014126041412353529,-0.001,-0.00825,-0.37525,0.028569079649713093,10,1,100,0.11617444264557285,-10,-1,-100,15025.058159830864,-0.010276049422949326,-0.002102729602111295,0.9999449891551423,18.438355820284745,0.011937994397877015,25.123933537306172,-12.000772100028211,-91.13432312011719,5356.25390625,True
1599558669.635686,0.0,10,0.5,0.5,0.00614025936126709,-0.001,-0.00825,-0.37525,0.005338486547702033,10,1,100,0.11323863371276693,-10,-1,-100,15024.827690561768,-0.010281800490666834,-0.001826579788840895,0.9999454726058541,18.50691257903138,0.011985407291239904,25.608932052083084,-12.186564234453726,-91.12096405029297,5356.25390625,True
1599558669.6724808,0.0,10,0.5,0.5,-0.004640317916870116,-0.001,-0.00825,-0.37525,0.06843046063624157,10,1,100,0.10767206611609544,-10,-1,-100,15024.037646623095,-0.010235334718127986,-0.0010057298409384943,0.9999471118167675,18.71046991176568,0.012126017951403317,27.078584361998495,-12.743932459743931,-91.07935333251953,5356.25390625,True
1599558669.7024794,0.0,10,0.5,0.5,0.01081595458984375,-0.001,-0.00825,-0.37525,-0.013213009339321308,10,1,100,0.11240359944410402,-10,-1,-100,15024.037646623095,-0.010235334718127986,-0.0010057298409384943,0.9999471118167675,18.71046991176568,0.012126017951403317,27.078584361998495,-12.743932459743931,-91.07935333251953,5356.25390625,True
1599558669.7365458,0.0,10,0.5,0.5,-0.00020847911834716813,-0.001,-0.00825,-0.37525,0.04600436187808632,10,1,100,0.10344249227862276,-10,-1,-100,15023.550338420318,-0.010153216363336862,-0.0004711625508211066,0.9999483437674818,18.8443021494152,0.012218260537134436,28.070185999434205,-13.115503606782191,-91.05045318603516,5356.25390625,True
1599558669.7686715,0.0,10,0.5,0.5,-0.005764136123657225,-0.001,-0.00825,-0.37525,0.07819553325406682,10,1,100,0.09044354009182179,-10,-1,-100,15022.762248011073,-0.009960027148127187,0.0003036954631778369,0.9999503515816545,19.042887683094918,0.012354642937359217,29.575886785579254,-13.672847848746487,-91.00728607177734,5356.25390625,True
1599558669.8055081,0.0,10,0.5,0.5,0.010248473167419435,-0.001,-0.00825,-0.37525,0.0011723884155013836,10,1,100,0.1097725890122627,-10,-1,-100,15022.762248011073,-0.009960027148127187,0.0003036954631778369,0.9999503515816545,19.042887683094918,0.012354642937359217,29.575886785579254,-13.672847848746487,-91.00728607177734,5356.25390625,True
1599558669.8366342,0.0,10,0.5,0.5,-0.012488105010986326,-0.001,-0.00825,-0.37525,0.10981386522199851,10,1,100,0.06781349511544439,-10,-1,-100,15021.604037592653,-0.009578572488512307,0.0012873952053304603,0.9999532956906876,19.302254050740288,0.012531627493983436,31.614660691262692,-14.415948165561947,-90.94732666015625,5356.25390625,True
1599558669.8705668,0.0,10,0.5,0.5,0.009814226150512695,-0.001,-0.00825,-0.37525,0.011893496646679689,10,1,100,0.1059014484265752,-10,-1,-100,15021.604037592653,-0.009578572488512307,0.0012873952053304603,0.9999532956906876,19.302254050740288,0.012531627493983436,31.614660691262692,-14.415948165561947,-90.94732666015625,5356.25390625,True
1599558669.9035285,0.0,10,0.5,0.5,0.003940127563476564,-0.001,-0.00825,-0.37525,0.03982497765519334,10,1,100,0.09254662695206434,-10,-1,-100,15021.302276592935,-0.009457764896898355,0.0015377440331419726,0.9999540919594475,19.366325144924925,0.012575080893347525,32.13008908971832,-14.601718372901452,-90.93218231201172,5356.25390625,True
1599558669.940209,0.0,10,0.5,0.5,-0.002013279533386229,-0.001,-0.00825,-0.37525,0.0657421300794675,10,1,100,0.07639827594001886,-10,-1,-100,15020.743678623345,-0.009201846324013779,0.0019971430365364902,0.9999556677392858,19.49315903942902,0.012660735909213575,33.16704520538234,-14.973252732426213,-90.9017562866211,5356.25390625,True
1599558669.971125,0.0,10,0.5,0.5,-0.014808624649047848,-0.001,-0.00825,-0.37525,0.11973104597557474,10,1,100,0.0334402042620527,-10,-1,-100,15019.501482657506,-0.008579641699863505,0.0029018596635518924,0.9999589836382264,19.742128009744558,0.01282714655808088,35.26555908452025,-15.71629647683863,-90.8379135131836,5356.25390625,True
1599558670.0037005,0.0,10,0.5,0.5,0.0027833438873291023,-0.001,-0.00825,-0.37525,0.05282610595974341,10,1,100,0.07667335323821003,-10,-1,-100,15019.188004555297,-0.008408577176592689,0.0031118040157379796,0.9999598054450154,19.803257722849274,0.012867559108215281,35.79493129712612,-15.902051966228353,-90.82161712646484,5356.25390625,True
1599558670.0370352,0.0,10,0.5,0.5,-0.003169480895996092,-0.001,-0.00825,-0.37525,0.0759372239697772,10,1,100,0.05442549398950764,-10,-1,-100,15018.506359759951,-0.008052471396396048,0.003509020377946842,0.999961421496048,19.924482783125082,0.012947115213351745,36.85973328192323,-16.273556197390267,-90.79010772705078,5356.25390625,True
1599558670.0730534,0.0,10,0.5,0.5,0.008415793609619141,-0.001,-0.00825,-0.37525,0.03666706277077949,10,1,100,0.0898177856769985,-10,-1,-100,15018.506359759951,-0.008052471396396048,0.003509020377946842,0.999961421496048,19.924482783125082,0.012947115213351745,36.85973328192323,-16.273556197390267,-90.79010772705078,5356.25390625,True
1599558670.1040256,0.0,10,0.5,0.5,-0.008936232757568358,-0.001,-0.00825,-0.37525,0.10012129249669985,10,1,100,0.02455885806214686,-10,-1,-100,15017.503422817332,-0.0074611181862309795,0.004082258663701784,0.9999638327857733,20.104632078560925,0.013063859261902285,38.47348383141915,-16.830795815151887,-90.74456024169922,5356.25390625,True
1599558670.13761,0.0,10,0.5,0.5,0.007938712310791015,-0.001,-0.00825,-0.37525,0.04317532024125809,10,1,100,0.0834442881824641,-10,-1,-100,15017.503422817332,-0.0074611181862309795,0.004082258663701784,0.9999638327857733,20.104632078560925,0.013063859261902285,38.47348383141915,-16.830795815151887,-90.74456024169922,5356.25390625,True
1599558670.171647,0.0,10,0.5,0.5,-0.015205196762084958,-0.001,-0.00825,-0.37525,0.11740812597209262,10,1,100,-0.010833958783821665,-10,-1,-100,15016.122555353097,-0.006606314949230105,0.004753667294708894,0.9999668790765235,20.340556552585856,0.013213768808251434,40.65323105634371,-17.57374899825437,-90.68362426757812,5356.25390625,True
1599558670.2066598,0.0,10,0.5,0.5,0.0017999526977539072,-0.001,-0.00825,-0.37525,0.06838710354360825,10,1,100,0.04847518500661979,-10,-1,-100,15015.808101297589,-0.006371097184178126,0.004915241962556974,0.9999676242344646,20.39894476197298,0.013250264513363287,41.20340320701057,-17.759481326624766,-90.66862487792969,5356.25390625,True
1599558670.2385743,0.0,10,0.5,0.5,-0.003965061950683592,-0.001,-0.00825,-0.37525,0.08378374579164255,10,1,100,0.021270612365826898,-10,-1,-100,15015.055167830084,-0.005912864442218513,0.0051987994567126074,0.9999690047787965,20.514650582383208,0.013321851676003223,42.309190835762415,-18.130938784950438,-90.63895416259766,5356.25390625,True
1599558670.271495,0.0,10,0.5,0.5,-0.0038835670471191394,-0.001,-0.00825,-0.37525,0.0850405281925742,10,1,100,0.013490804264454509,-10,-1,-100,15014.356922210893,-0.005428786330837916,0.00546467605920477,0.9999703323571865,20.63110771389242,0.013392929606780003,43.426677383202524,-18.502386569541194,-90.61022186279297,5356.25390625,True
1599558670.3044074,0.0,10,0.5,0.5,0.0013873649597167985,-0.001,-0.00825,-0.37525,0.07184150078852394,10,1,100,0.03513564939606008,-10,-1,-100,15013.972154170857,-0.0051889166944094015,0.005583238600503854,0.9999709508732084,20.68996517893359,0.013428498199638442,43.99057899729021,-18.6881068237056,-90.5962142944336,5356.25390625,True
1599558670.3399014,0.0,10,0.5,0.5,-0.0037059959411621093,-0.001,-0.00825,-0.37525,0.0841571224717804,10,1,100,0.0051577448932523945,-10,-1,-100,15013.217268016771,-0.004701409461272004,0.005800545308862669,0.999972124823086,20.81530969268364,0.013503830862398994,45.142657440327454,-19.05954003051235,-90.5692367553711,5356.25390625,True
1599558670.370856,0.0,10,0.5,0.5,0.0062091117858886725,-0.001,-0.00825,-0.37525,0.06269532576521139,10,1,100,0.05353775143546005,-10,-1,-100,15013.217268016771,-0.004701409461272004,0.005800545308862669,0.999972124823086,20.81530969268364,0.013503830862398994,45.142657440327454,-19.05954003051235,-90.5692367553711,5356.25390625,True
1599558670.4037683,0.0,10,0.5,0.5,-0.008722042465209958,-0.001,-0.00825,-0.37525,0.09347001229540522,10,1,100,-0.02941790335575698,-10,-1,-100,15012.011209942866,-0.003950313564929235,0.006078231981927235,0.999973724714161,21.016599714431017,0.013623536589057201,46.92096533442824,-19.61667121477645,-90.53003692626953,5356.25390625,True
1599558670.43787,0.0,10,0.5,0.5,0.0010654170989990242,-0.001,-0.00825,-0.37525,0.07442534392467179,10,1,100,0.017788578143320348,-10,-1,-100,15011.626442185836,-0.003700378179910572,0.006155205416248372,0.9999742099912424,21.085284524672396,0.013663936441151199,47.52317689098116,-19.802376452650734,-90.51752471923828,5356.25390625,True
1599558670.4729044,0.0,10,0.5,0.5,-0.008119251251220701,-0.001,-0.00825,-0.37525,0.0878319827925938,10,1,100,-0.040353746768192304,-10,-1,-100,15010.418432083214,-0.002948016457976509,0.006345175303746382,0.9999755236751189,21.288937891435612,0.013782023667853725,49.342262768892624,-20.359477367273502,-90.48113250732422,5356.25390625,True
1599558670.5058677,0.0,10,0.5,0.5,0.005319598388671875,-0.001,-0.00825,-0.37525,0.06906128570679726,10,1,100,0.034431115252388525,-10,-1,-100,15010.418432083214,-0.002948016457976509,0.006345175303746382,0.9999755236751189,21.288937891435612,0.013782023667853725,49.342262768892624,-20.359477367273502,-90.48113250732422,5356.25390625,True
1599558670.539606,0.0,10,0.5,0.5,0.0008725381851196297,-0.001,-0.00825,-0.37525,0.07487058922458845,10,1,100,0.005697976887302815,-10,-1,-100,15010.034641202888,-0.002690131835104142,0.006396540328445359,0.9999759234414277,21.355783979212557,0.013820200985800031,49.95213644130611,-20.545172573486298,-90.46975708007812,5356.25390625,True
1599558670.5720327,0.0,10,0.5,0.5,-0.011439629554748533,-0.001,-0.00825,-0.37525,0.0841299076073176,10,1,100,-0.08041374017889488,-10,-1,-100,15008.303192211199,-0.0016762038094811696,0.006526064792227522,0.9999773001519169,21.62030571135526,0.013968521311096833,52.413990240420304,-21.287928290258186,-90.4261245727539,5356.25390625,True
1599558670.607495,0.0,10,0.5,0.5,0.0006615957260131845,-0.001,-0.00825,-0.37525,0.07296081428233715,10,1,100,-0.00694094115871613,-10,-1,-100,15007.917450129753,-0.0014262371051280353,0.006541070487861017,0.9999775898711893,21.6943765114061,0.014010079752539123,53.05612740597597,-21.47361078877015,-90.41523742675781,5356.25390625,True
1599558670.6383824,0.0,10,0.5,0.5,0.00458613510131836,-0.001,-0.00825,-0.37525,0.07156788416185332,10,1,100,0.017655474354026313,-10,-1,-100,15007.917450129753,-0.0014262371051280353,0.006541070487861017,0.9999775898711893,21.6943765114061,0.014010079752539123,53.05612740597597,-21.47361078877015,-90.41523742675781,5356.25390625,True
1599558670.6714993,0.0,10,0.5,0.5,-0.011090028190612791,-0.001,-0.00825,-0.37525,0.07088044988246772,10,1,100,-0.09109526277768516,-10,-1,-100,15006.172330600675,-0.00044101465810273235,0.006533950329059914,0.9999785562696676,21.986617705886427,0.01417101782450441,55.646890210410234,-22.216314383140965,-90.37397003173828,5356.25390625,True
1599558670.7043602,0.0,10,0.5,0.5,0.0042344667434692385,-0.001,-0.00825,-0.37525,0.07166580626459772,10,1,100,0.0070009424445282185,-10,-1,-100,15006.172330600675,-0.00044101465810273235,0.006533950329059914,0.9999785562696676,21.986617705886427,0.01417101782450441,55.646890210410234,-22.216314383140965,-90.37397003173828,5356.25390625,True
1599558670.7404172,0.0,10,0.5,0.5,0.00031006793975830093,-0.001,-0.00825,-0.37525,0.069756687162799,10,1,100,-0.0209635623740805,-10,-1,-100,15005.717251072987,-0.00019066497320917062,0.006515927969025201,0.9999787529390665,22.058702910008428,0.014209969202702498,56.30010196305329,-22.40198362501664,-90.36396789550781,5356.25390625,True
1599558670.7713706,0.0,10,0.5,0.5,-0.0035571865081787096,-0.001,-0.00825,-0.37525,0.06554622406528302,10,1,100,-0.04806031969459637,-10,-1,-100,15004.808070198516,0.0002798419445244661,0.006460869162664318,0.9999790892104439,22.202061844924142,0.014286552414753444,57.613917364083626,-22.773314222036237,-90.34407806396484,5356.25390625,True
1599558670.8043532,0.0,10,0.5,0.5,-0.0035077484130859376,-0.001,-0.00825,-0.37525,0.062157714574584126,10,1,100,-0.055188462585014066,-10,-1,-100,15003.846155748586,0.0007687584231729921,0.006379733194469511,0.9999793537942943,22.34398583668415,0.01436116517785104,58.93655049928787,-23.14463430720734,-90.32475280761719,5356.25390625,True
1599558670.8383696,0.0,10,0.5,0.5,-0.007206969261169432,-0.001,-0.00825,-0.37525,0.05193463415036219,10,1,100,-0.08253689318393907,-10,-1,-100,15002.48385098402,0.00145847115931538,0.006213004712353375,0.9999796355098046,22.554584294202005,0.014469630733422424,60.9377438010929,-23.701594280428345,-90.29598999023438,5356.25390625,True
1599558670.8733315,0.0,10,0.5,0.5,0.0034335353851318363,-0.001,-0.00825,-0.37525,0.06859426530283647,10,1,100,-0.014006268331429482,-10,-1,-100,15002.48385098402,0.00145847115931538,0.006213004712353375,0.9999796355098046,22.554584294202005,0.014469630733422424,60.9377438010929,-23.701594280428345,-90.29598999023438,5356.25390625,True
1599558670.9042566,0.0,10,0.5,0.5,-0.003449896621704102,-0.001,-0.00825,-0.37525,0.053212435597898455,10,1,100,-0.06279242597554588,-10,-1,-100,15001.51998372632,0.0018982102260851476,0.0060733367474140225,0.9999797554844249,22.693325495750123,0.014539552278885228,62.282791012167415,-24.072887382242072,-90.278076171875,5356.25390625,True
1599558670.938269,0.0,10,0.5,0.5,6.860923767090191e-06,-0.001,-0.00825,-0.37525,0.058712963858291396,10,1,100,-0.04208823632663469,-10,-1,-100,15000.99849831534,0.0021065036408534107,0.005996782243513468,0.9999798004185559,22.762210634388342,0.014573815219562492,62.95856430761952,-24.25852993729468,-90.26972198486328,5356.25390625,True
1599558670.971523,0.0,10,0.5,0.5,-0.0027710700988769522,-0.001,-0.00825,-0.37525,0.04722959867199367,10,1,100,-0.06726032757617717,-10,-1,-100,15000.019005779177,0.002521486901324053,0.005823287818496028,0.9999798655086959,22.899422407470286,0.014641261507454715,64.31767003874428,-24.629806986530856,-90.25432586669922,5356.25390625,True
1599558671.0073662,0.0,10,0.5,0.5,-0.002591974449157715,-0.001,-0.00825,-0.37525,0.04360102810872751,10,1,100,-0.06812901274183651,-10,-1,-100,14999.041467043688,0.0029030527087065836,0.00563323113851354,0.9999799192943378,23.035717683609164,0.014707136598025057,65.6862959557427,-25.001073277696307,-90.23979949951172,5356.25390625,True
1599558671.0382836,0.0,10,0.5,0.5,0.00014475650787353512,-0.001,-0.00825,-0.37525,0.05110262069373599,10,1,100,-0.050981151639157576,-10,-1,-100,14998.530725551536,0.0030910010077874308,0.005529467470384579,0.9999799351498329,23.103617475402242,0.014739558631594726,66.37442059293903,-25.186702280435654,-90.23287963867188,5356.25390625,True
1599558671.0719104,0.0,10,0.5,0.5,-0.002427150344848632,-0.001,-0.00825,-0.37525,0.037075993210046496,10,1,100,-0.07139854626532252,-10,-1,-100,14997.53951424989,0.003444264852947982,0.005308535233923506,0.9999799780462072,23.238632292780274,0.014803202791176546,67.75740639949541,-25.55795231412334,-90.21945190429688,5356.25390625,True
1599558671.1058202,0.0,10,0.5,0.5,-0.004454373168945312,-0.001,-0.00825,-0.37525,0.019044771908266138,10,1,100,-0.08992470858997524,-10,-1,-100,14995.966271237587,0.003930528978930638,0.004944865182338256,0.9999800494261245,23.439779023426485,0.014896017435091408,69.85024054209214,-26.114806969833552,-90.20098876953125,5356.25390625,True
1599558671.1413035,0.0,10,0.5,0.5,0.0001455385208129884,-0.001,-0.00825,-0.37525,0.040890785841975946,10,1,100,-0.058411565607642886,-10,-1,-100,14995.44478742953,0.004082785350862389,0.004814234356640233,0.9999800768072022,23.50662528595101,0.014926383304223958,70.55319778004746,-26.30041966292669,-90.19511413574219,5356.25390625,True
1599558671.1722143,0.0,10,0.5,0.5,9.012317657470723e-05,-0.001,-0.00825,-0.37525,0.039294333908475906,10,1,100,-0.05906828565140665,-10,-1,-100,14994.91939608811,0.004224157664900297,0.0046823890419173285,0.9999801156647476,23.573189334141045,0.014956320255266489,71.25827330157854,-26.486029628105246,-90.18939208984375,5356.25390625,True
1599558671.205138,0.0,10,0.5,0.5,-0.0018407003402709956,-0.001,-0.00825,-0.37525,0.022746085550477354,10,1,100,-0.07358868685904718,-10,-1,-100,14993.817833261099,0.004482167337271869,0.0044134825122514616,0.9999802154783236,23.70617605123163,0.015015447616539697,72.67687383786865,-26.857241449647017,-90.17878723144531,5356.25390625,True
1599558671.237605,0.0,10,0.5,0.5,0.00019918117523193344,-0.001,-0.00825,-0.37525,0.033555602549371205,10,1,100,-0.061962343958816654,-10,-1,-100,14993.292443214916,0.004608278743809423,0.004268926296363437,0.9999802698230078,23.772693459330863,0.015044703544874067,73.39068820331269,-27.042843239632887,-90.17388916015625,5356.25390625,True
1599558671.2734668,0.0,10,0.5,0.5,-0.0016398420333862298,-0.001,-0.00825,-0.37525,0.015358897619448312,10,1,100,-0.07466234593745862,-10,-1,-100,14992.174278929713,0.004835916341815105,0.003973727337512344,0.9999804115102364,23.905459998880715,0.015102351656356263,74.82636705163252,-27.414038542494918,-90.16434478759766,5356.25390625,True
1599558671.3045034,0.0,10,0.5,0.5,-0.0032261430740356443,-0.001,-0.00825,-0.37525,-0.005588967234818255,10,1,100,-0.08345432349933127,-10,-1,-100,14990.533652355312,0.005120305397200056,0.0035167686534325645,0.9999807072193331,24.10419613823064,0.015186916644894374,77.00076773205733,-27.97081082082389,-90.15084075927734,5356.25390625,True
1599558671.338543,0.0,10,0.5,0.5,0.0017558683395385742,-0.001,-0.00825,-0.37525,0.03987624925665337,10,1,100,-0.05527529981042374,-10,-1,-100,14990.533652355312,0.005120305397200056,0.0035167686534325645,0.9999807072193331,24.10419613823064,0.015186916644894374,77.00076773205733,-27.97081082082389,-90.15084075927734,5356.25390625,True
