Timestamp,Input Throttle,horizon,dT,dt,Input Roll,Roll P,Roll I,Roll D,Input Pitch,Pitch P,Pitch I,Pitch D,Input Yaw,Yaw P,Yaw I,Yaw D,Altitude,Direction X,Direction Y,Direction Z,Drag X,Drag Y,Drag Z,Vertical Velocity,Roll,Mass,Has Fuel
1599560364.3722656,0.0,10,0.5,0.5,-2.954050750732422,-0.05075,-0.03,-0.001,-0.0005669984869096175,10,1,100,0.17116882045917153,-10,-1,-100,14993.318149641505,-0.01677710793932749,-7.673695895895911e-05,0.9998592514752419,28.717115805832858,0.027109169915866562,-88.327881981045,27.194950706219654,-31.7921142578125,5356.25390625,True
1599560364.39825,0.0,10,0.5,0.5,-3.1287038650512695,-0.05075,-0.03,-0.001,-0.0004973177423671855,10,1,100,0.17328761444261778,-10,-1,-100,14993.85135412484,-0.0168120063416494,-7.421218129424727e-05,0.999858665479937,28.64446072575305,0.027275103594652482,-87.50350743993893,27.008979401533644,-31.791534423828125,5356.25390625,True
1599560364.4321592,0.0,10,0.5,0.5,-3.3033602676391602,-0.05075,-0.03,-0.001,-0.0004901143505144462,10,1,100,0.1754040190023896,-10,-1,-100,14994.384558993042,-0.016847688561265745,-7.178397787194412e-05,0.999858065045836,28.571765147838445,0.027439473178991657,-86.68205874817261,26.823011807818826,-31.790924072265625,5356.25390625,True
1599560364.466167,0.0,10,0.5,0.5,-3.470856414794922,-0.05075,-0.03,-0.001,0.007227552593580704,10,1,100,0.1815963342645917,-10,-1,-100,14995.987102229963,-0.016921104637335836,6.493465290800648e-07,0.9998568278595845,28.357480776982037,0.027926454735201407,-84.24730977126264,26.26513260816116,-31.9287109375,5356.25390625,True
1599560364.501602,0.0,10,0.5,0.5,-3.6249142608642577,-0.05075,-0.03,-0.001,0.009390400776619444,10,1,100,0.17926222030876476,-10,-1,-100,14997.05058020784,-0.01695124448449446,8.615948915170052e-05,0.9998563136205969,28.23326298747502,0.02825630947546411,-82.69370474390645,25.89323203668158,-32.32086181640625,5356.25390625,True
1599560364.5326815,0.0,10,0.5,0.5,-3.764002281188965,-0.05075,-0.03,-0.001,0.015492049451025258,10,1,100,0.17791907164552156,-10,-1,-100,14998.054486378445,-0.016951023680896002,0.00021928718904036133,0.9998562970293773,28.129339395178633,0.02858887218098099,-81.20908095396396,25.52134530235283,-32.984466552734375,5356.25390625,True
1599560364.5654142,0.0,10,0.5,0.5,-3.9357124862670902,-0.05075,-0.03,-0.001,0.0022012081810632122,10,1,100,0.17963625437345693,-10,-1,-100,14998.054486378445,-0.016951023680896002,0.00021928718904036133,0.9998562970293773,28.129339395178633,0.02858887218098099,-81.20908095396396,25.52134530235283,-32.984466552734375,5356.25390625,True
1599560364.5993226,0.0,10,0.5,0.5,-4.028623977661133,-0.05075,-0.03,-0.001,0.034420833629220514,10,1,100,0.17461907328751639,-10,-1,-100,14999.591594047379,-0.016890002922223,0.0005119935229426638,0.9998572226392726,28.00702217407024,0.02907338689842057,-79.09320369112622,24.96353926777539,-34.49432373046875,5356.25390625,True
1599560364.6348193,0.0,10,0.5,0.5,-4.126789627075195,-0.05075,-0.03,-0.001,0.03397744275189948,10,1,100,0.17344667431901856,-10,-1,-100,15000.531043767696,-0.016808516784695544,0.0007735939153118905,0.9998584276366093,27.94208725898807,0.029369155860864873,-77.73730509728911,24.591683404036765,-35.84429931640625,5356.25390625,True
1599560364.6656804,0.0,10,0.5,0.5,-4.290606704711914,-0.05075,-0.03,-0.001,0.007894762906507995,10,1,100,0.18327613975023377,-10,-1,-100,15000.531043767696,-0.016808516784695544,0.0007735939153118905,0.9998584276366093,27.94208725898807,0.029369155860864873,-77.73730509728911,24.591683404036765,-35.84429931640625,5356.25390625,True
1599560364.6987133,0.0,10,0.5,0.5,-4.368984794616699,-0.05075,-0.03,-0.001,0.041054283203008114,10,1,100,0.17079801496607366,-10,-1,-100,15001.531039249036,-0.016679798816853456,0.0010743408326297898,0.9998603052942968,27.883949214148494,0.02962527091603071,-76.40541136831835,24.219838794563827,-37.469207763671875,5356.25390625,True
1599560364.7246556,0.0,10,0.5,0.5,-4.306199882507324,-0.05075,-0.03,-0.001,0.029523677119121797,10,1,100,0.17506861533608642,-10,-1,-100,15001.998809478013,-0.01660169458501756,0.0012418769950729238,0.9998614111357809,27.855393375403526,0.029732950237036915,-75.74266330203858,24.033920724267368,-38.384735107421875,5356.25390625,True
1599560364.7465594,0.0,10,0.5,0.5,-4.12387036895752,-0.05075,-0.03,-0.001,0.07618031310687838,10,1,100,0.15020825919312486,-10,-1,-100,15003.404072458507,-0.01630487869273676,0.001817137388840499,0.9998654154147574,27.759299162376525,0.02994337880652585,-73.7338166394927,23.476183550793948,-41.543487548828125,5356.25390625,True
1599560364.7704952,0.0,10,0.5,0.5,-4.097771430969239,-0.05075,-0.03,-0.001,0.018843165866792105,10,1,100,0.179835567434352,-10,-1,-100,15003.404072458507,-0.01630487869273676,0.001817137388840499,0.9998654154147574,27.759299162376525,0.02994337880652585,-73.7338166394927,23.476183550793948,-41.543487548828125,5356.25390625,True
1599560364.8014143,0.0,10,0.5,0.5,-4.007323944091797,-0.05075,-0.03,-0.001,0.04189306258608262,10,1,100,0.16613589318150462,-10,-1,-100,15003.8708652918,-0.016180896404933236,0.002025030551704675,0.9998670300808992,27.720074385090243,0.02996693432326733,-73.04790605862738,23.290277099875833,-42.73388671875,5356.25390625,True
1599560364.8326383,0.0,10,0.5,0.5,-3.7711249237060547,-0.05075,-0.03,-0.001,0.09600046418348177,10,1,100,0.12972150566175103,-10,-1,-100,15005.274171412224,-0.01573784566409551,0.002704147195137052,0.9998724957722359,27.562106480436405,0.02985786114053668,-70.89635631097948,22.732577551106466,-46.71746826171875,5356.25390625,True
1599560364.8659706,0.0,10,0.5,0.5,-3.7339095001220706,-0.05075,-0.03,-0.001,0.028337285840853745,10,1,100,0.17390526194384345,-10,-1,-100,15005.274171412224,-0.01573784566409551,0.002704147195137052,0.9998724957722359,27.562106480436405,0.02985786114053668,-70.89635631097948,22.732577551106466,-46.71746826171875,5356.25390625,True
1599560364.8999388,0.0,10,0.5,0.5,-3.616877983093262,-0.05075,-0.03,-0.001,0.05507862238675558,10,1,100,0.15472973412412658,-10,-1,-100,15005.739009695128,-0.01556462557302245,0.0029449912910033444,0.9998745268567789,27.491289970865793,0.02975261997861662,-70.1372545672867,22.54668506920793,-48.182830810546875,5356.25390625,True
1599560364.9358485,0.0,10,0.5,0.5,-3.41492578125,-0.05075,-0.03,-0.001,0.08477526900538276,10,1,100,0.12914614149780174,-10,-1,-100,15006.609115691157,-0.015175779536670531,0.0034316981676256204,0.9998789522552921,27.31270012502275,0.02942399260382427,-68.53524540123934,22.174912812126077,-51.320068359375,5356.25390625,True
1599560364.9665723,0.0,10,0.5,0.5,-3.195065368652344,-0.05075,-0.03,-0.001,0.09469789489112862,10,1,100,0.11939169411315123,-10,-1,-100,15007.479220148642,-0.01473509065217017,0.003961948196014185,0.9998835832585534,27.073448109748874,0.028925669676382333,-66.79860128467152,21.803159801403332,-54.7320556640625,5356.25390625,True
1599560364.9995823,0.0,10,0.5,0.5,-2.850233917236328,-0.05075,-0.03,-0.001,0.12881878915100317,10,1,100,0.07885932054517411,-10,-1,-100,15008.750685260049,-0.01396787320303598,0.004751285120292919,0.9998911559804344,26.56847529253836,0.027844075730139917,-63.88019171898624,21.24557356598357,-60.366455078125,5356.25390625,True
1599560365.0325007,0.0,10,0.5,0.5,-2.7871765747070314,-0.05075,-0.03,-0.001,0.05025279115189606,10,1,100,0.15530987289721124,-10,-1,-100,15008.750685260049,-0.01396787320303598,0.004751285120292919,0.9998911559804344,26.56847529253836,0.027844075730139917,-63.88019171898624,21.24557356598357,-60.366455078125,5356.25390625,True
1599560365.0696123,0.0,10,0.5,0.5,-2.3975759735107425,-0.05075,-0.03,-0.001,0.13539639413661234,10,1,100,0.057927234396440194,-10,-1,-100,15010.022148526506,-0.013084970872467136,0.005522127503676503,0.9998991397361534,25.841314055803487,0.02637412642789908,-60.50542811469715,20.688051214266302,-66.62066650390625,5356.25390625,True
1599560365.1003797,0.0,10,0.5,0.5,-2.3285986480712895,-0.05075,-0.03,-0.001,0.058682654809737514,10,1,100,0.14589547667129768,-10,-1,-100,15010.022148526506,-0.013084970872467136,0.005522127503676503,0.9998991397361534,25.841314055803487,0.02637412642789908,-60.50542811469715,20.688051214266302,-66.62066650390625,5356.25390625,True
1599560365.1339066,0.0,10,0.5,0.5,-2.019778274536133,-0.05075,-0.03,-0.001,0.11465795706394444,10,1,100,0.0732893773364533,-10,-1,-100,15010.825844794745,-0.012427842612896069,0.006027625714973988,0.9999046036778856,25.205646613271014,0.02520866294985306,-57.959682942080796,20.31641224659345,-71.13446044921875,5356.25390625,True
1599560365.166919,0.0,10,0.5,0.5,-1.6912058258056641,-0.05075,-0.03,-0.001,0.1135638201658222,10,1,100,0.06327798286775085,-10,-1,-100,15011.62856507022,-0.011742852476108746,0.006473584121476709,0.9999100950207206,24.429972206369804,0.02393434481441938,-55.151387793015594,19.944811643620213,-75.92449951171875,5356.25390625,True
1599560365.2029614,0.0,10,0.5,0.5,-1.2098217544555665,-0.05075,-0.03,-0.001,0.14111203502937086,10,1,100,0.0061174258900828365,-10,-1,-100,15012.82971533353,-0.010604124554857822,0.0071260124107602255,0.9999183829140991,22.968333476604244,0.021916428359896174,-50.40696375391361,19.387487819214066,-83.62600708007812,5356.25390625,True
1599560365.232974,0.0,10,0.5,0.5,-0.8232355041503906,-0.05075,-0.03,-0.001,0.11738409905609934,10,1,100,0.032750928721438255,-10,-1,-100,15013.573841752717,-0.009815707125923157,0.007499400651064933,0.9999237025310945,21.811242429982997,0.020602496284703273,-46.95305582612948,19.015989070016218,-89.10546875,5356.25390625,True
1599560365.2670412,0.0,10,0.5,0.5,-0.5588078632354736,-0.05075,-0.03,-0.001,0.09880681168020992,10,1,100,0.0675713800603221,-10,-1,-100,15013.968366170768,-0.009420739855833405,0.007665819703051979,0.9999262397141345,21.246981663953363,0.02003812745996136,-45.29293944474528,18.830252725748455,-91.94873809814453,5356.25390625,True
1599560365.2969263,0.0,10,0.5,0.5,-0.135157039642334,-0.05075,-0.03,-0.001,0.11588619676340618,10,1,100,0.017247186173428755,-10,-1,-100,15014.706634368631,-0.008609417883762634,0.007968527686037055,0.9999311878775557,22.2284924346873,0.02105221513490433,-46.453163336231604,18.458775250340732,-97.83488464355469,5356.25390625,True
1599560365.3228571,0.0,10,0.5,0.5,-0.01173469924926751,-0.05075,-0.03,-0.001,0.08601605641390092,10,1,100,0.09776681610366514,-10,-1,-100,15014.706634368631,-0.008609417883762634,0.007968527686037055,0.9999311878775557,22.2284924346873,0.02105221513490433,-46.453163336231604,18.458775250340732,-97.83488464355469,5356.25390625,True
1599560365.3547716,0.0,10,0.5,0.5,0.2570450401306153,-0.05075,-0.03,-0.001,0.10126296236665744,10,1,100,0.051091908547018915,-10,-1,-100,15015.049401485012,-0.008189971865356098,0.008104211156002347,0.9999336208580966,22.732370911986038,0.021639944373864448,-47.029486292239795,18.273032034362547,-100.85661315917969,5356.25390625,True
1599560365.3807034,0.0,10,0.5,0.5,0.8540257263183595,-0.05075,-0.03,-0.001,0.12351189175194202,10,1,100,-0.04558791852947916,-10,-1,-100,15016.12164902757,-0.006935002421870793,0.008426774644895463,0.9999404458318969,24.004569570172727,0.023362499704095874,-48.150942256437915,17.715777574461534,-110.10360717773438,5356.25390625,True
1599560365.408627,0.0,10,0.5,0.5,0.9752275543212892,-0.05075,-0.03,-0.001,0.09154600757675226,10,1,100,0.07929402897399176,-10,-1,-100,15016.12164902757,-0.006935002421870793,0.008426774644895463,0.9999404458318969,24.004569570172727,0.023362499704095874,-48.150942256437915,17.715777574461534,-110.10360717773438,5356.25390625,True
1599560365.4335613,0.0,10,0.5,0.5,1.584128168106079,-0.05075,-0.03,-0.001,0.1154927990181338,10,1,100,-0.05859987424084191,-10,-1,-100,15017.190969045158,-0.005687012363963756,0.008641832160597824,0.9999464868818132,24.869338357324832,0.02476109070577121,-48.31993120351882,17.15848697123102,-119.34905242919922,5356.25390625,True
1599560365.4696555,0.0,10,0.5,0.5,1.7195264987945558,-0.05075,-0.03,-0.001,0.09424846809246014,10,1,100,0.06552504852496854,-10,-1,-100,15017.190969045158,-0.005687012363963756,0.008641832160597824,0.9999464868818132,24.869338357324832,0.02476109070577121,-48.31993120351882,17.15848697123102,-119.34905242919922,5356.25390625,True
1599560365.5005426,0.0,10,0.5,0.5,2.005163471221924,-0.05075,-0.03,-0.001,0.10029765412967251,10,1,100,0.020590848025433893,-10,-1,-100,15017.520065538702,-0.0052840249413426636,0.008694853626355099,0.9999482379607634,25.10732740349273,0.025147027477194512,-48.25530584301419,16.972717273947914,-122.35124206542969,5356.25390625,True
1599560365.5340865,0.0,10,0.5,0.5,2.419407867431641,-0.05075,-0.03,-0.001,0.1025816543765547,10,1,100,-0.029739760658907356,-10,-1,-100,15018.192908439203,-0.004464958205114491,0.008762392378182828,0.9999516411447293,25.42511484330546,0.025668614321765516,-47.798519028201284,16.601174074477083,-128.16903686523438,5356.25390625,True
1599560365.567153,0.0,10,0.5,0.5,2.817949214935303,-0.05075,-0.03,-0.001,0.09755453322999105,10,1,100,-0.037741496443182386,-10,-1,-100,15018.862822170719,-0.003652473345887115,0.008776941967850987,0.999954811343068,25.544980661845244,0.0258423264092886,-46.95111271442971,16.229632648090632,-133.7181854248047,5356.25390625,True
1599560365.6030622,0.0,10,0.5,0.5,3.075969253540039,-0.05075,-0.03,-0.001,0.09603724829664623,10,1,100,0.0003235330507214487,-10,-1,-100,15019.140162381227,-0.0032651403479067587,0.008775365257005452,0.9999561649508015,25.537387264386858,0.025801919378765963,-46.40090713999692,16.043865233025862,-136.389892578125,5356.25390625,True
1599560365.6331673,0.0,10,0.5,0.5,3.454802768707276,-0.05075,-0.03,-0.001,0.09355512272674042,10,1,100,-0.044506534892196595,-10,-1,-100,15019.803241822054,-0.002510331802567049,0.008750633616900396,0.9999585614641958,25.401217098227256,0.025486094993150323,-45.08669133962569,15.672342466572118,-141.5269012451172,5356.25390625,True
1599560365.6681366,0.0,10,0.5,0.5,3.9527762680053713,-0.05075,-0.03,-0.001,0.08642961896363996,10,1,100,-0.08863658845619227,-10,-1,-100,15020.74268721533,-0.00142850453447753,0.00866266199538501,0.9999614580882349,24.93636191337324,0.024518686163860128,-42.690720274703715,15.115100526213572,-148.71597290039062,5356.25390625,True
1599560365.7009006,0.0,10,0.5,0.5,4.319361019134521,-0.05075,-0.03,-0.001,0.08631704342811727,10,1,100,-0.055556183580753093,-10,-1,-100,15021.280769202043,-0.000751902941746395,0.008581156697466834,0.9999628985075895,24.53208805858903,0.023678184069694103,-40.96841534087855,14.743640466046005,-153.16419982910156,5356.25390625,True
1599560365.7368348,0.0,10,0.5,0.5,4.660004104614258,-0.05075,-0.03,-0.001,0.08680879699503308,10,1,100,-0.058151426003738446,-10,-1,-100,15021.884282380925,-0.00011883847130924572,0.008511391111738115,0.9999637703930883,24.097825856319865,0.02277204687598676,-39.231303974151224,14.372209979143495,-157.33636474609375,5356.25390625,True
1599560365.7668192,0.0,10,0.5,0.5,4.797530212402344,-0.05075,-0.03,-0.001,0.09379381721458918,10,1,100,0.0044734046449203336,-10,-1,-100,15021.884282380925,-0.00011883847130924572,0.008511391111738115,0.9999637703930883,24.097825856319865,0.02277204687598676,-39.231303974151224,14.372209979143495,-157.33636474609375,5356.25390625,True
1599560365.95931,0.0,10,0.5,0.5,5.0141014328002935,-0.05075,-0.03,-0.001,0.08890605411417707,10,1,100,-0.02971623271648308,-10,-1,-100,15022.157719316077,0.00018691443752837211,0.00846707548450606,0.9999641362047604,23.852597455514886,0.02229037750978041,-38.33129205955683,14.186506205574664,-159.31915283203125,5356.25390625,True
1599560365.9822507,0.0,10,0.5,0.5,5.2310674667358406,-0.05075,-0.03,-0.001,0.08871100995189243,10,1,100,-0.03214839861828017,-10,-1,-100,15022.424319793936,0.00048164229303209637,0.008425174291616232,0.9999643915954495,23.59199372545128,0.021799083922431343,-37.41720180054952,14.000809944591111,-161.23294067382812,5356.25390625,True
1599560366.0084462,0.0,10,0.5,0.5,5.441265743255615,-0.05075,-0.03,-0.001,0.08861896844512686,10,1,100,-0.03452726748595562,-10,-1,-100,15022.754397870856,0.0007659612720740091,0.00838649072014101,0.9999645394096387,23.31816929619426,0.021304383722716466,-36.49337050295857,13.815121128011002,-163.0777130126953,5356.25390625,True
1599560366.0460415,0.0,10,0.5,0.5,5.724386810302734,-0.05075,-0.03,-0.001,0.08250695120849472,10,1,100,-0.06635019506708334,-10,-1,-100,15023.289553760784,0.0013089770315067376,0.008296101772701462,0.9999647300152681,22.74015522130406,0.020327167986027038,-34.63396133047396,13.443764925029786,-166.56060791015625,5356.25390625,True
1599560366.1058912,0.0,10,0.5,0.5,5.985388732910157,-0.05075,-0.03,-0.001,0.08280049526312097,10,1,100,-0.0680632126076707,-10,-1,-100,15023.77002297237,0.0018136901991987451,0.008217035712066794,0.9999645947992198,22.135574943378405,0.019396626299910274,-32.783733888465854,13.072435369077686,-169.76751708984375,5356.25390625,True
1599560366.1338162,0.0,10,0.5,0.5,6.304473461151123,-0.05075,-0.03,-0.001,0.07964285374065233,10,1,100,-0.09421439738998927,-10,-1,-100,15024.566898984485,0.0025056412764424612,0.008116959215417325,0.9999639177164789,21.21276301397095,0.01814507157333703,-30.08090428417032,12.51548462279015,-174.06044006347656,5356.25390625,True
1599560366.167712,0.0,10,0.5,0.5,6.528034236907959,-0.05075,-0.03,-0.001,0.08399436227447121,10,1,100,-0.07154096117227902,-10,-1,-100,15025.040534189087,0.002924005587340283,0.0080661158182266,0.9999631933060998,20.606488577720146,0.017428906124664537,-28.355810484768938,12.144208335948093,-176.57740783691406,5356.25390625,True
1599560366.2027123,0.0,10,0.5,0.5,6.609101573944092,-0.05075,-0.03,-0.001,0.08901904737582784,10,1,100,-0.030139781094678613,-10,-1,-100,15025.040534189087,0.002924005587340283,0.0080661158182266,0.9999631933060998,20.606488577720146,0.017428906124664537,-28.355810484768938,12.144208335948093,-176.57740783691406,5356.25390625,True
1599560366.234144,0.0,10,0.5,0.5,6.73910606765747,-0.05075,-0.03,-0.001,0.08758740849973623,10,1,100,-0.05220567738108482,-10,-1,-100,15025.30811394297,0.003121262909462988,0.008053569138334167,0.9999626981752789,20.31043297094151,0.017108961264724738,-27.5219233996026,11.958576243852946,-177.73228454589844,5356.25390625,True
1599560366.2681038,0.0,10,0.5,0.5,6.907956401824951,-0.05075,-0.03,-0.001,0.08710115394033158,10,1,100,-0.07349177814580687,-10,-1,-100,15025.778819613159,0.003491152207998582,0.008038158771504099,0.9999615991926013,19.73933149547348,0.016546506082684022,-25.91896744649935,11.58732211218349,-179.8350372314453,5356.25390625,True
1599560366.301429,0.0,10,0.5,0.5,-11.56210803604126,-0.05075,-0.03,-0.001,0.08753594182008681,10,1,100,-0.07367126955681841,-10,-1,-100,15026.186049261829,0.0038257651370589467,0.008028532175420206,0.9999604523141024,19.82826491597406,0.016606613513886866,-25.202827941511487,11.216074924300809,178.3380584716797,5356.25390625,True
1599560366.335974,0.0,10,0.5,0.5,-12.174999465942385,-0.05075,-0.03,-0.001,0.08956270503981859,10,1,100,-0.05772278471679654,-10,-1,-100,15026.450699510402,0.003981664437023143,0.008038604520349761,0.9999597627833213,19.933277613035468,0.01670852087336579,-24.917601228465223,11.030452180199719,177.52825927734375,5356.25390625,True
1599560366.36888,0.0,10,0.5,0.5,-13.118992515563965,-0.05075,-0.03,-0.001,0.09230943962348057,10,1,100,-0.0742374987787262,-10,-1,-100,15026.856953065959,0.004270342999240871,0.008073082939020162,0.9999582938815641,20.095091465427064,0.016906415771154332,-24.27558733710674,10.659208124149979,176.11569213867188,5356.25390625,True
1599560366.40188,0.0,10,0.5,0.5,-14.06461331176758,-0.05075,-0.03,-0.001,0.09511113713066568,10,1,100,-0.07407178292163889,-10,-1,-100,15027.264183716616,0.004528085746440588,0.008130181849495956,0.9999566973537238,20.21113246636533,0.01710327498369818,-23.56648980030722,10.287965268394647,174.6978759765625,5356.25390625,True
1599560366.4339628,0.0,10,0.5,0.5,-14.956563121795655,-0.05075,-0.03,-0.001,0.10346442192254393,10,1,100,-0.08458837063728206,-10,-1,-100,15027.867706439341,0.004855076215205329,0.008258179738875758,0.9999541142984236,20.421088200557023,0.01749633540886796,-22.52392920942036,9.73110065008919,172.1231231689453,5356.25390625,True
1599560366.4699874,0.0,10,0.5,0.5,-15.98480979537964,-0.05075,-0.03,-0.001,0.09066874738724465,10,1,100,-0.05219346236240864,-10,-1,-100,15027.867706439341,0.004855076215205329,0.008258179738875758,0.9999541142984236,20.421088200557023,0.01749633540886796,-22.52392920942036,9.73110065008919,172.1231231689453,5356.25390625,True
1599560366.5009906,0.0,10,0.5,0.5,-16.917019351959233,-0.05075,-0.03,-0.001,0.10420872557501283,10,1,100,-0.07227214786418393,-10,-1,-100,15028.267125494545,0.005035473869822593,0.008381142067379598,0.9999521990878127,20.59381127104012,0.017832635731251045,-21.848780517365675,9.359854993256567,170.06822204589844,5356.25390625,True
1599560366.5351248,0.0,10,0.5,0.5,-17.900513648986816,-0.05075,-0.03,-0.001,0.10020500747435057,10,1,100,-0.06301550319506308,-10,-1,-100,15028.40677612205,0.005113400905862204,0.00845624217760511,0.9999511713575867,20.6878385248519,0.018020912116734313,-21.513686532984064,9.17423065808404,168.93783569335938,5356.25390625,True
1599560366.5682113,0.0,10,0.5,0.5,-18.741335880279543,-0.05075,-0.03,-0.001,0.12171985103119669,10,1,100,-0.07647002319193447,-10,-1,-100,15028.944871008513,0.005304567124671117,0.00871974983163656,0.9999479124086882,21.06725694037096,0.018718832509612655,-20.57958396524888,8.617348857650553,165.13389587402344,5356.25390625,True
1599560366.604078,0.0,10,0.5,0.5,-19.70100519561768,-0.05075,-0.03,-0.001,0.1071618517951824,10,1,100,-0.06295949704344254,-10,-1,-100,15029.143116324674,0.005353546809315467,0.008826351177980201,0.9999467161111354,21.202996631383343,0.018972605913548393,-20.266376629363222,8.431718117589174,163.72842407226562,5356.25390625,True
1599560366.6350303,0.0,10,0.5,0.5,-20.656804229736327,-0.05075,-0.03,-0.001,0.10885089013094537,10,1,100,-0.062932543360165,-10,-1,-100,15029.281791569316,0.005396135675870247,0.008937899848248197,0.9999454963477111,21.337845942200573,0.019229974096319737,-19.946598383938,8.246085470678683,162.25408935546875,5356.25390625,True
1599560366.6679432,0.0,10,0.5,0.5,-20.44676178741455,-0.05075,-0.03,-0.001,0.12572383245087904,10,1,100,-0.0656492126575047,-10,-1,-100,15029.618711934076,0.005458122211315124,0.009191871417152291,0.9999428575682596,21.598086955691016,0.019742959033635373,-19.281496384093987,7.874814511114936,159.09921264648438,5356.25390625,True
1599560366.701999,0.0,10,0.5,0.5,-20.21712740325928,-0.05075,-0.03,-0.001,0.13186035576671148,10,1,100,-0.06370750528412061,-10,-1,-100,15029.891180686187,0.005495479487621256,0.009477492812757397,0.9999399866167895,21.891907911305438,0.020285337642166956,-18.622954640622858,7.503535634025035,155.66921997070312,5356.25390625,True
1599560366.7375915,0.0,10,0.5,0.5,-20.065130516052246,-0.05075,-0.03,-0.001,0.12070498852793654,10,1,100,-0.06108365289608745,-10,-1,-100,15030.030833082157,0.005504473683928001,0.009634459461251596,0.9999384370851802,22.030451889658618,0.020544114377340477,-18.277432645881905,7.317893457127289,153.85110473632812,5356.25390625,True
1599560366.768475,0.0,10,0.5,0.5,-19.805560585021976,-0.05075,-0.03,-0.001,0.14313769196964116,10,1,100,-0.06006086929142983,-10,-1,-100,15030.363849319867,0.005502464567857712,0.009979722556978404,0.9999350619022045,22.27471781497036,0.021010634973818856,-17.542978796446835,6.946604221966529,150.00863647460938,5356.25390625,True
1599560366.8026593,0.0,10,0.5,0.5,-19.418110717773438,-0.05075,-0.03,-0.001,0.17435261810374425,10,1,100,-0.055064382927284744,-10,-1,-100,15030.709567996324,0.0054546269605264455,0.010575805115387256,0.9999291971889224,22.550431740464255,0.021542187276684187,-16.336892313026308,6.389661139736854,143.72943115234375,5356.25390625,True
1599560366.8346422,0.0,10,0.5,0.5,-19.104796413421635,-0.05075,-0.03,-0.001,0.1648773552750345,10,1,100,-0.053400021060727054,-10,-1,-100,15030.976181529462,0.005395462618033569,0.011029452665155658,0.9999246172372418,22.683179042176906,0.021774136555535433,-15.478554782908281,6.018361298276251,139.19972229003906,5356.25390625,True
1599560366.8706865,0.0,10,0.5,0.5,-19.016720623016358,-0.05075,-0.03,-0.001,0.11977743135797186,10,1,100,-0.059352454184835805,-10,-1,-100,15030.976181529462,0.005395462618033569,0.011029452665155658,0.9999246172372418,22.683179042176906,0.021774136555535433,-15.478554782908281,6.018361298276251,139.19972229003906,5356.25390625,True
1599560366.9016006,0.0,10,0.5,0.5,-18.67888028717041,-0.05075,-0.03,-0.001,0.17626823974223052,10,1,100,-0.04956734056252965,-10,-1,-100,15031.185179116088,0.00530625061991063,0.01154066618638751,0.9999193251099476,22.697599535052053,0.021826708977175223,-14.533205778513517,5.647058668556003,134.39535522460938,5356.25390625,True
1599560366.9355295,0.0,10,0.5,0.5,-18.46182318496704,-0.05075,-0.03,-0.001,0.15547575458837845,10,1,100,-0.05310786633756534,-10,-1,-100,15031.312139630434,0.005257333870939883,0.011813818689422582,0.9999163935692539,22.651882888639573,0.021778272433309896,-14.027272649524352,5.461406013062737,131.89012145996094,5356.25390625,True
1599560366.9686909,0.0,10,0.5,0.5,-17.81469779586792,-0.05075,-0.03,-0.001,0.26441120700449244,10,1,100,-0.032077376953113176,-10,-1,-100,15031.726238876698,0.005021765298324526,0.013049745561863281,0.9999022382283475,22.052122822343776,0.02104414502571889,-11.79951284525049,4.718780203711981,121.18257141113281,5356.25390625,True
1599560367.0036485,0.0,10,0.5,0.5,-17.70219079208374,-0.05075,-0.03,-0.001,0.141229704331784,10,1,100,-0.05559679717689433,-10,-1,-100,15031.726238876698,0.005021765298324526,0.013049745561863281,0.9999022382283475,22.052122822343776,0.02104414502571889,-11.79951284525049,4.718780203711981,121.18257141113281,5356.25390625,True
1599560367.0347252,0.0,10,0.5,0.5,-17.1355636177063,-0.05075,-0.03,-0.001,0.26234788819828314,10,1,100,-0.03272489861003151,-10,-1,-100,15031.99190022191,0.004814235635819401,0.014147312802336264,0.9998883321029981,21.06530435569672,0.019884703536268616,-9.941310121909973,4.1617832310040885,112.43132019042969,5356.25390625,True
1599560367.0688827,0.0,10,0.5,0.5,-16.694908153533937,-0.05075,-0.03,-0.001,0.23999504349453565,10,1,100,-0.039737263457289104,-10,-1,-100,15032.137436407967,0.0046899403902005395,0.014937648232741654,0.9998774280502642,20.109516559116933,0.018832184555142403,-8.643580750345953,3.7904302192176624,106.25367736816406,5356.25390625,True
1599560367.1027484,0.0,10,0.5,0.5,-16.393142189025877,-0.05075,-0.03,-0.001,0.2105792862255194,10,1,100,-0.04395503877758962,-10,-1,-100,15032.206788250944,0.004616028609180423,0.015383897931781415,0.9998710056623822,19.53835730561852,0.018229320013562558,-7.986736914358297,3.604745405780303,103.06234741210938,5356.25390625,True
1599560367.1378968,0.0,10,0.5,0.5,-15.91453498840332,-0.05075,-0.03,-0.001,0.2695476891847707,10,1,100,-0.037131797187278125,-10,-1,-100,15032.340614157147,0.004487612462849009,0.016320742980197298,0.9998567370793465,18.19736544979678,0.01687482378062422,-6.67227792067685,3.2333548174014237,96.4737548828125,5356.25390625,True
1599560367.1678393,0.0,10,0.5,0.5,-15.779356552124025,-0.05075,-0.03,-0.001,0.17643767812966343,10,1,100,-0.0498767103706517,-10,-1,-100,15032.340614157147,0.004487612462849009,0.016320742980197298,0.9998567370793465,18.19736544979678,0.01687482378062422,-6.67227792067685,3.2333548174014237,96.4737548828125,5356.25390625,True
1599560367.202546,0.0,10,0.5,0.5,-15.296014110565185,-0.05075,-0.03,-0.001,0.2869499436613815,10,1,100,-0.03805612031472545,-10,-1,-100,15032.478352632374,0.004380977871572575,0.017320589675653787,0.9998403893653109,16.637082485022056,0.015378019191573812,-5.399498422884848,2.8619338346996486,89.61067199707031,5356.25390625,True
1599560367.2356188,0.0,10,0.5,0.5,-14.594769264221194,-0.05075,-0.03,-0.001,0.37129130082665823,10,1,100,-0.036828878939621654,-10,-1,-100,15032.619055473479,0.004273802853135292,0.018990561612107205,0.9998105286397165,17.440871571396702,0.016135527293603107,-4.558463814994682,2.304769012497579,78.80215454101562,5356.25390625,True
1599560367.2714965,0.0,10,0.5,0.5,-14.245265529632569,-0.05075,-0.03,-0.001,0.271920906784462,10,1,100,-0.04598670123483657,-10,-1,-100,15032.622991679236,0.004260562537027693,0.019598578067203328,0.9997988514419347,18.062531916513343,0.016718417054179424,-4.34054795658647,2.1190469828371015,75.06239318847656,5356.25390625,True
1599560367.3024132,0.0,10,0.5,0.5,-13.881440013885497,-0.05075,-0.03,-0.001,0.28084853110964814,10,1,100,-0.047363869867163705,-10,-1,-100,15032.68747730495,0.004261951756618225,0.02022540346626715,0.9997863615902404,18.630372663810505,0.017248283360181058,-4.084652016178543,1.933328078860404,71.25404357910156,5356.25390625,True
1599560367.3355033,0.0,10,0.5,0.5,-13.122949066162107,-0.05075,-0.03,-0.001,0.4411792896864977,10,1,100,-0.06022628645982442,-10,-1,-100,15032.766691777622,0.0043808364830353564,0.022246273763474343,0.9997429227433167,19.97779975785075,0.01850064242879098,-3.117901331589003,1.3761883944229276,59.41802978515625,5356.25390625,True
1599560367.368416,0.0,10,0.5,0.5,-12.738218700408936,-0.05075,-0.03,-0.001,0.3177069527325479,10,1,100,-0.05665516605196856,-10,-1,-100,15032.83216461027,0.004457031438629777,0.02295259230844351,0.9997266193200406,20.324849382674287,0.018815583714264904,-2.744025489705223,1.1904763697090117,55.33546447753906,5356.25390625,True
1599560367.4054725,0.0,10,0.5,0.5,-12.137851448059083,-0.05075,-0.03,-0.001,0.41277797242773084,10,1,100,-0.07659977369223137,-10,-1,-100,15032.83909607702,0.004707938926079084,0.02445097727427523,0.9996899444434765,20.791780156581552,0.01922580190892482,-1.9312863782769285,0.819045977636526,46.965179443359375,5356.25390625,True
1599560367.43639,0.0,10,0.5,0.5,-11.968356239318847,-0.05075,-0.03,-0.001,0.26389080874871235,10,1,100,-0.051510824800888484,-10,-1,-100,15032.83909607702,0.004707938926079084,0.02445097727427523,0.9996899444434765,20.791780156581552,0.01922580190892482,-1.9312863782769285,0.819045977636526,46.965179443359375,5356.25390625,True
1599560367.4695275,0.0,10,0.5,0.5,-11.35269839859009,-0.05075,-0.03,-0.001,0.43587920680503933,10,1,100,-0.09186559454009549,-10,-1,-100,15032.847993082949,0.00507471691432924,0.026006265366294117,0.9996488990690368,20.824754731892508,0.01922769461472807,-1.0571181350601824,0.4475998588312766,38.32041931152344,5356.25390625,True
1599560367.5036473,0.0,10,0.5,0.5,-10.72531746673584,-0.05075,-0.03,-0.001,0.459073934576307,10,1,100,-0.11272682723668459,-10,-1,-100,15032.853973647463,0.005597265287751573,0.027622219772971815,0.9996027628993992,20.42983135732679,0.01883473952197407,-0.1764023983782276,0.07613403534339103,29.401275634765625,5356.25390625,True
1599560367.5385797,0.0,10,0.5,0.5,-9.813985076904297,-0.05075,-0.03,-0.001,0.5691590653541029,10,1,100,-0.1721764312190452,-10,-1,-100,15032.854177856352,0.006611751433588879,0.03008176907993807,0.9995255734157089,19.12165888226327,0.017616751156043935,1.043340529506596,-0.4810925421202641,15.50689697265625,5356.25390625,True
1599560367.5694547,0.0,10,0.5,0.5,-9.10839510345459,-0.05075,-0.03,-0.001,0.5035217940748846,10,1,100,-0.17188044630845145,-10,-1,-100,15032.801593627431,0.00752929281828829,0.031709419457001516,0.9994687701310914,17.764071702112663,0.016386678022846744,1.717727902949798,-0.8525749721059246,5.899688720703125,5356.25390625,True
1599560367.602584,0.0,10,0.5,0.5,-8.64534593963623,-0.05075,-0.03,-0.001,0.4288086756547649,10,1,100,-0.14006752491515156,-10,-1,-100,15032.801672661095,0.008071253437198526,0.032498328852471836,0.999439199496272,16.8951470929914,0.01558628073128066,1.9896324045474312,-1.0383122313067867,0.992462158203125,5356.25390625,True
1599560367.6360915,0.0,10,0.5,0.5,-8.42804337310791,-0.05075,-0.03,-0.001,0.35120771118625965,10,1,100,-0.08625253211414508,-10,-1,-100,15032.801672661095,0.008071253437198526,0.032498328852471836,0.999439199496272,16.8951470929914,0.01558628073128066,1.9896324045474312,-1.0383122313067867,0.992462158203125,5356.25390625,True
1599560367.6731176,0.0,10,0.5,0.5,-7.433958702087402,-0.05075,-0.03,-0.001,0.6014180123617889,10,1,100,-0.290301709378666,-10,-1,-100,15032.737466920284,0.00992278295625728,0.03476181074917101,0.9993463638257969,17.455367008184222,0.016090502173973405,3.1588249000471493,-1.5955199139434952,-14.143768310546875,5356.25390625,True
1599560367.7030377,0.0,10,0.5,0.5,-6.688316291809082,-0.05075,-0.03,-0.001,0.530444835165494,10,1,100,-0.26355164628580446,-10,-1,-100,15032.620450645452,0.011357771085036295,0.036162933101671485,0.9992813634334745,18.92669671000896,0.01745368903348862,4.222659486895549,-1.9670150680532366,-24.580352783203125,5356.25390625,True
1599560367.7372136,0.0,10,0.5,0.5,-6.459005424499512,-0.05075,-0.03,-0.001,0.39165363399476905,10,1,100,-0.12074290737254362,-10,-1,-100,15032.620450645452,0.011357771085036295,0.036162933101671485,0.9992813634334745,18.92669671000896,0.01745368903348862,4.222659486895549,-1.9670150680532366,-24.580352783203125,5356.25390625,True
1599560367.768655,0.0,10,0.5,0.5,-5.689874084472656,-0.05075,-0.03,-0.001,0.526396153075893,10,1,100,-0.2970867620721898,-10,-1,-100,15032.556170506286,0.012954851734888572,0.037377217860747707,0.9992172513530364,19.984631687793552,0.018475836148953817,5.300966436418402,-2.3385395878612805,-35.29522705078125,5356.25390625,True
1599560367.805572,0.0,10,0.5,0.5,-4.595104866027832,-0.05075,-0.03,-0.001,0.5728261419717062,10,1,100,-0.4201708832433332,-10,-1,-100,15032.370874068234,0.015518192597393028,0.038891452776609416,0.9991229356788056,20.53938446494605,0.01906227762219465,6.746796574975428,-2.8958619364304337,-51.888519287109375,5356.25390625,True
1599560367.8365016,0.0,10,0.5,0.5,-4.341071342468262,-0.05075,-0.03,-0.001,0.4226911691265668,10,1,100,-0.164881144561194,-10,-1,-100,15032.370874068234,0.015518192597393028,0.038891452776609416,0.9991229356788056,20.53938446494605,0.01906227762219465,6.746796574975428,-2.8958619364304337,-51.888519287109375,5356.25390625,True
1599560367.869406,0.0,10,0.5,0.5,-2.901737159729004,-0.05075,-0.03,-0.001,0.5584704632133013,10,1,100,-0.5542530151879266,-10,-1,-100,15032.114336441504,0.019048917850990922,0.040115565238303695,0.9990134534401013,19.260504991706803,0.017836659411797476,7.9506858964973395,-3.6389656441194687,-74.98928833007812,5356.25390625,True
1599560367.9033206,0.0,10,0.5,0.5,-2.6533493728637696,-0.05075,-0.03,-0.001,0.4370625966597099,10,1,100,-0.20242420646987727,-10,-1,-100,15032.114336441504,0.019048917850990922,0.040115565238303695,0.9990134534401013,19.260504991706803,0.017836659411797476,7.9506858964973395,-3.6389656441194687,-74.98928833007812,5356.25390625,True
1599560367.9384868,0.0,10,0.5,0.5,-1.7913564834594724,-0.05075,-0.03,-0.001,0.4756535882826952,10,1,100,-0.40050604643392995,-10,-1,-100,15031.987507473328,0.020839189464270762,0.040458750484166014,0.9989638720653176,17.483512017339468,0.01612750913328483,7.954270330691601,-4.010506534896894,-86.95693969726562,5356.25390625,True
1599560367.9699104,0.0,10,0.5,0.5,-1.224360864639282,-0.05075,-0.03,-0.001,0.447425961563719,10,1,100,-0.307997770157218,-10,-1,-100,15031.858654426993,0.021614117568348624,0.040506885536021345,0.9989454550404206,16.380374148885807,0.015095485963528974,7.797713718988776,-4.196278560849856,-93.0461196899414,5356.25390625,True
1599560368.0029094,0.0,10,0.5,0.5,-0.3073587169647215,-0.05075,-0.03,-0.001,0.44538344780953676,10,1,100,-0.41150397637756836,-10,-1,-100,15031.724959263229,0.023247251479394274,0.04052479586113949,0.99890805693971,17.382376132983982,0.016080517105812386,9.007671157844644,-4.567829020456105,-105.43212127685547,5356.25390625,True
1599560368.0358884,0.0,10,0.5,0.5,0.28000770568847655,-0.05075,-0.03,-0.001,0.43804332745775065,10,1,100,-0.3281310956907837,-10,-1,-100,15031.602928379434,0.023961870239080335,0.04046911053067432,0.998893427682604,18.458202913482847,0.017136701944255664,9.954381617988355,-4.753607828342965,-111.72946166992188,5356.25390625,True
1599560368.0718,0.0,10,0.5,0.5,1.5328431434631349,-0.05075,-0.03,-0.001,0.40811079647682436,10,1,100,-0.4709560230657294,-10,-1,-100,15031.28270378057,0.025898473815699857,0.04014245887821665,0.9988582742557767,20.48796197854421,0.019217679847839626,12.345258636444692,-5.310960634791249,-131.00840759277344,5356.25390625,True
1599560368.1023064,0.0,10,0.5,0.5,2.169499736785889,-0.05075,-0.03,-0.001,0.42568613135207045,10,1,100,-0.33878289071118123,-10,-1,-100,15031.21436538815,0.02644422977055747,0.04000166085141506,0.9988496232371368,20.72432048656048,0.019471652932692464,12.924812268555815,-5.496748513772653,-137.5137481689453,5356.25390625,True
1599560368.13622,0.0,10,0.5,0.5,2.8063147583007817,-0.05075,-0.03,-0.001,0.42216713250755866,10,1,100,-0.3416210894102737,-10,-1,-100,15031.087428939762,0.026953910283114627,0.03983928588938108,0.9988424890943887,20.81743828840392,0.0195650477063641,13.422012512319414,-5.682536912821687,-144.01934814453125,5356.25390625,True
1599560368.16917,0.0,10,0.5,0.5,3.745917839050293,-0.05075,-0.03,-0.001,0.40624589441238845,10,1,100,-0.3853991990589448,-10,-1,-100,15030.829641801654,0.02780484291162203,0.03954607209292794,0.9988308159506698,20.4116743971799,0.01910708241480361,14.0216153489968,-6.054114560784159,-156.96072387695312,5356.25390625,True
1599560368.2043746,0.0,10,0.5,0.5,5.029643482208253,-0.05075,-0.03,-0.001,0.39280671904694897,10,1,100,-0.40493968796052926,-10,-1,-100,15030.434157755575,0.02874488915453932,0.03915674466617898,0.9988195436086745,18.32981144892107,0.01696088611152868,13.751785513879026,-6.611497716760612,-175.9259490966797,5356.25390625,True
1599560368.2363281,0.0,10,0.5,0.5,5.313488239288331,-0.05075,-0.03,-0.001,0.43164357966463224,10,1,100,-0.311904660799155,-10,-1,-100,15030.434157755575,0.02874488915453932,0.03915674466617898,0.9988195436086745,18.32981144892107,0.01696088611152868,13.751785513879026,-6.611497716760612,-175.9259490966797,5356.25390625,True
1599560368.2693706,0.0,10,0.5,0.5,-11.754752105712893,-0.05075,-0.03,-0.001,0.41938575520920585,10,1,100,-0.39462027035084185,-10,-1,-100,15029.910754685057,0.029488034722005976,0.039046181553467944,0.998802208404811,18.95610091691493,0.01771911509339042,15.82204097922304,-7.354709430751665,159.74652099609375,5356.25390625,True
1599560368.3025763,0.0,10,0.5,0.5,-11.85342945098877,-0.05075,-0.03,-0.001,0.435862736905515,10,1,100,-0.33311030622210475,-10,-1,-100,15029.720337980893,0.029596577522843746,0.03909674452908863,0.9987970200026437,19.799813746752704,0.018634053923292707,16.944234041479117,-7.540502044665773,153.83810424804688,5356.25390625,True
1599560368.3386023,0.0,10,0.5,0.5,-12.599990539550781,-0.05075,-0.03,-0.001,0.4306654252427532,10,1,100,-0.3230542721337772,-10,-1,-100,15029.720337980893,0.029596577522843746,0.03909674452908863,0.9987970200026437,19.799813746752704,0.018634053923292707,16.944234041479117,-7.540502044665773,153.83810424804688,5356.25390625,True
1599560368.3695095,0.0,10,0.5,0.5,-12.467629455566406,-0.05075,-0.03,-0.001,0.47967060234634906,10,1,100,-0.35229387563068654,-10,-1,-100,15029.259461739333,0.029856619985503423,0.039543544367605,0.9987716907991979,21.084688820156607,0.02019589851568376,19.379235466836775,-8.097849690971884,136.250244140625,5356.25390625,True
1599560368.4034276,0.0,10,0.5,0.5,-12.609298255920411,-0.05075,-0.03,-0.001,0.49215090749430124,10,1,100,-0.342710105087219,-10,-1,-100,15028.929447103292,0.030000538174120312,0.04006402478229497,0.9987466353522834,21.340496471245487,0.020521364523408924,20.515579800422724,-8.46939664046675,124.27230834960938,5356.25390625,True
1599560368.4363809,0.0,10,0.5,0.5,-12.753563026428223,-0.05075,-0.03,-0.001,0.51885583632025,10,1,100,-0.3477655467735378,-10,-1,-100,15028.605314573972,0.030173602302412728,0.04078003217960895,0.9987124424475374,20.846512114805762,0.01995962658460949,20.921215850787394,-8.840944430602551,112.02969360351562,5356.25390625,True
1599560368.4733407,0.0,10,0.5,0.5,-13.5144359664917,-0.05075,-0.03,-0.001,0.4473329337216716,10,1,100,-0.3308320711974818,-10,-1,-100,15028.605314573972,0.030173602302412728,0.04078003217960895,0.9987124424475374,20.846512114805762,0.01995962658460949,20.921215850787394,-8.840944430602551,112.02969360351562,5356.25390625,True
1599560368.5032604,0.0,10,0.5,0.5,-13.305976352691653,-0.05075,-0.03,-0.001,0.6041811006804,10,1,100,-0.37559235909517774,-10,-1,-100,15028.016630401951,0.030577587017828783,0.04220506938260627,0.9986409481343015,18.681222062378424,0.017661598495028057,19.932164470105686,-9.398306945324764,93.15806579589844,5356.25390625,True
1599560368.5366757,0.0,10,0.5,0.5,-13.406531272888184,-0.05075,-0.03,-0.001,0.5876861499470913,10,1,100,-0.38229650456215225,-10,-1,-100,15027.622262330493,0.031003271950537505,0.0433481863811286,0.998578856107933,17.183353189125633,0.01626434180039739,19.060292332254495,-9.769913390170153,80.23684692382812,5356.25390625,True
1599560368.5706434,0.0,10,0.5,0.5,-14.187940879821777,-0.05075,-0.03,-0.001,0.47379359426635365,10,1,100,-0.3399538495708799,-10,-1,-100,15027.622262330493,0.031003271950537505,0.0433481863811286,0.998578856107933,17.183353189125633,0.01626434180039739,19.060292332254495,-9.769913390170153,80.23684692382812,5356.25390625,True
1599560368.6066198,0.0,10,0.5,0.5,-13.927019145965579,-0.05075,-0.03,-0.001,0.6956073681160894,10,1,100,-0.4525418951086157,-10,-1,-100,15027.030782179441,0.032024746561975105,0.04536086483274897,0.9984572136798182,20.579095401537508,0.01989703235530801,24.131885449731328,-10.327263929368304,60.34486389160156,5356.25390625,True
1599560368.6375718,0.0,10,0.5,0.5,-13.648706157684327,-0.05075,-0.03,-0.001,0.49497099128198047,10,1,100,-0.3506481051488526,-10,-1,-100,15027.030782179441,0.032024746561975105,0.04536086483274897,0.9984572136798182,20.579095401537508,0.01989703235530801,24.131885449731328,-10.327263929368304,60.34486389160156,5356.25390625,True
1599560368.6704814,0.0,10,0.5,0.5,-11.946093227386475,-0.05075,-0.03,-0.001,0.8130622930396302,10,1,100,-0.5955172997402061,-10,-1,-100,15026.176844814094,0.03424862272277002,0.04824690928481518,0.9982480992148476,21.980268723159135,0.021596554717601225,27.633579375602828,-11.070276629642846,32.86402893066406,5356.25390625,True
1599560368.7045925,0.0,10,0.5,0.5,-11.2462232131958,-0.05075,-0.03,-0.001,0.6034334024926096,10,1,100,-0.4493458591652768,-10,-1,-100,15025.920168487472,0.03493726791353883,0.04895655054103362,0.9981896831113117,21.865945254576,0.02143579849495531,27.95221344060728,-11.256026725350655,25.821929931640625,5356.25390625,True
1599560368.7394989,0.0,10,0.5,0.5,-10.921980369567871,-0.05075,-0.03,-0.001,0.5334105774881085,10,1,100,-0.38098940488119915,-10,-1,-100,15025.920168487472,0.03493726791353883,0.04895655054103362,0.9981896831113117,21.865945254576,0.02143579849495531,27.95221344060728,-11.256026725350655,25.821929931640625,5356.25390625,True
1599560368.7704422,0.0,10,0.5,0.5,-9.88704232788086,-0.05075,-0.03,-0.001,0.681728894458896,10,1,100,-0.5658601506011953,-10,-1,-100,15025.46249964065,0.03661342312032114,0.050296814762805564,0.9980629677891713,20.886705736323766,0.020289681779773902,27.583996672872566,-11.627550891476185,11.5303955078125,5356.25390625,True
1599560368.8043258,0.0,10,0.5,0.5,-8.84590599822998,-0.05075,-0.03,-0.001,0.6801177834176935,10,1,100,-0.6062694541914883,-10,-1,-100,15024.999965993105,0.0384987035038369,0.05149193869805713,0.9979310748131052,19.16631001380178,0.01850905050910387,26.12314533954985,-11.999117212229983,-3.038299560546875,5356.25390625,True
1599560368.8373494,0.0,10,0.5,0.5,-8.13292431640625,-0.05075,-0.03,-0.001,0.6209254743131258,10,1,100,-0.5309900237556817,-10,-1,-100,15024.742335767252,0.039520668029251686,0.05203056500504571,0.9978631855639216,18.09989080416126,0.017526072090751053,25.052766975216933,-12.184910550705018,-10.4266357421875,5356.25390625,True
1599560368.8723402,0.0,10,0.5,0.5,-7.053984481811524,-0.05075,-0.03,-0.001,0.6606181470342228,10,1,100,-0.6729408137926784,-10,-1,-100,15024.27883271547,0.04173205834268199,0.052872135494661264,0.9977289073664835,20.548838751566226,0.020227254295707715,29.312399088735496,-12.556455309503516,-25.41357421875,5356.25390625,True
1599560368.903323,0.0,10,0.5,0.5,-5.5614464035034175,-0.05075,-0.03,-0.001,0.6505001868869336,10,1,100,-0.837060259478653,-10,-1,-100,15023.494187149918,0.045224654691680084,0.053536559984687745,0.9975412609777222,22.365711034036295,0.02256204226756697,33.3242947422457,-13.11365963987873,-48.419830322265625,5356.25390625,True
1599560368.936865,0.0,10,0.5,0.5,-4.386599227905273,-0.05075,-0.03,-0.001,0.5873346520100371,10,1,100,-0.746250070049999,-10,-1,-100,15022.966165171936,0.04756126657528955,0.05355708795528225,0.9974314834872141,22.138627042162337,0.022402386285173423,33.92321020842897,-13.485097336171684,-64.1083984375,5356.25390625,True
1599560368.9704936,0.0,10,0.5,0.5,-3.2024883422851564,-0.05075,-0.03,-0.001,0.5493500623107719,10,1,100,-0.7506605821092847,-10,-1,-100,15022.379492393695,0.04971143065182501,0.05322298418299073,0.9973445180163201,21.009377665482646,0.021132311947622977,33.08269140752556,-13.856560798928028,-80.0782470703125,5356.25390625,True
1599560369.0066335,0.0,10,0.5,0.5,-2.7971888580322264,-0.05075,-0.03,-0.001,0.5835466514749486,10,1,100,-0.5374128428647236,-10,-1,-100,15022.379492393695,0.04971143065182501,0.05322298418299073,0.9973445180163201,21.009377665482646,0.021132311947622977,33.08269140752556,-13.856560798928028,-80.0782470703125,5356.25390625,True
1599560369.036952,0.0,10,0.5,0.5,-1.617465196609497,-0.05075,-0.03,-0.001,0.5194850957927382,10,1,100,-0.7577270592819431,-10,-1,-100,15021.85037380585,0.0517002300665915,0.052636082699608656,0.9972745504669722,19.09321877981058,0.019147759534578167,30.874515594292493,-14.22807096506162,-96.32746124267578,5356.25390625,True
1599560369.0718272,0.0,10,0.5,0.5,-0.4119201335906983,-0.05075,-0.03,-0.001,0.4876302382241793,10,1,100,-0.7515228445319929,-10,-1,-100,15021.261624412378,0.05343658852578599,0.05180960125303935,0.9972263014104306,19.968548126869923,0.020283426989269316,33.136372936821935,-14.59957623303858,-112.85588836669922,5356.25390625,True
1599560369.1037755,0.0,10,0.5,0.5,0.42065909957885783,-0.05075,-0.03,-0.001,0.5171553019731979,10,1,100,-0.6634517551596751,-10,-1,-100,15020.938421123312,0.05419763238474878,0.051324070471411055,0.9972103371075399,21.155816253919134,0.02169145618378055,35.5548888356099,-14.785300596650629,-121.22447204589844,5356.25390625,True
1599560369.1406891,0.0,10,0.5,0.5,1.2471665267944336,-0.05075,-0.03,-0.001,0.5143594580578396,10,1,100,-0.6601240109690217,-10,-1,-100,15020.670868458808,0.054843252573650435,0.05085632822005607,0.9971990029713812,22.016386175224397,0.022762198364277418,37.46771049365181,-14.971008010894439,-129.66140747070312,5356.25390625,True
1599560369.1706133,0.0,10,0.5,0.5,2.5012263717651364,-0.05075,-0.03,-0.001,0.45701587164094204,10,1,100,-0.7180132738091877,-10,-1,-100,15020.014638597611,0.05594158736295362,0.049910380488196106,0.997185786462501,22.63696848817753,0.023594262497850165,39.48320896874872,-15.342395889223717,-146.71701049804688,5356.25390625,True
1599560369.2045228,0.0,10,0.5,0.5,3.777068595886231,-0.05075,-0.03,-0.001,0.45019235047835415,10,1,100,-0.7000292036233859,-10,-1,-100,15019.420877703931,0.05676165387941859,0.04899032343458793,0.9971850695124991,21.981781455254012,0.022825589916800115,39.27241741243704,-15.713794987477591,-163.79965209960938,5356.25390625,True
1599560369.238432,0.0,10,0.5,0.5,-13.580022914886476,-0.05075,-0.03,-0.001,0.4581922989472693,10,1,100,-0.681435238695184,-10,-1,-100,15018.765577613958,0.057324469580915145,0.04823016365562525,0.9971899300038175,20.577539859627798,0.02123861106259709,37.63665852501617,-16.085241172396916,179.2953643798828,5356.25390625,True
1599560369.2753303,0.0,10,0.5,0.5,-13.058890342712402,-0.05075,-0.03,-0.001,0.47460654484872344,10,1,100,-0.671408278645938,-10,-1,-100,15018.10246802168,0.05773396620465593,0.04769315372506245,0.9971921340614542,19.680520397628378,0.020461863721294653,36.831370072046745,-16.456715083018924,162.65414428710938,5356.25390625,True
1599560369.310238,0.0,10,0.5,0.5,-13.330601531982424,-0.05075,-0.03,-0.001,0.5076405772233387,10,1,100,-0.649264084115229,-10,-1,-100,15017.777267947095,0.05789567709447804,0.047510603113620244,0.9971914726698939,21.013708335568182,0.022046963246709694,39.772351799034254,-16.6424295567282,154.4373779296875,5356.25390625,True
1599560369.3391612,0.0,10,0.5,0.5,-13.188266704559327,-0.05075,-0.03,-0.001,0.5065039540936713,10,1,100,-0.6658773823500492,-10,-1,-100,15017.115171644953,0.058186276754230465,0.047339508148466145,0.9971826954804929,22.725784996668196,0.024280206075434206,43.977218098053065,-17.01380332209559,137.9330596923828,5356.25390625,True
1599560369.372074,0.0,10,0.5,0.5,-12.555046226501466,-0.05075,-0.03,-0.001,0.5485384086620053,10,1,100,-0.6949976851805577,-10,-1,-100,15016.055699772784,0.05870748388328056,0.04757144729079684,0.9971411077368907,22.83757293719689,0.024603917919013285,45.64740915337691,-17.570805674485783,112.73965454101562,5356.25390625,True
1599560369.407977,0.0,10,0.5,0.5,-13.207440979003906,-0.05075,-0.03,-0.001,0.5248380308880546,10,1,100,-0.6435776976572173,-10,-1,-100,15016.055699772784,0.05870748388328056,0.04757144729079684,0.9971411077368907,22.83757293719689,0.024603917919013285,45.64740915337691,-17.570805674485783,112.73965454101562,5356.25390625,True
1599560369.4388938,0.0,10,0.5,0.5,-13.442804119110107,-0.05075,-0.03,-0.001,0.5458766831470031,10,1,100,-0.6705422810385981,-10,-1,-100,15015.728610955412,0.05894782473642266,0.04776656063311659,0.9971176007092278,22.379270847311695,0.024054533063793487,45.206491364551795,-17.75648256156085,104.20973205566406,5356.25390625,True
1599560369.4718072,0.0,10,0.5,0.5,-13.234320598602295,-0.05075,-0.03,-0.001,0.5843550622809046,10,1,100,-0.7169364542573727,-10,-1,-100,15015.00123465585,0.05958376327549373,0.04829697394538665,0.9970542500093207,20.73265171017298,0.02219496720544056,42.76113455219903,-18.127874943627994,86.94758605957031,5356.25390625,True
1599560369.5057166,0.0,10,0.5,0.5,-12.535073432922365,-0.05075,-0.03,-0.001,0.6419277456647929,10,1,100,-0.8089340553612216,-10,-1,-100,15013.880499962484,0.06099392149313711,0.04930488258209902,0.9969196407406438,21.605116353014726,0.023558802935338168,45.93800950731528,-18.684970681727975,60.544952392578125,5356.25390625,True
1599560369.5426595,0.0,10,0.5,0.5,-13.18326195526123,-0.05075,-0.03,-0.001,0.541076332202946,10,1,100,-0.6684234670099023,-10,-1,-100,15013.880499962484,0.06099392149313711,0.04930488258209902,0.9969196407406438,21.605116353014726,0.023558802935338168,45.93800950731528,-18.684970681727975,60.544952392578125,5356.25390625,True
1599560369.5725796,0.0,10,0.5,0.5,-12.927705600738527,-0.05075,-0.03,-0.001,0.6171592884401981,10,1,100,-0.8142228028312135,-10,-1,-100,15013.15522708383,0.0623155224845911,0.04999625985775812,0.9968034659137718,23.26492324403762,0.025770235467739558,50.45577659335426,-19.05627968912725,42.60118103027344,5356.25390625,True
1599560369.6058652,0.0,10,0.5,0.5,-11.115870449066161,-0.05075,-0.03,-0.001,0.6359355918269947,10,1,100,-0.9646283833088387,-10,-1,-100,15011.969262982835,0.06487976406943344,0.05079387277896261,0.9965995177113067,23.125641043865166,0.025682531307725864,51.62818403631633,-19.61321504353791,15.167434692382812,5356.25390625,True
1599560369.6397417,0.0,10,0.5,0.5,-10.700844066619874,-0.05075,-0.03,-0.001,0.5564843716119363,10,1,100,-0.7089188046110828,-10,-1,-100,15011.969262982835,0.06487976406943344,0.05079387277896261,0.9965995177113067,23.125641043865166,0.025682531307725864,51.62818403631633,-19.61321504353791,15.167434692382812,5356.25390625,True
1599560369.6746793,0.0,10,0.5,0.5,-9.318569038391114,-0.05075,-0.03,-0.001,0.5838603873264531,10,1,100,-0.9323723519366958,-10,-1,-100,15011.178651484428,0.0669048107842345,0.05103976085848972,0.9964530541402511,21.62935435512006,0.023941544031809165,49.20799693887844,-19.98455635829041,-3.469573974609375,5356.25390625,True
1599560369.7055633,0.0,10,0.5,0.5,-7.933934829711914,-0.05075,-0.03,-0.001,0.5410632064759181,10,1,100,-0.9703111099460981,-10,-1,-100,15010.324556063977,0.06908273420320277,0.05087086632968221,0.9963130686656064,20.84962870989894,0.023314871375163165,48.32162191810689,-20.355925502509354,-22.388671875,5356.25390625,True
1599560369.7414687,0.0,10,0.5,0.5,-6.051676322937012,-0.05075,-0.03,-0.001,0.46393181935265637,10,1,100,-1.1204678431895734,-10,-1,-100,15009.137588437297,0.07241829374964194,0.050013131948701293,0.9961196099681365,23.646743188900146,0.027147287647570035,56.31369275588311,-20.912841346854098,-51.292877197265625,5356.25390625,True
1599560369.7733843,0.0,10,0.5,0.5,-4.573036056518555,-0.05075,-0.03,-0.001,0.43091322067787513,10,1,100,-1.0126099092961551,-10,-1,-100,15008.283368275152,0.07445762956567706,0.048930984628349806,0.996023001814095,23.48500253141148,0.027086422490066424,56.92795812141963,-21.284079853692525,-70.9150390625,5356.25390625,True
1599560369.8093219,0.0,10,0.5,0.5,-4.067283905029297,-0.05075,-0.03,-0.001,0.5392443951125472,10,1,100,-0.8102273081755688,-10,-1,-100,15008.283368275152,0.07445762956567706,0.048930984628349806,0.996023001814095,23.48500253141148,0.027086422490066424,56.92795812141963,-21.284079853692525,-70.9150390625,5356.25390625,True
1599560369.8411999,0.0,10,0.5,0.5,-2.0434465103149413,-0.05075,-0.03,-0.001,0.3079276004225036,10,1,100,-1.0896944112111968,-10,-1,-100,15006.964271324105,0.07698471789664624,0.04682752830327399,0.9959319935635064,20.823274641453903,0.024007808162634568,51.8064428728795,-21.841018901197167,-100.87155151367188,5356.25390625,True
1599560369.8731189,0.0,10,0.5,0.5,-1.5891535110473631,-0.05075,-0.03,-0.001,0.5180254975022028,10,1,100,-0.8385846577546299,-10,-1,-100,15006.964271324105,0.07698471789664624,0.04682752830327399,0.9959319935635064,20.823274641453903,0.024007808162634568,51.8064428728795,-21.841018901197167,-100.87155151367188,5356.25390625,True
1599560369.9060266,0.0,10,0.5,0.5,-0.05340521240234344,-0.05075,-0.03,-0.001,0.3338793167391332,10,1,100,-0.981236391534851,-10,-1,-100,15006.102989678737,0.07826701475246324,0.04515572425477229,0.9959092503681068,21.926448051175583,0.02564570538854214,55.48543816870367,-22.212316367433495,-121.19036865234375,5356.25390625,True
1599560369.942931,0.0,10,0.5,0.5,0.9486566619873048,-0.05075,-0.03,-0.001,0.41435505944361856,10,1,100,-0.9072006428326278,-10,-1,-100,15005.64107057266,0.07874518554930587,0.044371900540359686,0.9959067879049937,23.036907160233,0.0271697039056195,58.78620577717634,-22.39793183940596,-131.45135498046875,5356.25390625,True
1599560369.9748454,0.0,10,0.5,0.5,3.530596736907959,-0.05075,-0.03,-0.001,0.16719439381948664,10,1,100,-0.9863637611173862,-10,-1,-100,15003.792291372432,0.07988694605676983,0.041418256541800307,0.9959430726074459,23.201544274688512,0.027556117664219264,61.18386200736024,-23.140344053384332,-173.0425567626953,5356.25390625,True
1599560370.0067914,0.0,10,0.5,0.5,4.0536355094909675,-0.05075,-0.03,-0.001,0.46162123205170835,10,1,100,-0.8736884285697247,-10,-1,-100,15003.792291372432,0.07988694605676983,0.041418256541800307,0.9959430726074459,23.201544274688512,0.027556117664219264,61.18386200736024,-23.140344053384332,-173.0425567626953,5356.25390625,True
1599560370.0396736,0.0,10,0.5,0.5,-12.46147750091553,-0.05075,-0.03,-0.001,0.28491983928674885,10,1,100,-0.910478574774537,-10,-1,-100,15002.404452828225,0.08020959999020218,0.03982062706604312,0.9959822978996559,21.628268167378923,0.02590990574921745,58.41947913128101,-23.69724769237005,155.92037963867188,5356.25390625,True
1599560370.0775714,0.0,10,0.5,0.5,-12.667441719055178,-0.05075,-0.03,-0.001,0.4435777629361036,10,1,100,-0.8793258680100017,-10,-1,-100,15002.404452828225,0.08020959999020218,0.03982062706604312,0.9959822978996559,21.628268167378923,0.02590990574921745,58.41947913128101,-23.69724769237005,155.92037963867188,5356.25390625,True
1599560370.1104841,0.0,10,0.5,0.5,-11.709443851470947,-0.05075,-0.03,-0.001,0.339508213764508,10,1,100,-0.9119371576573609,-10,-1,-100,15000.950294899289,0.08049898325405039,0.03888380616892194,0.9959959655103438,24.296610673629864,0.029742851118989774,67.18164774580254,-24.254020583173176,125.39598083496094,5356.25390625,True
1599560370.1396437,0.0,10,0.5,0.5,-11.800775882720947,-0.05075,-0.03,-0.001,0.411423042878306,10,1,100,-0.9023275324840312,-10,-1,-100,15000.488392696017,0.0806692065798927,0.038695055780263964,0.9959895440053237,24.335062184746164,0.029857826032513888,67.8070529258653,-24.43959429344903,115.19065856933594,5356.25390625,True
1599560370.1725564,0.0,10,0.5,0.5,-10.765860050201416,-0.05075,-0.03,-0.001,0.4022674122560295,10,1,100,-0.9755392948582547,-10,-1,-100,14998.96998265339,0.08148386964586572,0.03844953690205246,0.9959327347263736,22.34816630551383,0.027384578483463057,63.70215723809998,-24.996375093460852,84.20634460449219,5356.25390625,True
1599560370.2084599,0.0,10,0.5,0.5,-11.352078052520753,-0.05075,-0.03,-0.001,0.4259815009370577,10,1,100,-0.894522903435874,-10,-1,-100,14998.96998265339,0.08148386964586572,0.03844953690205246,0.9959327347263736,22.34816630551383,0.027384578483463057,63.70215723809998,-24.996375093460852,84.20634460449219,5356.25390625,True
1599560370.2394388,0.0,10,0.5,0.5,-10.27264155960083,-0.05075,-0.03,-0.001,0.4103401685687818,10,1,100,-1.0572748103051164,-10,-1,-100,14997.44979378127,0.08295934229763227,0.03831495932725106,0.9958161032124835,23.383363353086185,0.029168021041677563,68.15157989221781,-25.553182007054403,52.61851501464844,5356.25390625,True
1599560370.2723508,0.0,10,0.5,0.5,-10.82565604019165,-0.05075,-0.03,-0.001,0.4231138495561695,10,1,100,-0.9101967778829784,-10,-1,-100,14997.44979378127,0.08295934229763227,0.03831495932725106,0.9958161032124835,23.383363353086185,0.029168021041677563,68.15157989221781,-25.553182007054403,52.61851501464844,5356.25390625,True
1599560370.3062582,0.0,10,0.5,0.5,-10.270320419311524,-0.05075,-0.03,-0.001,0.39974457181906553,10,1,100,-1.0580212214477882,-10,-1,-100,14996.395401239162,0.08429936982390479,0.03810801765801658,0.9957115020112346,24.64322703815564,0.031059160243394265,72.87603862559885,-25.92429735894971,31.2166748046875,5356.25390625,True
1599560370.3412101,0.0,10,0.5,0.5,-10.345317893981935,-0.05075,-0.03,-0.001,0.3971229373670886,10,1,100,-1.009627983473074,-10,-1,-100,14995.866268466227,0.0850736268445941,0.03789906513540706,0.9956536239462843,24.630364022328877,0.031073915524915566,73.36415244250608,-26.10985115177577,20.411224365234375,5356.25390625,True
1599560370.5576143,0.0,10,0.5,0.5,-9.807302467346192,-0.05075,-0.03,-0.001,0.34913483255325944,10,1,100,-1.1159721458477345,-10,-1,-100,14994.81387864449,0.08673954681154691,0.037276052063278504,0.9955333982149988,23.41893793395685,0.02950538257230889,70.75714378235939,-26.480991806740732,-1.408721923828125,5356.25390625,True
1599560370.5845568,0.0,10,0.5,0.5,-7.055147666931152,-0.05075,-0.03,-0.001,0.1485747621056874,10,1,100,-1.324910113279524,-10,-1,-100,14992.694387872587,0.09014751926104633,0.034888716425458946,0.9953171365134147,24.266463434070243,0.03125955343800095,75.39415422373482,-27.223292455153043,-45.891571044921875,5356.25390625,True
1599560370.6204147,0.0,10,0.5,0.5,-6.494194664001466,-0.05075,-0.03,-0.001,0.3868151348235848,10,1,100,-0.9851066602566665,-10,-1,-100,14992.694387872587,0.09014751926104633,0.034888716425458946,0.9953171365134147,24.266463434070243,0.03125955343800095,75.39415422373482,-27.223292455153043,-45.891571044921875,5356.25390625,True
1599560370.6493738,0.0,10,0.5,0.5,-5.39576294708252,-0.05075,-0.03,-0.001,0.2961828075318478,10,1,100,-1.069913907537543,-10,-1,-100,14992.107592089684,0.09090972283995703,0.03406841807711903,0.9952762255690051,24.70610444451229,0.031981292100602764,77.2883290208543,-27.40882719587793,-57.187591552734375,5356.25390625,True
