Timestamp,Input Throttle,horizon,dT,dt,Input Roll,Roll P,Roll I,Roll D,Input Pitch,Pitch P,Pitch I,Pitch D,Input Yaw,Yaw P,Yaw I,Yaw D,Altitude,Direction X,Direction Y,Direction Z,Drag X,Drag Y,Drag Z,Vertical Velocity,Roll,Mass,Has Fuel
1599558708.7812207,0.0,10,0.5,0.5,-0.058772979736328126,-0.001,-0.00825,-0.5,-0.0003423924179619309,10,1,100,0.17498682898931237,-10,-1,-100,14993.964635185082,-0.016812399533883818,-7.565024288391953e-05,0.999858658760804,28.64445694645049,0.02727517671122854,-87.50349595114164,27.008979077713484,-31.791595458984375,5356.25390625,True
1599558708.808149,0.0,10,0.5,0.5,-0.10653612442016602,-0.001,-0.00825,-0.5,-0.0004518917357125311,10,1,100,0.17374405628617687,-10,-1,-100,14994.501747305389,-0.016848206997465184,-7.281228181650993e-05,0.9998580562356552,28.57170489832427,0.027439495529736874,-86.68187574933141,26.823011538777084,-31.790985107421875,5356.25390625,True
1599558708.8415422,0.0,10,0.5,0.5,-0.1548802474975586,-0.001,-0.00825,-0.5,-0.00021450599405976601,10,1,100,0.18005428774664034,-10,-1,-100,14995.524211077485,-0.0169228084258184,-6.800807202946105e-05,0.9998567967113517,28.4265417297209,0.027763853350963486,-85.04881393249138,26.45108836553896,-31.78973388671875,5356.25390625,True
1599558708.875698,0.0,10,0.5,0.5,-0.20163595581054689,-0.001,-0.00825,-0.5,0.003194471824776334,10,1,100,0.17629905066917176,-10,-1,-100,14996.061321501038,-0.016941105015957227,-3.258807562269802e-05,0.9998564886516743,28.354088831833472,0.02792384389222193,-84.23723337326948,26.265132618682703,-31.791015625,5356.25390625,True
1599558708.9106057,0.0,10,0.5,0.5,-0.23326694946289062,-0.001,-0.00825,-0.5,0.013149807257676147,10,1,100,0.18180178115936477,-10,-1,-100,14997.6248014624,-0.016992362097797954,9.014459602401459e-05,0.999855615328678,28.14100411003048,0.028397754884323192,-81.8331550187689,25.70728866131527,-31.82501220703125,5356.25390625,True
1599558708.9285576,0.0,10,0.5,0.5,-0.29825960540771485,-0.001,-0.00825,-0.5,0.0008855545526072886,10,1,100,0.17837530918507177,-10,-1,-100,14997.6248014624,-0.016992362097797954,9.014459602401459e-05,0.999855615328678,28.14100411003048,0.028397754884323192,-81.8331550187689,25.70728866131527,-31.82501220703125,5356.25390625,True
1599558708.9749308,0.0,10,0.5,0.5,-0.28006656188964846,-0.001,-0.00825,-0.5,0.025091520497090222,10,1,100,0.17943863467562743,-10,-1,-100,14999.129683661158,-0.016986581091259553,0.00031011688225020126,0.9998556695295322,27.938932838320028,0.028864459654003482,-79.48721312036184,25.14947934750236,-31.957122802734375,5356.25390625,True
1599558709.0079007,0.0,10,0.5,0.5,-0.3572058723449707,-0.001,-0.00825,-0.5,0.014087901108994182,10,1,100,0.17969345175940105,-10,-1,-100,14999.653121016454,-0.016968199803266894,0.00040977685994381585,0.9998559457633692,27.87464496037307,0.02901825383841746,-78.7195449611661,24.963550335827662,-32.03057861328125,5356.25390625,True
1599558709.0278463,0.0,10,0.5,0.5,-0.2744629570007324,-0.001,-0.00825,-0.5,0.04562504391912359,10,1,100,0.17222401608884982,-10,-1,-100,15001.08866329363,-0.016868159944629223,0.0007867056135210566,0.9998574129716495,27.692821519006113,0.029473258958065834,-76.46318024577813,24.40578513139071,-32.364501953125,5356.25390625,True
1599558709.0754657,0.0,10,0.5,0.5,-0.41231332931518555,-0.001,-0.00825,-0.5,0.024693260185978918,10,1,100,0.17832713785345877,-10,-1,-100,15001.627724873717,-0.01681736285286903,0.000938363986823123,0.9998581378274136,27.635814670159704,0.029621938052339446,-75.72599942296189,24.219870545452192,-32.51751708984375,5356.25390625,True
1599558709.1089678,0.0,10,0.5,0.5,-0.44774943923950195,-0.001,-0.00825,-0.5,0.027687116785410023,10,1,100,0.17857696766417686,-10,-1,-100,15002.095495120971,-0.016758166346954595,0.0011025990552863542,0.999858964122446,27.581001800334896,0.02976909458321201,-74.9971688043919,24.033959550082695,-32.69415283203125,5356.25390625,True
1599558709.1417317,0.0,10,0.5,0.5,-0.43644675445556635,-0.001,-0.00825,-0.5,0.030356214887414898,10,1,100,0.17650406432224625,-10,-1,-100,15002.564243293018,-0.01668555606863931,0.0012750970554546357,0.999859973369361,27.527989927830774,0.029913985565853472,-74.2754896575186,23.848051967668166,-32.891510009765625,5356.25390625,True
1599558709.1749473,0.0,10,0.5,0.5,-0.15811575622558594,-0.001,-0.00825,-0.5,0.07924685173827617,10,1,100,0.1545155498432465,-10,-1,-100,15003.9861084047,-0.01641979900302435,0.0018751483821270202,0.9998634276836238,27.380450012669076,0.03033306946941614,-72.15403751058514,23.29034939003728,-33.6422119140625,5356.25390625,True
1599558709.2101007,0.0,10,0.5,0.5,-0.37722592010498057,-0.001,-0.00825,-0.5,0.04398843401228972,10,1,100,0.16908318721784302,-10,-1,-100,15004.400168323074,-0.01631109201898235,0.002098352012089169,0.9998647634535291,27.335040350300037,0.03046620668825752,-71.46085057662806,23.10445516303184,-33.951019287109375,5356.25390625,True
1599558709.2619612,0.0,10,0.5,0.5,-0.17541089706420898,-0.001,-0.00825,-0.5,0.0746826686350367,10,1,100,0.1525782052295767,-10,-1,-100,15005.351332386257,-0.016062794936320814,0.0025783656812727205,0.999867660567761,27.24972744044925,0.030719990610177328,-70.09432286416005,22.732676322034663,-34.658477783203125,5356.25390625,True
1599558709.2898893,0.0,10,0.5,0.5,0.09030445861816405,-0.001,-0.00825,-0.5,0.11364685176236547,10,1,100,0.12676062675948696,-10,-1,-100,15006.687256459962,-0.015603210117956309,0.00336669957161053,0.9998725944679199,27.131028917576835,0.031058150169805752,-68.08112886667148,22.17503180638307,-35.890228271484375,5356.25390625,True
1599558709.3158503,0.0,10,0.5,0.5,-0.29179184188842777,-0.001,-0.00825,-0.5,0.0664136407452661,10,1,100,0.15334727029839174,-10,-1,-100,15007.101314892643,-0.015428365362505749,0.003650995230875284,0.9998743099890431,27.092723724660065,0.03115666620921422,-67.41649785627088,21.98915646477813,-36.35015869140625,5356.25390625,True
1599558709.3457375,0.0,10,0.5,0.5,-0.2789621734619141,-0.001,-0.00825,-0.5,0.06979720083273033,10,1,100,0.1497860783875269,-10,-1,-100,15007.571036099805,-0.015238457672659881,0.0039371683052305305,0.9998761363856499,27.05506216287558,0.031247213897196605,-66.7550496068316,21.803284209805053,-36.827545166015625,5356.25390625,True
1599558709.3776536,0.0,10,0.5,0.5,0.23313884811401364,-0.001,-0.00825,-0.5,0.14099618073250714,10,1,100,0.09803321159238189,-10,-1,-100,15008.853248944157,-0.014596906203871962,0.0048413823796921015,0.9998817386800946,26.940446408246714,0.031462452035737644,-64.7761915783846,21.245686154298742,-38.3182373046875,5356.25390625,True
1599558709.4114678,0.0,10,0.5,0.5,-0.5072953895568848,-0.001,-0.00825,-0.5,0.05098024096296716,10,1,100,0.16196123309709806,-10,-1,-100,15008.853248944157,-0.014596906203871962,0.0048413823796921015,0.9998817386800946,26.940446408246714,0.031462452035737644,-64.7761915783846,21.245686154298742,-38.3182373046875,5356.25390625,True
1599558709.443381,0.0,10,0.5,0.5,0.030093201446533158,-0.001,-0.00825,-0.5,0.12170269665517483,10,1,100,0.10795336051549598,-10,-1,-100,15009.665739022894,-0.01410794414099285,0.005480765596536836,0.9998854570002459,26.86073019546363,0.03155449794760242,-63.457101451668215,20.873969728790826,-39.381317138671875,5356.25390625,True
1599558709.480286,0.0,10,0.5,0.5,-0.22619585723876956,-0.001,-0.00825,-0.5,0.09214160273259267,10,1,100,0.12699286022049036,-10,-1,-100,15010.118858092814,-0.013838928828608116,0.005789305697516529,0.9998874776635706,26.819880337598363,0.03158417708082284,-62.79772613727805,20.688116287635644,-39.919708251953125,5356.25390625,True
1599558709.5102043,0.0,10,0.5,0.5,0.383288655090332,-0.001,-0.00825,-0.5,0.1723299556775547,10,1,100,0.05772869112246526,-10,-1,-100,15011.329782326706,-0.012967283032130886,0.006794677899141303,0.9998928352193608,26.689896990600545,0.03160184691191525,-60.81288551946699,20.130575397490613,-41.6619873046875,5356.25390625,True
1599558709.544148,0.0,10,0.5,0.5,-0.4812345565795899,-0.001,-0.00825,-0.5,0.07228468846677874,10,1,100,0.14454801917309895,-10,-1,-100,15011.329782326706,-0.012967283032130886,0.006794677899141303,0.9998928352193608,26.689896990600545,0.03160184691191525,-60.81288551946699,20.130575397490613,-41.6619873046875,5356.25390625,True
1599558709.5770268,0.0,10,0.5,0.5,0.7217139976501465,-0.001,-0.00825,-0.5,0.21757883472194306,10,1,100,-0.0048989461115318544,-10,-1,-100,15012.868827234954,-0.011611714083167744,0.008111264387018204,0.9998996827112683,26.496688528828873,0.031447657317360635,-58.14808676032053,19.3872340201711,-44.050384521484375,5356.25390625,True
1599558709.613466,0.0,10,0.5,0.5,-0.464736287689209,-0.001,-0.00825,-0.5,0.0864734758048275,10,1,100,0.1302128406994671,-10,-1,-100,15012.868827234954,-0.011611714083167744,0.008111264387018204,0.9998996827112683,26.496688528828873,0.031447657317360635,-58.14808676032053,19.3872340201711,-44.050384521484375,5356.25390625,True
1599558709.6436133,0.0,10,0.5,0.5,-0.16249244003295898,-0.001,-0.00825,-0.5,0.12542353343495033,10,1,100,0.08899921506186653,-10,-1,-100,15013.267259954126,-0.011240673391948456,0.00846104257927804,0.9999010241119703,26.44415494366476,0.03137730539419997,-57.4777362867376,19.201407196243935,-44.640228271484375,5356.25390625,True
1599558709.676567,0.0,10,0.5,0.5,0.15543195037841795,-0.001,-0.00825,-0.5,0.16111815005159114,10,1,100,0.03951408601617912,-10,-1,-100,15014.011393148918,-0.010457305855852451,0.009099146498439716,0.9999039205279862,26.332315552743168,0.031197081586663268,-56.12919028374542,18.82976412080412,-45.849822998046875,5356.25390625,True
1599558709.7105045,0.0,10,0.5,0.5,0.1768514953613281,-0.001,-0.00825,-0.5,0.17190721670824155,10,1,100,0.02520145419262955,-10,-1,-100,15014.75552790414,-0.009619385217202731,0.00977263068710787,0.9999059771385989,26.213572179295614,0.03096792119553564,-54.77557586511122,18.458135295827038,-47.08489990234375,5356.25390625,True
1599558709.7457685,0.0,10,0.5,0.5,0.5499384536743164,-0.001,-0.00825,-0.5,0.20771032966836767,10,1,100,-0.03996806639566851,-10,-1,-100,15015.881498960312,-0.008269714013979065,0.01070588893252787,0.9999084936994441,26.017057845964406,0.030525677422364124,-52.7265043940036,17.900719777334526,-49.047760009765625,5356.25390625,True
1599558709.777723,0.0,10,0.5,0.5,-0.0968246192932129,-0.001,-0.00825,-0.5,0.14742041275882364,10,1,100,0.042348640293579966,-10,-1,-100,15016.209621784743,-0.007796825882941531,0.011000883995956709,0.9999090908964966,25.947195207614183,0.03035267903884414,-52.04022738796624,17.714922229081132,-49.698089599609375,5356.25390625,True
1599558709.809758,0.0,10,0.5,0.5,-0.09286131668090825,-0.001,-0.00825,-0.5,0.15045228811159284,10,1,100,0.03565916751593822,-10,-1,-100,15016.555324606015,-0.007311851573345258,0.011291605540099538,0.9999095141416028,25.875201319720656,0.03016752012407063,-51.352647527171854,17.529128540453705,-50.338043212890625,5356.25390625,True
1599558709.8458908,0.0,10,0.5,0.5,-0.09697380142211914,-0.001,-0.00825,-0.5,0.15132455164288447,10,1,100,0.02954254172621891,-10,-1,-100,15016.882471512305,-0.006821293854946891,0.011558825430656958,0.999909927695894,25.801455907562335,0.029971091833630847,-50.664644930802964,17.343338742158437,-50.95135498046875,5356.25390625,True
1599558709.8811963,0.0,10,0.5,0.5,0.18036445693969722,-0.001,-0.00825,-0.5,0.18274262538674302,10,1,100,-0.03416545984043745,-10,-1,-100,15017.611962871975,-0.00580175590504894,0.012083040412897404,0.9999101658463115,25.651310178316443,0.029550367513771096,-49.292808709539365,16.97177107523668,-52.101715087890625,5356.25390625,True
1599558709.909928,0.0,10,0.5,0.5,0.1876660140991211,-0.001,-0.00825,-0.5,0.18409330060062903,10,1,100,-0.04963959627628405,-10,-1,-100,15018.268213515286,-0.004740743371294999,0.012567070750956994,0.9999097929738601,25.494997205954494,0.02909297156148052,-47.921963394322944,16.60021936474325,-53.247161865234375,5356.25390625,True
1599558709.9429967,0.0,10,0.5,0.5,0.49903533782958986,-0.001,-0.00825,-0.5,0.2049706268535679,10,1,100,-0.12601157384950004,-10,-1,-100,15019.200836047763,-0.0030881421542275182,0.013192841472979758,0.9999082019425104,25.249654369252717,0.028344099694760292,-45.87050601000157,16.042922328921517,-54.996673583984375,5356.25390625,True
1599558709.9760327,0.0,10,0.5,0.5,-0.36668983306884767,-0.001,-0.00825,-0.5,0.14290171235988766,10,1,100,0.038396190664353964,-10,-1,-100,15019.200836047763,-0.0030881421542275182,0.013192841472979758,0.9999082019425104,25.249654369252717,0.028344099694760292,-45.87050601000157,16.042922328921517,-54.996673583984375,5356.25390625,True
1599558710.012914,0.0,10,0.5,0.5,0.20983668670654293,-0.001,-0.00825,-0.5,0.18121246746290792,10,1,100,-0.08706491114556644,-10,-1,-100,15019.860020344262,-0.0019549980752625335,0.013536819429467486,0.9999064618764395,25.080783227909752,0.02780904422069842,-44.51058011828804,15.671411532513037,-56.13037109375,5356.25390625,True
1599558710.04289,0.0,10,0.5,0.5,-0.07989749832153326,-0.001,-0.00825,-0.5,0.16253046544099825,10,1,100,-0.036833398287158266,-10,-1,-100,15020.190100615146,-0.0013892465819895217,0.013675656032501671,0.9999055187496543,24.994883068072998,0.02753234291744231,-43.83335547955867,15.48566227190107,-56.66656494140625,5356.25390625,True
1599558710.0769968,0.0,10,0.5,0.5,0.1679129539489746,-0.001,-0.00825,-0.5,0.17767703337010132,10,1,100,-0.1097051040066813,-10,-1,-100,15020.7770210522,-0.00021993893486858633,0.013936018993392418,0.9999028647831152,24.82467649507882,0.026968834059438264,-42.492429281404206,15.114175900687526,-57.6805419921875,5356.25390625,True
1599558710.110122,0.0,10,0.5,0.5,0.1647348892211914,-0.001,-0.00825,-0.5,0.1706359690856903,10,1,100,-0.12142380952241871,-10,-1,-100,15021.380544069223,0.0009422837262215946,0.014105766437015848,0.9999000647337731,24.673905230059685,0.026413133128805513,-41.198211098948796,14.742705351814294,-58.67193603515625,5356.25390625,True
1599558710.146997,0.0,10,0.5,0.5,0.4112147895812988,-0.001,-0.00825,-0.5,0.17052424605236666,10,1,100,-0.20162304342318346,-10,-1,-100,15022.228215726675,0.00271998908121129,0.01425624401051506,0.9998946750363813,24.44968104214547,0.02556204397787136,-39.283652993887344,14.18552863170938,-60.1385498046875,5356.25390625,True
1599558710.1789665,0.0,10,0.5,0.5,0.1591667846679688,-0.001,-0.00825,-0.5,0.1563844316106968,10,1,100,-0.154182031071575,-10,-1,-100,15022.815140300896,0.0038956830728649763,0.014261802911071514,0.999890706343009,24.294580002029583,0.024979285570003302,-38.01412565205001,13.81409671460766,-61.0830078125,5356.25390625,True
1599558710.2119148,0.0,10,0.5,0.5,-0.08111278533935545,-0.001,-0.00825,-0.5,0.15267210569904094,10,1,100,-0.10069621510794538,-10,-1,-100,15023.073934174143,0.004468518395673683,0.014230650787398314,0.9998887542729514,24.21621116379768,0.02468530873550077,-37.3829651539557,13.628386377691552,-61.529296875,5356.25390625,True
1599558710.2443607,0.0,10,0.5,0.5,-0.29647956161499023,-0.001,-0.00825,-0.5,0.15600207910381103,10,1,100,-0.04443971025714692,-10,-1,-100,15023.073934174143,0.004468518395673683,0.014230650787398314,0.9998887542729514,24.21621116379768,0.02468530873550077,-37.3829651539557,13.628386377691552,-61.529296875,5356.25390625,True
1599558710.2807732,0.0,10,0.5,0.5,0.12399010162353513,-0.001,-0.00825,-0.5,0.14404732335661993,10,1,100,-0.1713321214363823,-10,-1,-100,15023.608124885126,0.005613713713878579,0.014120458844208903,0.9998845427649973,24.06183157857678,0.024098409447461926,-36.134017920586786,13.256976577358847,-62.35491943359375,5356.25390625,True
1599558710.310702,0.0,10,0.5,0.5,0.3295861061096191,-0.001,-0.00825,-0.5,0.12380589713962606,10,1,100,-0.24674134179557705,-10,-1,-100,15024.384510593023,0.007332427955631976,0.013835428096272013,0.9998774006995399,23.82915240827886,0.023218675880929632,-34.283202455576905,12.699888073089342,-63.5771484375,5356.25390625,True
1599558710.3440738,0.0,10,0.5,0.5,0.16235069732666013,-0.001,-0.00825,-0.5,0.12115094363512477,10,1,100,-0.198119713961403,-10,-1,-100,15024.888429986662,0.008443407404088155,0.013551589123903654,0.9998725235266872,23.66338222602244,0.022625382701566315,-33.05065840890415,12.328512643453953,-64.44900512695312,5356.25390625,True
1599558710.3761613,0.0,10,0.5,0.5,-0.2667147743225098,-0.001,-0.00825,-0.5,0.1495363178414043,10,1,100,-0.08806160966372013,-10,-1,-100,15024.888429986662,0.008443407404088155,0.013551589123903654,0.9998725235266872,23.66338222602244,0.022625382701566315,-33.05065840890415,12.328512643453953,-64.44900512695312,5356.25390625,True
1599558710.412288,0.0,10,0.5,0.5,0.3520883377075195,-0.001,-0.00825,-0.5,0.08784745017626322,10,1,100,-0.26230760170144063,-10,-1,-100,15025.612081324565,0.010018523100807362,0.01299089402413746,0.9998654238782998,23.40743966506769,0.02173868574494596,-31.21810867070727,11.771473676537198,-65.67132568359375,5356.25390625,True
1599558710.4442053,0.0,10,0.5,0.5,-0.2524795440673828,-0.001,-0.00825,-0.5,0.1438224476559571,10,1,100,-0.10581987823308757,-10,-1,-100,15025.612081324565,0.010018523100807362,0.01299089402413746,0.9998654238782998,23.40743966506769,0.02173868574494596,-31.21810867070727,11.771473676537198,-65.67132568359375,5356.25390625,True
1599558710.476088,0.0,10,0.5,0.5,0.502516845703125,-0.001,-0.00825,-0.5,0.036180225263471186,10,1,100,-0.3224031535399301,-10,-1,-100,15026.509567514993,0.011979210840529034,0.012013341886399296,0.9998560787055097,23.06663155149286,0.0205879009955548,-28.825184883319615,11.028795556295941,-67.16677856445312,5356.25390625,True
1599558710.5102417,0.0,10,0.5,0.5,-0.23941130599975585,-0.001,-0.00825,-0.5,0.13371114882487603,10,1,100,-0.12726030174369463,-10,-1,-100,15026.509567514993,0.011979210840529034,0.012013341886399296,0.9998560787055097,23.06663155149286,0.0205879009955548,-28.825184883319615,11.028795556295941,-67.16677856445312,5356.25390625,True
1599558710.5430293,0.0,10,0.5,0.5,-0.06749412384033204,-0.001,-0.00825,-0.5,0.1019892503726804,10,1,100,-0.17748714822804665,-10,-1,-100,15026.697073765681,0.012428469874234358,0.011727005046856311,0.9998539945858176,22.981890684122703,0.020307676205720666,-28.236419911447438,10.843132499272492,-67.49990844726562,5356.25390625,True
1599558710.5774994,0.0,10,0.5,0.5,0.41959197006225585,-0.001,-0.00825,-0.5,-0.012148477476611824,10,1,100,-0.3223743813414449,-10,-1,-100,15027.525219901698,0.014146807522744127,0.010431359162951433,0.9998455153587118,22.647590925886824,0.019224295012033994,-25.922096286715288,10.10050245800264,-68.79476928710938,5356.25390625,True
1599558710.6124399,0.0,10,0.5,0.5,-0.05031370391845705,-0.001,-0.00825,-0.5,0.07710560452780163,10,1,100,-0.19558947879137556,-10,-1,-100,15027.728349227109,0.014547544189909585,0.01006835391546389,0.9998434863554774,22.56117451504887,0.01895987839497164,-25.349049678148916,9.914849859007303,-69.13714599609375,5356.25390625,True
1599558710.6455164,0.0,10,0.5,0.5,0.12882127532958987,-0.001,-0.00825,-0.5,0.03018028078246479,10,1,100,-0.23423971486560907,-10,-1,-100,15028.10824180697,0.015255094369393006,0.00931543902454374,0.9998402395840852,22.38011529119321,0.018435658133353093,-24.20489033693078,9.543549928096672,-69.82522583007812,5356.25390625,True
1599558710.6804109,0.0,10,0.5,0.5,-0.21006397781372071,-0.001,-0.00825,-0.5,0.10501977096730701,10,1,100,-0.1642769635586431,-10,-1,-100,15028.10824180697,0.015255094369393006,0.00931543902454374,0.9998402395840852,22.38011529119321,0.018435658133353093,-24.20489033693078,9.543549928096672,-69.82522583007812,5356.25390625,True
1599558710.7109532,0.0,10,0.5,0.5,0.1294977165222168,-0.001,-0.00825,-0.5,0.014895606821536636,10,1,100,-0.24159117916568945,-10,-1,-100,15028.471532015363,0.015951758432215878,0.008499979486945246,0.9998366325313559,22.197148095563968,0.017926160118520898,-23.07388084954221,9.172255930727676,-70.494140625,5356.25390625,True
1599558710.744887,0.0,10,0.5,0.5,-0.03469503936767579,-0.001,-0.00825,-0.5,0.0499535066868903,10,1,100,-0.20659075084760165,-10,-1,-100,15028.66098997055,0.016260077912773938,0.008081953187574337,0.9998351323588026,22.103854470135463,0.017676307559737026,-22.51226769066755,8.986610734070725,-70.82403564453125,5356.25390625,True
1599558710.776779,0.0,10,0.5,0.5,0.13108100128173827,-0.001,-0.00825,-0.5,-0.005757542255928519,10,1,100,-0.24101246551310462,-10,-1,-100,15029.038927091402,0.01684761888768405,0.007199927871244761,0.999832145300632,21.915895338238716,0.017188756092901068,-21.39940068286427,8.615323217702862,-71.47567749023438,5356.25390625,True
1599558710.81241,0.0,10,0.5,0.5,0.13324932174682616,-0.001,-0.00825,-0.5,-0.017952606837939117,10,1,100,-0.23705026666380635,-10,-1,-100,15029.350456929882,0.017339518788257006,0.006292486965793135,0.999829858373902,21.722255224764545,0.016714945796556364,-20.296940515442348,8.244038387840718,-72.12078857421875,5356.25390625,True
1599558710.8437202,0.0,10,0.5,0.5,0.29197538757324215,-0.001,-0.00825,-0.5,-0.0863391276233924,10,1,100,-0.2573503781990203,-10,-1,-100,15029.830933036166,0.01796637397732734,0.004851045821806268,0.9998268233852008,21.42502708257824,0.016034282030807475,-18.667718770089902,7.6871132081027085,-73.07327270507812,5356.25390625,True
1599558710.877626,0.0,10,0.5,0.5,-0.17939382019042968,-0.001,-0.00825,-0.5,0.057088757168834964,10,1,100,-0.19526357560566662,-10,-1,-100,15029.830933036166,0.01796637397732734,0.004851045821806268,0.9998268233852008,21.42502708257824,0.016034282030807475,-18.667718770089902,7.6871132081027085,-73.07327270507812,5356.25390625,True
1599558710.9109342,0.0,10,0.5,0.5,0.1287122314453125,-0.001,-0.00825,-0.5,-0.052150209212151015,10,1,100,-0.23025199361059107,-10,-1,-100,15030.140507061384,0.018279416046369297,0.0038642151812746228,0.9998254501611952,21.2221656297813,0.015600813134775108,-17.59838785963093,7.315829295099758,-73.6790771484375,5356.25390625,True
1599558710.9459443,0.0,10,0.5,0.5,-0.028321538543701175,-0.001,-0.00825,-0.5,-0.008103227143887892,10,1,100,-0.21245167166452844,-10,-1,-100,15030.260626029223,0.01839842172005812,0.0033734936577588617,0.9998250435044883,21.120236848986462,0.015390889186783916,-17.069686211115027,7.130186588884345,-73.96218872070312,5356.25390625,True
1599558710.9765122,0.0,10,0.5,0.5,0.09986206359863281,-0.001,-0.00825,-0.5,-0.07203155815357497,10,1,100,-0.22254268014743367,-10,-1,-100,15030.56922120147,0.01859484433913787,0.0023523027728907463,0.9998243337885251,20.91937432252056,0.014987630611495531,-16.027374648386484,6.758898744505068,-74.49264526367188,5356.25390625,True
1599558711.010363,0.0,10,0.5,0.5,0.09519187164306642,-0.001,-0.00825,-0.5,-0.08173139559347954,10,1,100,-0.21413431352479234,-10,-1,-100,15030.808479288593,0.0186939345235775,0.0013420972065130118,0.9998243523675129,20.715365302275654,0.014601342080218795,-14.99959825073839,6.387606428944437,-75.00503540039062,5356.25390625,True
1599558711.0443838,0.0,10,0.5,0.5,-0.03102117462158205,-0.001,-0.00825,-0.5,-0.03862116665093639,10,1,100,-0.2074182570447316,-10,-1,-100,15030.928595468984,0.01871983523220008,0.0008228881745727643,0.9998244298995357,20.61242493634691,0.014414773628843632,-14.491457191758384,6.201957934759957,-75.25595092773438,5356.25390625,True
1599558711.0803893,0.0,10,0.5,0.5,0.09726153640747068,-0.001,-0.00825,-0.5,-0.10092961349568684,10,1,100,-0.2033003302709796,-10,-1,-100,15031.152226757258,0.018703429199550148,-0.00020858128822303542,0.9998250538119275,20.401520858737562,0.014052717827715356,-13.484785250268413,5.830655285696094,-75.75457763671875,5356.25390625,True
1599558711.1129372,0.0,10,0.5,0.5,0.20871540298461913,-0.001,-0.00825,-0.5,-0.1686505895524707,10,1,100,-0.18619990787001178,-10,-1,-100,15031.510620999732,0.01853083501050798,-0.0017543891872119817,0.9998267501284375,20.075586242479638,0.013539571243340985,-12.00217721046498,5.273684361286617,-76.466552734375,5356.25390625,True
1599558711.1449425,0.0,10,0.5,0.5,0.0906799819946289,-0.001,-0.00825,-0.5,-0.1275571419057853,10,1,100,-0.18005952748481574,-10,-1,-100,15031.680538962944,0.018316579365947112,-0.002777952010360741,0.9998283782244627,19.850991836782537,0.01321678418134684,-11.03247409885364,4.902356811576455,-76.93328857421875,5356.25390625,True
1599558711.1784523,0.0,10,0.5,0.5,-0.1387176254272461,-0.001,-0.00825,-0.5,-0.02610790348852473,10,1,100,-0.20158279799867138,-10,-1,-100,15031.680538962944,0.018316579365947112,-0.002777952010360741,0.9998283782244627,19.850991836782537,0.01321678418134684,-11.03247409885364,4.902356811576455,-76.93328857421875,5356.25390625,True
1599558711.3021514,0.0,10,0.5,0.5,0.07957214279174804,-0.001,-0.00825,-0.5,-0.13443054287254086,10,1,100,-0.16936565346720417,-10,-1,-100,15031.904166369117,0.018023377865307756,-0.003755767824913463,0.9998305116660372,19.621735669635132,0.012910073647824963,-10.079205806631956,4.531016562836907,-77.36264038085938,5356.25390625,True
1599558711.334036,0.0,10,0.5,0.5,0.1624330451965332,-0.001,-0.00825,-0.5,-0.19935511055635138,10,1,100,-0.1352446969214282,-10,-1,-100,15032.123882177402,0.01744658871077585,-0.005227090259226288,0.9998341332790048,19.27937032479359,0.012486045364229526,-8.686041159493346,3.9739806156701123,-77.949462890625,5356.25390625,True
1599558711.3675146,0.0,10,0.5,0.5,0.17308675918579103,-0.001,-0.00825,-0.5,-0.2071225971781875,10,1,100,-0.11125701860005842,-10,-1,-100,15032.32699635392,0.01670492224676675,-0.0066270048002178205,0.9998385011491143,18.916375710955652,0.01209165396285812,-7.327968083317056,3.4169094374719133,-78.54934692382812,5356.25390625,True
1599558711.4013538,0.0,10,0.5,0.5,0.06532398452758788,-0.001,-0.00825,-0.5,-0.1656597658679206,10,1,100,-0.12163605468048864,-10,-1,-100,15032.48030819802,0.016126574425192653,-0.007513628190609536,0.9998417269691847,18.67003774944727,0.011852589239746147,-6.446472648301327,3.04550570140045,-78.92538452148438,5356.25390625,True
1599558711.4392524,0.0,10,0.5,0.5,-0.03248503952026367,-0.001,-0.00825,-0.5,-0.12437234790382444,10,1,100,-0.1453214116140571,-10,-1,-100,15032.530107421568,0.015818368986715865,-0.007935340263143402,0.9998433925258036,18.551588003844746,0.011744126398330508,-6.0150099639213375,2.859796811839305,-79.09814453125,5356.25390625,True
1599558711.4592028,0.0,10,0.5,0.5,-0.1154882293701172,-0.001,-0.00825,-0.5,-0.08312888439740344,10,1,100,-0.17585439890804977,-10,-1,-100,15032.530107421568,0.015818368986715865,-0.007935340263143402,0.9998433925258036,18.551588003844746,0.011744126398330508,-6.0150099639213375,2.859796811839305,-79.09814453125,5356.25390625,True
1599558711.4781916,0.0,10,0.5,0.5,0.045482514190673826,-0.001,-0.00825,-0.5,-0.17402164840481094,10,1,100,-0.10230942458568389,-10,-1,-100,15032.62970801245,0.015152416007644796,-0.008753676091903728,0.9998468769986779,18.32099324549418,0.011546420400455507,-5.1687823320616,2.488365732692693,-79.41311645507812,5356.25390625,True
1599558711.5112104,0.0,10,0.5,0.5,-0.03275267028808594,-0.001,-0.00825,-0.5,-0.13721846789726058,10,1,100,-0.12915659624214473,-10,-1,-100,15032.663883636938,0.01479429759917702,-0.009155275118159311,0.9998486433936177,18.209036469953354,0.01145682193759415,-4.753803466883229,2.302644161516382,-79.56527709960938,5356.25390625,True
1599558711.545313,0.0,10,0.5,0.5,0.12789447555541994,-0.001,-0.00825,-0.5,-0.22112000793316283,10,1,100,-0.037546630871443595,-10,-1,-100,15032.79765741073,0.013639314394846605,-0.010276378336962638,0.9998541719426459,17.87979784957656,0.011217043616215134,-3.5384002776999424,1.7454592767425816,-80.03268432617188,5356.25390625,True
1599558711.580444,0.0,10,0.5,0.5,-0.10325213623046875,-0.001,-0.00825,-0.5,-0.10975952868549041,10,1,100,-0.15257722480737507,-10,-1,-100,15032.79765741073,0.013639314394846605,-0.010276378336962638,0.9998541719426459,17.87979784957656,0.011217043616215134,-3.5384002776999424,1.7454592767425816,-80.03268432617188,5356.25390625,True
1599558711.6114962,0.0,10,0.5,0.5,-0.02122131881713868,-0.001,-0.00825,-0.5,-0.14931676148879375,10,1,100,-0.10675888429804375,-10,-1,-100,15032.850387422368,0.013227036085644593,-0.010629172793059393,0.9998560227363359,17.772872062244186,0.011145944283593135,-3.142989179280957,1.55972558441032,-80.19131469726562,5356.25390625,True
1599558711.6457596,0.0,10,0.5,0.5,0.2208849815368652,-0.001,-0.00825,-0.5,-0.2582285834785505,10,1,100,0.048171845264820684,-10,-1,-100,15032.89236046886,0.011448136755598236,-0.011933753948537736,0.9998632534909566,17.385128216100842,0.01091130179667138,-1.6100058923385652,0.8167746116803576,-80.82821655273438,5356.25390625,True
1599558711.6788177,0.0,10,0.5,0.5,-0.09519097442626953,-0.001,-0.00825,-0.5,-0.12844113429964732,10,1,100,-0.12911824254429727,-10,-1,-100,15032.89236046886,0.011448136755598236,-0.011933753948537736,0.9998632534909566,17.385128216100842,0.01091130179667138,-1.6100058923385652,0.8167746116803576,-80.82821655273438,5356.25390625,True
1599558711.7143075,0.0,10,0.5,0.5,0.1530915588378906,-0.001,-0.00825,-0.5,-0.21939526078834656,10,1,100,0.02819967503420663,-10,-1,-100,15032.941174404114,0.01002275276442199,-0.012755785326481984,0.9998684085257058,17.11344881729532,0.010761925248428082,-0.503641299023652,0.2595541707372391,-81.32003784179688,5356.25390625,True
1599558711.7452502,0.0,10,0.5,0.5,-0.09084349670410156,-0.001,-0.00825,-0.5,-0.13771633870750902,10,1,100,-0.1137283419173409,-10,-1,-100,15032.941174404114,0.01002275276442199,-0.012755785326481984,0.9998684085257058,17.11344881729532,0.010761925248428082,-0.503641299023652,0.2595541707372391,-81.32003784179688,5356.25390625,True
1599558711.7790785,0.0,10,0.5,0.5,0.15214779891967772,-0.001,-0.00825,-0.5,-0.21918765637427823,10,1,100,0.05604749483612051,-10,-1,-100,15032.936280125869,0.008484604808683517,-0.013492051446122305,0.9998729799474608,16.92960392672025,0.010665254474313051,0.571399736698623,-0.29766530743645814,-81.8013916015625,5356.25390625,True
1599558711.8120108,0.0,10,0.5,0.5,-0.08629890213012696,-0.001,-0.00825,-0.5,-0.146116715528544,10,1,100,-0.09703392431992353,-10,-1,-100,15032.936280125869,0.008484604808683517,-0.013492051446122305,0.9998729799474608,16.92960392672025,0.010665254474313051,0.571399736698623,-0.29766530743645814,-81.8013916015625,5356.25390625,True
1599558711.8473947,0.0,10,0.5,0.5,0.06608762359619141,-0.001,-0.00825,-0.5,-0.1917623530570582,10,1,100,0.019829483245784943,-10,-1,-100,15032.896233711974,0.007428271840994314,-0.013902704173332236,0.9998757600792837,16.903146025222465,0.010656708203241846,1.2824981778889872,-0.6691408307268376,-82.10162353515625,5356.25390625,True
1599558711.878431,0.0,10,0.5,0.5,0.12503548660278319,-0.001,-0.00825,-0.5,-0.2039958835899368,10,1,100,0.09014490632478563,-10,-1,-100,15032.82005152863,0.005835434411247926,-0.01438292290377182,0.999879532360762,16.869846629686613,0.010637906709295831,2.345889232855199,-1.226348424925655,-82.51473999023438,5356.25390625,True
1599558711.91274,0.0,10,0.5,0.5,-0.010290932464599611,-0.001,-0.00825,-0.5,-0.17177320657993939,10,1,100,-0.007044600770207965,-10,-1,-100,15032.799541212618,0.0052780357941453315,-0.01452281873629255,0.9998806079098187,16.858810970209863,0.010628202631072996,2.6994396871713855,-1.412083463796489,-82.65283203125,5356.25390625,True
1599558711.9467463,0.0,10,0.5,0.5,-0.008893287658691407,-0.001,-0.00825,-0.5,-0.17017404529423644,10,1,100,-0.0031315774235556593,-10,-1,-100,15032.76535791636,0.004743338001446771,-0.014631598535623794,0.9998817015371849,16.849442148311617,0.0106175523508491,3.0528342178156698,-1.597818418481122,-82.78912353515625,5356.25390625,True
1599558711.9806492,0.0,10,0.5,0.5,0.054818630218505845,-0.001,-0.00825,-0.5,-0.1786547418315464,10,1,100,0.06265665864853097,-10,-1,-100,15032.709688539035,0.0036668866784147452,-0.014803947934679958,0.9998836917700153,16.83497845693988,0.010592443017955167,3.7594184732899087,-1.9692894469759428,-83.04803466796875,5356.25390625,True
1599558712.0126219,0.0,10,0.5,0.5,0.11253138885498047,-0.001,-0.00825,-0.5,-0.17936954952016143,10,1,100,0.13941091821189505,-10,-1,-100,15032.564175467938,0.0019976024342433967,-0.01496451819100375,0.9998860298953204,16.810365022561964,0.010535422616195654,4.816252567775108,-2.5265043260891193,-83.41796875,5356.25390625,True
1599558712.0463512,0.0,10,0.5,0.5,-0.07029910659790038,-0.001,-0.00825,-0.5,-0.16361560031202876,10,1,100,-0.026572452773104313,-10,-1,-100,15032.564175467938,0.0019976024342433967,-0.01496451819100375,0.9998860298953204,16.810365022561964,0.010535422616195654,4.816252567775108,-2.5265043260891193,-83.41796875,5356.25390625,True
1599558712.0792627,0.0,10,0.5,0.5,0.10606614685058594,-0.001,-0.00825,-0.5,-0.1641067388888549,10,1,100,0.15145149756573595,-10,-1,-100,15032.404990094947,0.00038649847691773836,-0.014966975148188968,0.9998879138552685,16.780927931439106,0.010453874777796612,5.868410966059938,-3.0837376102942584,-83.76654052734375,5356.25390625,True
1599558712.1142416,0.0,10,0.5,0.5,-0.06620137710571289,-0.001,-0.00825,-0.5,-0.16408216215250382,10,1,100,-0.008695272738079449,-10,-1,-100,15032.404990094947,0.00038649847691773836,-0.014966975148188968,0.9998879138552685,16.780927931439106,0.010453874777796612,5.868410966059938,-3.0837376102942584,-83.76654052734375,5356.25390625,True
1599558712.1462288,0.0,10,0.5,0.5,0.1352511085510254,-0.001,-0.00825,-0.5,-0.14071684171914353,10,1,100,0.222266373032712,-10,-1,-100,15032.099321324611,-0.0017057909334242149,-0.014753222304520178,0.9998897102725504,16.766975265162372,0.010329334729816501,7.276721436668919,-3.826756332514282,-84.1654052734375,5356.25390625,True
1599558712.179267,0.0,10,0.5,0.5,-0.06223095321655274,-0.001,-0.00825,-0.5,-0.16221824317186237,10,1,100,0.014056471572727432,-10,-1,-100,15032.099321324611,-0.0017057909334242149,-0.014753222304520178,0.9998897102725504,16.766975265162372,0.010329334729816501,7.276721436668919,-3.826756332514282,-84.1654052734375,5356.25390625,True
1599558712.2123764,0.0,10,0.5,0.5,0.07907832565307617,-0.001,-0.00825,-0.5,-0.12733827554722507,10,1,100,0.1828409645686313,-10,-1,-100,15031.869827767368,-0.0032318917217738696,-0.014435358491449668,0.9998905816643749,16.789172606579967,0.010236133094803136,8.34786343866808,-4.384053798958648,-84.44406127929688,5356.25390625,True
1599558712.2473042,0.0,10,0.5,0.5,-0.05865798721313477,-0.001,-0.00825,-0.5,-0.15912990041304387,10,1,100,0.031137618346968016,-10,-1,-100,15031.869827767368,-0.0032318917217738696,-0.014435358491449668,0.9998905816643749,16.789172606579967,0.010236133094803136,8.34786343866808,-4.384053798958648,-84.44406127929688,5356.25390625,True
1599558712.2782881,0.0,10,0.5,0.5,0.12514475860595703,-0.001,-0.00825,-0.5,-0.09047668187886433,10,1,100,0.245513861315325,-10,-1,-100,15031.479200995178,-0.005173030360108097,-0.01381131783227062,0.9998912377136973,16.85594478475601,0.01011654696149485,9.802344326537513,-5.12715319676132,-84.8079833984375,5356.25390625,True
1599558712.3129003,0.0,10,0.5,0.5,-0.01116340637207032,-0.001,-0.00825,-0.5,-0.13155109095215117,10,1,100,0.10617081965606251,-10,-1,-100,15031.389356053318,-0.00566193204499905,-0.013618157570686233,0.9998912382403887,16.878267453497767,0.010087509661717089,10.171175228694368,-5.31293377770098,-84.89578247070312,5356.25390625,True
1599558712.346332,0.0,10,0.5,0.5,0.03489479904174805,-0.001,-0.00825,-0.5,-0.10500000776994109,10,1,100,0.15660037508246893,-10,-1,-100,15031.12568404025,-0.006556357881755053,-0.013202261840647602,0.9998913513245414,16.926623360489586,0.010029040784478844,10.914128469636362,-5.684501052920587,-85.07229614257812,5356.25390625,True
1599558712.3812592,0.0,10,0.5,0.5,-0.051997216796875,-0.001,-0.00825,-0.5,-0.1464133551387686,10,1,100,0.06801318743846849,-10,-1,-100,15031.12568404025,-0.006556357881755053,-0.013202261840647602,0.9998913513245414,16.926623360489586,0.010029040784478844,10.914128469636362,-5.684501052920587,-85.07229614257812,5356.25390625,True
1599558712.4129283,0.0,10,0.5,0.5,0.034177387237548824,-0.001,-0.00825,-0.5,-0.09434673611854846,10,1,100,0.16606103467182812,-10,-1,-100,15030.929395028506,-0.007439925619952869,-0.012730530991691379,0.9998912846342042,16.983924406458765,0.009972723134365521,11.667410757079848,-6.0560761487199155,-85.2415771484375,5356.25390625,True
1599558712.4461806,0.0,10,0.5,0.5,-0.007659296417236332,-0.001,-0.00825,-0.5,-0.11386746275242662,10,1,100,0.12393913368551643,-10,-1,-100,15030.770216284203,-0.007853127714714532,-0.012481179047635975,0.9998912683660545,17.015097264069798,0.00994500493095896,12.0476918489741,-6.241866364480986,-85.3245849609375,5356.25390625,True
1599558712.4795296,0.0,10,0.5,0.5,0.08124037857055663,-0.001,-0.00825,-0.5,-0.047116721676753515,10,1,100,0.21741458679087722,-10,-1,-100,15030.400098821847,-0.00907105225982693,-0.011649930357898174,0.9998909916253649,17.11756829750515,0.009863679840601334,13.20350419031297,-6.799246315340554,-85.58230590820312,5356.25390625,True
1599558712.5142515,0.0,10,0.5,0.5,0.038297474670410156,-0.001,-0.00825,-0.5,-0.06324572603394482,10,1,100,0.1790155659590511,-10,-1,-100,15030.066115355352,-0.009822478692070325,-0.011043698217698841,0.9998907718556165,17.193127802897553,0.009811477104900341,13.987297925433905,-7.170839718112811,-85.75146484375,5356.25390625,True
1599558712.5457234,0.0,10,0.5,0.5,-0.04497349395751954,-0.001,-0.00825,-0.5,-0.12349798764519598,10,1,100,0.10468459151057623,-10,-1,-100,15030.066115355352,-0.009822478692070325,-0.011043698217698841,0.9998907718556165,17.193127802897553,0.009811477104900341,13.987297925433905,-7.170839718112811,-85.75146484375,5356.25390625,True
1599558712.579712,0.0,10,0.5,0.5,0.0346921501159668,-0.001,-0.00825,-0.5,-0.05423517845209505,10,1,100,0.17955332697503013,-10,-1,-100,15029.800490314257,-0.010497112117228728,-0.01041711964346497,0.9998906411480867,17.289028834937074,0.009769522397059001,14.79500401021874,-7.5424372243478315,-85.9083251953125,5356.25390625,True
1599558712.61275,0.0,10,0.5,0.5,0.06328728332519531,-0.001,-0.00825,-0.5,-0.0038382487586748615,10,1,100,0.2170078666870482,-10,-1,-100,15029.3053746738,-0.011444306300758844,-0.009393001795901253,0.9998903936785053,17.454722069126458,0.009716258654981255,16.042068686679308,-8.09983915116461,-86.11953735351562,5356.25390625,True
1599558712.6477666,0.0,10,0.5,0.5,0.02649486465454101,-0.001,-0.00825,-0.5,-0.028368666987240665,10,1,100,0.1822125895570289,-10,-1,-100,15028.972367150942,-0.01198337006102182,-0.008689006023863353,0.9998904440068912,17.570667418032393,0.009682248395191806,16.890551392842912,-8.47144282609489,-86.25473022460938,5356.25390625,True
1599558712.6791086,0.0,10,0.5,0.5,0.021344969940185546,-0.001,-0.00825,-0.5,-0.019557252474197567,10,1,100,0.1806571923071969,-10,-1,-100,15028.619827596587,-0.012453541288066031,-0.007973387146025619,0.9998906612259193,17.69174257049158,0.009650020206216648,17.754122667044456,-8.84304754015077,-86.37713623046875,5356.25390625,True
1599558712.7118514,0.0,10,0.5,0.5,-0.03878153991699219,-0.001,-0.00825,-0.5,-0.09059625278850879,10,1,100,0.13422978794340684,-10,-1,-100,15028.619827596587,-0.012453541288066031,-0.007973387146025619,0.9998906612259193,17.69174257049158,0.009650020206216648,17.754122667044456,-8.84304754015077,-86.37713623046875,5356.25390625,True
1599558712.7458472,0.0,10,0.5,0.5,0.04387869338989258,-0.001,-0.00825,-0.5,0.03305979111945778,10,1,100,0.20152772634781763,-10,-1,-100,15028.058301391779,-0.01305997965228221,-0.006853994814766488,0.9998912239271635,17.8827980333003,0.009604819759421115,19.079022394173386,-9.400454572921195,-86.53997802734375,5356.25390625,True
1599558712.7799668,0.0,10,0.5,0.5,-0.03647102432250977,-0.001,-0.00825,-0.5,-0.0782917883887628,10,1,100,0.1414458953294327,-10,-1,-100,15028.058301391779,-0.01305997965228221,-0.006853994814766488,0.9998912239271635,17.8827980333003,0.009604819759421115,19.079022394173386,-9.400454572921195,-86.53997802734375,5356.25390625,True
1599558712.8129907,0.0,10,0.5,0.5,0.01862524185180664,-0.001,-0.00825,-0.5,0.008950732403023562,10,1,100,0.17961510887189855,-10,-1,-100,15027.708690367523,-0.013402239000906839,-0.0060659966114164935,0.9998917859822996,18.01391889470003,0.009575487862170006,19.980105639185027,-9.772058479959563,-86.64794921875,5356.25390625,True
1599558712.84631,0.0,10,0.5,0.5,0.044778567504882814,-0.001,-0.00825,-0.5,0.05881055104330837,10,1,100,0.18683119229504105,-10,-1,-100,15027.073922178242,-0.013775047179193178,-0.004901439833228893,0.9998931062682513,18.21334163468218,0.00953183635227398,21.356043809062424,-10.329460853288492,-86.80615234375,5356.25390625,True
1599558712.879735,0.0,10,0.5,0.5,-0.007476345825195317,-0.001,-0.00825,-0.5,-0.013904080873324766,10,1,100,0.1604377596451545,-10,-1,-100,15026.899115513428,-0.013870430164011679,-0.004509377832649984,0.9998936326823106,18.280642569181882,0.009517457132494208,21.821384414003905,-10.51526036278293,-86.85800170898438,5356.25390625,True
1599558712.9151213,0.0,10,0.5,0.5,0.017385582733154298,-0.001,-0.00825,-0.5,0.033202742641880036,10,1,100,0.16696407898097052,-10,-1,-100,15026.425479288911,-0.014012792188288697,-0.003730654273244613,0.9998948564093033,18.41647747839068,0.009489076058809602,22.762262815734992,-10.88685709349581,-86.95755004882812,5356.25390625,True
1599558712.9466166,0.0,10,0.5,0.5,0.01647015686035156,-0.001,-0.00825,-0.5,0.044581910898772954,10,1,100,0.16337875148235784,-10,-1,-100,15026.00653005275,-0.014106422251215816,-0.0029253553854227225,0.999896220188445,18.554134875675885,0.009461348438000332,23.717145309657266,-11.258450042624817,-87.0533447265625,5356.25390625,True
1599558712.9793303,0.0,10,0.5,0.5,-0.03065679092407227,-0.001,-0.00825,-0.5,-0.03530121324236825,10,1,100,0.15428195678469162,-10,-1,-100,15026.00653005275,-0.014106422251215816,-0.0029253553854227225,0.999896220188445,18.554134875675885,0.009461348438000332,23.717145309657266,-11.258450042624817,-87.0533447265625,5356.25390625,True
1599558713.0125794,0.0,10,0.5,0.5,0.03975188293457031,-0.001,-0.00825,-0.5,0.0940248834691165,10,1,100,0.15678303941174943,-10,-1,-100,15025.302423430141,-0.01412722931856162,-0.00175490327953508,0.9998986657188119,18.76163764106059,0.00942003653988828,25.17303132665977,-11.815831137393955,-87.19256591796875,5356.25390625,True
1599558713.048851,0.0,10,0.5,0.5,0.017691030883789063,-0.001,-0.00825,-0.5,0.06649106374407314,10,1,100,0.1491653481746859,-10,-1,-100,15024.81218379899,-0.014075371561238595,-0.0009468165297435177,0.9999004887756942,18.90047294578285,0.009392695699415017,26.159197338807516,-12.187412239817698,-87.2861328125,5356.25390625,True
1599558713.0790658,0.0,10,0.5,0.5,-0.028342494201660157,-0.001,-0.00825,-0.5,-0.013614954173454876,10,1,100,0.15451330693430562,-10,-1,-100,15024.81218379899,-0.014075371561238595,-0.0009468165297435177,0.9999004887756942,18.90047294578285,0.009392695699415017,26.159197338807516,-12.187412239817698,-87.2861328125,5356.25390625,True
1599558713.1132648,0.0,10,0.5,0.5,0.0183550537109375,-0.001,-0.00825,-0.5,0.06929163372845416,10,1,100,0.1422680629783251,-10,-1,-100,15024.33854596701,-0.013963128078085175,-0.00019849043816709273,0.9999024910739152,19.03861591982799,0.00936521550454902,27.156335156776677,-12.558987933004474,-87.37811279296875,5356.25390625,True
1599558713.1464581,0.0,10,0.5,0.5,0.03710343017578125,-0.001,-0.00825,-0.5,0.12128741022396057,10,1,100,0.1243964153355423,-10,-1,-100,15023.550450552953,-0.013697797979896948,0.0009484444274282614,0.999905730948508,19.246910702842417,0.009325066238861862,28.67598427982877,-13.116340062894622,-87.50595092773438,5356.25390625,True
1599558713.1803677,0.0,10,0.5,0.5,-0.004916806793212887,-0.001,-0.00825,-0.5,0.04731864490705305,10,1,100,0.13842054696211376,-10,-1,-100,15023.250643905834,-0.013583812215441035,0.001312292401416838,0.9999068746310072,19.316162378535584,0.009311734589972233,29.188252269030666,-13.302120852936978,-87.54824829101562,5356.25390625,True
1599558713.2133949,0.0,10,0.5,0.5,0.0151857177734375,-0.001,-0.00825,-0.5,0.08928978958971676,10,1,100,0.12073005780092169,-10,-1,-100,15022.704739318462,-0.013319540014437326,0.002018970300126445,0.9999092526888282,19.45456433161662,0.00928542756593313,30.22159943274655,-13.673677268760608,-87.62936401367188,5356.25390625,True
1599558713.2463179,0.0,10,0.5,0.5,-0.024735769653320316,-0.001,-0.00825,-0.5,0.01927483453203368,10,1,100,0.14710218888633522,-10,-1,-100,15022.704739318462,-0.013319540014437326,0.002018970300126445,0.9999092526888282,19.45456433161662,0.00928542756593313,30.22159943274655,-13.673677268760608,-87.62936401367188,5356.25390625,True
1599558713.2792318,0.0,10,0.5,0.5,0.01291033477783203,-0.001,-0.00825,-0.5,0.09635996953456741,10,1,100,0.11244646760098873,-10,-1,-100,15022.161763952812,-0.013005118232001314,0.002714517323264596,0.9999117452532865,19.593112703171748,0.009259608538083034,31.267136041874796,-14.04522623556944,-87.70339965820312,5356.25390625,True
1599558713.315936,0.0,10,0.5,0.5,0.02980377731323242,-0.001,-0.00825,-0.5,0.1367725401810931,10,1,100,0.08242390025719294,-10,-1,-100,15021.288706093328,-0.012447349003042445,0.0037090926477143424,0.9999156495097611,19.800185544754562,0.00922138691881748,32.85665636626109,-14.60253528606685,-87.8099365234375,5356.25390625,True
1599558713.3466477,0.0,10,0.5,0.5,0.012569567108154298,-0.001,-0.00825,-0.5,0.10566683785816222,10,1,100,0.09172446010195198,-10,-1,-100,15020.72912823793,-0.012026344860075986,0.004324441605157343,0.9999183297820428,19.93682755364312,0.009195862841728079,33.92887505906304,-14.974064481097871,-87.880615234375,5356.25390625,True
1599558713.379826,0.0,10,0.5,0.5,-0.005292174530029298,-0.001,-0.00825,-0.5,0.07679949255753189,10,1,100,0.10923417829248849,-10,-1,-100,15020.429320938769,-0.011804702972255433,0.004615892659295529,0.999919668034735,20.004737409293604,0.00918314499748961,34.46871360266052,-15.15982591197766,-87.91436767578125,5356.25390625,True
1599558713.4131312,0.0,10,0.5,0.5,0.009815291595458984,-0.001,-0.00825,-0.5,0.11058864958756812,10,1,100,0.0788165344757323,-10,-1,-100,15019.814079648,-0.01132875055643804,0.005182965309522355,0.9999223951294572,20.140036406249703,0.009157879617390063,35.55629982685652,-15.531342098045737,-87.9771728515625,5356.25390625,True
1599558713.4488838,0.0,10,0.5,0.5,0.009744896697998044,-0.001,-0.00825,-0.5,0.11451129610692767,10,1,100,0.06913682867465207,-10,-1,-100,15019.18711923936,-0.010810566144780409,0.0057285737945961335,0.9999251547500488,20.274492049090007,0.009132724485275811,36.65409498084638,-15.902849347303581,-88.03857421875,5356.25390625,True
1599558713.4795673,0.0,10,0.5,0.5,0.010167707061767575,-0.001,-0.00825,-0.5,0.11483413128256029,10,1,100,0.06133639395795748,-10,-1,-100,15018.503518041107,-0.010271442329424707,0.006222128133320989,0.9999278886969629,20.407504456985354,0.009107507305170662,37.76089072752539,-16.274347527080025,-88.099609375,5356.25390625,True
1599558713.514611,0.0,10,0.5,0.5,-0.004953028869628909,-0.001,-0.00825,-0.5,0.09179184333556957,10,1,100,0.08401775635671951,-10,-1,-100,15018.189060706529,-0.009990638842408698,0.00645654429291104,0.9999292475827047,20.473287290881295,0.009094857422125954,38.31726786031675,-16.460093129740915,-88.12936401367188,5356.25390625,True
1599558713.5463076,0.0,10,0.5,0.5,0.009698754882812497,-0.001,-0.00825,-0.5,0.1174621206600106,10,1,100,0.047657782028154426,-10,-1,-100,15017.505459879292,-0.009408084245200855,0.006898339457404646,0.9999319481162532,20.60388035195606,0.009069549073432055,39.436739449087696,-16.8315771435314,-88.18734741210938,5356.25390625,True
1599558713.5828133,0.0,10,0.5,0.5,-0.018832608032226562,-0.001,-0.00825,-0.5,0.0737705411263778,10,1,100,0.10552209617201508,-10,-1,-100,15017.505459879292,-0.009408084245200855,0.006898339457404646,0.9999319481162532,20.60388035195606,0.009069549073432055,39.436739449087696,-16.8315771435314,-88.18734741210938,5356.25390625,True
1599558713.6128182,0.0,10,0.5,0.5,-0.003985034179687503,-0.001,-0.00825,-0.5,0.09756229002192647,10,1,100,0.07156883149574982,-10,-1,-100,15017.189051052206,-0.009102974071570477,0.007110192293584836,0.9999332882890741,20.668706972306165,0.009056945461572277,39.9998259919272,-17.017315501160176,-88.216064453125,5356.25390625,True
1599558713.6468,0.0,10,0.5,0.5,0.011129076385498045,-0.001,-0.00825,-0.5,0.11943442432749002,10,1,100,0.03348283374776639,-10,-1,-100,15016.507403453928,-0.008482912247070675,0.007497627297462567,0.9999359108386481,20.79680123596027,0.009031574864760175,41.13138148609517,-17.388784889435417,-88.2740478515625,5356.25390625,True
1599558713.6807094,0.0,10,0.5,0.5,0.012716649627685546,-0.001,-0.00825,-0.5,0.12140892707732175,10,1,100,0.0220671377560247,-10,-1,-100,15015.75349034986,-0.007819044658287724,0.007864346839941022,0.9999385054039138,20.92279375368073,0.00900604416265138,42.269852561340066,-17.760244219909985,-88.33432006835938,5356.25390625,True
1599558713.7157373,0.0,10,0.5,0.5,0.014787184143066404,-0.001,-0.00825,-0.5,0.12047651686436761,10,1,100,0.01369889145676928,-10,-1,-100,15015.053288333002,-0.007143278520493435,0.008186033690044777,0.9999409794704905,21.046149111997675,0.008980318270485317,43.4138754108428,-18.131693655966668,-88.39785766601562,5356.25390625,True
1599558713.7356834,0.0,10,0.5,0.5,-0.0005901206970214852,-0.001,-0.00825,-0.5,0.10463719412193284,10,1,100,0.04320887475347081,-10,-1,-100,15014.669495395501,-0.006801455901970243,0.00833123685517992,0.9999421636725179,21.106676202818246,0.008967358332600987,43.9875292289858,-18.317414575030963,-88.42977905273438,5356.25390625,True
1599558713.7799678,0.0,10,0.5,0.5,0.03008802795410156,-0.001,-0.00825,-0.5,0.1325894605179837,10,1,100,-0.039047026406864624,-10,-1,-100,15013.588432572316,-0.005747042869722899,0.00871448918022537,0.9999455131038798,21.285465909359417,0.00892894349663946,45.71837856989523,-18.87456239088543,-88.52212524414062,5356.25390625,True
1599558713.813973,0.0,10,0.5,0.5,0.0134705696105957,-0.001,-0.00825,-0.5,0.1174795832637167,10,1,100,-0.013528509212580905,-10,-1,-100,15012.77885712951,-0.005025075290605217,0.008922823395786416,0.9999475645457473,21.402683648160483,0.008903840324418683,46.88100057956268,-19.245981660214934,-88.580322265625,5356.25390625,True
1599558713.849491,0.0,10,0.5,0.5,0.013344361114501952,-0.001,-0.00825,-0.5,0.11483923201246128,10,1,100,-0.020665927593092576,-10,-1,-100,15012.01029757713,-0.004308624930710691,0.009085759766500985,0.9999494410822339,21.51816223598756,0.008879061290312528,48.05002285911079,-19.617391090337012,-88.63735961914062,5356.25390625,True
1599558713.880411,0.0,10,0.5,0.5,0.011909331512451172,-0.001,-0.00825,-0.5,0.11247562411960982,10,1,100,-0.02878163299864269,-10,-1,-100,15011.241738229874,-0.0035886927488576648,0.009210006199512316,0.9999511473417885,21.632237368949152,0.008854715831960226,49.22599505098866,-19.988790511272192,-88.69058227539062,5356.25390625,True
1599558713.9134502,0.0,10,0.5,0.5,-0.014286827850341795,-0.001,-0.00825,-0.5,0.10028214749268745,10,1,100,0.04262964603702564,-10,-1,-100,15011.241738229874,-0.0035886927488576648,0.009210006199512316,0.9999511473417885,21.632237368949152,0.008854715831960226,49.22599505098866,-19.988790511272192,-88.69058227539062,5356.25390625,True
1599558713.9468038,0.0,10,0.5,0.5,-0.001150955963134765,-0.001,-0.00825,-0.5,0.10559751493786099,10,1,100,0.002676374565445637,-10,-1,-100,15010.802282208693,-0.003230771545930886,0.009256226206521069,0.9999519410409841,21.688724039759233,0.00884266305020084,49.81647748475322,-20.17448641827949,-88.71597290039062,5356.25390625,True
1599558713.982812,0.0,10,0.5,0.5,0.01089144287109375,-0.001,-0.00825,-0.5,0.10802195171509969,10,1,100,-0.040121149691574806,-10,-1,-100,15010.032747142133,-0.002521658597775119,0.009318333789128526,0.999953403861055,21.801083436007335,0.0088189414243513,51.00346549476207,-20.545870797886664,-88.7645263671875,5356.25390625,True
1599558714.013398,0.0,10,0.5,0.5,-0.0008103576660156257,-0.001,-0.00825,-0.5,0.10408652565166052,10,1,100,-0.010190598155006128,-10,-1,-100,15009.579621326062,-0.0021545257076471327,0.009337363439566163,0.9999540847773825,21.8568927125043,0.008807225105083426,51.59979803030638,-20.731559256545292,-88.788818359375,5356.25390625,True
1599558714.0463831,0.0,10,0.5,0.5,0.012860013580322266,-0.001,-0.00825,-0.5,0.10294669064057649,10,1,100,-0.05310975908881295,-10,-1,-100,15008.755399211193,-0.0014357439071785748,0.009342961879318136,0.9999553228533535,21.96740926236891,0.008783963411957176,52.79719741000875,-21.10292865174011,-88.839599609375,5356.25390625,True
1599558714.079575,0.0,10,0.5,0.5,0.025659570312499998,-0.001,-0.00825,-0.5,0.09537421290537984,10,1,100,-0.09758384303159948,-10,-1,-100,15007.464378698962,-0.00038318472055756734,0.009278158910418803,0.9999568835388369,22.1551384547892,0.008759414267974008,54.66576626860581,-21.6599634157116,-88.91510009765625,5356.25390625,True
1599558714.0994887,0.0,10,0.5,0.5,-0.011690283966064455,-0.001,-0.00825,-0.5,0.10194920200083704,10,1,100,0.007030248512360015,-10,-1,-100,15007.464378698962,-0.00038318472055756734,0.009278158910418803,0.9999568835388369,22.1551384547892,0.008759414267974008,54.66576626860581,-21.6599634157116,-88.91510009765625,5356.25390625,True
1599558714.1476502,0.0,10,0.5,0.5,0.013586068725585937,-0.001,-0.00825,-0.5,0.09226979813310571,10,1,100,-0.06979862286928075,-10,-1,-100,15006.571798362304,0.0003103833300490166,0.009189651902775615,0.9999577260865053,22.278177153250684,0.008743237119575585,55.919946528987424,-22.031307055656498,-88.96490478515625,5356.25390625,True
1599558714.181529,0.0,10,0.5,0.5,0.034364378356933595,-0.001,-0.00825,-0.5,0.06979291855410334,10,1,100,-0.14816887245753335,-10,-1,-100,15004.770037064329,0.001648506137202158,0.008904613146466341,0.9999589943053803,22.521491235198816,0.008712128847497775,58.45369317115621,-22.77396285914966,-89.05545043945312,5356.25390625,True
1599558714.2144744,0.0,10,0.5,0.5,-0.010563523864746096,-0.001,-0.00825,-0.5,0.09827867952302723,10,1,100,-0.01495230484901048,-10,-1,-100,15004.770037064329,0.001648506137202158,0.008904613146466341,0.9999589943053803,22.521491235198816,0.008712128847497775,58.45369317115621,-22.77396285914966,-89.05545043945312,5356.25390625,True
1599558714.2503457,0.0,10,0.5,0.5,0.0009904220581054678,-0.001,-0.00825,-0.5,0.08814628620454787,10,1,100,-0.04993366199291756,-10,-1,-100,15004.314959466457,0.0019617573849776224,0.008812778109982934,0.9999592423943822,22.581587300890956,0.00870452103309926,59.09193038459265,-22.95962036538789,-89.07791137695312,5356.25390625,True
1599558714.2812629,0.0,10,0.5,0.5,0.011163453674316405,-0.001,-0.00825,-0.5,0.07459807312880087,10,1,100,-0.08557605132611792,-10,-1,-100,15003.405778467539,0.0025655071040445615,0.008606487256208982,0.9999596724620488,22.70078825803429,0.008689474440849203,60.373741194125216,-23.330927152552636,-89.1199951171875,5356.25390625,True
1599558714.342098,0.0,10,0.5,0.5,0.021431037139892577,-0.001,-0.00825,-0.5,0.05335791049006563,10,1,100,-0.12674289994631305,-10,-1,-100,15001.974136200733,0.0034833452191526657,0.008226448400562626,0.9999600951301993,22.878422325466115,0.008667650064159857,62.313076711758,-23.887868051216344,-89.18182373046875,5356.25390625,True
1599558714.3859832,0.0,10,0.5,0.5,0.011761483001708983,-0.001,-0.00825,-0.5,0.05957969226745228,10,1,100,-0.09765977204615592,-10,-1,-100,15000.995619829046,0.004047892339415943,0.007938512807395421,0.9999602965028239,22.994948081944592,0.008653213494820466,63.61384866019404,-24.259148849376267,-89.22354125976562,5356.25390625,True
1599558714.4159007,0.0,10,0.5,0.5,0.019806500244140622,-0.001,-0.00825,-0.5,0.03625869631281432,10,1,100,-0.12666592562803206,-10,-1,-100,14999.509292011964,0.0048191707376295575,0.007466015805503228,0.9999605163212163,23.168630117939635,0.008632358839358008,65.58128756091213,-24.816050182772063,-89.280517578125,5356.25390625,True
1599558714.449811,0.0,10,0.5,0.5,-0.008317901611328126,-0.001,-0.00825,-0.5,0.08332070189465218,10,1,100,-0.050163577271151435,-10,-1,-100,14999.509292011964,0.0048191707376295575,0.007466015805503228,0.9999605163212163,23.168630117939635,0.008632358839358008,65.58128756091213,-24.816050182772063,-89.280517578125,5356.25390625,True
1599558714.4817588,0.0,10,0.5,0.5,0.015238603210449219,-0.001,-0.00825,-0.5,0.02565859111716657,10,1,100,-0.12653186103336153,-10,-1,-100,14998.008314182633,0.005508698448687661,0.006943462201257827,0.9999607205155917,23.34380067047166,0.008613114311781444,67.57622284012596,-25.372927800617813,-89.32693481445312,5356.25390625,True
1599558714.5156338,0.0,10,0.5,0.5,-0.000398409271240234,-0.001,-0.00825,-0.5,0.0566356518082865,10,1,100,-0.08257412639330476,-10,-1,-100,14997.483900640975,0.005730569795495198,0.006752145564325972,0.9999607837810925,23.402755896498658,0.008607040769777929,68.2480504382452,-25.55854837387298,-89.34136962890625,5356.25390625,True
1599558714.5525382,0.0,10,0.5,0.5,0.007219608306884765,-0.001,-0.00825,-0.5,0.03323534774967664,10,1,100,-0.10446640321317419,-10,-1,-100,14996.45069731574,0.006126364275986821,0.00636770722689006,0.999960959220624,23.519900838847633,0.00859477284450675,69.59732303927727,-25.92978152664184,-89.370361328125,5356.25390625,True
1599558714.5824573,0.0,10,0.5,0.5,0.006422860717773437,-0.001,-0.00825,-0.5,0.02708547588252011,10,1,100,-0.10481102377208683,-10,-1,-100,14995.403821543674,0.006485239574115879,0.005964616181264695,0.9999611817573103,23.637042601452478,0.008582698646956759,70.95704026134679,-26.301004137885638,-89.39718627929688,5356.25390625,True
1599558714.6163661,0.0,10,0.5,0.5,-0.006707682800292969,-0.001,-0.00825,-0.5,0.06710058074853645,10,1,100,-0.06940716730287234,-10,-1,-100,14995.403821543674,0.006485239574115879,0.005964616181264695,0.9999611817573103,23.637042601452478,0.008582698646956759,70.95704026134679,-26.301004137885638,-89.39718627929688,5356.25390625,True
1599558714.64931,0.0,10,0.5,0.5,0.01237685546875,-0.001,-0.00825,-0.5,-0.0023357452628658404,10,1,100,-0.12112175523983151,-10,-1,-100,14993.815929263714,0.006951259935189019,0.005335966092005327,0.999961602988424,23.813234065472002,0.008565013703810218,73.01770728700501,-26.85781784580067,-89.43475341796875,5356.25390625,True
1599558714.6862125,0.0,10,0.5,0.5,-0.006147038269042969,-0.001,-0.00825,-0.5,0.060202211546650584,10,1,100,-0.07495829441563201,-10,-1,-100,14993.815929263714,0.006951259935189019,0.005335966092005327,0.999961602988424,23.813234065472002,0.008565013703810218,73.01770728700501,-26.85781784580067,-89.43475341796875,5356.25390625,True
1599558714.7171319,0.0,10,0.5,0.5,0.005987287902832031,-0.001,-0.00825,-0.5,0.011112628578268988,10,1,100,-0.10502724691878101,-10,-1,-100,14992.713389259297,0.0072214613991121585,0.004892324867118728,0.9999619571026969,23.9313820033765,0.008553518411703017,74.40675392834841,-27.229013655336576,-89.45855712890625,5356.25390625,True
1599558714.749013,0.0,10,0.5,0.5,0.010883507537841796,-0.001,-0.00825,-0.5,-0.01849101639904173,10,1,100,-0.11361838826292867,-10,-1,-100,14991.072763396776,0.007542315315752995,0.0042226598791919746,0.9999626406137495,24.109354558377632,0.008536542612134487,76.5125424358622,-27.785787004669004,-89.49169921875,5356.25390625,True
1599558714.7829223,0.0,10,0.5,0.5,0.0001437309265136721,-0.001,-0.00825,-0.5,0.022044406480721635,10,1,100,-0.09218070449420142,-10,-1,-100,14990.533699140418,0.0076366370742761225,0.00398532587628033,0.9999628987876779,24.168904122110145,0.008530927128673434,77.22050909157679,-27.97137271711904,-89.50299072265625,5356.25390625,True
1599558714.8188617,0.0,10,0.5,0.5,0.010689423370361328,-0.001,-0.00825,-0.5,-0.030435563907434134,10,1,100,-0.1056298967464637,-10,-1,-100,14988.8217834495,0.007842088178557126,0.0032956413154948943,0.9999638195461471,24.34779711314406,0.008514101145911265,79.36123261126036,-28.52811353116285,-89.53494262695312,5356.25390625,True
