Timestamp,Input Throttle,horizon,dT,dt,Input Roll,Roll P,Roll I,Roll D,Input Pitch,Pitch P,Pitch I,Pitch D,Input Yaw,Yaw P,Yaw I,Yaw D,Altitude,Direction X,Direction Y,Direction Z,Drag X,Drag Y,Drag Z,Vertical Velocity,Roll,Mass,Has Fuel
1599558752.1856048,0.0,10,0.5,0.5,-0.058209411621093755,-0.001,-0.0155,-0.001,-0.0002725054035107492,10,1,100,0.17493940087186613,-10,-1,-100,14994.501744145644,-0.016809793891736806,-7.491967875091321e-05,0.9998587026257055,28.57650536966765,0.027199654223243993,-86.69264740779532,26.823329560499666,-31.791717529296875,5356.25390625,True
1599558752.2187555,0.0,10,0.5,0.5,-0.14843350067138672,-0.001,-0.0155,-0.001,-0.00025118114279710536,10,1,100,0.17773273302798887,-10,-1,-100,14995.524208366522,-0.016882101298295416,-7.032415500012123e-05,0.9998574846998282,28.43141980524929,0.027525571300175144,-85.05970450900693,26.45140624952537,-31.79052734375,5356.25390625,True
1599558752.2377417,0.0,10,0.5,0.5,-0.2386557113647461,-0.001,-0.0155,-0.001,0.0034815709571621354,10,1,100,0.1783173651393516,-10,-1,-100,14996.60233632091,-0.016937802776817182,-3.214836508613531e-05,0.999856544612064,28.286481195272525,0.027845456794917726,-83.43936882691617,26.079498549073882,-31.791168212890625,5356.25390625,True
1599558752.2870302,0.0,10,0.5,0.5,-0.32888004150390626,-0.001,-0.0155,-0.001,-0.0003392228707450701,10,1,100,0.17444099756485676,-10,-1,-100,14996.60233632091,-0.016937802776817182,-3.214836508613531e-05,0.999856544612064,28.286481195272525,0.027845456794917726,-83.43936882691617,26.079498549073882,-31.791168212890625,5356.25390625,True
1599558752.3179727,0.0,10,0.5,0.5,-0.41905246124267576,-0.001,-0.0155,-0.001,0.00788676284513048,10,1,100,0.18025652479322285,-10,-1,-100,14997.624799539102,-0.016975273203641585,4.266254902644799e-05,0.9998559087586414,28.1440287057975,0.028161130032718328,-81.83841985414188,25.707606558256288,-31.816802978515625,5356.25390625,True
1599558752.3521225,0.0,10,0.5,0.5,-0.5089793975830078,-0.001,-0.0155,-0.001,0.02054996653229632,10,1,100,0.1800545198865644,-10,-1,-100,14999.129684207612,-0.016992068753236292,0.00022575372033118912,0.9998555988915315,27.94021809817265,0.028629378182693288,-79.48746582443518,25.149797201167015,-31.9581298828125,5356.25390625,True
1599558752.3855674,0.0,10,0.5,0.5,-0.5990856231689453,-0.001,-0.0155,-0.001,0.0022634247738553244,10,1,100,0.18007417180241736,-10,-1,-100,14999.129684207612,-0.016992068753236292,0.00022575372033118912,0.9998555988915315,27.94021809817265,0.028629378182693288,-79.48746582443518,25.149797201167015,-31.9581298828125,5356.25390625,True
1599558752.4213083,0.0,10,0.5,0.5,-0.6883668060302734,-0.001,-0.0155,-0.001,0.03516062756490486,10,1,100,0.17584756377614458,-10,-1,-100,15000.618939185282,-0.016938197708676325,0.0005246139695949747,0.9998564008089186,27.753995584378867,0.02909181618939285,-77.2110559733724,24.592021199471343,-32.29998779296875,5356.25390625,True
1599558752.4524882,0.0,10,0.5,0.5,-0.7781436828613281,-0.001,-0.0155,-0.001,0.005327064035485797,10,1,100,0.18292848800300895,-10,-1,-100,15000.618939185282,-0.016938197708676325,0.0005246139695949747,0.9998564008089186,27.753995584378867,0.02909181618939285,-77.2110559733724,24.592021199471343,-32.29998779296875,5356.25390625,True
1599558752.485683,0.0,10,0.5,0.5,-0.8667957427978515,-0.001,-0.0155,-0.001,0.03451369794548702,10,1,100,0.1763204057900189,-10,-1,-100,15001.627725094673,-0.016862725872459437,0.0007894700833498995,0.9998575024537937,27.642470051375856,0.02939570192839569,-75.74102487180143,24.220188255510223,-32.69146728515625,5356.25390625,True
1599558752.5194728,0.0,10,0.5,0.5,-0.9541817687988281,-0.001,-0.0155,-0.001,0.061621530272568836,10,1,100,0.1649982924885636,-10,-1,-100,15003.048617628985,-0.016675857058728618,0.001275965507842984,0.9998601340704507,27.497406985350324,0.029839552005031134,-73.6129540908042,23.662464149241202,-33.608306884765625,5356.25390625,True
1599558752.5546918,0.0,10,0.5,0.5,-0.952282894897461,-0.001,-0.0155,-0.001,0.013107076341919767,10,1,100,0.18367178017834465,-10,-1,-100,15003.048617628985,-0.016675857058728618,0.001275965507842984,0.9998601340704507,27.497406985350324,0.029839552005031134,-73.6129540908042,23.662464149241202,-33.608306884765625,5356.25390625,True
1599558752.5858326,0.0,10,0.5,0.5,-0.9454960372924806,-0.001,-0.0155,-0.001,0.10182752975329855,10,1,100,0.14059502277314065,-10,-1,-100,15004.866964173736,-0.016284437667990006,0.00208129118461657,0.9998652335774268,27.345646258017528,0.030382302965220466,-70.91177765011129,22.918876087423047,-35.59295654296875,5356.25390625,True
1599558752.6198263,0.0,10,0.5,0.5,-0.9415879150390626,-0.001,-0.0155,-0.001,0.02150630603091021,10,1,100,0.17967162533611913,-10,-1,-100,15004.866964173736,-0.016284437667990006,0.00208129118461657,0.9998652335774268,27.345646258017528,0.030382302965220466,-70.91177765011129,22.918876087423047,-35.59295654296875,5356.25390625,True
1599558752.6528676,0.0,10,0.5,0.5,-0.9343866714477539,-0.001,-0.0155,-0.001,0.04769365782193684,10,1,100,0.1664661736229876,-10,-1,-100,15005.35133407975,-0.01616498207524229,0.0023174367103989007,0.9998666525300263,27.313975601630798,0.03050230526439141,-70.25655241007472,22.732986484417307,-36.2471923828125,5356.25390625,True
1599558752.688549,0.0,10,0.5,0.5,-0.9251651367187499,-0.001,-0.0155,-0.001,0.07711635585279292,10,1,100,0.1469007198408364,-10,-1,-100,15006.22144300933,-0.0158792549484779,0.0027975255576075542,0.9998700031069218,27.254300311100266,0.03071165102341391,-68.95931591762586,22.361215873358034,-37.75152587890625,5356.25390625,True
1599558752.718622,0.0,10,0.5,0.5,-0.9141624237060547,-0.001,-0.0155,-0.001,0.08843917692508979,10,1,100,0.13984278591090954,-10,-1,-100,15007.102293013944,-0.015556351628242536,0.0033345667267842324,0.9998734322846884,27.19452690118548,0.03086654393171057,-67.66677906824556,21.989456581010185,-39.515167236328125,5356.25390625,True
1599558752.752651,0.0,10,0.5,0.5,-0.9001688949584961,-0.001,-0.0155,-0.001,0.09647067432726389,10,1,100,0.13040351930692368,-10,-1,-100,15007.984118942986,-0.015178296838105964,0.0038929733905951106,0.9998772244947248,27.1272647581153,0.030948345327791806,-66.36087844286925,21.61770897427899,-41.53704833984375,5356.25390625,True
1599558752.820469,0.0,10,0.5,0.5,-0.8808496505737303,-0.001,-0.0155,-0.001,0.13739522274024876,10,1,100,0.0948643975297716,-10,-1,-100,15009.24972908129,-0.014513127649890035,0.004769595016522135,0.9998833032355308,26.993484867610515,0.030890965690300108,-64.33414267946705,21.06011058467851,-45.04888916015625,5356.25390625,True
1599558752.8525438,0.0,10,0.5,0.5,-0.8620076766967774,-0.001,-0.0155,-0.001,0.08304936125284659,10,1,100,0.1338214559278319,-10,-1,-100,15009.664761873544,-0.014264788073365908,0.005068611407436749,0.9998854059339112,26.935546781877534,0.03081415826185015,-63.6307655449596,20.874251313972692,-46.34539794921875,5356.25390625,True
1599558752.8866487,0.0,10,0.5,0.5,-0.8305319503784179,-0.001,-0.0155,-0.001,0.18490436216318898,10,1,100,0.033669858709009154,-10,-1,-100,15011.329778221902,-0.013130917517990216,0.006262508915340341,0.9998941743940811,26.601117868555917,0.03016047133570145,-60.6076197443329,20.130853610149327,-52.14971923828125,5356.25390625,True
1599558752.919508,0.0,10,0.5,0.5,-0.8043916381835936,-0.001,-0.0155,-0.001,0.099764201513426,10,1,100,0.11173001355078203,-10,-1,-100,15011.72821068333,-0.01281298654761092,0.006569335604429854,0.9998963302290128,26.48479431279633,0.029902237484675614,-59.786762624642904,19.945015479929527,-53.75244140625,5356.25390625,True
1599558752.9543886,0.0,10,0.5,0.5,-0.7680041671752931,-0.001,-0.0155,-0.001,0.13213733732251998,10,1,100,0.06898477875795721,-10,-1,-100,15012.470386500587,-0.01213887704961417,0.00713775803814246,0.9999008451212366,26.203013758720747,0.029264771530678007,-58.05088103149376,19.573355154553713,-57.135833740234375,5356.25390625,True
1599558752.9853094,0.0,10,0.5,0.5,-0.7344418395996093,-0.001,-0.0155,-0.001,0.10770202424604916,10,1,100,0.09654294631275954,-10,-1,-100,15012.87077075988,-0.011780347720677486,0.0074277697073191614,0.9999030211199259,26.0346484895066,0.028885166844534432,-57.13154426990677,19.387533837048284,-58.9129638671875,5356.25390625,True
1599558753.0192869,0.0,10,0.5,0.5,-0.6926320404052734,-0.001,-0.0155,-0.001,0.13974882002321345,10,1,100,0.04921004050423633,-10,-1,-100,15013.667634008569,-0.011028207450609666,0.007977890751342472,0.9999073616588618,25.634961776262884,0.028006503648282586,-55.17862732583261,19.015911165928824,-62.6334228515625,5356.25390625,True
1599558753.0382361,0.0,10,0.5,0.5,-0.6554538421630859,-0.001,-0.0155,-0.001,0.08530276102497673,10,1,100,0.12391039004855514,-10,-1,-100,15013.667634008569,-0.011028207450609666,0.007977890751342472,0.9999073616588618,25.634961776262884,0.028006503648282586,-55.17862732583261,19.015911165928824,-62.6334228515625,5356.25390625,True
1599558753.0884528,0.0,10,0.5,0.5,-0.6049363403320313,-0.001,-0.0155,-0.001,0.16951820638296558,10,1,100,-0.009764381166713645,-10,-1,-100,15014.753556220443,-0.009817392300923466,0.008738776286238975,0.9999136225681842,24.857493082996083,0.026419475597275543,-51.94056123241273,18.458533789014663,-68.60870361328125,5356.25390625,True
1599558753.1205623,0.0,10,0.5,0.5,-0.5616357315063477,-0.001,-0.0155,-0.001,0.11947418284169825,10,1,100,0.06434378827223648,-10,-1,-100,15015.139292336302,-0.009395579122769485,0.008970631822533862,0.9999156218689917,24.545815136296284,0.02583135010169273,-50.774374628708685,18.272758082089208,-70.69915771484375,5356.25390625,True
1599558753.1534503,0.0,10,0.5,0.5,-0.5054337295532226,-0.001,-0.0155,-0.001,0.16909280068839982,10,1,100,-0.0409102719457943,-10,-1,-100,15016.209590708604,-0.008060514520388619,0.00962787187374292,0.9999211629867872,23.4672503329145,0.02398093618469841,-47.06658852452869,17.715484898427423,-77.2447509765625,5356.25390625,True
1599558753.1873677,0.0,10,0.5,0.5,-0.4620757369995117,-0.001,-0.0155,-0.001,0.10385462325321612,10,1,100,0.09195092697934215,-10,-1,-100,15016.209590708604,-0.008060514520388619,0.00962787187374292,0.9999211629867872,23.4672503329145,0.02398093618469841,-47.06658852452869,17.715484898427423,-77.2447509765625,5356.25390625,True
1599558753.2227306,0.0,10,0.5,0.5,-0.40502701568603516,-0.001,-0.0155,-0.001,0.1453557213969578,10,1,100,-0.009822030810740054,-10,-1,-100,15016.939074405935,-0.007140946061890578,0.010001009801898475,0.9999244904952991,22.62558366513656,0.022730770812431845,-44.429472965383944,17.3440154221875,-81.82211303710938,5356.25390625,True
1599558753.2537477,0.0,10,0.5,0.5,-0.35892008972167966,-0.001,-0.0155,-0.001,0.12595646277420675,10,1,100,0.03158378618840228,-10,-1,-100,15017.268171162461,-0.006686836682753744,0.010160470566481644,0.9999260227902093,22.15526023010116,0.022105174807219123,-43.041271701634784,17.15829423710634,-84.16815185546875,5356.25390625,True
1599558753.3843236,0.0,10,0.5,0.5,-0.3045276611328125,-0.001,-0.0155,-0.001,0.14254614029111795,10,1,100,-0.027492365134029487,-10,-1,-100,15017.941015218268,-0.005742523280484385,0.010452985479927308,0.999928876731205,21.114264755661548,0.020876514768716957,-40.13332140627021,16.78687735271656,-88.9652099609375,5356.25390625,True
1599558753.4052675,0.0,10,0.5,0.5,-0.234990055847168,-0.001,-0.0155,-0.001,0.1650990001396614,10,1,100,-0.1922141699170329,-10,-1,-100,15019.530844762921,-0.003392400465638691,0.010920920284008501,0.9999346104217172,22.30138633125213,0.022287143708630587,-40.050914548206094,15.858380009274152,-101.46477508544922,5356.25390625,True
1599558753.4521434,0.0,10,0.5,0.5,-0.18153431358337405,-0.001,-0.0155,-0.001,0.11865483478921096,10,1,100,0.0419593168420326,-10,-1,-100,15019.530844762921,-0.003392400465638691,0.010920920284008501,0.9999346104217172,22.30138633125213,0.022287143708630587,-40.050914548206094,15.858380009274152,-101.46477508544922,5356.25390625,True
1599558753.4860926,0.0,10,0.5,0.5,-0.1110040885925293,-0.001,-0.0155,-0.001,0.12885315676628892,10,1,100,-0.059586633437641846,-10,-1,-100,15020.190019637696,-0.002476197105809806,0.011010956820588605,0.9999363116107887,23.021935517303337,0.023317719340612445,-40.378840758277086,15.4869655888061,-106.63558959960938,5356.25390625,True
1599558753.5195518,0.0,10,0.5,0.5,-0.037478380584716794,-0.001,-0.0155,-0.001,0.1261310315297454,10,1,100,-0.0605752424184084,-10,-1,-100,15020.776930414839,-0.0016420721609991236,0.011065304291629897,0.9999374293624333,23.610150750609357,0.02427337661544831,-40.41949042466831,15.115539025974499,-111.88217163085938,5356.25390625,True
1599558753.5554538,0.0,10,0.5,0.5,0.03496166000366211,-0.001,-0.0155,-0.001,0.11949809557608548,10,1,100,-0.07622069901456852,-10,-1,-100,15021.3804434482,-0.0007489774422424334,0.011052296640265627,0.99993864100342,24.091055031161392,0.025120801637480202,-40.23129829597952,14.744101140670683,-117.18854522705078,5356.25390625,True
1599558753.5865088,0.0,10,0.5,0.5,0.11777696266174315,-0.001,-0.0155,-0.001,0.11283801039277883,10,1,100,-0.11724326643198835,-10,-1,-100,15022.225166343618,0.0004279987316215316,0.010978032851161019,0.9999396479847193,24.647816973319692,0.0261068474591705,-39.6083630897767,14.186928110967292,-125.22010803222656,5356.25390625,True
1599558753.6205215,0.0,10,0.5,0.5,0.18410720329284666,-0.001,-0.0155,-0.001,0.12039940540098143,10,1,100,-0.000394500370792862,-10,-1,-100,15022.225166343618,0.0004279987316215316,0.010978032851161019,0.9999396479847193,24.647816973319692,0.0261068474591705,-39.6083630897767,14.186928110967292,-125.22010803222656,5356.25390625,True
1599558753.653553,0.0,10,0.5,0.5,0.2692027103424073,-0.001,-0.0155,-0.001,0.11081460475490622,10,1,100,-0.0824353564087224,-10,-1,-100,15022.815008657984,0.0011661078653736091,0.010889670880762682,0.9999400258318272,24.823619520479937,0.026421307199108995,-38.84812253249373,13.815475655560181,-130.5869598388672,5356.25390625,True
1599558753.6864347,0.0,10,0.5,0.5,0.3554376369476318,-0.001,-0.0155,-0.001,0.1005456070922196,10,1,100,-0.12120091628295293,-10,-1,-100,15023.591376629542,0.0021819784822528078,0.010715179418849894,0.9999402101625502,24.78849738533378,0.026308323354471582,-37.23104179270196,13.258308751559028,-138.5950927734375,5356.25390625,True
1599558753.720485,0.0,10,0.5,0.5,0.43708075218200687,-0.001,-0.0155,-0.001,0.11115925925934868,10,1,100,-0.054618685074220075,-10,-1,-100,15023.852117812727,0.0024921416546408656,0.010652534283310016,0.9999401545809209,24.697273888328485,0.026114001717856158,-36.57521334511766,13.072593276258038,-141.23983764648438,5356.25390625,True
1599558753.7537508,0.0,10,0.5,0.5,0.5207166545867921,-0.001,-0.0155,-0.001,0.11037576859489388,10,1,100,-0.057159237028345064,-10,-1,-100,15024.109931069077,0.002789718042817395,0.010588280109684736,0.999940051101845,24.56695252878716,0.025846265907302525,-35.86613330073112,12.886882759810653,-143.86732482910156,5356.25390625,True
1599558753.7868469,0.0,10,0.5,0.5,0.5993281646728515,-0.001,-0.0155,-0.001,0.09430207590282622,10,1,100,-0.11843444130480928,-10,-1,-100,15024.888252112782,0.0036116692359380457,0.010384045145710523,0.999939561899489,24.068958841637922,0.024780515018569003,-33.62225046587173,12.329786158782364,-151.62484741210938,5356.25390625,True
1599558753.8214993,0.0,10,0.5,0.5,0.6743754863739014,-0.001,-0.0155,-0.001,0.10661710680992381,10,1,100,-0.06447392713922563,-10,-1,-100,15025.094308407395,0.0038619801284500797,0.010310819891378761,0.9999393842141908,23.831194670056796,0.024317913274700814,-32.78950603396371,12.144100829742161,-154.15321350097656,5356.25390625,True
1599558753.8534756,0.0,10,0.5,0.5,0.7504871387481689,-0.001,-0.0155,-0.001,0.10599202458113038,10,1,100,-0.06617693921118005,-10,-1,-100,15025.35212042625,0.004099255433902187,0.010239205400751046,0.9999391755390169,23.560098199202578,0.02381441858224264,-31.92159524891189,11.958422803742662,-156.64706420898438,5356.25390625,True
1599558753.886461,0.0,10,0.5,0.5,0.8222889057159424,-0.001,-0.0155,-0.001,0.10684536408818496,10,1,100,-0.0676068173324914,-10,-1,-100,15025.596262508887,0.0043227397603297505,0.010182609949236237,0.9999388123158267,23.256777398667882,0.023277578160590773,-31.022094853152048,11.77275214065953,-159.10208129882812,5356.25390625,True
1599558753.9214802,0.0,10,0.5,0.5,0.8943712501525879,-0.001,-0.0155,-0.001,0.09894108678055816,10,1,100,-0.09140019638120753,-10,-1,-100,15026.059154931223,0.0047376001237044345,0.01006009309659983,0.9999381729246841,22.56302031796357,0.02213877550450638,-29.148786942354654,11.401432690132342,-163.8877716064453,5356.25390625,True
1599558753.9533944,0.0,10,0.5,0.5,0.9631424171447753,-0.001,-0.0155,-0.001,0.0929359074850645,10,1,100,-0.10926842179749749,-10,-1,-100,15026.697828876902,0.005273266502018526,0.009894956091293663,0.9999371392764397,21.418267778753677,0.020459928736270002,-26.320154185588716,10.844504333159971,-170.69876098632812,5356.25390625,True
1599558753.9874394,0.0,10,0.5,0.5,1.0353504089355468,-0.001,-0.0155,-0.001,0.10018512081287625,10,1,100,-0.08956237313403467,-10,-1,-100,15027.147049540887,0.0055766852510267684,0.009811718095595317,0.9999363133568174,20.56143975782715,0.019383159523741936,-24.403345143036873,10.473247666272805,-174.96229553222656,5356.25390625,True
1599558754.0224342,0.0,10,0.5,0.5,1.0998686447143555,-0.001,-0.0155,-0.001,0.10840112510419418,10,1,100,-0.05966155597177577,-10,-1,-100,15027.147049540887,0.0055766852510267684,0.009811718095595317,0.9999363133568174,20.56143975782715,0.019383159523741936,-24.403345143036873,10.473247666272805,-174.96229553222656,5356.25390625,True
1599558754.0555258,0.0,10,0.5,0.5,0.4480942237854003,-0.001,-0.0155,-0.001,0.09995588772015038,10,1,100,-0.10195458915543285,-10,-1,-100,15027.714436588809,0.005958081273815675,0.009735764538761514,0.9999348559563169,19.188436221742702,0.017922336587372426,-21.564368795287436,9.916394369578116,179.1094970703125,5356.25390625,True
1599558754.0906467,0.0,10,0.5,0.5,0.3128537345886231,-0.001,-0.0155,-0.001,0.10494339545192144,10,1,100,-0.08668713099817366,-10,-1,-100,15028.149009750341,0.006162859002540347,0.00971289025715102,0.9999338372771307,19.69322127481878,0.018423739772845206,-21.304037054606336,9.54516317234625,175.49490356445312,5356.25390625,True
1599558754.1215959,0.0,10,0.5,0.5,-0.1857723129272461,-0.001,-0.0155,-0.001,0.10714328462771751,10,1,100,-0.06654667222167873,-10,-1,-100,15028.149009750341,0.006162859002540347,0.00971289025715102,0.9999338372771307,19.69322127481878,0.018423739772845206,-21.304037054606336,9.54516317234625,175.49490356445312,5356.25390625,True
1599558754.1544738,0.0,10,0.5,0.5,-0.6826515548706056,-0.001,-0.0155,-0.001,0.11177044480495948,10,1,100,-0.0938782531618117,-10,-1,-100,15028.660732768592,0.0064090086567537355,0.009755565490479182,0.9999318744544543,20.3741471669397,0.019269536435226536,-20.756075943718397,8.98830426991905,170.41671752929688,5356.25390625,True
1599558754.1884458,0.0,10,0.5,0.5,-1.1842665641784669,-0.001,-0.0155,-0.001,0.11449202333361977,10,1,100,-0.08277163478123259,-10,-1,-100,15029.024993870757,0.006529496331189457,0.00981960755685706,0.9999304680752009,20.785701703126655,0.019873761541330623,-20.301495389585725,8.61705463264244,167.1434326171875,5356.25390625,True
1599558754.2233536,0.0,10,0.5,0.5,-1.6894151191711426,-0.001,-0.0155,-0.001,0.10804585691144261,10,1,100,-0.07096589142738916,-10,-1,-100,15029.024993870757,0.006529496331189457,0.00981960755685706,0.9999304680752009,20.785701703126655,0.019873761541330623,-20.301495389585725,8.61705463264244,167.1434326171875,5356.25390625,True
1599558754.2543159,0.0,10,0.5,0.5,-2.188366234588623,-0.001,-0.0155,-0.001,0.12021441951289183,10,1,100,-0.08110652994145268,-10,-1,-100,15029.332615723368,0.006619677811707435,0.009930560855408761,0.9999287793771946,21.156962367211793,0.020480780682229627,-19.7745204079559,8.245795825449939,163.77871704101562,5356.25390625,True
1599558754.2884154,0.0,10,0.5,0.5,-2.696096459960937,-0.001,-0.0155,-0.001,0.11647870511669234,10,1,100,-0.07594615738038149,-10,-1,-100,15029.523048197618,0.006653037518270401,0.009997584207073213,0.9999278901009827,21.329430771827226,0.02078126460791628,-19.487252684379055,8.060162839824764,162.0199432373047,5356.25390625,True
1599558754.3217618,0.0,10,0.5,0.5,-3.1981773796081545,-0.001,-0.0155,-0.001,0.15074542490986892,10,1,100,-0.07969932490671353,-10,-1,-100,15030.12559861876,0.006716229891734069,0.01036993686296452,0.9999236754200291,21.9838368203074,0.021961664201468434,-18.23593705320363,7.3176089501146775,154.3240203857422,5356.25390625,True
1599558754.357509,0.0,10,0.5,0.5,-3.7162670921325685,-0.001,-0.0155,-0.001,0.11356598119747507,10,1,100,-0.07349404202441745,-10,-1,-100,15030.12559861876,0.006716229891734069,0.01036993686296452,0.9999236754200291,21.9838368203074,0.021961664201468434,-18.23593705320363,7.3176089501146775,154.3240203857422,5356.25390625,True
1599558754.3884268,0.0,10,0.5,0.5,-4.213681298065186,-0.001,-0.0155,-0.001,0.15705342187784083,10,1,100,-0.07113630826367934,-10,-1,-100,15030.555295607657,0.006693759998781261,0.010764769761179328,0.9999196534267479,22.394790877050745,0.02271523830887393,-17.163719779151197,6.760673177630385,147.834228515625,5356.25390625,True
1599558754.4213388,0.0,10,0.5,0.5,-4.171694423675537,-0.001,-0.0155,-0.001,0.11767303257860186,10,1,100,-0.07345686543145667,-10,-1,-100,15030.555295607657,0.006693759998781261,0.010764769761179328,0.9999196534267479,22.394790877050745,0.02271523830887393,-17.163719779151197,6.760673177630385,147.834228515625,5356.25390625,True
1599558754.4553068,0.0,10,0.5,0.5,-4.114604251861572,-0.001,-0.0155,-0.001,0.17257409175160837,10,1,100,-0.06605822083927104,-10,-1,-100,15030.91175477032,0.006626016956128446,0.01126291404502118,0.9999146176881863,22.67698891809889,0.023220529180677494,-15.948883531378748,6.203726586644097,140.72616577148438,5356.25390625,True
1599558754.4902906,0.0,10,0.5,0.5,-4.067820771026612,-0.001,-0.0155,-0.001,0.12291466574621021,10,1,100,-0.07287884089991141,-10,-1,-100,15030.91175477032,0.006626016956128446,0.01126291404502118,0.9999146176881863,22.67698891809889,0.023220529180677494,-15.948883531378748,6.203726586644097,140.72616577148438,5356.25390625,True
1599558754.5214865,0.0,10,0.5,0.5,-4.011636109161377,-0.001,-0.0155,-0.001,0.16663051052371378,10,1,100,-0.06540730418930091,-10,-1,-100,15031.151999509078,0.006557896614850737,0.011658960498857993,0.9999105273133566,22.743795562509103,0.02334714401682631,-15.038882599261234,5.832424917987029,135.64401245117188,5356.25390625,True
1599558754.5552797,0.0,10,0.5,0.5,-3.957180812835693,-0.001,-0.0155,-0.001,0.17772100022635892,10,1,100,-0.061823850926780916,-10,-1,-100,15031.375644693384,0.006463366365590219,0.012118153224240959,0.9999056831809978,22.65184831139067,0.02324135900988596,-14.024890774748096,5.461119782712915,130.28733825683594,5356.25390625,True
1599558754.5883632,0.0,10,0.5,0.5,-3.8883101989746094,-0.001,-0.0155,-0.001,0.21791853212906453,10,1,100,-0.055597698671888046,-10,-1,-100,15031.718440257944,0.006320888509368539,0.012898943677643358,0.9998968264878397,22.16519774243959,0.02260983905218571,-12.324360315288109,4.9041514792696885,121.73716735839844,5356.25390625,True
1599558754.6238594,0.0,10,0.5,0.5,-3.8316959678649902,-0.001,-0.0155,-0.001,0.14013632507104812,10,1,100,-0.06981560536382213,-10,-1,-100,15031.718440257944,0.006320888509368539,0.012898943677643358,0.9998968264878397,22.16519774243959,0.02260983905218571,-12.324360315288109,4.9041514792696885,121.73716735839844,5356.25390625,True
1599558754.6545677,0.0,10,0.5,0.5,-3.7509225212097164,-0.001,-0.0155,-0.001,0.24363123617099347,10,1,100,-0.05153781383346752,-10,-1,-100,15031.938197260955,0.006155028721827953,0.013837168906305979,0.999885317613021,21.170753910557885,0.021370249672086433,-10.434791905787637,4.34716044448791,112.56959533691406,5356.25390625,True
1599558754.6884735,0.0,10,0.5,0.5,-3.6953707344055178,-0.001,-0.0155,-0.001,0.15015543650906552,10,1,100,-0.06806767247053548,-10,-1,-100,15031.938197260955,0.006155028721827953,0.013837168906305979,0.999885317613021,21.170753910557885,0.021370249672086433,-10.434791905787637,4.34716044448791,112.56959533691406,5356.25390625,True
1599558754.7223852,0.0,10,0.5,0.5,-3.617741555023193,-0.001,-0.0155,-0.001,0.2275473438789966,10,1,100,-0.056975342913322805,-10,-1,-100,15032.108143472578,0.006054699545098662,0.014537579671447769,0.9998759920063661,20.187354600279132,0.020218562516366053,-9.100274282413949,3.9758126586052756,106.11468505859375,5356.25390625,True
1599558754.757474,0.0,10,0.5,0.5,-3.5460735923767093,-0.001,-0.0155,-0.001,0.2459907253816352,10,1,100,-0.05557850991930509,-10,-1,-100,15032.261492577498,0.005951373684902493,0.015338554008045867,0.9998646457957222,18.93672801485434,0.018833499095531274,-7.739244056783726,3.6044431738691096,99.38589477539062,5356.25390625,True
1599558754.7884192,0.0,10,0.5,0.5,-3.463699866485596,-0.001,-0.0155,-0.001,0.25794389749528696,10,1,100,-0.058172966029793854,-10,-1,-100,15032.415823330404,0.005881701946013945,0.016171219711216548,0.9998519376564061,17.414888906514424,0.017238795352068747,-6.384001410023544,3.233045268751853,92.38209533691406,5356.25390625,True
1599558754.822401,0.0,10,0.5,0.5,-3.388561402893066,-0.001,-0.0155,-0.001,0.22603287152537854,10,1,100,-0.06180317218684096,-10,-1,-100,15032.466622637236,0.005852042525733979,0.01663362620013055,0.999844525952766,16.574095109990154,0.01638983922449754,-5.726810284499337,3.0473361973628204,88.77761840820312,5356.25390625,True
1599558754.8541641,0.0,10,0.5,0.5,-3.289195741271972,-0.001,-0.0155,-0.001,0.3446523093834024,10,1,100,-0.062295978747152286,-10,-1,-100,15032.614151393645,0.00583026308914629,0.018127471795893395,0.9998186849617287,17.76975493420224,0.01759955884764272,-5.017441249943276,2.4901857898616746,77.55267333984375,5356.25390625,True
1599558754.8911226,0.0,10,0.5,0.5,-3.20262151184082,-0.001,-0.0155,-0.001,0.25471233993168974,10,1,100,-0.06638794363404026,-10,-1,-100,15032.665934024844,0.005848324767152558,0.018661996695846745,0.9998087451991715,18.394567395120784,0.018230888139372597,-4.806534791161666,2.304469158089045,73.67387390136719,5356.25390625,True
1599558754.922042,0.0,10,0.5,0.5,-3.1108544525146486,-0.001,-0.0155,-0.001,0.26202236261286754,10,1,100,-0.06794716860264648,-10,-1,-100,15032.7001422639,0.005879478375598711,0.019208434226113583,0.9997982135354173,18.958492843187265,0.018799993533872378,-4.554692065462157,2.1187557776236368,69.72637939453125,5356.25390625,True
1599558754.9554756,0.0,10,0.5,0.5,-3.0096781761169433,-0.001,-0.0155,-0.001,0.40294294447595247,10,1,100,-0.08799726593161293,-10,-1,-100,15032.83402657113,0.00609047473184379,0.020980555915521962,0.9997613327144717,20.26536177721505,0.020109939447992484,-3.588525196271353,1.561630579732777,57.47285461425781,5356.25390625,True
1599558754.9883645,0.0,10,0.5,0.5,-2.913878443145752,-0.001,-0.0155,-0.001,0.2943932981756918,10,1,100,-0.07879175056832846,-10,-1,-100,15032.8282045339,0.006198812564925389,0.021597413746583683,0.9997475313509125,20.607702303612754,0.02044320139911412,-3.215216537880609,1.3759228527701022,53.251068115234375,5356.25390625,True
1599558755.0239067,0.0,10,0.5,0.5,-2.8175757324218753,-0.001,-0.0155,-0.001,0.30320265500820043,10,1,100,-0.08260516928833321,-10,-1,-100,15032.863398629823,0.006331929143505889,0.02223122388708053,0.9997328039820461,20.849492603033575,0.020672528457157915,-2.813909516280423,1.1902131529515732,48.96067810058594,5356.25390625,True
1599558755.0548599,0.0,10,0.5,0.5,-2.7057000045776363,-0.001,-0.0155,-0.001,0.38791459817099627,10,1,100,-0.11246517127403402,-10,-1,-100,15032.892781603965,0.0067242379598839155,0.023569892539029646,0.9996995772678697,20.997403318962395,0.020789352067365804,-1.949535169335298,0.8187829397564883,40.174530029296875,5356.25390625,True
1599558755.0878158,0.0,10,0.5,0.5,-2.5848888061523434,-0.001,-0.0155,-0.001,0.4790590211658743,10,1,100,-0.1573010629541301,-10,-1,-100,15032.94175837352,0.007487872682396827,0.025607238510875388,0.9996440371945102,20.33913173752533,0.020091041208081077,-0.6033624823633535,0.2616006131189903,26.479476928710938,5356.25390625,True
1599558755.1218855,0.0,10,0.5,0.5,-2.4855789115905758,-0.001,-0.0155,-0.001,0.2763512924315831,10,1,100,-0.0810912406025884,-10,-1,-100,15032.94175837352,0.007487872682396827,0.025607238510875388,0.9996440371945102,20.33913173752533,0.020091041208081077,-0.6033624823633535,0.2616006131189903,26.479476928710938,5356.25390625,True
1599558755.1568706,0.0,10,0.5,0.5,-2.364482373809814,-0.001,-0.0155,-0.001,0.42958525001609116,10,1,100,-0.16064256715637906,-10,-1,-100,15032.957493928727,0.008209606404943667,0.02699169629000759,0.9996019461235877,19.302602173848637,0.019058629907615695,0.24051523845773712,-0.10987846560733106,17.0057373046875,5356.25390625,True
1599558755.1887853,0.0,10,0.5,0.5,-2.2530290946960445,-0.001,-0.0155,-0.001,0.36720688949751606,10,1,100,-0.1363872146470264,-10,-1,-100,15032.937044327962,0.00864308152637467,0.02767380183896811,0.9995796405657259,18.685619773314336,0.018461059546895767,0.6264121681179041,-0.29562082016162505,12.165435791015625,5356.25390625,True
1599558755.2226958,0.0,10,0.5,0.5,-2.116417066192627,-0.001,-0.0155,-0.001,0.587971017044948,10,1,100,-0.3209454325442014,-10,-1,-100,15032.856245114235,0.010712394691797874,0.03029216592477881,0.9994836813493018,16.37615218755353,0.01619000711743808,1.928773532641191,-1.0385750754726226,-7.8856201171875,5356.25390625,True
1599558755.255908,0.0,10,0.5,0.5,-1.9996796295166017,-0.001,-0.0155,-0.001,0.39373680001060707,10,1,100,-0.18270901779020074,-10,-1,-100,15032.834829109604,0.01133247191721474,0.03089615842135913,0.9994583545476259,17.269261677906876,0.01706406992430255,2.3977345484419943,-1.224311835045294,-13.071258544921875,5356.25390625,True
1599558755.2919042,0.0,10,0.5,0.5,-1.8553695663452148,-0.001,-0.0155,-0.001,0.4540961113799348,10,1,100,-0.27026561102147323,-10,-1,-100,15032.780277928221,0.012687190248294717,0.031983338317794,0.9994078753310146,18.799668755939255,0.018565745819946106,3.4022995708581685,-1.5958002625695835,-23.65093994140625,5356.25390625,True
1599558755.3228445,0.0,10,0.5,0.5,-1.7184941703796386,-0.001,-0.0155,-0.001,0.45493330918548514,10,1,100,-0.29509593992736505,-10,-1,-100,15032.725726513425,0.014138485616133303,0.03296929203787409,0.9993563573655815,19.926953870585827,0.019712146401878287,4.445993751321956,-1.9673165848739722,-34.507537841796875,5356.25390625,True
1599558755.3559277,0.0,10,0.5,0.5,-1.5822589500427244,-0.001,-0.0155,-0.001,0.4018262774724508,10,1,100,-0.23546581022580348,-10,-1,-100,15032.6369251851,0.014908535068653087,0.03337248433301814,0.9993317831789146,20.228316676712417,0.020032192425643018,4.939461834223529,-2.15308333347872,-40.04052734375,5356.25390625,True
1599558755.3892362,0.0,10,0.5,0.5,-1.4272906936645506,-0.001,-0.0155,-0.001,0.43615758281070693,10,1,100,-0.333426484275989,-10,-1,-100,15032.581388626364,0.01649133469328626,0.03404099714036421,0.9992843671316607,20.514949085321,0.020357300965842776,5.8740603803806195,-2.524628055391932,-51.315216064453125,5356.25390625,True
1599558755.4258683,0.0,10,0.5,0.5,-1.27365099029541,-0.001,-0.0155,-0.001,0.42540653800744027,10,1,100,-0.35462842841747505,-10,-1,-100,15032.471156131476,0.01811410921084502,0.03454148009919336,0.99923909311038,20.20328473351741,0.02005875013112388,6.636361664548636,-2.8961779195775863,-62.86785888671875,5356.25390625,True
1599558755.4556708,0.0,10,0.5,0.5,-1.1349529335021973,-0.001,-0.0155,-0.001,0.3932752840897683,10,1,100,-0.2809891906311369,-10,-1,-100,15032.38039165258,0.01891025094099677,0.03469624026106983,0.999218981665728,19.81384358242716,0.01965906663470315,6.9260167608578715,-3.081950789758778,-68.7490234375,5356.25390625,True
1599558755.488703,0.0,10,0.5,0.5,-0.9932299224853515,-0.001,-0.0155,-0.001,0.378708168077141,10,1,100,-0.2025172554418217,-10,-1,-100,15032.38039165258,0.01891025094099677,0.03469624026106983,0.999218981665728,19.81384358242716,0.01965906663470315,6.9260167608578715,-3.081950789758778,-68.7490234375,5356.25390625,True
1599558755.5581362,0.0,10,0.5,0.5,-0.8363680267333984,-0.001,-0.0155,-0.001,0.3985320050916389,10,1,100,-0.374958909742658,-10,-1,-100,15032.255489865434,0.020468174485062506,0.034869452830318844,0.9991822531913601,18.456409778326915,0.01826076298812272,7.229476787769064,-3.45348785303137,-80.72003173828125,5356.25390625,True
1599558755.5895069,0.0,10,0.5,0.5,-0.6420823348999023,-0.001,-0.0155,-0.001,0.3484247930497514,10,1,100,-0.6152371252705409,-10,-1,-100,15031.84551185323,0.024058065945413303,0.03456485719199047,0.999112846534496,18.431950554983615,0.018301769905846633,9.162450385598556,-4.3823336649172635,-111.86214447021484,5356.25390625,True
1599558755.622422,0.0,10,0.5,0.5,-0.4862261943817139,-0.001,-0.0155,-0.001,0.34281384481408383,10,1,100,-0.38492559453464315,-10,-1,-100,15031.66586907662,0.025215730019720762,0.03423305918112478,0.9990957234512988,20.002544515231126,0.01998317937394389,10.786643185667922,-4.75389661531592,-124.77946472167969,5356.25390625,True
1599558755.6563556,0.0,10,0.5,0.5,-0.31291928749084474,-0.001,-0.0155,-0.001,0.3595506782567144,10,1,100,-0.3247675487795411,-10,-1,-100,15031.562371404376,0.025708639436678882,0.03408054411094373,0.9990883756562362,20.458451539336693,0.020483878167797877,11.463890528737204,-4.939682831316477,-131.31771850585938,5356.25390625,True
1599558755.692326,0.0,10,0.5,0.5,-0.12615557746887207,-0.001,-0.0155,-0.001,0.33594945939790855,10,1,100,-0.3759129759590751,-10,-1,-100,15031.367084442056,0.026609859654465315,0.03372543096134168,0.9990768292156723,20.751805224690276,0.02080415271781714,12.503522309402484,-5.31125987376403,-144.52694702148438,5356.25390625,True
1599558755.723122,0.0,10,0.5,0.5,0.031165278244018556,-0.001,-0.0155,-0.001,0.37153638825046026,10,1,100,-0.2870380915842651,-10,-1,-100,15031.367084442056,0.026609859654465315,0.03372543096134168,0.9990768292156723,20.751805224690276,0.02080415271781714,12.503522309402484,-5.31125987376403,-144.52694702148438,5356.25390625,True
1599558755.7556927,0.0,10,0.5,0.5,0.21977767601013184,-0.001,-0.0155,-0.001,0.33005157748751246,10,1,100,-0.3669952405975915,-10,-1,-100,15031.171787624131,0.027326105259508453,0.03334797545747095,0.9990701659564428,20.283129553562976,0.020254683801874396,13.076718799696883,-5.68283778902585,-157.85617065429688,5356.25390625,True
1599558755.7900264,0.0,10,0.5,0.5,0.4117816951751709,-0.001,-0.0155,-0.001,0.32307299584786425,10,1,100,-0.37882150620357463,-10,-1,-100,15030.74601910112,0.028074899341814587,0.032942022458757936,0.9990628724876496,17.963150754577175,0.01775664682544662,12.717783340157638,-6.240218154847236,-177.95355224609375,5356.25390625,True
1599558755.8256774,0.0,10,0.5,0.5,-0.136540588760376,-0.001,-0.0155,-0.001,0.3545373310134598,10,1,100,-0.3253678385649782,-10,-1,-100,15030.656180352787,0.028260623537986588,0.03286046774110646,0.9990603219110845,16.895992613829183,0.01668882097591287,12.318716097124584,-6.4260206112111895,175.35031127929688,5356.25390625,True
1599558755.8561163,0.0,10,0.5,0.5,-0.14822393379211424,-0.001,-0.0155,-0.001,0.3566537433226275,10,1,100,-0.3252786504063153,-10,-1,-100,15030.552668552147,0.028420152576157844,0.032807236084706606,0.9990575459842291,17.185887579346673,0.01701704870815409,12.892694320680064,-6.611823503604427,168.66693115234375,5356.25390625,True
1599558755.88952,0.0,10,0.5,0.5,-0.48305292243957515,-0.001,-0.0155,-0.001,0.3661911411038341,10,1,100,-0.34967593107079015,-10,-1,-100,15030.113241532934,0.02877832706995861,0.032847264562514404,0.9990459774714149,20.254437326756804,0.020386654995047437,16.47695133583897,-7.169206672668384,148.74237060546875,5356.25390625,True
1599558755.9236724,0.0,10,0.5,0.5,-0.8320994678497315,-0.001,-0.0155,-0.001,0.386064024377034,10,1,100,-0.334278267114192,-10,-1,-100,15029.791982619674,0.028956406798731238,0.03306615501597586,0.9990336109950284,21.044110328518084,0.021379272941707297,18.00764486562658,-7.540774153800843,135.47000122070312,5356.25390625,True
1599558755.9594593,0.0,10,0.5,0.5,-1.2154127494812013,-0.001,-0.0155,-0.001,0.3832931129506775,10,1,100,-0.327116114034189,-10,-1,-100,15029.63282239181,0.029048733941566946,0.033241318689952136,0.9990251176963196,21.18389760574868,0.021569231403182582,18.574400945691437,-7.7265532652771585,128.80804443359375,5356.25390625,True
1599558755.9903748,0.0,10,0.5,0.5,-1.5882835083007814,-0.001,-0.0155,-0.001,0.4173109827010282,10,1,100,-0.34061080219117973,-10,-1,-100,15029.352603388717,0.029251862142006736,0.03371071333719846,0.9990034616394089,20.88435300728505,0.021226385756469797,19.193486532635582,-8.098108946237348,115.38212585449219,5356.25390625,True
1599558756.023326,0.0,10,0.5,0.5,-1.9840941856384275,-0.001,-0.0155,-0.001,0.37033453489902124,10,1,100,-0.3206523044177335,-10,-1,-100,15029.352603388717,0.029251862142006736,0.03371071333719846,0.9990034616394089,20.88435300728505,0.021226385756469797,19.193486532635582,-8.098108946237348,115.38212585449219,5356.25390625,True
1599558756.0568595,0.0,10,0.5,0.5,-2.3596463027954098,-0.001,-0.0155,-0.001,0.43895823318001737,10,1,100,-0.34984091741042345,-10,-1,-100,15029.018693407183,0.02951481134876979,0.03433457851941128,0.9989744804693165,19.6859597012486,0.0198536053041649,18.92343302850106,-8.469678201666275,101.72865295410156,5356.25390625,True
1599558756.092607,0.0,10,0.5,0.5,-2.7130365745544434,-0.001,-0.0155,-0.001,0.5086827435706639,10,1,100,-0.3900943936472891,-10,-1,-100,15028.454397517955,0.03011715591007652,0.03553503409992148,0.9989145200022901,16.87714052876341,0.01694998322164155,17.29282151951143,-9.027083847199336,80.74896240234375,5356.25390625,True
1599558756.123573,0.0,10,0.5,0.5,-3.103854221343994,-0.001,-0.0155,-0.001,0.3888558913838891,10,1,100,-0.33013904258167276,-10,-1,-100,15028.454397517955,0.03011715591007652,0.03553503409992148,0.9989145200022901,16.87714052876341,0.01694998322164155,17.29282151951143,-9.027083847199336,80.74896240234375,5356.25390625,True
1599558756.156207,0.0,10,0.5,0.5,-3.461658396148682,-0.001,-0.0155,-0.001,0.54833126758539,10,1,100,-0.4385220923851909,-10,-1,-100,15027.876487225061,0.031100599765955538,0.036982452963897704,0.9988318431382587,20.540402543730103,0.021011052629027915,22.348125898571542,-9.584446963469304,59.15660095214844,5356.25390625,True
1599558756.190177,0.0,10,0.5,0.5,-3.303150506591797,-0.001,-0.0155,-0.001,0.40400157971004685,10,1,100,-0.34046170442008605,-10,-1,-100,15027.876487225061,0.031100599765955538,0.036982452963897704,0.9988318431382587,20.540402543730103,0.021011052629027915,22.348125898571542,-9.584446963469304,59.15660095214844,5356.25390625,True
1599558756.226111,0.0,10,0.5,0.5,-3.0739098304748538,-0.001,-0.0155,-0.001,0.6263499053566426,10,1,100,-0.5679643560885532,-10,-1,-100,15027.067299188697,0.03316636892004179,0.0390000057271584,0.9986886359251023,21.714218613554024,0.02243536958132863,25.460491366341646,-10.32749205858551,29.406768798828125,5356.25390625,True
1599558756.2569227,0.0,10,0.5,0.5,-2.918689479827881,-0.001,-0.0155,-0.001,0.42520990314703727,10,1,100,-0.36182624486493664,-10,-1,-100,15027.067299188697,0.03316636892004179,0.0390000057271584,0.9986886359251023,21.714218613554024,0.02243536958132863,25.460491366341646,-10.32749205858551,29.406768798828125,5356.25390625,True
1599558756.2904947,0.0,10,0.5,0.5,-2.739072353363037,-0.001,-0.0155,-0.001,0.4785991367502445,10,1,100,-0.4314933183866645,-10,-1,-100,15026.892604521243,0.033795878713765395,0.03947996798654103,0.9986486723116124,21.426376440145592,0.022059452239289103,25.57585261847587,-10.513255314384388,21.797210693359375,5356.25390625,True
1599558756.3234985,0.0,10,0.5,0.5,-2.5185538276672363,-0.001,-0.0155,-0.001,0.6051404573423862,10,1,100,-0.7121245105253757,-10,-1,-100,15026.015145332785,0.03691503741407314,0.041061001455638714,0.9984744734704926,17.925350727520023,0.01826071928065786,22.913061063097157,-11.256406656069021,-9.33343505859375,5356.25390625,True
1599558756.3594022,0.0,10,0.5,0.5,-2.3563753540039065,-0.001,-0.0155,-0.001,0.4477721392444616,10,1,100,-0.4009749580218077,-10,-1,-100,15026.015145332785,0.03691503741407314,0.041061001455638714,0.9984744734704926,17.925350727520023,0.01826071928065786,22.913061063097157,-11.256406656069021,-9.33343505859375,5356.25390625,True
1599558756.3899784,0.0,10,0.5,0.5,-2.114906566619873,-0.001,-0.0155,-0.001,0.5118595934921911,10,1,100,-0.7022206232051226,-10,-1,-100,15025.311398454243,0.03964666784731049,0.041636932595964946,0.9983458857393084,21.342678100102496,0.022239090503954808,28.635668837712167,-11.813729365978205,-33.41326904296875,5356.25390625,True
1599558756.4229593,0.0,10,0.5,0.5,-1.8967145416259765,-0.001,-0.0155,-0.001,0.47006885614931004,10,1,100,-0.6385049386822337,-10,-1,-100,15024.837007620372,0.04154152396686496,0.041773952062165734,0.9982631109660511,22.175633754327418,0.02337946527427568,30.69138059322497,-12.185208706114654,-49.814208984375,5356.25390625,True
1599558756.4569006,0.0,10,0.5,0.5,-1.6941295288085936,-0.001,-0.0155,-0.001,0.4461224170208158,10,1,100,-0.5498530881952123,-10,-1,-100,15024.591012876132,0.042447808736526295,0.04167514856848719,0.9982291147453384,22.05440444458513,0.023285073647048404,30.990129273110355,-12.370940341757853,-58.1207275390625,5356.25390625,True
1599558756.4934807,0.0,10,0.5,0.5,-1.4535444732666016,-0.001,-0.0155,-0.001,0.4178897170059078,10,1,100,-0.6526286614327836,-10,-1,-100,15024.047235059901,0.04419481769035411,0.04132308437912702,0.9981679321570655,21.230306372699108,0.022301590881745183,30.730576894918624,-12.742418234885266,-74.9425048828125,5356.25390625,True
1599558756.5234277,0.0,10,0.5,0.5,-1.262512636566162,-0.001,-0.0155,-0.001,0.45353019908344794,10,1,100,-0.4792371878424418,-10,-1,-100,15024.047235059901,0.04419481769035411,0.04132308437912702,0.9981679321570655,21.230306372699108,0.022301590881745183,30.730576894918624,-12.742418234885266,-74.9425048828125,5356.25390625,True
1599558756.5573876,0.0,10,0.5,0.5,-1.020458171081543,-0.001,-0.0155,-0.001,0.3906842328415737,10,1,100,-0.6602513441592008,-10,-1,-100,15023.57470651099,0.04582849709512065,0.0407478113847325,0.9981179112316123,19.336816670303648,0.02018690890816755,28.80852230576753,-13.113943803771589,-92.04293060302734,5356.25390625,True
1599558756.5905972,0.0,10,0.5,0.5,-0.7969682704925537,-0.001,-0.0155,-0.001,0.31702730758995235,10,1,100,-0.7167892904855322,-10,-1,-100,15022.730093398714,0.047816130494988625,0.0395536386096704,0.9980727064383746,20.716758042838382,0.021983505098748635,32.180567520977995,-13.671229359373001,-118.2145767211914,5356.25390625,True
1599558756.626914,0.0,10,0.5,0.5,-0.5587426788330078,-0.001,-0.0155,-0.001,0.3420659171983643,10,1,100,-0.6278259475681971,-10,-1,-100,15022.173482470913,0.04880099432146106,0.038695147417069954,0.9980586899173854,22.316461432091074,0.02399001462764248,35.61057364911612,-14.042668975368585,-136.00665283203125,5356.25390625,True
1599558756.6568341,0.0,10,0.5,0.5,-0.33193876647949216,-0.001,-0.0155,-0.001,0.42783655440146173,10,1,100,-0.5308400764817233,-10,-1,-100,15022.173482470913,0.04880099432146106,0.038695147417069954,0.9980586899173854,22.316461432091074,0.02399001462764248,35.61057364911612,-14.042668975368585,-136.00665283203125,5356.25390625,True
1599558756.691891,0.0,10,0.5,0.5,-0.08133722229003906,-0.001,-0.0155,-0.001,0.2977629629143005,10,1,100,-0.6479607755250476,-10,-1,-100,15021.313131266157,0.04985492253375729,0.037514810998130824,0.9980516648224818,21.824830263389156,0.023392961790542607,36.212831704734775,-14.599806432880598,-163.13568115234375,5356.25390625,True
1599558756.7600856,0.0,10,0.5,0.5,0.12992723083496094,-0.001,-0.0155,-0.001,0.4154419857624628,10,1,100,-0.5438619428073928,-10,-1,-100,15021.313131266157,0.04985492253375729,0.037514810998130824,0.9980516648224818,21.824830263389156,0.023392961790542607,36.212831704734775,-14.599806432880598,-163.13568115234375,5356.25390625,True
1599558756.7908564,0.0,10,0.5,0.5,-0.2973112884521484,-0.001,-0.0155,-0.001,0.28095972310818007,10,1,100,-0.6463077892845849,-10,-1,-100,15019.771114845062,0.05077696817928954,0.03629599235727174,0.9980502494570704,21.39734456966822,0.023157224862685788,37.771808577778145,-15.528514252061843,151.01844787597656,5356.25390625,True
1599558756.8248484,0.0,10,0.5,0.5,-0.25771538619995116,-0.001,-0.0155,-0.001,0.38906664452787837,10,1,100,-0.5812533382030409,-10,-1,-100,15019.156874259119,0.051015391534293526,0.03617574556912882,0.99804245664156,22.878091203388717,0.02511246051826873,41.35573306734811,-15.89990657472948,132.65225219726562,5356.25390625,True
1599558756.8573422,0.0,10,0.5,0.5,-0.5717797004699707,-0.001,-0.0155,-0.001,0.40054138304223413,10,1,100,-0.558267760982419,-10,-1,-100,15019.156874259119,0.051015391534293526,0.03617574556912882,0.99804245664156,22.878091203388717,0.02511246051826873,41.35573306734811,-15.89990657472948,132.65225219726562,5356.25390625,True
1599558756.893799,0.0,10,0.5,0.5,-0.8383316642761229,-0.001,-0.0155,-0.001,0.42017267532843716,10,1,100,-0.6237987590477607,-10,-1,-100,15018.21457981714,0.05160492735866578,0.03635889126155794,0.9980054922186236,22.07244162052713,0.024196933013888828,41.30351346448129,-16.456971340497486,105.04229736328125,5356.25390625,True
1599558756.9246466,0.0,10,0.5,0.5,-1.1449180625915527,-0.001,-0.0155,-0.001,0.4013616867737686,10,1,100,-0.5655861875773666,-10,-1,-100,15018.21457981714,0.05160492735866578,0.03635889126155794,0.9980054922186236,22.07244162052713,0.024196933013888828,41.30351346448129,-16.456971340497486,105.04229736328125,5356.25390625,True
1599558756.957544,0.0,10,0.5,0.5,-1.4133366588592529,-0.001,-0.0155,-0.001,0.4373742437906081,10,1,100,-0.6271582058069859,-10,-1,-100,15017.530116704642,0.05215942167869546,0.03669026807091391,0.9979645379265881,20.32808650324504,0.022166218099894414,38.90216106227192,-16.82840319682529,86.51054382324219,5356.25390625,True
1599558756.9905612,0.0,10,0.5,0.5,-1.7305291717529299,-0.001,-0.0155,-0.001,0.4261511775656063,10,1,100,-0.6130959827316955,-10,-1,-100,15017.217685380368,0.052531720586052794,0.036892094905136376,0.9979375690221204,18.952992334538614,0.020721041493111693,36.672998770255404,-17.014136851914603,77.178955078125,5356.25390625,True
1599558757.0267944,0.0,10,0.5,0.5,-2.032632162475586,-0.001,-0.0155,-0.001,0.45263074665865743,10,1,100,-0.6749965425409414,-10,-1,-100,15016.462973782327,0.053429514930766614,0.0373179363393772,0.997874069490551,21.883578996612126,0.024292680118015372,43.27263730987683,-17.385543617469548,58.34580993652344,5356.25390625,True
1599558757.0577953,0.0,10,0.5,0.5,-2.314519394683838,-0.001,-0.0155,-0.001,0.4538497993879812,10,1,100,-0.7132370445712694,-10,-1,-100,15015.7795909571,0.054589124789319154,0.03771739922356971,0.9977962844441474,23.31600144832272,0.02618392237421441,47.09484447304381,-17.75687977348437,39.24969482421875,5356.25390625,True
1599558757.091674,0.0,10,0.5,0.5,-2.5889939949035647,-0.001,-0.0155,-0.001,0.4523234294840016,10,1,100,-0.83531296320979,-10,-1,-100,15014.69695324928,0.05674879282812114,0.03806648703895814,0.9976625266476956,22.440013957365572,0.025078832643188293,46.754979837518235,-18.31388795442634,10.09027099609375,5356.25390625,True
1599558757.125028,0.0,10,0.5,0.5,-2.84707905960083,-0.001,-0.0155,-0.001,0.41055168971245337,10,1,100,-0.8027321122644917,-10,-1,-100,15013.944284580532,0.058409670699988994,0.03800359498589643,0.997569063843134,20.386797422418418,0.022738415767837746,43.343656260975884,-18.68529211253992,-9.697021484375,5356.25390625,True
1599558757.1606388,0.0,10,0.5,0.5,-2.597759571838379,-0.001,-0.0155,-0.001,0.3987470557377416,10,1,100,-0.7318131771470249,-10,-1,-100,15013.557692520902,0.05926790326196398,0.03783755317186238,0.9975247541855273,20.550123657100432,0.023056143629926352,44.12780339693488,-18.87099505915471,-19.6959228515625,5356.25390625,True
1599558757.1908264,0.0,10,0.5,0.5,-2.3716188018798827,-0.001,-0.0155,-0.001,0.4155174179014197,10,1,100,-0.6468151721222931,-10,-1,-100,15013.557692520902,0.05926790326196398,0.03783755317186238,0.9975247541855273,20.550123657100432,0.023056143629926352,44.12780339693488,-18.87099505915471,-19.6959228515625,5356.25390625,True
1599558757.2253199,0.0,10,0.5,0.5,-2.054090458679199,-0.001,-0.0155,-0.001,0.26212322870959104,10,1,100,-1.0178218335125655,-10,-1,-100,15012.036637135083,0.06263318880939585,0.036441549808661454,0.9973710929774882,23.63794367493137,0.027208585570755388,52.76787321135802,-19.613613382284875,-60.3902587890625,5356.25390625,True
1599558757.2574217,0.0,10,0.5,0.5,-1.8383643325805663,-0.001,-0.0155,-0.001,0.4017318308843941,10,1,100,-0.6823961049144518,-10,-1,-100,15012.036637135083,0.06263318880939585,0.036441549808661454,0.9973710929774882,23.63794367493137,0.027208585570755388,52.76787321135802,-19.613613382284875,-60.3902587890625,5356.25390625,True
1599558757.2937703,0.0,10,0.5,0.5,-1.5612471542358397,-0.001,-0.0155,-0.001,0.3426852268833273,10,1,100,-0.7695700632058216,-10,-1,-100,15011.652928313473,0.06341565364708945,0.035904687355427116,0.9973411193259915,23.255995451812698,0.02674482081652498,52.409606248541955,-19.79925727081354,-70.73861694335938,5356.25390625,True
1599558757.324714,0.0,10,0.5,0.5,-1.2649356986999514,-0.001,-0.0155,-0.001,0.1848317370162968,10,1,100,-0.9016224074332326,-10,-1,-100,15010.447022530716,0.06531722823617975,0.03398231301798243,0.9972857474653344,20.099957011144483,0.02304790289019012,46.58007931789438,-20.356273757804022,-102.20042419433594,5356.25390625,True
1599558757.3576374,0.0,10,0.5,0.5,-0.9757201553344728,-0.001,-0.0155,-0.001,0.21868717566348012,10,1,100,-0.8140946609991663,-10,-1,-100,15009.607204814325,0.06623860243354293,0.032545121955177246,0.9972729127899612,22.367237441365077,0.0260154279363093,52.786329557863056,-20.72759835414142,-123.52008056640625,5356.25390625,True
1599558757.3925397,0.0,10,0.5,0.5,-0.6719642707824707,-0.001,-0.0155,-0.001,0.2120115933093582,10,1,100,-0.7904324697143992,-10,-1,-100,15008.783938642824,0.06684945988537269,0.03118223643521161,0.9972756980113033,23.881185247017285,0.028060727466400162,57.375386382004365,-21.098847721539727,-145.11178588867188,5356.25390625,True
1599558757.4265187,0.0,10,0.5,0.5,-0.4077956809997558,-0.001,-0.0155,-0.001,0.34764662902708615,10,1,100,-0.7305727580410284,-10,-1,-100,15008.783938642824,0.06684945988537269,0.03118223643521161,0.9972756980113033,23.881185247017285,0.028060727466400162,57.375386382004365,-21.098847721539727,-145.11178588867188,5356.25390625,True
1599558757.4574358,0.0,10,0.5,0.5,-0.7993530372619629,-0.001,-0.0155,-0.001,0.09218892192716888,10,1,100,-0.7960960854340982,-10,-1,-100,15007.052375715924,0.06743594407343946,0.028866152053033948,0.9973059403776632,21.31054344771542,0.024897388934757653,53.01465437709387,-21.841410073214192,170.948486328125,5356.25390625,True
1599558757.4918928,0.0,10,0.5,0.5,-0.7410951210021974,-0.001,-0.0155,-0.001,0.2746263746313594,10,1,100,-0.7424313312037907,-10,-1,-100,15006.599220532342,0.06747304441197605,0.028427449860122227,0.9973160323449282,21.177523962379386,0.0248678595165529,53.135113512589896,-22.02707225955182,159.84939575195312,5356.25390625,True
1599558757.5252237,0.0,10,0.5,0.5,-0.9858858787536621,-0.001,-0.0155,-0.001,0.24160572861291946,10,1,100,-0.7542010655688609,-10,-1,-100,15005.689995425288,0.06760631035837357,0.02773699663304552,0.9973264489712009,23.79904631986972,0.028376685752165974,60.72677037952379,-22.398322944775995,137.547607421875,5356.25390625,True
1599558757.5611794,0.0,10,0.5,0.5,-1.2519151390075682,-0.001,-0.0155,-0.001,0.30964099566670866,10,1,100,-0.7417083116387495,-10,-1,-100,15005.689995425288,0.06760631035837357,0.02773699663304552,0.9973264489712009,23.79904631986972,0.028376685752165974,60.72677037952379,-22.398322944775995,137.547607421875,5356.25390625,True
1599558757.5916903,0.0,10,0.5,0.5,-1.491084645843506,-0.001,-0.0155,-0.001,0.23809558413765042,10,1,100,-0.7774079114626258,-10,-1,-100,15004.342340144445,0.06792633115536428,0.02709449703112282,0.9973223660213393,23.86906979375646,0.028555590770111827,62.43117240256917,-22.95512930907271,103.73051452636719,5356.25390625,True
1599558757.6254704,0.0,10,0.5,0.5,-1.733585903930664,-0.001,-0.0155,-0.001,0.2739289867104935,10,1,100,-0.7947069229513384,-10,-1,-100,15003.433221328305,0.0683697109458478,0.026844662009834888,0.9972988252007313,21.585009379263326,0.025757461778946767,57.37790880182166,-23.326396123026914,80.87899780273438,5356.25390625,True
1599558757.6575344,0.0,10,0.5,0.5,-1.991444723510742,-0.001,-0.0155,-0.001,0.29800648630472765,10,1,100,-0.7508643496328623,-10,-1,-100,15003.433221328305,0.0683697109458478,0.026844662009834888,0.9972988252007313,21.585009379263326,0.025757461778946767,57.37790880182166,-23.326396123026914,80.87899780273438,5356.25390625,True
1599558757.693572,0.0,10,0.5,0.5,-2.228973503875732,-0.001,-0.0155,-0.001,0.2679580511417818,10,1,100,-0.8254392270494628,-10,-1,-100,15002.456770016579,0.06904488939262629,0.026577983191088242,0.9972594517267079,23.000552188074145,0.02778001034175509,62.1222266205128,-23.697652603050265,57.7568359375,5356.25390625,True
1599558757.7245295,0.0,10,0.5,0.5,-2.509747707366943,-0.001,-0.0155,-0.001,0.2772108011541197,10,1,100,-0.8049425560602753,-10,-1,-100,15002.003717808519,0.06946980343801495,0.026425088482125353,0.9972340051908555,24.127111980946975,0.02933125701254721,65.67954280730838,-23.883244709742943,46.09324645996094,5356.25390625,True
1599558757.7585664,0.0,10,0.5,0.5,-2.770711592102051,-0.001,-0.0155,-0.001,0.246763872028183,10,1,100,-0.8720445330636035,-10,-1,-100,15001.024395513465,0.07046372477607796,0.0260136277073352,0.9971750872661156,24.736572822585558,0.030168179699146903,68.39388986133099,-24.25440383573421,22.559494018554688,5356.25390625,True
1599558757.7915497,0.0,10,0.5,0.5,-3.0303934883117676,-0.001,-0.0155,-0.001,0.2535290251070856,10,1,100,-0.8340032481844661,-10,-1,-100,15000.515698512085,0.0710181740709697,0.025705772584359514,0.9971437369845266,24.25934922765507,0.029510140291269926,67.59222112854181,-24.439994626938017,10.688323974609375,5356.25390625,True
1599558757.8266597,0.0,10,0.5,0.5,-2.7459599784851076,-0.001,-0.0155,-0.001,0.1954052737945026,10,1,100,-0.9058939276093247,-10,-1,-100,14999.53736854496,0.07217251394291771,0.024900379623784205,0.9970812902295133,21.76069414963371,0.026451216791850602,61.56010324071343,-24.811232305078057,-13.26239013671875,5356.25390625,True
1599558757.8574524,0.0,10,0.5,0.5,-2.453128073883057,-0.001,-0.0155,-0.001,0.15264715727392686,10,1,100,-0.9129637771001684,-10,-1,-100,14998.559993386501,0.07328191294048635,0.023782700482379907,0.9970276547787169,23.963005522858612,0.02952873652003046,68.81417059374375,-25.182431817874246,-37.4920654296875,5356.25390625,True
1599558757.8904748,0.0,10,0.5,0.5,-2.157030936431885,-0.001,-0.0155,-0.001,0.11161029541735246,10,1,100,-0.9097312104531874,-10,-1,-100,14997.510307477089,0.07425591087550154,0.022397160969816837,0.9969876763935157,25.03619079870677,0.03109707721915889,72.96521332244374,-25.553556922293648,-61.999725341796875,5356.25390625,True
1599558757.9245725,0.0,10,0.5,0.5,-1.847524715423584,-0.001,-0.0155,-0.001,0.16416851850475722,10,1,100,-0.8544506883892395,-10,-1,-100,14997.004484120058,0.07463276825173662,0.021620236018884298,0.9969766874393655,24.72338931063529,0.03067409680119906,72.58170873673508,-25.739121222760883,-74.35748291015625,5356.25390625,True
1599558757.9604456,0.0,10,0.5,0.5,-1.508876884460449,-0.001,-0.0155,-0.001,-0.02986638047680107,10,1,100,-0.8924301258927068,-10,-1,-100,14995.43026235106,0.07531453671916696,0.019154963582760767,0.9969758311658916,22.127830880965544,0.02750698157469685,66.3812680539049,-26.29590648532117,-111.84207916259766,5356.25390625,True
1599558757.9915035,0.0,10,0.5,0.5,-1.196984372329712,-0.001,-0.0155,-0.001,0.036883851451800675,10,1,100,-0.8310504797468231,-10,-1,-100,14994.382326857187,0.07537001597389259,0.017527617747842186,0.9970015763819938,24.8750060891655,0.03128345780696128,75.68615616944838,-26.667030418044305,-137.1717987060547,5356.25390625,True
1599558758.0255792,0.0,10,0.5,0.5,-0.833140319442749,-0.001,-0.0155,-0.001,0.04244868423118289,10,1,100,-0.8079366396096448,-10,-1,-100,14993.265991198481,0.07520396192691604,0.0161072718725124,0.9970380734472077,25.254916728294187,0.031761632075100465,77.9220612330795,-27.038114470994227,-162.76931762695312,5356.25390625,True
1599558758.058534,0.0,10,0.5,0.5,-0.5169223003387451,-0.001,-0.0155,-0.001,0.18343620063230406,10,1,100,-0.8251579515607285,-10,-1,-100,14993.265991198481,0.07520396192691604,0.0161072718725124,0.9970380734472077,25.254916728294187,0.031761632075100465,77.9220612330795,-27.038114470994227,-162.76931762695312,5356.25390625,True
1599558758.0936065,0.0,10,0.5,0.5,-0.8614543689727783,-0.001,-0.0155,-0.001,0.04767485344079653,10,1,100,-0.7875020021602391,-10,-1,-100,14992.218975888914,0.07485642224283078,0.014882457640416524,0.997083260567333,23.12603729315701,0.02897971284126297,72.34372493795232,-27.409257365942565,171.36520385742188,5356.25390625,True
1599558758.1245544,0.0,10,0.5,0.5,-0.7319173061370849,-0.001,-0.0155,-0.001,0.11298488188703151,10,1,100,-0.8013380348505643,-10,-1,-100,14991.622229938046,0.07466226582951371,0.01437283693353779,0.9971052941488602,22.934324948681095,0.028854845112937795,72.2352094851493,-27.594839726878483,158.33950805664062,5356.25390625,True
1599558758.1584306,0.0,10,0.5,0.5,-0.9213862911224364,-0.001,-0.0155,-0.001,0.07344069843100873,10,1,100,-0.7803919481894279,-10,-1,-100,14990.504926775582,0.0742920282188892,0.013560355473730391,0.997144328220619,25.53643869234782,0.03249440470780914,81.52431255925093,-27.965923498615446,132.13148498535156,5356.25390625,True
1599558758.191418,0.0,10,0.5,0.5,-1.1465994739532472,-0.001,-0.0155,-0.001,0.11563609508021808,10,1,100,-0.8032178618213142,-10,-1,-100,14989.981444733916,0.07416103004745135,0.013215639592671071,0.9971587077754762,25.90408061318664,0.03301462401419353,83.2524179210884,-28.151443863932055,118.95381164550781,5356.25390625,True
1599558758.2276592,0.0,10,0.5,0.5,-1.3492331005096436,-0.001,-0.0155,-0.001,0.08517565069616026,10,1,100,-0.7998745396658358,-10,-1,-100,14988.848579267156,0.07401074776554263,0.012634954807207263,0.9971774000308096,24.640756628237177,0.03126679167855497,80.24782636027015,-28.5225141582033,92.43623352050781,5356.25390625,True
1599558758.2586672,0.0,10,0.5,0.5,-1.561633067703247,-0.001,-0.0155,-0.001,0.08211910093347662,10,1,100,-0.8192970540436253,-10,-1,-100,14987.676700587617,0.07405091869734184,0.012088147464545413,0.9971811962381536,23.531129614715326,0.029982851417093802,77.6430996827857,-28.893640542465278,65.68955993652344,5356.25390625,True
1599558758.2926497,0.0,10,0.5,0.5,-1.7242311611175538,-0.001,-0.0155,-0.001,0.026833040921843743,10,1,100,-0.8596068649294254,-10,-1,-100,14985.950211087358,0.07445441950662512,0.011097114869796467,0.9971626715122753,26.317844307178003,0.03384018901827465,88.53008363857678,-29.450179292609395,25.078811645507812,5356.25390625,True
1599558758.325681,0.0,10,0.5,0.5,-1.9222365570068358,-0.001,-0.0155,-0.001,0.0246943994945817,10,1,100,-0.8599729751491714,-10,-1,-100,14984.761804983602,0.07482534862361902,0.01018405926951592,0.9971446495569982,24.772841790633652,0.031690633702170824,84.3957200272277,-29.821224874524667,-2.337554931640625,5356.25390625,True
1599558758.3608704,0.0,10,0.5,0.5,-2.158646001434326,-0.001,-0.0155,-0.001,0.11526560367480376,10,1,100,-0.8228255967147547,-10,-1,-100,14984.761804983602,0.07482534862361902,0.01018405926951592,0.9971446495569982,24.772841790633652,0.031690633702170824,84.3957200272277,-29.821224874524667,-2.337554931640625,5356.25390625,True
