Timestamp,Input Throttle,horizon,dT,dt,Input Roll,Roll P,Roll I,Roll D,Input Pitch,Pitch P,Pitch I,Pitch D,Input Yaw,Yaw P,Yaw I,Yaw D,Altitude,Direction X,Direction Y,Direction Z,Drag X,Drag Y,Drag Z,Vertical Velocity,Roll,Mass,Has Fuel
1599559147.0823586,0.0,10,0.5,0.5,-0.058498046875,-0.001,-0.02275,-0.5,-0.0005301229034275871,10,1,100,0.17110410863330658,-10,-1,-100,14994.467562682577,-0.016773735305411312,-7.647581725400259e-05,0.9998593080805687,28.58098260018196,0.02695945847866182,-86.70242944587358,26.8236449631866,-31.7918701171875,5356.25390625,True
1599559147.1152704,0.0,10,0.5,0.5,-0.1909221221923828,-0.001,-0.02275,-0.5,-0.0005356408857089005,10,1,100,0.17321787896915605,-10,-1,-100,14995.010532080662,-0.016808309417997692,-7.432340935803418e-05,0.9998587276263281,28.50849107348169,0.027123975337080785,-85.8845406823774,26.637681650537388,-31.791290283203125,5356.25390625,True
1599559147.1481822,0.0,10,0.5,0.5,-0.3230264411926269,-0.001,-0.02275,-0.5,0.003640109813932403,10,1,100,0.18132916936834315,-10,-1,-100,14996.568154440727,-0.01689819915177974,-3.4337738174634645e-05,0.999857214649345,28.2910988163219,0.02760836788272755,-83.44936509184951,26.07981463068891,-31.791351318359375,5356.25390625,True
1599559147.1841774,0.0,10,0.5,0.5,-0.4503902954101563,-0.001,-0.02275,-0.5,0.003432663241168607,10,1,100,0.17610056142884778,-10,-1,-100,14997.09549883788,-0.016917022292902754,1.582101834891779e-07,0.9998568969391153,28.21947066858484,0.027767439183879025,-82.64616685905325,25.893866677097037,-31.801513671875,5356.25390625,True
1599559147.2166808,0.0,10,0.5,0.5,-0.5574167297363282,-0.001,-0.02275,-0.5,0.009512153169212953,10,1,100,0.17903078063708538,-10,-1,-100,14998.110148963868,-0.01694539348464138,8.678610966383809e-05,0.999856412745261,28.079588648880506,0.028083320146842842,-81.05851941575136,25.52198234363181,-31.8623046875,5356.25390625,True
1599559147.2486296,0.0,10,0.5,0.5,-0.7200754943847656,-0.001,-0.02275,-0.5,0.0008580418321444464,10,1,100,0.1778882008116871,-10,-1,-100,14998.110148963868,-0.01694539348464138,8.678610966383809e-05,0.999856412745261,28.079588648880506,0.028083320146842842,-81.05851941575136,25.52198234363181,-31.8623046875,5356.25390625,True
1599559147.2815146,0.0,10,0.5,0.5,-0.7728955139160156,-0.001,-0.02275,-0.5,0.01544845853549519,10,1,100,0.17991855198135953,-10,-1,-100,14999.126750459429,-0.016948446319379636,0.00021934736504915044,0.9998563407080502,27.94733750527926,0.028397750509374257,-79.50430496374213,25.15011314380153,-32.0208740234375,5356.25390625,True
1599559147.3184164,0.0,10,0.5,0.5,-0.9199134735107423,-0.001,-0.02275,-0.5,0.011668830637349081,10,1,100,0.18007173062646536,-10,-1,-100,14999.59940692177,-0.016937206478352305,0.00030529793690260693,0.9998565086200516,27.88502314298174,0.02855459286036448,-78.74211389798623,24.96418402651937,-32.148956298828125,5356.25390625,True
1599559147.3493617,0.0,10,0.5,0.5,-0.643217896270752,-0.001,-0.02275,-0.5,0.055093882665462744,10,1,100,0.1692395619199826,-10,-1,-100,15001.562292783405,-0.01681311671965184,0.0007779304770823256,0.9998583469323763,27.667415335638967,0.02917589498816987,-75.80613725013097,24.220502678374256,-33.091766357421875,5356.25390625,True
1599559147.3823972,0.0,10,0.5,0.5,-1.059272018432617,-0.001,-0.02275,-0.5,0.024459710268085244,10,1,100,0.17761372389531999,-10,-1,-100,15002.091587029747,-0.016761151941772984,0.0009283967368358359,0.9998590910048695,27.62175681966735,0.02932777408612837,-75.1015970540254,24.034590676632387,-33.460662841796875,5356.25390625,True
1599559147.4147208,0.0,10,0.5,0.5,-0.91564037399292,-0.001,-0.02275,-0.5,0.045958141851581924,10,1,100,0.1693365182867336,-10,-1,-100,15003.034941663384,-0.01662342650003981,0.0012597805357918734,0.999861027665545,27.541109855178572,0.02962248679330848,-73.72678800421949,23.66277598947304,-34.37225341796875,5356.25390625,True
1599559147.4505758,0.0,10,0.5,0.5,-0.7885621467590331,-0.001,-0.02275,-0.5,0.05518115144642903,10,1,100,0.16411218055095644,-10,-1,-100,15003.98024804471,-0.016450864217962012,0.001643669298111385,0.9998633243687463,27.471519445037895,0.02989628813418833,-72.38782118294202,23.29097350278345,-35.523956298828125,5356.25390625,True
1599559147.4816966,0.0,10,0.5,0.5,-0.6498463020324707,-0.001,-0.02275,-0.5,0.06302627164410238,10,1,100,0.15705284205009024,-10,-1,-100,15004.857194060343,-0.016230138561701628,0.002062416545010272,0.9998661555629647,27.410196804653484,0.03013801502785857,-71.07606917061581,22.91918241887369,-36.93328857421875,5356.25390625,True
1599559147.5140166,0.0,10,0.5,0.5,-0.9449103271484374,-0.001,-0.02275,-0.5,0.045957106631379294,10,1,100,0.1650363429713861,-10,-1,-100,15005.330823284341,-0.01610266348310404,0.0022860154927270638,0.9998677304333394,27.380950731389497,0.03024216879478089,-70.42573766552539,22.733291074151087,-37.727508544921875,5356.25390625,True
1599559147.5479708,0.0,10,0.5,0.5,-1.3285386741638183,-0.001,-0.02275,-0.5,0.023825797587954455,10,1,100,0.17770241495016512,-10,-1,-100,15005.330823284341,-0.01610266348310404,0.0022860154927270638,0.9998677304333394,27.380950731389497,0.03024216879478089,-70.42573766552539,22.733291074151087,-37.727508544921875,5356.25390625,True
1599559147.5848718,0.0,10,0.5,0.5,0.04066037750244145,-0.001,-0.02275,-0.5,0.10368639883269648,10,1,100,0.12784001564089492,-10,-1,-100,15006.679441721062,-0.01565013506211207,0.0030100216591492064,0.9998729984563786,27.288201402143137,0.030462523904816394,-68.46943865044398,22.175634358583753,-40.433807373046875,5356.25390625,True
1599559147.615089,0.0,10,0.5,0.5,-0.23788910598754875,-0.001,-0.02275,-0.5,0.08987208975757613,10,1,100,0.13323140423113444,-10,-1,-100,15007.55540807126,-0.015288935719687487,0.003539966968350528,0.9998768509563676,27.213191596487466,0.030511246924676206,-67.13914536348658,21.80387798473615,-42.539794921875,5356.25390625,True
1599559147.6480153,0.0,10,0.5,0.5,-0.7103451271057128,-0.001,-0.02275,-0.5,0.0656067322794668,10,1,100,0.14667469071571929,-10,-1,-100,15007.956770481891,-0.01508429302243381,0.003798122527275007,0.9998790118655764,27.16912893658102,0.030499560970161436,-66.46030083138959,21.618004509680283,-43.650787353515625,5356.25390625,True
1599559147.682058,0.0,10,0.5,0.5,-0.6789699348449707,-0.001,-0.02275,-0.5,0.06944387176436065,10,1,100,0.1431909364660276,-10,-1,-100,15008.416725325165,-0.014868268180347742,0.004064517190168685,0.9998812000939553,27.11993464417622,0.030462133183806615,-65.77085103979189,21.43213436277035,-44.76995849609375,5356.25390625,True
1599559147.7175143,0.0,10,0.5,0.5,-0.6448002105712889,-0.001,-0.02275,-0.5,0.07350410088406589,10,1,100,0.13954593567116125,-10,-1,-100,15008.818087054184,-0.014640513633533718,0.004340617524148361,0.9998834004022945,27.064419716401183,0.0303976749200315,-65.06826297214111,21.246267692256026,-45.902069091796875,5356.25390625,True
1599559147.7494054,0.0,10,0.5,0.5,1.234030630493164,-0.001,-0.02275,-0.5,0.17151266455761585,10,1,100,0.04696908446968162,-10,-1,-100,15010.502633052762,-0.013593784160333189,0.005479502751355509,0.9998925862720455,26.76800159656766,0.029856106752914356,-62.1086517641968,20.502839241788234,-50.7255859375,5356.25390625,True
1599559147.781445,0.0,10,0.5,0.5,-1.140523960876465,-0.001,-0.02275,-0.5,0.0580461140584574,10,1,100,0.15133906755576387,-10,-1,-100,15010.502633052762,-0.013593784160333189,0.005479502751355509,0.9998925862720455,26.76800159656766,0.029856106752914356,-62.1086517641968,20.502839241788234,-50.7255859375,5356.25390625,True
1599559147.8153546,0.0,10,0.5,0.5,0.9019279411315919,-0.001,-0.02275,-0.5,0.15115627498207956,10,1,100,0.04932460556348631,-10,-1,-100,15011.708668628009,-0.012668977305910328,0.006322471638430943,0.999899756658838,26.446504369935756,0.029130442159867317,-59.69774191038003,19.945313703084796,-54.733306884765625,5356.25390625,True
1599559147.8503401,0.0,10,0.5,0.5,-1.0614374908447266,-0.001,-0.02275,-0.5,0.06728539178387821,10,1,100,0.14144917488019323,-10,-1,-100,15011.708668628009,-0.012668977305910328,0.006322471638430943,0.999899756658838,26.446504369935756,0.029130442159867317,-59.69774191038003,19.945313703084796,-54.733306884765625,5356.25390625,True
1599559147.8821802,0.0,10,0.5,0.5,0.2745330795288088,-0.001,-0.02275,-0.5,0.1295310308030006,10,1,100,0.06598675140679608,-10,-1,-100,15012.501624939614,-0.011986076807222348,0.006884671578472325,0.9999044630663612,26.19041839439604,0.028511429319122778,-58.02050191185283,19.57365511191385,-57.32269287109375,5356.25390625,True
1599559147.915526,0.0,10,0.5,0.5,0.27909021224975594,-0.001,-0.02275,-0.5,0.12987627126376655,10,1,100,0.05440019648500341,-10,-1,-100,15013.238917040406,-0.011263668206104143,0.00739472038625714,0.9999092198239558,25.89847095274477,0.02779652151651442,-56.28686734655714,19.20201843631959,-59.8270263671875,5356.25390625,True
1599559147.9485404,0.0,10,0.5,0.5,1.003443214416504,-0.001,-0.02275,-0.5,0.16456602841556833,10,1,100,-0.004649136778706389,-10,-1,-100,15014.37659522146,-0.010074108690741148,0.008169776459507798,0.9999158800052576,25.401157073534645,0.026584956317499134,-53.60712158885766,18.644607225074996,-63.684112548828125,5356.25390625,True
1599559147.9845061,0.0,10,0.5,0.5,-0.8769965538024902,-0.001,-0.02275,-0.5,0.0875234020396182,10,1,100,0.11378533205469848,-10,-1,-100,15014.37659522146,-0.010074108690741148,0.008169776459507798,0.9999158800052576,25.401157073534645,0.026584956317499134,-53.60712158885766,18.644607225074996,-63.684112548828125,5356.25390625,True
1599559148.0153956,0.0,10,0.5,0.5,1.084665747833252,-0.001,-0.02275,-0.5,0.161971421087864,10,1,100,-0.025550267092863024,-10,-1,-100,15015.5006020593,-0.008811976138792128,0.008842602401826185,0.9999220756935476,24.815830930406467,0.025231205753238613,-50.80992058778913,18.087253109583894,-67.50863647460938,5356.25390625,True
1599559148.049159,0.0,10,0.5,0.5,-0.77586572265625,-0.001,-0.02275,-0.5,0.09516663537719111,10,1,100,0.10005735889788345,-10,-1,-100,15015.5006020593,-0.008811976138792128,0.008842602401826185,0.9999220756935476,24.815830930406467,0.025231205753238613,-50.80992058778913,18.087253109583894,-67.50863647460938,5356.25390625,True
1599559148.0822806,0.0,10,0.5,0.5,1.5887629730224608,-0.001,-0.02275,-0.5,0.1791333994405973,10,1,100,-0.09710893976748143,-10,-1,-100,15016.904880295391,-0.007024853912284031,0.009601843907059262,0.9999292255060334,23.997740575251548,0.023402542872381624,-47.12116833085475,17.344204740467376,-72.13034057617188,5356.25390625,True
1599559148.1177824,0.0,10,0.5,0.5,-0.11822324752807611,-0.001,-0.02275,-0.5,0.1231825868982026,10,1,100,0.028315732901790444,-10,-1,-100,15017.237884463742,-0.006546393394495549,0.009779672124016921,0.9999307489754835,23.802637721071598,0.022968122952836064,-46.238751642232344,17.158458363497832,-73.23846435546875,5356.25390625,True
1599559148.149698,0.0,10,0.5,0.5,-0.6210683387756347,-0.001,-0.02275,-0.5,0.10582978213970277,10,1,100,0.07545704560405482,-10,-1,-100,15017.237884463742,-0.006546393394495549,0.009779672124016921,0.9999307489754835,23.802637721071598,0.022968122952836064,-46.238751642232344,17.158458363497832,-73.23846435546875,5356.25390625,True
1599559148.1826944,0.0,10,0.5,0.5,1.6696445114135743,-0.001,-0.02275,-0.5,0.16528240587516269,10,1,100,-0.13409324268203246,-10,-1,-100,15018.569901766721,-0.004646956759086951,0.01031700761207966,0.9999359805241589,22.938929748668848,0.02124556351025748,-42.63615688265971,16.415535543300372,-77.72671508789062,5356.25390625,True
1599559148.216604,0.0,10,0.5,0.5,-0.5221708511352539,-0.001,-0.02275,-0.5,0.11194831066625363,10,1,100,0.055048218804145024,-10,-1,-100,15018.569901766721,-0.004646956759086951,0.01031700761207966,0.9999359805241589,22.938929748668848,0.02124556351025748,-42.63615688265971,16.415535543300372,-77.72671508789062,5356.25390625,True
1599559148.3562305,0.0,10,0.5,0.5,0.6860674217224121,-0.001,-0.02275,-0.5,0.13574488147831001,10,1,100,-0.05537713995025578,-10,-1,-100,15019.222240705974,-0.0036497617886361577,0.010530219768522349,0.9999378949267362,22.464865113191976,0.020420778324947035,-40.8125289910291,16.044111166651753,-80.04571533203125,5356.25390625,True
1599559148.3781724,0.0,10,0.5,0.5,1.326921018218994,-0.001,-0.02275,-0.5,0.1380620836125519,10,1,100,-0.11894595596430628,-10,-1,-100,15020.151922250167,-0.002172244312114494,0.01074226402161584,0.9999399407556127,21.686012081529146,0.01924752799006316,-38.03280440322735,15.487019669313213,-83.54742431640625,5356.25390625,True
1599559148.4124894,0.0,10,0.5,0.5,0.20766162719726566,-0.001,-0.02275,-0.5,0.12194805945680069,10,1,100,-0.025180103669686302,-10,-1,-100,15020.484929203172,-0.001688646958299187,0.010786201770682997,0.9999404013854087,21.40776543214594,0.0188778018092875,-37.09571625826446,15.301333991087494,-84.7178955078125,5356.25390625,True
1599559148.4676318,0.0,10,0.5,0.5,0.7798687385559082,-0.001,-0.02275,-0.5,0.12377428014428436,10,1,100,-0.08327360728149132,-10,-1,-100,15021.067935707862,-0.0007285133872074461,0.010840368616711013,0.9999409760963386,20.847891537012014,0.018196447289251905,-35.25080793853416,14.92997876218966,-86.93264770507812,5356.25390625,True
1599559148.490567,0.0,10,0.5,0.5,-0.2833177345275879,-0.001,-0.02275,-0.5,0.11855737216297121,10,1,100,0.011931403552524304,-10,-1,-100,15021.067935707862,-0.0007285133872074461,0.010840368616711013,0.9999409760963386,20.847891537012014,0.018196447289251905,-35.25080793853416,14.92997876218966,-86.93264770507812,5356.25390625,True
1599559148.5433943,0.0,10,0.5,0.5,1.2964419364929198,-0.001,-0.02275,-0.5,0.11863474920340675,10,1,100,-0.1478885177096524,-10,-1,-100,15021.926333808107,0.0007170463854018106,0.010839255893246896,0.9999409964473712,20.12539236915673,0.01742435818763385,-32.76238641124837,14.372981249918414,-89.9976577758789,5356.25390625,True
1599559148.5663638,0.0,10,0.5,0.5,0.7421788434982299,-0.001,-0.02275,-0.5,0.11201529003739955,10,1,100,-0.10758550541576711,-10,-1,-100,15022.523014205974,0.0016577625211951904,0.010776942504964734,0.9999405528998552,20.39608897702855,0.017649583416281672,-32.3470711798356,14.001662562072623,-91.86910247802734,5356.25390625,True
1599559148.6166646,0.0,10,0.5,0.5,-0.15115880584716795,-0.001,-0.02275,-0.5,0.11834635590371045,10,1,100,-0.014334307427998186,-10,-1,-100,15022.523014205974,0.0016577625211951904,0.010776942504964734,0.9999405528998552,20.39608897702855,0.017649583416281672,-32.3470711798356,14.001662562072623,-91.86910247802734,5356.25390625,True
1599559148.6525667,0.0,10,0.5,0.5,1.5009796571731568,-0.001,-0.02275,-0.5,0.0909208630858794,10,1,100,-0.20457214658593614,-10,-1,-100,15023.57770638261,0.0033797390990712712,0.010526713233547227,0.9999388809682925,20.807444886208604,0.018156367270183424,-31.252646620253827,13.259041780235176,-95.08218383789062,5356.25390625,True
1599559148.6827798,0.0,10,0.5,0.5,-0.0660773313522339,-0.001,-0.02275,-0.5,0.11596476078977692,10,1,100,-0.03317715838414389,-10,-1,-100,15023.57770638261,0.0033797390990712712,0.010526713233547227,0.9999388809682925,20.807444886208604,0.018156367270183424,-31.252646620253827,13.259041780235176,-95.08218383789062,5356.25390625,True
1599559148.7156672,0.0,10,0.5,0.5,0.3279883150100708,-0.001,-0.02275,-0.5,0.10594591301310367,10,1,100,-0.08127716448021556,-10,-1,-100,15023.82380234974,0.0038097148855281426,0.010435442157739772,0.9999382919057873,20.877849440592435,0.018283008638275488,-30.92014333606568,13.073389754484456,-95.78993225097656,5356.25390625,True
1599559148.7491522,0.0,10,0.5,0.5,1.026350018119812,-0.001,-0.02275,-0.5,0.07959902192003376,10,1,100,-0.169270562198809,-10,-1,-100,15024.614822284319,0.00499376060095418,0.010113037422169435,0.9999363923916151,21.059017309130777,0.01869019693812671,-29.86211763194661,12.516440799255761,-97.81871032714844,5356.25390625,True
1599559148.785673,0.0,10,0.5,0.5,0.3705605333328247,-0.001,-0.02275,-0.5,0.09748825306174917,10,1,100,-0.09461971756193119,-10,-1,-100,15024.863848170382,0.005385007204721627,0.009983143606211492,0.999935667201217,21.10731382348656,0.018830755011314284,-29.487417948405973,12.33079329230492,-98.46967315673828,5356.25390625,True
1599559148.8167968,0.0,10,0.5,0.5,0.9553160728454589,-0.001,-0.02275,-0.5,0.06493239781709499,10,1,100,-0.1714192778172176,-10,-1,-100,15025.5816271496,0.006432433161228253,0.009569826051447844,0.9999335189066177,21.227020940122586,0.019267849435428266,-28.317375065813515,11.773856276989632,-100.22406768798828,5356.25390625,True
1599559148.8501112,0.0,10,0.5,0.5,0.5836287069320678,-0.001,-0.02275,-0.5,0.07062431315986568,10,1,100,-0.1410070089696091,-10,-1,-100,15026.03866194922,0.007101653453484714,0.0092469825434745,0.9999320276059106,21.261545394315917,0.019541547605001177,-27.47031528946121,11.402569597670825,-101.17271423339844,5356.25390625,True
1599559148.883026,0.0,10,0.5,0.5,0.14170158557891846,-0.001,-0.02275,-0.5,0.1027493253498764,10,1,100,-0.0748679964280323,-10,-1,-100,15026.03866194922,0.007101653453484714,0.0092469825434745,0.9999320276059106,21.261545394315917,0.019541547605001177,-27.47031528946121,11.402569597670825,-101.17271423339844,5356.25390625,True
1599559148.9187746,0.0,10,0.5,0.5,0.37091218490600586,-0.001,-0.02275,-0.5,0.08512099115436189,10,1,100,-0.10817150083309628,-10,-1,-100,15026.288664530846,0.007398608396196129,0.00908817248110598,0.9999313304996267,21.26940066412175,0.019674489404142924,-27.033697727168555,11.216927529309732,-101.57947540283203,5356.25390625,True
1599559148.949732,0.0,10,0.5,0.5,0.5128042400360107,-0.001,-0.02275,-0.5,0.0634911318784555,10,1,100,-0.1412482828118046,-10,-1,-100,15026.676363200415,0.00796404650221749,0.008748699858284411,0.9999300146580761,21.258110622027047,0.019921278346917613,-26.126204269919466,10.845646416983328,-102.22454833984375,5356.25390625,True
1599559148.9826424,0.0,10,0.5,0.5,0.5981728235244751,-0.001,-0.02275,-0.5,0.034784402137117885,10,1,100,-0.17119507432297593,-10,-1,-100,15027.32578113291,0.008744591717810266,0.008180961969567807,0.999928299417984,21.19297119753845,0.02025227822702276,-24.710331321650575,10.2887317334579,-102.99170684814453,5356.25390625,True
1599559149.0166833,0.0,10,0.5,0.5,0.23258773422241208,-0.001,-0.02275,-0.5,0.09132361588238036,10,1,100,-0.09367703802557234,-10,-1,-100,15027.32578113291,0.008744591717810266,0.008180961969567807,0.999928299417984,21.19297119753845,0.02025227822702276,-24.710331321650575,10.2887317334579,-102.99170684814453,5356.25390625,True
1599559149.0519314,0.0,10,0.5,0.5,0.5721924642562866,-0.001,-0.02275,-0.5,0.004652653972800028,10,1,100,-0.18606431522036931,-10,-1,-100,15028.086527462234,0.009579598917200475,0.0073951766351752395,0.9999267686421442,21.052560168775432,0.020639179983177082,-22.77695666846291,9.546189873549242,-103.6336441040039,5356.25390625,True
1599559149.0828457,0.0,10,0.5,0.5,0.3088931022644043,-0.001,-0.02275,-0.5,0.058991012281182434,10,1,100,-0.1238234710966936,-10,-1,-100,15028.278911583708,0.009767625166402094,0.007177575284460532,0.9999265352572881,21.00400243004787,0.02072005475012866,-22.282962292137125,9.36055583654402,-103.713134765625,5356.25390625,True
1599559149.1161768,0.0,10,0.5,0.5,0.2825575870513916,-0.001,-0.02275,-0.5,0.08045760113888233,10,1,100,-0.10549823263307655,-10,-1,-100,15028.278911583708,0.009767625166402094,0.007177575284460532,0.9999265352572881,21.00400243004787,0.02072005475012866,-22.282962292137125,9.36055583654402,-103.713134765625,5356.25390625,True
1599559149.1510842,0.0,10,0.5,0.5,0.32950661907196044,-0.001,-0.02275,-0.5,-0.013120577877531042,10,1,100,-0.17066310918270333,-10,-1,-100,15029.024029170396,0.010356048936888082,0.006329415082785638,0.9999263426648618,20.772722158955364,0.02098743022481267,-20.290956425354032,8.618023091704396,-103.78303527832031,5356.25390625,True
1599559149.1854925,0.0,10,0.5,0.5,0.28212711982727046,-0.001,-0.02275,-0.5,0.04667469045642912,10,1,100,-0.12527957769010736,-10,-1,-100,15029.161723383702,0.010474835154873872,0.006104899530634157,0.9999265013140712,20.705336175379962,0.0210387018391533,-19.78982787251455,8.432390213171916,-103.7420654296875,5356.25390625,True
1599559149.2165673,0.0,10,0.5,0.5,0.3084573181152343,-0.001,-0.02275,-0.5,0.06881203737029323,10,1,100,-0.11373827406166727,-10,-1,-100,15029.161723383702,0.010474835154873872,0.006104899530634157,0.9999265013140712,20.705336175379962,0.0210387018391533,-19.78982787251455,8.432390213171916,-103.7420654296875,5356.25390625,True
1599559149.2501073,0.0,10,0.5,0.5,0.24218293266296387,-0.001,-0.02275,-0.5,0.02106978733666312,10,1,100,-0.13509128424579758,-10,-1,-100,15029.532815710525,0.010665886900455612,0.005673735514885556,0.9999270211280089,20.560800442390263,0.021122834788690422,-18.7870776991529,8.061123986062688,-103.59811401367188,5356.25390625,True
1599559149.2830775,0.0,10,0.5,0.5,0.20567897624969483,-0.001,-0.02275,-0.5,0.01412358621640037,10,1,100,-0.13264474837536244,-10,-1,-100,15029.837500979542,0.010814358817158457,0.005221724978535549,0.9999278890158141,20.402440542445277,0.021180572581908745,-17.784340222096407,7.689856512160748,-103.37242126464844,5356.25390625,True
1599559149.3182678,0.0,10,0.5,0.5,0.07534969043731687,-0.001,-0.02275,-0.5,-0.016423470797962553,10,1,100,-0.13248640824789162,-10,-1,-100,15030.276949845022,0.010945302638170453,0.004536312131613833,0.9999298086477889,20.138873917929203,0.021214966542746766,-16.283995382272394,7.132950191608307,-102.88182830810547,5356.25390625,True
1599559149.3501823,0.0,10,0.5,0.5,0.11381090602874755,-0.001,-0.02275,-0.5,0.002080729786175614,10,1,100,-0.12260359390962106,-10,-1,-100,15030.524015619652,0.010972498062451298,0.004084742866848033,0.999931457231935,19.94523184073696,0.021200808051867703,-15.288388945204904,6.7616742666468905,-102.469482421875,5356.25390625,True
1599559149.3832965,0.0,10,0.5,0.5,0.31879578857421875,-0.001,-0.02275,-0.5,0.04682803435248366,10,1,100,-0.12010684211600062,-10,-1,-100,15030.524015619652,0.010972498062451298,0.004084742866848033,0.999931457231935,19.94523184073696,0.021200808051867703,-15.288388945204904,6.7616742666468905,-102.469482421875,5356.25390625,True
1599559149.4155014,0.0,10,0.5,0.5,0.2045621385574341,-0.001,-0.02275,-0.5,0.02215772485004277,10,1,100,-0.11997163406796604,-10,-1,-100,15030.633387886919,0.010970002626428029,0.003863476811160686,0.9999323640073391,19.84340389717189,0.02118259464535265,-14.792930467914188,6.5760342292581475,-102.24675750732422,5356.25390625,True
1599559149.452418,0.0,10,0.5,0.5,0.07895651512145996,-0.001,-0.02275,-0.5,-0.004716477288670272,10,1,100,-0.11600423913945465,-10,-1,-100,15030.936116811936,0.01093057375118402,0.0034210277397050703,0.9999344074121433,19.632104076315745,0.021126000571347017,-13.809425623574816,6.204749052851949,-101.78042602539062,5356.25390625,True
1599559149.4833655,0.0,10,0.5,0.5,-0.10032331657409665,-0.001,-0.02275,-0.5,-0.035146580205102564,10,1,100,-0.10405214739667148,-10,-1,-100,15031.237865577103,0.010785016713678,0.002745579055091267,0.9999380706874491,19.292124287011962,0.020985379532696594,-12.352607444744308,5.647805251755408,-100.96595764160156,5356.25390625,True
1599559149.5165198,0.0,10,0.5,0.5,0.30050202369689943,-0.001,-0.02275,-0.5,0.032039904653508304,10,1,100,-0.11865074792495249,-10,-1,-100,15031.237865577103,0.010785016713678,0.002745579055091267,0.9999380706874491,19.292124287011962,0.020985379532696594,-12.352607444744308,5.647805251755408,-100.96595764160156,5356.25390625,True
1599559149.55,0.0,10,0.5,0.5,-0.17184315490722657,-0.001,-0.02275,-0.5,-0.03960305202622362,10,1,100,-0.092723303757098,-10,-1,-100,15031.591369570699,0.010549030692553137,0.002097333376616925,0.999942157899223,18.915835095929403,0.020766390826329913,-10.917574161361674,5.090837222405761,-100.03575897216797,5356.25390625,True
1599559149.5852647,0.0,10,0.5,0.5,0.13019975223541258,-0.001,-0.02275,-0.5,0.0016609778139277387,10,1,100,-0.105594553231737,-10,-1,-100,15031.70367087773,0.010451441854447545,0.0018867899094180056,0.999943602103139,18.784891650593558,0.02067864281246382,-10.446683039731646,4.905174923750937,-99.72712707519531,5356.25390625,True
1599559149.616377,0.0,10,0.5,0.5,0.11582510356903075,-0.001,-0.02275,-0.5,-0.0021836092582489634,10,1,100,-0.10290761548720033,-10,-1,-100,15031.769096127944,0.010338492972170316,0.0016638786436768975,0.9999451720324088,18.65278350110251,0.020585357386246794,-9.980661772292065,4.719509259509323,-99.40799713134766,5356.25390625,True
1599559149.6493962,0.0,10,0.5,0.5,-0.41537917251586914,-0.001,-0.02275,-0.5,-0.07266600544694618,10,1,100,-0.055874606694616885,-10,-1,-100,15032.108923027408,0.00980867196820843,0.000823717387955787,0.9999515545484614,18.091427197761874,0.020134065793401414,-8.157164860625429,3.976808902303066,-98.0472183227539,5356.25390625,True
1599559149.6832948,0.0,10,0.5,0.5,0.25401149406433104,-0.001,-0.02275,-0.5,0.010978860650799067,10,1,100,-0.1087430440238093,-10,-1,-100,15032.108923027408,0.00980867196820843,0.000823717387955787,0.9999515545484614,18.091427197761874,0.020134065793401414,-8.157164860625429,3.976808902303066,-98.0472183227539,5356.25390625,True
1599559149.7188358,0.0,10,0.5,0.5,-0.2923674551010132,-0.001,-0.02275,-0.5,-0.05548348454096471,10,1,100,-0.05569160536502759,-10,-1,-100,15032.32668375026,0.009327444185941544,0.00022247881846601842,0.9999564736967974,17.62930209607636,0.01970486166909707,-6.8354546714513855,3.4197358490050207,-96.97672271728516,5356.25390625,True
1599559149.7505417,0.0,10,0.5,0.5,0.23038431930541992,-0.001,-0.02275,-0.5,0.004254146003173955,10,1,100,-0.10364987820406518,-10,-1,-100,15032.32668375026,0.009327444185941544,0.00022247881846601842,0.9999564736967974,17.62930209607636,0.01970486166909707,-6.8354546714513855,3.4197358490050207,-96.97672271728516,5356.25390625,True
1599559149.7834904,0.0,10,0.5,0.5,-0.14353347663879393,-0.001,-0.02275,-0.5,-0.041175450299593075,10,1,100,-0.061985970002136806,-10,-1,-100,15032.476088846102,0.008950174619051728,-0.00018720751338395945,0.9999599288609696,17.32704363636916,0.019403915907826967,-5.988671005315681,3.0483268959628185,-96.25431060791016,5356.25390625,True
1599559149.8165843,0.0,10,0.5,0.5,0.024438395881652808,-0.001,-0.02275,-0.5,-0.021008114245559012,10,1,100,-0.07912062265122351,-10,-1,-100,15032.528818566352,0.008764772217900077,-0.00037303000070809417,0.9999615190679023,17.18475270608923,0.019257612573286658,-5.577669877867279,2.8626144063755223,-95.89370727539062,5356.25390625,True
1599559149.8531744,0.0,10,0.5,0.5,-0.49654197559356694,-0.001,-0.02275,-0.5,-0.08441336756690876,10,1,100,-0.00557223314473726,-10,-1,-100,15032.728020441602,0.007929439443608499,-0.0011155358293279422,0.9999679392710167,16.630700952744792,0.018659484461497622,-3.9970889357907375,2.119718668904012,-94.51697540283203,5356.25390625,True
1599559149.883543,0.0,10,0.5,0.5,0.0093103401184082,-0.001,-0.02275,-0.5,-0.030417292427732532,10,1,100,-0.06382149892219041,-10,-1,-100,15032.71336843085,0.0077021807715657925,-0.00129615761327673,0.9999694977282074,16.497880121359405,0.018510765671327273,-3.6177487914483533,1.9339853200313453,-94.18196105957031,5356.25390625,True
1599559149.9168797,0.0,10,0.5,0.5,0.1635001214981079,-0.001,-0.02275,-0.5,-0.012694463131843121,10,1,100,-0.0862626811343623,-10,-1,-100,15032.71336843085,0.0077021807715657925,-0.00129615761327673,0.9999694977282074,16.497880121359405,0.018510765671327273,-3.6177487914483533,1.9339853200313453,-94.18196105957031,5356.25390625,True
1599559149.936858,0.0,10,0.5,0.5,-0.17489585475921632,-0.001,-0.02275,-0.5,-0.05031962691100395,10,1,100,-0.03597084370031048,-10,-1,-100,15032.805157376104,0.007247481577695214,-0.0016353109680666514,0.9999723995035156,16.239728869937757,0.018217511916197533,-2.8771549181407776,1.5625114257501669,-93.53170013427734,5356.25390625,True
1599559149.9853792,0.0,10,0.5,0.5,-0.16951638355255128,-0.001,-0.02275,-0.5,-0.05378281268150063,10,1,100,-0.02725505161475847,-10,-1,-100,15032.844212627504,0.006757694211030101,-0.001972116443414965,0.9999752218558637,15.99878258042821,0.017939849978551116,-2.160605838484761,1.1910307410585905,-92.92015838623047,5356.25390625,True
1599559150.0164263,0.0,10,0.5,0.5,-0.030779504966735843,-0.001,-0.02275,-0.5,-0.038589076289214624,10,1,100,-0.04785463147881783,-10,-1,-100,15032.885223887279,0.006502475492605246,-0.0021376366957732216,0.9999765738865211,15.883373758231514,0.017805908966106145,-1.8105129280817946,1.0052890699837636,-92.61003875732422,5356.25390625,True
1599559150.0505319,0.0,10,0.5,0.5,-0.20620623264312743,-0.001,-0.02275,-0.5,-0.05675925980658545,10,1,100,-0.016524788812683884,-10,-1,-100,15032.919397016754,0.005988647357504709,-0.0024506009989079818,0.9999790651096511,15.656721231390062,0.017542070261457033,-1.125198708462467,0.6338050843190972,-91.9750747680664,5356.25390625,True
1599559150.0842628,0.0,10,0.5,0.5,-0.34892822818756103,-0.001,-0.02275,-0.5,-0.07432714703635246,10,1,100,0.020393172600401334,-10,-1,-100,15032.92720145767,0.0051889483098656606,-0.002892391994921669,0.999982354286307,15.351993608035652,0.017186041414457134,-0.1333135236713075,0.07658240141316686,-91.07921600341797,5356.25390625,True
1599559150.1199422,0.0,10,0.5,0.5,-0.1982845853805542,-0.001,-0.02275,-0.5,-0.060818660056825076,10,1,100,0.0013775735877279843,-10,-1,-100,15032.950633911649,0.004638580526559989,-0.0031683840452898745,0.9999842223321527,15.217391430922527,0.017026226292537312,0.5088553465506573,-0.2948954477468049,-90.51261138916016,5356.25390625,True
1599559150.1507406,0.0,10,0.5,0.5,0.0719553560256958,-0.001,-0.02275,-0.5,-0.03351757267319513,10,1,100,-0.05322804533359,-10,-1,-100,15032.950633911649,0.004638580526559989,-0.0031683840452898745,0.9999842223321527,15.217391430922527,0.017026226292537312,0.5088553465506573,-0.2948954477468049,-90.51261138916016,5356.25390625,True
1599559150.184907,0.0,10,0.5,0.5,-0.19005275039672853,-0.001,-0.02275,-0.5,-0.061135454847010176,10,1,100,0.006756655005166826,-10,-1,-100,15032.901801747037,0.004097016152290691,-0.003416914470465846,0.9999857694758209,15.172908677081955,0.016967717307565154,1.1465028497621248,-0.6663681304895948,-90.01407623291016,5356.25390625,True
1599559150.2180767,0.0,10,0.5,0.5,-0.26758289489746095,-0.001,-0.02275,-0.5,-0.07509511420306339,10,1,100,0.04581053026556312,-10,-1,-100,15032.840273163281,0.003253133694488924,-0.003767665052370724,0.9999876108338637,15.299928084897271,0.017095992169102483,2.1228523874886536,-1.2235690679152333,-89.38223266601562,5356.25390625,True
1599559150.2536087,0.0,10,0.5,0.5,-0.15199971351623537,-0.001,-0.02275,-0.5,-0.062432875821890256,10,1,100,0.022438720215572104,-10,-1,-100,15032.79241915571,0.002702483412466397,-0.003969171134783499,0.9999884710654959,15.445356835921347,0.017247933692534096,2.793681793888125,-1.5950337866769506,-89.004150390625,5356.25390625,True
1599559150.2844687,0.0,10,0.5,0.5,-0.05879870300292969,-0.001,-0.02275,-0.5,-0.05251093738241471,10,1,100,-0.0024846168461230313,-10,-1,-100,15032.723082748475,0.002433013217878691,-0.004059729029780329,0.9999887994607171,15.511866623993736,0.01731619666714497,3.1324480810532105,-1.7807662900345598,-88.83636474609375,5356.25390625,True
1599559150.3179357,0.0,10,0.5,0.5,0.014412231254577636,-0.001,-0.02275,-0.5,-0.04369758968890309,10,1,100,-0.028950189468911952,-10,-1,-100,15032.723082748475,0.002433013217878691,-0.004059729029780329,0.9999887994607171,15.511866623993736,0.01731619666714497,3.1324480810532105,-1.7807662900345598,-88.83636474609375,5356.25390625,True
1599559150.350822,0.0,10,0.5,0.5,-0.13911771812438964,-0.001,-0.02275,-0.5,-0.06257097195722451,10,1,100,0.03143147724652352,-10,-1,-100,15032.661558702937,0.001888020503186688,-0.004229407402595646,0.9999892736882743,15.628568396004912,0.017432428479899967,3.8144289266605114,-2.152233669128876,-88.5484619140625,5356.25390625,True
1599559150.3858626,0.0,10,0.5,0.5,-0.13167457790374756,-0.001,-0.02275,-0.5,-0.06266694803995296,10,1,100,0.03799651406088989,-10,-1,-100,15032.55901862483,0.0013370853869628262,-0.0043826313689009,0.9999895023173755,15.726254513597132,0.017523925616993206,4.5008417594113395,-2.5237067267024877,-88.29443359375,5356.25390625,True
1599559150.4077668,0.0,10,0.5,0.5,-0.07451217842102051,-0.001,-0.02275,-0.5,-0.05523262658148063,10,1,100,0.013950930308888158,-10,-1,-100,15032.527767702937,0.001059060189932551,-0.004452584751946843,0.999989526385422,15.770625079485184,0.017563118154030225,4.845779458911692,-2.709446562787239,-88.17172241210938,5356.25390625,True
1599559150.4516826,0.0,10,0.5,0.5,-0.19477253932952882,-0.001,-0.02275,-0.5,-0.06741163927214666,10,1,100,0.07564392714212402,-10,-1,-100,15032.325620752526,0.00024921902880282304,-0.004625478676670096,0.9999892713608918,15.896114093407727,0.017664706412706947,5.88907590488548,-3.266683319173734,-87.82241821289062,5356.25390625,True
1599559150.4845943,0.0,10,0.5,0.5,-0.1241533489227295,-0.001,-0.02275,-0.5,-0.060418341381432754,10,1,100,0.05447486429767499,-10,-1,-100,15032.15374699037,-0.00029056385409488653,-0.004717754905019854,0.9999888291182571,15.974920676605711,0.01772024823761038,6.591504730558528,-3.638191474446279,-87.62698364257812,5356.25390625,True
1599559150.520284,0.0,10,0.5,0.5,-0.11695444965362549,-0.001,-0.02275,-0.5,-0.05899509644738961,10,1,100,0.0584301647783486,-10,-1,-100,15032.036560836365,-0.00081275180257106,-0.004787295276064942,0.9999882105497281,16.062625010786615,0.017780038106253743,7.304700459236565,-4.009713928000417,-87.45941162109375,5356.25390625,True
1599559150.551198,0.0,10,0.5,0.5,-0.10420448303222657,-0.001,-0.02275,-0.5,-0.057564737231475475,10,1,100,0.06298161414330337,-10,-1,-100,15031.851992928074,-0.0013243815063627502,-0.004836264728865258,0.999987428199524,16.150985525319904,0.017834999364628314,8.025699413777934,-4.381250235662825,-87.3292236328125,5356.25390625,True
1599559150.5853577,0.0,10,0.5,0.5,-0.04378108444213868,-0.001,-0.02275,-0.5,-0.05277465191909335,10,1,100,0.012276395284219505,-10,-1,-100,15031.851992928074,-0.0013243815063627502,-0.004836264728865258,0.999987428199524,16.150985525319904,0.017834999364628314,8.025699413777934,-4.381250235662825,-87.3292236328125,5356.25390625,True
1599559150.6187742,0.0,10,0.5,0.5,-0.1144975486755371,-0.001,-0.02275,-0.5,-0.0564835727761356,10,1,100,0.09329141410528034,-10,-1,-100,15031.577581790043,-0.0020572208911734586,-0.004869193924298295,0.9999860292987759,16.289742539152318,0.017915045673134785,9.124809648806341,-4.938575732344222,-87.1956787109375,5356.25390625,True
1599559150.6538708,0.0,10,0.5,0.5,-0.05145764846801758,-0.001,-0.02275,-0.5,-0.053271599722283694,10,1,100,0.020456499035114716,-10,-1,-100,15031.577581790043,-0.0020572208911734586,-0.004869193924298295,0.9999860292987759,16.289742539152318,0.017915045673134785,9.124809648806341,-4.938575732344222,-87.1956787109375,5356.25390625,True
1599559150.6847908,0.0,10,0.5,0.5,-0.09657836227416992,-0.001,-0.02275,-0.5,-0.05197298639018012,10,1,100,0.09845032287229614,-10,-1,-100,15031.233836493571,-0.002762173622321424,-0.004856652471375064,0.9999843915400143,16.430698447023723,0.0179875744436013,10.243047807492045,-5.495922455337145,-87.11306762695312,5356.25390625,True
1599559150.7181678,0.0,10,0.5,0.5,-0.0711673095703125,-0.001,-0.02275,-0.5,-0.04953195286832325,10,1,100,0.0776962016891859,-10,-1,-100,15030.99360524374,-0.003210138463404474,-0.004822489713910902,0.9999832191612043,16.526563067032026,0.01803287467274019,10.999831897540146,-5.867497551358198,-87.08786010742188,5356.25390625,True
1599559150.7514994,0.0,10,0.5,0.5,-0.06233288803100586,-0.001,-0.02275,-0.5,-0.0470017910282716,10,1,100,0.07832591918838713,-10,-1,-100,15030.793412874336,-0.0036189700926996513,-0.004768031319174821,0.9999820843059177,16.623093555232785,0.0180752379587329,11.765280114716827,-6.239080256547966,-87.0858154296875,5356.25390625,True
1599559150.7865527,0.0,10,0.5,0.5,-0.06378098754882813,-0.001,-0.02275,-0.5,-0.05247917515860249,10,1,100,0.03791055928713262,-10,-1,-100,15030.793412874336,-0.0036189700926996513,-0.004768031319174821,0.9999820843059177,16.623093555232785,0.0180752379587329,11.765280114716827,-6.239080256547966,-87.0858154296875,5356.25390625,True
1599559150.8178957,0.0,10,0.5,0.5,-0.0467273582458496,-0.001,-0.02275,-0.5,-0.039749760182531825,10,1,100,0.102432401397716,-10,-1,-100,15030.381307458272,-0.004202015758139953,-0.004652179771535538,0.9999803499504086,16.7687481143554,0.018133905976516495,12.92959672828972,-6.796466416762565,-87.12319946289062,5356.25390625,True
1599559150.8517354,0.0,10,0.5,0.5,-0.04272945480346681,-0.001,-0.02275,-0.5,-0.040076683809857544,10,1,100,0.08539110712751016,-10,-1,-100,15030.0688105257,-0.004573580549807405,-0.004549891829505955,0.9999791902061232,16.88167934217216,0.018186913144025128,13.729072063761478,-7.1680638171519755,-87.1707763671875,5356.25390625,True
1599559150.885206,0.0,10,0.5,0.5,-0.05234392471313476,-0.001,-0.02275,-0.5,-0.04411499043979665,10,1,100,0.06644875331844108,-10,-1,-100,15029.966273719212,-0.004735744572379701,-0.004493830491066288,0.9999786888783495,16.939258772592616,0.018213790365003334,14.133360317092624,-7.353864163596777,-87.20037841796875,5356.25390625,True
1599559150.9205675,0.0,10,0.5,0.5,-0.03285366134643555,-0.001,-0.02275,-0.5,-0.03584583588257413,10,1,100,0.0853845053898907,-10,-1,-100,15029.641080943518,-0.005052208372580406,-0.004368002809453477,0.9999776976223103,17.055384211556138,0.018267164148948262,14.950171102418524,-7.725467152185054,-87.2694091796875,5356.25390625,True
1599559150.9518287,0.0,10,0.5,0.5,-0.06750512008666992,-0.001,-0.02275,-0.5,-0.04838177785191411,10,1,100,0.05411090805644202,-10,-1,-100,15029.641080943518,-0.005052208372580406,-0.004368002809453477,0.9999776976223103,17.055384211556138,0.018267164148948262,14.950171102418524,-7.725467152185054,-87.2694091796875,5356.25390625,True
1599559150.9846556,0.0,10,0.5,0.5,-0.0032751884460449215,-0.001,-0.02275,-0.5,-0.02417704766878525,10,1,100,0.10248252267801505,-10,-1,-100,15029.159638332902,-0.005489227607793427,-0.004148415436074891,0.9999763292346673,17.23078763539252,0.018345755710357306,16.195165327235376,-8.282876095466658,-87.39727783203125,5356.25390625,True
1599559151.0175543,0.0,10,0.5,0.5,-0.016831290435791013,-0.001,-0.02275,-0.5,-0.02766708957167306,10,1,100,0.08771261696536428,-10,-1,-100,15028.833468595054,-0.005749125945402421,-0.003981173458018997,0.9999755486054454,17.34802948004492,0.018397250456850266,17.037982369910672,-8.65448372705593,-87.49691772460938,5356.25390625,True
1599559151.0548713,0.0,10,0.5,0.5,-0.06577797775268555,-0.001,-0.02275,-0.5,-0.04430373947592688,10,1,100,0.062021478436772956,-10,-1,-100,15028.833468595054,-0.005749125945402421,-0.003981173458018997,0.9999755486054454,17.34802948004492,0.018397250456850266,17.037982369910672,-8.65448372705593,-87.49691772460938,5356.25390625,True
1599559151.085043,0.0,10,0.5,0.5,0.01653760757446289,-0.001,-0.02275,-0.5,-0.01475339043804582,10,1,100,0.09772709295390411,-10,-1,-100,15028.28073700401,-0.006071414270574524,-0.003713298754270889,0.9999746743498642,17.523880578523425,0.018473816575084387,18.321043990639158,-9.211895809318897,-87.65936279296875,5356.25390625,True
1599559151.1182487,0.0,10,0.5,0.5,-0.06338010635375976,-0.001,-0.02275,-0.5,-0.04143538755636622,10,1,100,0.06574350485448127,-10,-1,-100,15028.28073700401,-0.006071414270574524,-0.003713298754270889,0.9999746743498642,17.523880578523425,0.018473816575084387,18.321043990639158,-9.211895809318897,-87.65936279296875,5356.25390625,True
1599559151.152378,0.0,10,0.5,0.5,0.05528543167114259,-0.001,-0.02275,-0.5,0.0027019720651757645,10,1,100,0.10300757048725448,-10,-1,-100,15027.48972325318,-0.006407949008892576,-0.0033130088782249655,0.9999739807423352,17.76032712128487,0.018578718066901784,20.069251690405387,-9.955109382312846,-87.89361572265625,5356.25390625,True
1599559151.187312,0.0,10,0.5,0.5,-0.06008833618164062,-0.001,-0.02275,-0.5,-0.03719309845008554,10,1,100,0.06957468998052455,-10,-1,-100,15027.48972325318,-0.006407949008892576,-0.0033130088782249655,0.9999739807423352,17.76032712128487,0.018578718066901784,20.069251690405387,-9.955109382312846,-87.89361572265625,5356.25390625,True
1599559151.2184234,0.0,10,0.5,0.5,0.005052613830566412,-0.001,-0.02275,-0.5,-0.012490580951549812,10,1,100,0.0845423400726526,-10,-1,-100,15027.093239350012,-0.006542350947494572,-0.0030895649763758052,0.9999738257736233,17.87917954340023,0.01863285658900504,20.95933132482001,-10.32671342777331,-88.02035522460938,5356.25390625,True
1599559151.2522838,0.0,10,0.5,0.5,0.03829614334106446,-0.001,-0.02275,-0.5,0.0021913001717923236,10,1,100,0.08569300762562354,-10,-1,-100,15026.47019167256,-0.006673352772727836,-0.0027542391149504497,0.9999739399252705,18.05670955552225,0.018715563835260192,22.31269326481568,-10.884113941863824,-88.20947265625,5356.25390625,True
1599559151.2860196,0.0,10,0.5,0.5,-0.022352748870849606,-0.001,-0.02275,-0.5,-0.01842377369750233,10,1,100,0.07613129995872399,-10,-1,-100,15026.243629465927,-0.0067040469583315825,-0.002638274243097808,0.9999740472949279,18.116354988245874,0.01874430942299758,22.769497273773712,-11.069912319613247,-88.27288818359375,5356.25390625,True
1599559151.3206863,0.0,10,0.5,0.5,-0.051777597808837894,-0.001,-0.02275,-0.5,-0.029847288026130948,10,1,100,0.07322706525692448,-10,-1,-100,15026.243629465927,-0.0067040469583315825,-0.002638274243097808,0.9999740472949279,18.116354988245874,0.01874430942299758,22.769497273773712,-11.069912319613247,-88.27288818359375,5356.25390625,True
1599559151.3518271,0.0,10,0.5,0.5,0.012869994354248043,-0.001,-0.02275,-0.5,-0.004070348678170264,10,1,100,0.07755042633972345,-10,-1,-100,15025.77878485457,-0.00674224585967472,-0.002405311286473599,0.9999743779709473,18.23558880185717,0.018802943257396017,23.69073792024921,-11.441505964486323,-88.39794921875,5356.25390625,True
1599559151.3857126,0.0,10,0.5,0.5,0.01496845550537109,-0.001,-0.02275,-0.5,-0.00024977023856103536,10,1,100,0.07541608458000634,-10,-1,-100,15025.311986753717,-0.006756666190430806,-0.0021602268511565484,0.9999748401244617,18.35555788889449,0.018864038332078458,24.62324294475697,-11.813095295192491,-88.52285766601562,5356.25390625,True
1599559151.4188445,0.0,10,0.5,0.5,0.05675147399902344,-0.001,-0.02275,-0.5,0.016970796716871996,10,1,100,0.07080394074319474,-10,-1,-100,15024.550264766323,-0.0067269310560152985,-0.0017825276163706224,0.9999757852037542,18.53287876540983,0.018956791082774656,26.03770428863917,-12.370469552194042,-88.72625732421875,5356.25390625,True
1599559151.4548082,0.0,10,0.5,0.5,0.026250131225585935,-0.001,-0.02275,-0.5,0.007249542885286717,10,1,100,0.06809290252335896,-10,-1,-100,15024.085419351934,-0.0066746573892886565,-0.001529294956977738,0.9999765548279971,18.649484227794325,0.019020090133918234,26.991112467695167,-12.742045526153442,-88.863525390625,5356.25390625,True
1599559151.4859061,0.0,10,0.5,0.5,-0.03964443206787109,-0.001,-0.02275,-0.5,-0.017855322674272412,10,1,100,0.07338059350789458,-10,-1,-100,15024.085419351934,-0.0066746573892886565,-0.001529294956977738,0.9999765548279971,18.649484227794325,0.019020090133918234,26.991112467695167,-12.742045526153442,-88.863525390625,5356.25390625,True
1599559151.5190914,0.0,10,0.5,0.5,0.05654548034667969,-0.001,-0.02275,-0.5,0.023810127854753324,10,1,100,0.059879194247170905,-10,-1,-100,15023.253384766518,-0.006551674933845354,-0.0011521396920968197,0.9999778738200616,18.826335713674283,0.019122000444377583,28.4430676499085,-13.299398089901953,-89.05111694335938,5356.25390625,True
1599559151.5519383,0.0,10,0.5,0.5,-0.03461698074340821,-0.001,-0.02275,-0.5,-0.013689311714725691,10,1,100,0.07219181238399645,-10,-1,-100,15023.253384766518,-0.006551674933845354,-0.0011521396920968197,0.9999778738200616,18.826335713674283,0.019122000444377583,28.4430676499085,-13.299398089901953,-89.05111694335938,5356.25390625,True
1599559151.5871558,0.0,10,0.5,0.5,0.029129857635498045,-0.001,-0.02275,-0.5,0.015333742899164678,10,1,100,0.05961056952529706,-10,-1,-100,15022.717249448644,-0.00643729152241504,-0.0008900550367744336,0.9999788843170074,18.945868722064304,0.019194791249553467,29.426324940152767,-13.67095812203352,-89.17367553710938,5356.25390625,True
1599559151.6183803,0.0,10,0.5,0.5,0.0005157104492187516,-0.001,-0.02275,-0.5,0.002603500699021136,10,1,100,0.06408013974213181,-10,-1,-100,15022.477012928342,-0.006374153660586265,-0.0007692204465537294,0.9999793890201016,19.004987002914003,0.019231547214969922,29.92081324493461,-13.856735517271472,-89.2344970703125,5356.25390625,True
1599559151.6522317,0.0,10,0.5,0.5,0.03028494415283203,-0.001,-0.02275,-0.5,0.018526554260371683,10,1,100,0.05413090989360553,-10,-1,-100,15021.88716646866,-0.006226607963298726,-0.0005163149265194879,0.9999804811955921,19.12419019853909,0.019308096869257753,30.919035084585108,-14.228284651976958,-89.35025024414062,5356.25390625,True
1599559151.685288,0.0,10,0.5,0.5,0.03109342575073242,-0.001,-0.02275,-0.5,0.02045151200622374,10,1,100,0.05052569814109005,-10,-1,-100,15021.28071853763,-0.0060601348943735795,-0.00027083025545023,0.9999816005387473,19.243491195838228,0.019387461894206554,31.927751083668323,-14.59982618071643,-89.46249389648438,5356.25390625,True
1599559151.7211542,0.0,10,0.5,0.5,0.004730718994140622,-0.001,-0.02275,-0.5,0.009872197853580827,10,1,100,0.056893067459930655,-10,-1,-100,15020.98384248931,-0.005967301017308635,-0.00014577839316677052,0.9999821848749251,19.303417983911995,0.019428457906496253,32.43645332221355,-14.785593967353535,-89.51705932617188,5356.25390625,True
1599559151.752582,0.0,10,0.5,0.5,0.033467015075683594,-0.001,-0.02275,-0.5,0.02436032047043866,10,1,100,0.04427248226049918,-10,-1,-100,15020.378370567574,-0.005768891595593965,9.778400682781862e-05,0.9999833550254955,19.42299599384461,0.019512217916785854,33.461182848115385,-15.15712362065985,-89.62435913085938,5356.25390625,True
1599559151.7851257,0.0,10,0.5,0.5,0.056258060455322265,-0.001,-0.02275,-0.5,0.03926119821175352,10,1,100,0.02744444465271683,-10,-1,-100,15019.476998071652,-0.005436408178928444,0.0004529575211773999,0.9999851200370914,19.60317283641777,0.019643759839768814,35.019194589904366,-15.714402505499535,-89.77285766601562,5356.25390625,True
1599559151.8192248,0.0,10,0.5,0.5,0.007898263549804687,-0.001,-0.02275,-0.5,0.016837247813772084,10,1,100,0.047275308233225934,-10,-1,-100,15019.165473852656,-0.005315556786519291,0.000570186391987956,0.9999857097696585,19.66349151592873,0.019689177926827225,35.544219782449545,-15.900157748454426,-89.82040405273438,5356.25390625,True
1599559151.8552449,0.0,10,0.5,0.5,0.009358243560791017,-0.001,-0.02275,-0.5,0.017684720394641015,10,1,100,0.04576960562680682,-10,-1,-100,15018.859807782923,-0.0051932392248187674,0.000682553769506392,0.9999862820992624,19.723712492952806,0.019735142422257518,36.07168757885257,-16.085910687888784,-89.86642456054688,5356.25390625,True
1599559151.8861697,0.0,10,0.5,0.5,0.029636835479736327,-0.001,-0.02275,-0.5,0.030253631598995627,10,1,100,0.03024000406710314,-10,-1,-100,15018.197695114417,-0.00494209818701101,0.0008973008568703729,0.9999873851787743,19.844935415734767,0.01982971980423547,37.13594367947678,-16.457410187927188,-89.94912719726562,5356.25390625,True
1599559151.9189637,0.0,10,0.5,0.5,0.04584396286010742,-0.001,-0.02275,-0.5,0.04411737022113619,10,1,100,0.009564346130922566,-10,-1,-100,15017.155699478462,-0.004527290877535802,0.001216696341448936,0.9999890115832887,20.03155393267756,0.01998046801574447,38.761367035423724,-17.01464218357892,-90.0599365234375,5356.25390625,True
1599559151.953903,0.0,10,0.5,0.5,0.009816551208496095,-0.001,-0.02275,-0.5,0.023178601022924385,10,1,100,0.03536086628771847,-10,-1,-100,15016.845150554203,-0.0043864435072972835,0.0013147881971018647,0.9999895151677112,20.09461055300748,0.020032606290393638,39.31025339403348,-17.20038150516571,-90.09458923339844,5356.25390625,True
1599559151.9878163,0.0,10,0.5,0.5,0.010886732864379883,-0.001,-0.02275,-0.5,0.024266298109978886,10,1,100,0.033369593096273034,-10,-1,-100,15016.480892065563,-0.004242104969115753,0.0014119562133562448,0.9999900054125954,20.16097390907301,0.020088521523384414,39.86842415185536,-17.38611848436476,-90.12740325927734,5356.25390625,True
1599559152.0188694,0.0,10,0.5,0.5,0.011410912895202636,-0.001,-0.02275,-0.5,0.024833746354911385,10,1,100,0.031847945887470294,-10,-1,-100,15016.114679395687,-0.004098859053410867,0.0015036964202324533,0.9999904690803489,20.226957497869005,0.020144526343045133,40.42872201108243,-17.571852970030232,-90.15766906738281,5356.25390625,True
1599559152.0520034,0.0,10,0.5,0.5,0.024462925910949708,-0.001,-0.02275,-0.5,0.035725790191442244,10,1,100,0.01300468568709675,-10,-1,-100,15015.424247447168,-0.0037991161062584495,0.0016845019825650301,0.9999913645476554,20.361622872273635,0.0202604616049362,41.5634419305484,-17.94331466678376,-90.21076965332031,5356.25390625,True
1599559152.0860963,0.0,10,0.5,0.5,0.023839044761657716,-0.001,-0.02275,-0.5,0.03662806881253857,10,1,100,0.008722989842206728,-10,-1,-100,15014.679127963842,-0.0034896690874491156,0.0018554093172630376,0.9999921898024632,20.497757295289006,0.02037931922690716,42.71294921350079,-18.314766601550463,-90.25936889648438,5356.25390625,True
1599559152.121966,0.0,10,0.5,0.5,0.012558075523376466,-0.001,-0.02275,-0.5,0.028659980667456238,10,1,100,0.022143016070903868,-10,-1,-100,15014.311940253945,-0.0033324258747089177,0.0019367446153873548,0.9999925719514542,20.565838960980074,0.020439275265594112,43.2921806106578,-18.50048887710664,-90.282470703125,5356.25390625,True
1599559152.1528833,0.0,10,0.5,0.5,0.023915580558776857,-0.001,-0.02275,-0.5,0.03754044089163097,10,1,100,0.00270842730356511,-10,-1,-100,15013.56779765163,-0.0030147121309731305,0.0020900683547254045,0.9999932715398839,20.70084782630683,0.020559011599572324,44.45706659210849,-18.871926015421973,-90.32588195800781,5356.25390625,True
1599559152.1859193,0.0,10,0.5,0.5,0.02222309741973877,-0.001,-0.02275,-0.5,0.037884020536964165,10,1,100,-0.0010859704280011748,-10,-1,-100,15012.82267907192,-0.002693478606976854,0.0022311953127514446,0.999993883451529,20.834119727242083,0.020678191434977643,45.62992869644026,-19.243353271110585,-90.36353302001953,5356.25390625,True
1599559152.2199621,0.0,10,0.5,0.5,0.012998764038085937,-0.001,-0.02275,-0.5,0.03137365530618257,10,1,100,0.012552151744720866,-10,-1,-100,15012.38713052217,-0.0025277035691121143,0.0022988995529105165,0.9999941628707202,20.900038981194573,0.020737456643676412,46.219140607209546,-19.429063216375543,-90.38043975830078,5356.25390625,True
1599559152.2548654,0.0,10,0.5,0.5,0.0334334379196167,-0.001,-0.02275,-0.5,0.050743150895639896,10,1,100,-0.04328818273106872,-10,-1,-100,15010.825605089893,-0.001871554489107808,0.0025352610050537938,0.999995034855389,21.160142840422846,0.0209730708495794,48.5966113279649,-20.171878497339065,-90.43614196777344,5356.25390625,True
1599559152.287782,0.0,10,0.5,0.5,0.006438200569152833,-0.001,-0.02275,-0.5,0.027238862147672654,10,1,100,0.02206115163051911,-10,-1,-100,15010.825605089893,-0.001871554489107808,0.0025352610050537938,0.999995034855389,21.160142840422846,0.0209730708495794,48.5966113279649,-20.171878497339065,-90.43614196777344,5356.25390625,True
1599559152.3192496,0.0,10,0.5,0.5,0.012558845710754394,-0.001,-0.02275,-0.5,0.03314629170457041,10,1,100,0.003368733966267322,-10,-1,-100,15010.39005816204,-0.0017039096821766003,0.002587855389381999,0.9999951998366186,21.224199296344455,0.02103142570864215,49.19585063624123,-20.357576246088055,-90.44680786132812,5356.25390625,True
1599559152.3532243,0.0,10,0.5,0.5,0.016885321807861328,-0.001,-0.02275,-0.5,0.037989716923792376,10,1,100,-0.01545976727869994,-10,-1,-100,15009.575604289188,-0.0013826445693639266,0.0026786306051496344,0.9999954566057168,21.351358107659163,0.021147536233228258,50.4005040396162,-20.728964126205458,-90.46463775634766,5356.25390625,True
1599559152.3894398,0.0,10,0.5,0.5,0.015445713233947753,-0.001,-0.02275,-0.5,0.03831217593543834,10,1,100,-0.020785781482160034,-10,-1,-100,15008.745525812032,-0.0010446363508519014,0.002763016852148887,0.9999956372268677,21.47718166025655,0.021262638462676904,51.613113648150524,-21.100342309292973,-90.47816467285156,5356.25390625,True
1599559152.4193587,0.0,10,0.5,0.5,0.012180257606506349,-0.001,-0.02275,-0.5,0.033922733022229846,10,1,100,-0.005167682850577299,-10,-1,-100,15008.309978307458,-0.0008818429395420911,0.002798847127601236,0.999995694394624,21.541791442032732,0.021321940918089474,52.227683066202054,-21.286027752165488,-90.48393249511719,5356.25390625,True
1599559152.4532695,0.0,10,0.5,0.5,0.016828842735290526,-0.001,-0.02275,-0.5,0.042684627889363905,10,1,100,-0.059561564187073965,-10,-1,-100,15006.609782940475,-0.0002417298499722093,0.0029102160242497374,0.9999957360955954,21.82443545952404,0.021583249808710448,54.77510939120022,-22.028743750519876,-90.4979476928711,5356.25390625,True
1599559152.4862528,0.0,10,0.5,0.5,0.01087715835571289,-0.001,-0.02275,-0.5,0.03396324064947914,10,1,100,-0.013470487300689692,-10,-1,-100,15006.160564868595,-8.162837298920723e-05,0.0029312901631959112,0.9999957004281508,21.894609601243864,0.021648044474143646,55.418486118371774,-22.21441633067075,-90.49907684326172,5356.25390625,True
1599559152.5238612,0.0,10,0.5,0.5,0.010530774497985838,-0.001,-0.02275,-0.5,0.03519407772832725,10,1,100,-0.030973436487422314,-10,-1,-100,15005.218181979144,0.00022036970436746948,0.0029608731522197153,0.9999955923239712,22.034374381168185,0.02177688225632097,56.71298862056898,-22.585753759370213,-90.49872589111328,5356.25390625,True
1599559152.5537038,0.0,10,0.5,0.5,0.009133229637145995,-0.001,-0.02275,-0.5,0.03442326883844876,10,1,100,-0.034481490106947475,-10,-1,-100,15004.332440621103,0.0005241558545861822,0.002980096081570216,0.999995422133514,22.173596292314652,0.02190484082593634,58.018363724165575,-22.957080815574884,-90.4949722290039,5356.25390625,True
1599559152.5858078,0.0,10,0.5,0.5,0.00980667095184326,-0.001,-0.02275,-0.5,0.0330051086321574,10,1,100,-0.020142596369707652,-10,-1,-100,15003.885174690746,0.0006671970849703787,0.0029840598368056047,0.9999953251065429,22.243012668987863,0.021968463704929133,58.67513415343762,-23.142740465370988,-90.49205017089844,5356.25390625,True
1599559152.6202595,0.0,10,0.5,0.5,0.01139489116668701,-0.001,-0.02275,-0.5,0.03265361299179372,10,1,100,-0.0060923484886958165,-10,-1,-100,15003.885174690746,0.0006671970849703787,0.0029840598368056047,0.9999953251065429,22.243012668987863,0.021968463704929133,58.67513415343762,-23.142740465370988,-90.49205017089844,5356.25390625,True
1599559152.655713,0.0,10,0.5,0.5,0.007600375175476074,-0.001,-0.02275,-0.5,0.032572698592968775,10,1,100,-0.03695619951626555,-10,-1,-100,15002.929120476241,0.0009454695928809416,0.0029829162524237854,0.9999951041369552,22.381726640588454,0.022095190693538432,59.99753061387177,-23.514051881305654,-90.48422241210938,5356.25390625,True
1599559152.6867542,0.0,10,0.5,0.5,0.0033316801071166992,-0.001,-0.02275,-0.5,0.030170361734144405,10,1,100,-0.054134774838133955,-10,-1,-100,15001.469161199522,0.0013522049400211138,0.0029596780580300537,0.9999947059097828,22.589404197591392,0.02228369898747188,62.0029839230554,-24.07099935651251,-90.46772003173828,5356.25390625,True
1599559152.7197564,0.0,10,0.5,0.5,0.011589882469177247,-0.001,-0.02275,-0.5,0.03252228591880561,10,1,100,-0.013734725075055243,-10,-1,-100,15001.469161199522,0.0013522049400211138,0.0029596780580300537,0.9999947059097828,22.589404197591392,0.02228369898747188,62.0029839230554,-24.07099935651251,-90.46772003173828,5356.25390625,True
1599559152.7532237,0.0,10,0.5,0.5,0.004395436096191406,-0.001,-0.02275,-0.5,0.02921617865836078,10,1,100,-0.0419514986007396,-10,-1,-100,15000.51213065465,0.0016065421163538143,0.002929443754566118,0.9999944186752832,22.72747786242632,0.022408040717419298,63.354179077935214,-24.442284318534973,-90.45340728759766,5356.25390625,True
1599559152.7882452,0.0,10,0.5,0.5,-0.0007223257064819331,-0.001,-0.02275,-0.5,0.024901577913139544,10,1,100,-0.055683640758520114,-10,-1,-100,14999.036545308423,0.001960333218948914,0.0028626156567996513,0.9999939812445234,22.93455412855715,0.022592838073152727,65.40376302407006,-24.999191775850363,-90.42904663085938,5356.25390625,True
1599559152.8102276,0.0,10,0.5,0.5,0.011301252746582032,-0.001,-0.02275,-0.5,0.03157962765304118,10,1,100,-0.02052473680590225,-10,-1,-100,14999.036545308423,0.001960333218948914,0.0028626156567996513,0.9999939812445234,22.93455412855715,0.022592838073152727,65.40376302407006,-24.999191775850363,-90.42904663085938,5356.25390625,True
1599559152.853145,0.0,10,0.5,0.5,-0.0032070802688598625,-0.001,-0.02275,-0.5,0.02170275618392951,10,1,100,-0.05599826327190176,-10,-1,-100,14997.50822699233,0.0022809634944653294,0.0027728883475408145,0.9999935541270998,23.14268791843194,0.022776412369764822,67.48392957770707,-25.556075428103906,-90.40040588378906,5356.25390625,True
1599559152.887428,0.0,10,0.5,0.5,0.000917164993286132,-0.001,-0.02275,-0.5,0.022536858699409305,10,1,100,-0.04587511626520026,-10,-1,-100,14996.483813610626,0.002478543686882877,0.0026990717118141236,0.9999932858940037,23.284223579688348,0.02290013867019177,68.89430502066854,-25.927317633343016,-90.38050079345703,5356.25390625,True
1599559152.9225316,0.0,10,0.5,0.5,-0.0002384754180908208,-0.001,-0.02275,-0.5,0.020789174494894175,10,1,100,-0.04590578766856789,-10,-1,-100,14995.445728085935,0.0026566641583546293,0.002616333117812227,0.9999930484441211,23.427462041752126,0.02302435325271361,70.32234303172648,-26.298548909395453,-90.35884857177734,5356.25390625,True
1599559152.9535766,0.0,10,0.5,0.5,-0.000666364097595214,-0.001,-0.02275,-0.5,0.0189980813569747,10,1,100,-0.04590336047340858,-10,-1,-100,14994.362721105455,0.0028167611878516974,0.0025251678463012292,0.9999928446662799,23.57237525505331,0.02314896261077508,71.76818737078129,-26.66976907928197,-90.33699035644531,5356.25390625,True
1599559152.9867182,0.0,10,0.5,0.5,0.009909982490539551,-0.001,-0.02275,-0.5,0.028068719309024062,10,1,100,-0.030108613933989906,-10,-1,-100,14994.362721105455,0.0028167611878516974,0.0025251678463012292,0.9999928446662799,23.57237525505331,0.02314896261077508,71.76818737078129,-26.66976907928197,-90.33699035644531,5356.25390625,True
1599559153.020003,0.0,10,0.5,0.5,-0.001353002357482912,-0.001,-0.02275,-0.5,0.017114983783985745,10,1,100,-0.04594781226870105,-10,-1,-100,14993.268971439335,0.002959052725808189,0.0024260045673519014,0.9999926792276057,23.717644222591396,0.023272641901561548,73.22799642866403,-27.04097822053099,-90.31517791748047,5356.25390625,True
1599559153.056023,0.0,10,0.5,0.5,-0.007634987449645997,-0.001,-0.02275,-0.5,0.008650475268138374,10,1,100,-0.052192828819478516,-10,-1,-100,14991.653737250133,0.003143720776424988,0.0022593912122454256,0.9999925060574355,23.93622739588218,0.023456371649173233,75.44405838096864,-27.59777098041884,-90.28156280517578,5356.25390625,True
1599559153.1747093,0.0,10,0.5,0.5,0.008749061012268066,-0.001,-0.02275,-0.5,0.025241782094207493,10,1,100,-0.033905175341438984,-10,-1,-100,14991.653737250133,0.003143720776424988,0.0022593912122454256,0.9999925060574355,23.93622739588218,0.023456371649173233,75.44405838096864,-27.59777098041884,-90.28156280517578,5356.25390625,True
1599559153.1971598,0.0,10,0.5,0.5,0.0024258638381958013,-0.001,-0.02275,-0.5,0.01885595549961922,10,1,100,-0.03955053548077551,-10,-1,-100,14991.077565938467,0.003193644797091619,0.002201947381878551,0.9999924760020135,24.009289168089563,0.023517130016902563,76.18986392996244,-27.78336299239626,-90.26972198486328,5356.25390625,True
1599559153.250254,0.0,10,0.5,0.5,-0.009488044738769531,-0.001,-0.02275,-0.5,0.0040882684748732995,10,1,100,-0.04874034252713601,-10,-1,-100,14989.394948077039,0.003321452778502613,0.0020160746252063577,0.9999924516687844,24.228558338317086,0.023697343769083855,78.4470683818556,-28.340122031262656,-90.23484802246094,5356.25390625,True
