Timestamp,Input Throttle,horizon,dT,dt,Input Roll,Roll P,Roll I,Roll D,Input Pitch,Pitch P,Pitch I,Pitch D,Input Yaw,Yaw P,Yaw I,Yaw D,Altitude,Direction X,Direction Y,Direction Z,Drag X,Drag Y,Drag Z,Vertical Velocity,Roll,Mass,Has Fuel
1599559017.5562956,0.0,10,0.5,0.5,-0.05828494262695313,-0.001,-0.02275,-0.12575,-0.0004932210220501357,10,1,100,0.1711422656095098,-10,-1,-100,14993.923617613735,-0.016776209216500897,-7.717671607930292e-05,0.9998592665210833,28.648963493471705,0.027034368774283116,-87.51342649106114,27.009297586359974,-31.79180908203125,5356.25390625,True
1599559017.584541,0.0,10,0.5,0.5,-0.1907865493774414,-0.001,-0.02275,-0.12575,-0.00029524662538410023,10,1,100,0.17718663187534467,-10,-1,-100,14995.010534701752,-0.016846635750943494,-7.277455056096783e-05,0.9998580827136118,28.50376989810197,0.027363264759025504,-85.87407452853923,26.63736663127635,-31.79058837890625,5356.25390625,True
1599559017.6179557,0.0,10,0.5,0.5,-0.32297435913085937,-0.001,-0.02275,-0.12575,0.0033607003025925794,10,1,100,0.17781667559406653,-10,-1,-100,14996.026162643451,-0.016901072419924286,-3.5470542062183426e-05,0.9998571660456792,28.358759182525294,0.027686184411790025,-84.2474504011795,26.265451284805867,-31.791259765625,5356.25390625,True
1599559017.651284,0.0,10,0.5,0.5,-0.45419945983886717,-0.001,-0.02275,-0.12575,0.0034967177392731916,10,1,100,0.17607794140919483,-10,-1,-100,14996.568155279616,-0.01691938901511715,-2.8903896431732713e-07,0.9998568568926613,28.287037489275395,0.02784597914079965,-83.44101135492731,26.079499507042318,-31.8013916015625,5356.25390625,True
1599559017.6863534,0.0,10,0.5,0.5,-0.5801778472900391,-0.001,-0.02275,-0.12575,0.009536269391560638,10,1,100,0.179114804277998,-10,-1,-100,14997.582805306884,-0.016948267046813313,8.65994234535962e-05,0.9998563640566829,28.147035993967865,0.0281633737415431,-81.8471657038933,25.707607450096468,-31.86212158203125,5356.25390625,True
1599559017.7052712,0.0,10,0.5,0.5,-0.7200783157348634,-0.001,-0.02275,-0.12575,0.0008560830921146446,10,1,100,0.17792182781306307,-10,-1,-100,14997.582805306884,-0.016948267046813313,8.65994234535962e-05,0.9998563640566829,28.147035993967865,0.0281633737415431,-81.8471657038933,25.707607450096468,-31.86212158203125,5356.25390625,True
1599559017.7516508,0.0,10,0.5,0.5,-0.8157806793212891,-0.001,-0.02275,-0.12575,0.024986302364525485,10,1,100,0.17865740290986165,-10,-1,-100,14999.1267510365,-0.016939546577650743,0.0003058863264541915,0.9998564687970461,27.952325162801984,0.02863698607277586,-79.52190358125091,25.149797583649267,-32.15057373046875,5356.25390625,True
1599559017.7848,0.0,10,0.5,0.5,-0.9355263076782226,-0.001,-0.02275,-0.12575,0.026454167031531865,10,1,100,0.17643462990634753,-10,-1,-100,15000.142374420539,-0.016896012263309505,0.0005183042022216505,0.9998571178575227,27.8369541787798,0.028951136938686933,-78.02578095351524,24.777942502923167,-32.53033447265625,5356.25390625,True
1599559017.8207994,0.0,10,0.5,0.5,-1.1140247100830076,-0.001,-0.02275,-0.12575,0.005264209875008132,10,1,100,0.1824776625668023,-10,-1,-100,15000.142374420539,-0.016896012263309505,0.0005183042022216505,0.9998571178575227,27.8369541787798,0.028951136938686933,-78.02578095351524,24.777942502923167,-32.53033447265625,5356.25390625,True
1599559017.8515801,0.0,10,0.5,0.5,-1.1721948501586914,-0.001,-0.02275,-0.12575,0.03411993435155236,10,1,100,0.17543230230442752,-10,-1,-100,15001.08866073226,-0.01681660352250309,0.0007801577845518511,0.9998582865585492,27.735070793638986,0.02926156062119222,-76.57654464507395,24.40610119230568,-33.1029052734375,5356.25390625,True
1599559017.885031,0.0,10,0.5,0.5,-1.2078883041381836,-0.001,-0.02275,-0.12575,0.06151439437890724,10,1,100,0.16467845503400588,-10,-1,-100,15002.561309247161,-0.016631363688836602,0.001266537807114758,0.9998608871357219,27.609151197943806,0.029710280158914318,-74.49122651167019,23.84836328711239,-34.41058349609375,5356.25390625,True
1599559017.9189513,0.0,10,0.5,0.5,-1.366371128845215,-0.001,-0.02275,-0.12575,0.013010763574935962,10,1,100,0.18318795384788814,-10,-1,-100,15002.561309247161,-0.016631363688836602,0.001266537807114758,0.9998608871357219,27.609151197943806,0.029710280158914318,-74.49122651167019,23.84836328711239,-34.41058349609375,5356.25390625,True
1599559017.9567132,0.0,10,0.5,0.5,-1.207620570373535,-0.001,-0.02275,-0.12575,0.05484507907514724,10,1,100,0.16373898626502276,-10,-1,-100,15003.508568581194,-0.016454750594503378,0.0016456322095187916,0.9998632571894538,27.54154599249573,0.029986202523737678,-73.15315232002848,23.47655305280505,-35.61602783203125,5356.25390625,True
1599559017.9855072,0.0,10,0.5,0.5,-1.056137339782715,-0.001,-0.02275,-0.12575,0.08834084560427767,10,1,100,0.1432793126424104,-10,-1,-100,15004.857191169634,-0.016108601950199808,0.00229324217764948,0.9998676182292958,27.45414548416249,0.0303318291203818,-71.19287848029715,22.918859091957234,-37.938446044921875,5356.25390625,True
1599559018.0184646,0.0,10,0.5,0.5,-1.094412715911865,-0.001,-0.02275,-0.12575,0.07583918114929905,10,1,100,0.14574580699319184,-10,-1,-100,15005.801517968997,-0.01581708111953541,0.002766241988889742,0.9998710756143099,27.3957067748157,0.030491387215882387,-69.89162062860322,22.547077265705834,-39.830413818359375,5356.25390625,True
1599559018.051443,0.0,10,0.5,0.5,-1.1812144165039062,-0.001,-0.02275,-0.12575,0.055420880353844355,10,1,100,0.1564934504479586,-10,-1,-100,15006.205809293664,-0.015650796382999543,0.0030081848622718135,0.9998729936328976,27.363493198211014,0.030542454760811206,-69.23523096925234,22.361190654039607,-40.879608154296875,5356.25390625,True
1599559018.0873463,0.0,10,0.5,0.5,-1.0005205497741698,-0.001,-0.02275,-0.12575,0.0875169471776023,10,1,100,0.13245404212302087,-10,-1,-100,15007.081775298226,-0.015282267883798243,0.0035172593678907526,0.9998770330269952,27.287182164812005,0.030573843630031825,-67.8968992280113,21.98942648300412,-43.18426513671875,5356.25390625,True
1599559018.1199727,0.0,10,0.5,0.5,-1.1061034950256348,-0.001,-0.02275,-0.12575,0.06644933967345545,10,1,100,0.14688847534360022,-10,-1,-100,15007.541731088073,-0.015079970712614922,0.0037856112383780564,0.9998791245099872,27.240567617676774,0.030548667996047604,-67.20924857134395,21.803549131878036,-44.439697265625,5356.25390625,True
1599559018.1518905,0.0,10,0.5,0.5,-1.069027822113037,-0.001,-0.02275,-0.12575,0.06985342663035454,10,1,100,0.143153310548911,-10,-1,-100,15007.957740520942,-0.01486375909663354,0.004057543450214546,0.9998812954579493,27.186589231273572,0.03049262743008922,-66.5055323305045,21.617675193700624,-45.76397705078125,5356.25390625,True
1599559018.1858006,0.0,10,0.5,0.5,-0.6495489097595214,-0.001,-0.02275,-0.12575,0.13316478541490787,10,1,100,0.08386760029108067,-10,-1,-100,15009.237019616761,-0.014130089582639897,0.004877094868790936,0.9998882710153307,26.96486088273216,0.030113519944392392,-64.26545597231,21.060076306989995,-50.1497802734375,5356.25390625,True
1599559018.2217042,0.0,10,0.5,0.5,-1.1622820243835448,-0.001,-0.02275,-0.12575,0.051619337265692726,10,1,100,0.15696590029645874,-10,-1,-100,15009.237019616761,-0.014130089582639897,0.004877094868790936,0.9998882710153307,26.96486088273216,0.030113519944392392,-64.26545597231,21.060076306989995,-50.1497802734375,5356.25390625,True
1599559018.2536175,0.0,10,0.5,0.5,-0.712267275238037,-0.001,-0.02275,-0.12575,0.11404648558847069,10,1,100,0.09550533789642664,-10,-1,-100,15010.0983354192,-0.013573631082736147,0.005441332074396485,0.9998930685050705,26.751202721134657,0.029663292812024126,-62.63345018362008,20.688365549208044,-53.417694091796875,5356.25390625,True
1599559018.286532,0.0,10,0.5,0.5,-0.6370375198364258,-0.001,-0.02275,-0.12575,0.11657175967900654,10,1,100,0.08409001056245353,-10,-1,-100,15010.90496308764,-0.012966763773065802,0.005973436758254326,0.9998980853519767,26.470015757694913,0.029042893626907592,-60.86415700224504,20.316675695008822,-56.912200927734375,5356.25390625,True
1599559018.319458,0.0,10,0.5,0.5,-0.555302089691162,-0.001,-0.02275,-0.12575,0.12688863353081287,10,1,100,0.07085159579018413,-10,-1,-100,15011.709637537482,-0.012297887890727981,0.006547023683551752,0.9999029445072727,26.110756281595734,0.028253652733319264,-58.94230977551655,19.94501024090839,-60.641754150390625,5356.25390625,True
1599559018.3553858,0.0,10,0.5,0.5,-0.7250228981018066,-0.001,-0.02275,-0.12575,0.09848532280907127,10,1,100,0.09889557692682902,-10,-1,-100,15012.099278724752,-0.011948228475353527,0.006806387353164578,0.999905451994087,25.896374401250533,0.027795753263021104,-57.915015923366646,19.759187753208366,-62.595367431640625,5356.25390625,True
1599559018.3862693,0.0,10,0.5,0.5,-0.1407261360168457,-0.001,-0.02275,-0.12575,0.15669550394219894,10,1,100,0.010374349591405777,-10,-1,-100,15013.238909013337,-0.010829134988003978,0.007567683112782603,0.9999127261954996,25.103151317278158,0.026203790771838074,-54.56112593234405,19.201767254959424,-68.73480224609375,5356.25390625,True
1599559018.4211812,0.0,10,0.5,0.5,-0.5786841751098633,-0.001,-0.02275,-0.12575,0.10824113895922827,10,1,100,0.07789029639498721,-10,-1,-100,15013.641245834995,-0.010429941935350578,0.007815130941453337,0.9999150664129395,24.785591690085717,0.025613662732061615,-53.35101457176249,19.01597750913642,-70.87054443359375,5356.25390625,True
1599559018.4540887,0.0,10,0.5,0.5,-0.22729157867431649,-0.001,-0.02275,-0.12575,0.13335400520035906,10,1,100,0.027701054929640492,-10,-1,-100,15014.376585526392,-0.009615184534115652,0.0082644751410065,0.9999196201080457,24.06114024616797,0.024369052132593313,-50.78232674629347,18.64442562805286,-75.26483154296875,5356.25390625,True
1599559018.493025,0.0,10,0.5,0.5,-0.7097460021972656,-0.001,-0.02275,-0.12575,0.0888674716353056,10,1,100,0.10863031643528322,-10,-1,-100,15014.376585526392,-0.009615184534115652,0.0082644751410065,0.9999196201080457,24.06114024616797,0.024369052132593313,-50.78232674629347,18.64442562805286,-75.26483154296875,5356.25390625,True
1599559018.5209239,0.0,10,0.5,0.5,0.21417260284423834,-0.001,-0.02275,-0.12575,0.1551095325695077,10,1,100,-0.032813949365523995,-10,-1,-100,15015.500592589844,-0.008334099003710602,0.008862851211598527,0.9999259935926247,22.810315007313584,0.022491907711804652,-46.70735643543454,18.08716819142925,-82.02462768554688,5356.25390625,True
1599559018.5538676,0.0,10,0.5,0.5,0.023307097625732576,-0.001,-0.02275,-0.12575,0.1335564684114215,10,1,100,-0.003621659642902647,-10,-1,-100,15016.183199704392,-0.007440129328619778,0.009207269095842487,0.9999299328809844,21.850652542648277,0.021281153410946493,-43.825952545973536,17.715708605981938,-86.65313720703125,5356.25390625,True
1599559018.5867455,0.0,10,0.5,0.5,-0.475682837677002,-0.001,-0.02275,-0.12575,0.09954769740973059,10,1,100,0.08510631184077774,-10,-1,-100,15016.183199704392,-0.007440129328619778,0.009207269095842487,0.9999299328809844,21.850652542648277,0.021281153410946493,-43.825952545973536,17.715708605981938,-86.65313720703125,5356.25390625,True
1599559018.6236777,0.0,10,0.5,0.5,0.8089855937957764,-0.001,-0.02275,-0.12575,0.15783911442718251,10,1,100,-0.11380412815418355,-10,-1,-100,15017.570876734215,-0.005637428512078418,0.009733767489618008,0.9999367345838582,21.67136978017389,0.02105805098844459,-41.64859545979335,16.97285919247209,-96.19205474853516,5356.25390625,True
1599559018.654565,0.0,10,0.5,0.5,-0.30117161960601807,-0.001,-0.02275,-0.12575,0.10556530812276677,10,1,100,0.06573301997385377,-10,-1,-100,15017.570876734215,-0.005637428512078418,0.009733767489618008,0.9999367345838582,21.67136978017389,0.02105805098844459,-41.64859545979335,16.97285919247209,-96.19205474853516,5356.25390625,True
1599559018.687478,0.0,10,0.5,0.5,0.6996185432434082,-0.001,-0.02275,-0.12575,0.13534902723598063,10,1,100,-0.08591764481464258,-10,-1,-100,15018.569888485363,-0.004264841067981769,0.01000163153264171,0.9999408875015313,22.795504099166507,0.02250127901703808,-42.37455792811576,16.415713999658568,-103.44975280761719,5356.25390625,True
1599559018.7209215,0.0,10,0.5,0.5,0.48048582153320313,-0.001,-0.02275,-0.12575,0.12158096037003413,10,1,100,-0.04840619760676901,-10,-1,-100,15019.22222647653,-0.003365032354699458,0.010117075287355129,0.9999431590569945,23.40912778574005,0.023449483792371717,-42.53291337037461,16.044271621462364,-108.18804931640625,5356.25390625,True
1599559018.7578087,0.0,10,0.5,0.5,-0.02559882736206055,-0.001,-0.02275,-0.12575,0.11029152411614956,10,1,100,0.04082826345813159,-10,-1,-100,15019.22222647653,-0.003365032354699458,0.010117075287355129,0.9999431590569945,23.40912778574005,0.023449483792371717,-42.53291337037461,16.044271621462364,-108.18804931640625,5356.25390625,True
1599559018.786732,0.0,10,0.5,0.5,0.35542112350463867,-0.001,-0.02275,-0.12575,0.11514749288405643,10,1,100,-0.006712700505207635,-10,-1,-100,15019.554256033967,-0.0029392644182878753,0.010159127781294372,0.9999440748598908,23.66765654617262,0.02389326216471644,-42.50597364122218,15.858546774479475,-110.52432250976562,5356.25390625,True
1599559018.8226326,0.0,10,0.5,0.5,0.7190909942626953,-0.001,-0.02275,-0.12575,0.1167591652582548,10,1,100,-0.05696568883476965,-10,-1,-100,15020.150931201992,-0.0021014263277502614,0.010210286476786134,0.9999456655526093,24.106474422847967,0.024707529537411507,-42.2821301416923,15.487090379776788,-115.0784912109375,5356.25390625,True
1599559018.8964381,0.0,10,0.5,0.5,1.0877599464416503,-0.001,-0.02275,-0.12575,0.10989605324145355,10,1,100,-0.1108226978479083,-10,-1,-100,15021.065964615205,-0.0008569768527842297,0.010192633534957016,0.9999476865377988,24.650382253492847,0.025747473137905538,-41.68355672451995,14.929892990328781,-121.79075622558594,5356.25390625,True
1599559019.021103,0.0,10,0.5,0.5,1.4195773494720458,-0.001,-0.02275,-0.12575,0.09699002621003555,10,1,100,-0.15389346340038754,-10,-1,-100,15022.245647672913,0.0006590958820702228,0.010058048994532783,0.999949199331167,24.978851386236517,0.026432444686045834,-40.14069387283192,14.186957955182592,-130.3542022705078,5356.25390625,True
1599559019.0590029,0.0,10,0.5,0.5,1.632655143737793,-0.001,-0.02275,-0.12575,0.082629378147766,10,1,100,-0.1816633525454711,-10,-1,-100,15023.576702642138,0.0022824344285198575,0.009804374630036765,0.9999493310819271,24.825221078424953,0.026094433496583337,-37.28649424993835,13.258330079244178,-139.74679565429688,5356.25390625,True
1599559019.1437774,0.0,10,0.5,0.5,1.1824230827331543,-0.001,-0.02275,-0.12575,0.09219285057995272,10,1,100,-0.10851110457038295,-10,-1,-100,15024.352094760397,0.0030843376130122334,0.009660159406665543,0.9999485827689976,24.547892145785582,0.02542223874537215,-35.32290239630241,12.701197302054522,-144.56019592285156,5356.25390625,True
1599559019.1996284,0.0,10,0.5,0.5,1.3781270277023316,-0.001,-0.02275,-0.12575,0.09437565695391326,10,1,100,-0.12376707058046044,-10,-1,-100,15025.319872667547,0.003944102229801379,0.00954896526889403,0.9999466292357279,24.09194017680795,0.024240273712106023,-32.642289249629954,11.958415611789833,-150.01148986816406,5356.25390625,True
1599559019.2375228,0.0,10,0.5,0.5,1.1080651630401612,-0.001,-0.02275,-0.12575,0.10157539442007393,10,1,100,-0.07752764386012728,-10,-1,-100,15025.831594612217,0.004296637519659501,0.009513499849903864,0.9999455146289875,23.824192870637393,0.023563746506667666,-31.27845434749509,11.587051740477946,-152.3231201171875,5356.25390625,True
1599559019.2724319,0.0,10,0.5,0.5,1.1865322288513183,-0.001,-0.02275,-0.12575,0.10519084053121448,10,1,100,-0.0754869014124098,-10,-1,-100,15026.288629611721,0.004590788780380688,0.00951457000790748,0.9999441972509959,23.546074403385543,0.022866056182434837,-29.923895309286557,11.21570475516928,-154.35836791992188,5356.25390625,True
1599559019.3123236,0.0,10,0.5,0.5,1.2586373001098632,-0.001,-0.02275,-0.12575,0.10569219867837096,10,1,100,-0.07423906315092832,-10,-1,-100,15026.676328175818,0.0048396224685364085,0.00952064841222987,0.9999429660276494,23.26809675925865,0.022168519809463886,-28.592828161277804,10.84437317572327,-156.11773681640625,5356.25390625,True
1599559019.3711653,0.0,10,0.5,0.5,1.3344497161865234,-0.001,-0.02275,-0.12575,0.10768647167899684,10,1,100,-0.07215788410579596,-10,-1,-100,15027.118714356562,0.0050394563257011,0.009544846195142391,0.9999417481988899,22.999237121680718,0.02148772930129589,-27.295880417899866,10.473055028336939,-157.60107421875,5356.25390625,True
1599559019.412058,0.0,10,0.5,0.5,1.4080534080505371,-0.001,-0.02275,-0.12575,0.10916206669591011,10,1,100,-0.06989284922429873,-10,-1,-100,15027.506412674556,0.005193278859888128,0.00958081711756767,0.9999406171358594,22.747390634469525,0.020835990016688746,-26.040934489611754,10.10174855219814,-158.80844116210938,5356.25390625,True
1599559019.4738953,0.0,10,0.5,0.5,1.5196931427001954,-0.001,-0.02275,-0.12575,0.11353031836286832,10,1,100,-0.07106919373214346,-10,-1,-100,15028.083565306035,0.005337180018140706,0.00965380157979865,0.9999391574613486,22.414931266189583,0.019929868553692345,-24.247071118470974,9.54480599231253,-160.1021728515625,5356.25390625,True
1599559019.5447018,0.0,10,0.5,0.5,1.509771751022339,-0.001,-0.02275,-0.12575,0.11299660991515245,10,1,100,-0.06154118548981107,-10,-1,-100,15028.457591000712,0.005375749944466461,0.00971578904317045,0.9999383504775698,22.230222991231535,0.019379974853045556,-23.11274176832163,9.173519692384875,-160.61978149414062,5356.25390625,True
1599559019.6055417,0.0,10,0.5,0.5,1.5398436256408692,-0.001,-0.02275,-0.12575,0.12385632255580432,10,1,100,-0.051060739641603015,-10,-1,-100,15029.147047475213,0.005311248866085804,0.009871177088379252,0.9999371732755874,21.96164581788699,0.018416395305343378,-20.986757842293432,8.430958764957321,-160.82733154296875,5356.25390625,True
1599559019.6619117,0.0,10,0.5,0.5,1.489651271057129,-0.001,-0.02275,-0.12575,0.12368949197767506,10,1,100,-0.03906525042842123,-10,-1,-100,15029.645094706211,0.005140808152494858,0.01001086157653304,0.9999366753660127,21.85181067684861,0.017809954896746347,-19.503415394645273,7.874040809840372,-160.25888061523438,5356.25390625,True
1599559019.6948223,0.0,10,0.5,0.5,1.4461452548980713,-0.001,-0.02275,-0.12575,0.12639332272953252,10,1,100,-0.025665884910400703,-10,-1,-100,15030.084549162886,0.004862180116757918,0.01016210893426258,0.9999365433598876,21.8167778434504,0.01729626130457531,-18.095758137985417,7.317119030954337,-159.0699005126953,5356.25390625,True
1599559019.7227824,0.0,10,0.5,0.5,1.4721167255401613,-0.001,-0.02275,-0.12575,0.12251195822546004,10,1,100,-0.026707465561706674,-10,-1,-100,15030.387283430435,0.004617516201202612,0.010263763997011168,0.9999366648407014,21.83019247605099,0.017001315206234,-17.18861075296651,6.945833718931327,-157.9326171875,5356.25390625,True
1599559019.7557068,0.0,10,0.5,0.5,1.5427160808563232,-0.001,-0.02275,-0.12575,0.11789951511172352,10,1,100,-0.03581268053251092,-10,-1,-100,15030.51032925793,0.0044775774334491515,0.010313564331069456,0.9999367888477334,21.846314522687234,0.016867153715902725,-16.741794790021796,6.760189513898049,-157.2606201171875,5356.25390625,True
1599559019.7935715,0.0,10,0.5,0.5,1.6338223361968993,-0.001,-0.02275,-0.12575,0.11299938113821101,10,1,100,-0.04979523617316383,-10,-1,-100,15030.51032925793,0.0044775774334491515,0.010313564331069456,0.9999367888477334,21.846314522687234,0.016867153715902725,-16.741794790021796,6.760189513898049,-157.2606201171875,5356.25390625,True
1599559019.8564398,0.0,10,0.5,0.5,1.2083935871124267,-0.001,-0.02275,-0.12575,0.13309616680059208,10,1,100,0.024283029113160305,-10,-1,-100,15031.046459653648,0.0038044677899690114,0.010495541549892157,0.9999376828744927,21.955253713537868,0.016411373452650268,-14.977859165120517,6.017600762239648,-153.8836669921875,5356.25390625,True
1599559019.8903236,0.0,10,0.5,0.5,1.211871418380737,-0.001,-0.02275,-0.12575,0.12864424803804597,10,1,100,0.025806279046685095,-10,-1,-100,15031.345285797142,0.0031798249224420515,0.010619639127930784,0.9999385541013284,22.056824594990864,0.016148107479592704,-13.654966600610805,5.460645986116624,-150.6275177001953,5356.25390625,True
1599559019.9262533,0.0,10,0.5,0.5,1.283990835571289,-0.001,-0.02275,-0.12575,0.12069873652888866,10,1,100,0.014429535549625491,-10,-1,-100,15031.577705455245,0.0027172231236975808,0.010659278801509594,0.9999394964066214,22.115580481180668,0.016005376924354858,-12.760657059908386,5.08933679675945,-148.11288452148438,5356.25390625,True
1599559019.960136,0.0,10,0.5,0.5,1.4004690193176268,-0.001,-0.02275,-0.12575,0.11853677090002826,10,1,100,-0.004518407209004035,-10,-1,-100,15031.70368043473,0.0024713118380032787,0.010674746565208226,0.9999399693999474,22.137669734566913,0.015942153777986558,-12.307570912769036,4.90368052996788,-146.7522430419922,5356.25390625,True
1599559019.9890587,0.0,10,0.5,0.5,1.1689384395599365,-0.001,-0.02275,-0.12575,0.11831880735219247,10,1,100,0.02831323195751055,-10,-1,-100,15031.865787149989,0.0019519270750460197,0.010685954902206623,0.9999409984336685,22.158548167825625,0.015827403530609976,-11.386588865561867,4.532364475208967,-143.82456970214844,5356.25390625,True
1599559020.059866,0.0,10,0.5,0.5,1.299792724609375,-0.001,-0.02275,-0.12575,0.11659775970172881,10,1,100,0.006649210347159564,-10,-1,-100,15031.934145472362,0.001679758688625375,0.010679757704642925,0.9999415588853771,22.153343480430262,0.01577318697195987,-10.91770611400903,4.346704695401463,-142.25755310058594,5356.25390625,True
1599559020.0967693,0.0,10,0.5,0.5,0.5742565937042236,-0.001,-0.02275,-0.12575,0.104375158355664,10,1,100,0.10734216724740663,-10,-1,-100,15032.258357654442,0.0005200887741169697,0.010562401243595239,0.9999440810303526,21.977512307466476,0.015532783473522603,-8.980867870095606,3.6040507161513275,-135.30184936523438,5356.25390625,True
1599559020.2393866,0.0,10,0.5,0.5,0.9017466438293458,-0.001,-0.02275,-0.12575,0.10406413251114431,10,1,100,0.06036373123910204,-10,-1,-100,15032.421440223115,-0.00010313255595822903,0.01045252214195686,0.9999453655798141,21.766272314730028,0.015368641488393123,-7.978250722800418,3.232711185652977,-131.411376953125,5356.25390625,True
1599559020.4568088,0.0,10,0.5,0.5,-0.2927838378906249,-0.001,-0.02275,-0.12575,0.042366715980193426,10,1,100,0.20016553349338467,-10,-1,-100,15032.714396586525,-0.0019363313776499238,0.009791574846417921,0.9999501866007242,20.50429680360784,0.014522926598806584,-4.9257587033982455,2.1186080575677595,-118.60331726074219,5356.25390625,True
1599559020.5375896,0.0,10,0.5,0.5,0.34415640296936034,-0.001,-0.02275,-0.12575,0.0533350286921192,10,1,100,0.11615904672815772,-10,-1,-100,15032.805208953796,-0.0028333496005847657,0.009290900138295166,0.9999528245395685,19.45007734082351,0.013799940439003303,-3.443877109991286,1.5614912770706946,-111.61532592773438,5356.25390625,True
1599559020.6357868,0.0,10,0.5,0.5,0.21150926628112787,-0.001,-0.02275,-0.12575,0.03719308308377281,10,1,100,0.11096090974951611,-10,-1,-100,15032.8823506505,-0.003594918624325122,0.008689926047373854,0.999955779894979,18.240017253482826,0.012918353509362051,-2.0772750586569906,1.0043232169611853,-104.45521545410156,5356.25390625,True
1599559020.673686,0.0,10,0.5,0.5,0.09983967704772945,-0.001,-0.02275,-0.12575,0.021870311218139635,10,1,100,0.11172441634716695,-10,-1,-100,15032.891130986274,-0.004287468354600186,0.008005929507305557,0.9999587605035681,16.94994285351199,0.011948802200134636,-0.8593936751561256,0.4471161466503384,-97.35774993896484,5356.25390625,True
1599559020.712611,0.0,10,0.5,0.5,-0.04784311275482178,-0.001,-0.02275,-0.12575,0.008369606373767005,10,1,100,0.10661678835292221,-10,-1,-100,15032.896006210358,-0.004863837588287072,0.007263756890131559,0.9999617897298656,15.608643420647775,0.01097591382570793,0.19487863137389147,-0.11009994410131663,-90.10725402832031,5356.25390625,True
1599559020.7564976,0.0,10,0.5,0.5,0.11015217914581299,-0.001,-0.02275,-0.12575,0.02551694350534106,10,1,100,0.08584218695536089,-10,-1,-100,15032.919438724988,-0.005192057732831879,0.006748026231998033,0.9999637526823015,15.652349917030127,0.010999477875381256,0.8547905097027055,-0.4815731835458752,-85.20159912109375,5356.25390625,True
1599559020.7904093,0.0,10,0.5,0.5,0.27444850368499757,-0.001,-0.02275,-0.12575,0.047927519138927566,10,1,100,0.07002188252063193,-10,-1,-100,15032.902833911823,-0.005339652033401591,0.006486482430666713,0.9999647062080935,16.21875140017173,0.011396472817826445,1.2273401144310667,-0.6673081288292433,-82.73562622070312,5356.25390625,True
1599559020.8233225,0.0,10,0.5,0.5,-0.4927301061630249,-0.001,-0.02275,-0.12575,-0.013337750183796473,10,1,100,0.09839557094320289,-10,-1,-100,15032.840327136335,-0.005725142584026112,0.005695576046951241,0.9999673910462711,17.709550492486798,0.01245627796718875,2.459254426539082,-1.2245142101589939,-75.3328857421875,5356.25390625,True
1599559020.8652122,0.0,10,0.5,0.5,-0.028747686195373545,-0.001,-0.02275,-0.12575,0.035269107826643026,10,1,100,0.07280767093787541,-10,-1,-100,15032.810051057138,-0.005836239537933926,0.005422981845175435,0.9999682642844036,18.134103121979738,0.01275862097614722,2.9002102763559168,-1.4102535694136393,-72.85037231445312,5356.25390625,True
1599559020.9120831,0.0,10,0.5,0.5,-0.8021757638931274,-0.001,-0.02275,-0.12575,-0.024448128635296787,10,1,100,0.09241513517242247,-10,-1,-100,15032.676256259088,-0.006109707963335047,0.00463695716608745,0.9999705846157888,19.204675310505777,0.013489782577209697,4.285199575431953,-1.9674971013523934,-65.4063720703125,5356.25390625,True
1599559020.9579272,0.0,10,0.5,0.5,-0.636048003578186,-0.001,-0.02275,-0.12575,-0.005534924574016886,10,1,100,0.08119832643400214,-10,-1,-100,15032.630353954388,-0.0062508841111619026,0.004099614371997162,0.9999720594145767,19.75335992202637,0.013840582995560211,5.240036473340651,-2.339014268133949,-60.5164794921875,5356.25390625,True
1599559020.9938643,0.0,10,0.5,0.5,-0.7671092329025269,-0.001,-0.02275,-0.12575,-0.008671575375855937,10,1,100,0.07971892866825109,-10,-1,-100,15032.528788167983,-0.006361854672467205,0.0035877804250569276,0.9999733269626486,20.17253104246704,0.014101282152148934,6.201392506002557,-2.7105462484556972,-55.673736572265625,5356.25390625,True
1599559021.0616481,0.0,10,0.5,0.5,-0.8772289258956909,-0.001,-0.02275,-0.12575,-0.012816972680682118,10,1,100,0.07829584721080979,-10,-1,-100,15032.411597539904,-0.006446592164884485,0.0030899760611703296,0.9999744464222078,20.479369011112833,0.014292587572980879,7.158904773464185,-3.0820905535131393,-51.004486083984375,5356.25390625,True
1599559021.0965548,0.0,10,0.5,0.5,-1.252240818977356,-0.001,-0.02275,-0.12575,-0.04228457232112362,10,1,100,0.07898026962211588,-10,-1,-100,15032.153780657914,-0.00652725584032974,0.0023746302336205027,0.9999758777402825,20.723291030238247,0.01446003723453366,8.55454176772593,-3.6394230717539955,-44.372772216796875,5356.25390625,True
1599559021.1264741,0.0,10,0.5,0.5,-1.0640507854461672,-0.001,-0.02275,-0.12575,-0.020571864303617106,10,1,100,0.0743357113646755,-10,-1,-100,15032.022918938426,-0.006556327027043487,0.0019268234626195239,0.9999766506910339,20.756211929517125,0.014508930701658828,9.443212255429703,-4.010984930536138,-40.2291259765625,5356.25390625,True
1599559021.1559496,0.0,10,0.5,0.5,-0.6564600120544433,-0.001,-0.02275,-0.12575,0.02367511945372957,10,1,100,0.07159784163717642,-10,-1,-100,15032.022918938426,-0.006556327027043487,0.0019268234626195239,0.9999766506910339,20.756211929517125,0.014508930701658828,9.443212255429703,-4.010984930536138,-40.2291259765625,5356.25390625,True
1599559021.1948037,0.0,10,0.5,0.5,-1.4875152626037598,-0.001,-0.02275,-0.12575,-0.045323226422182616,10,1,100,0.07369206329419695,-10,-1,-100,15031.749479664373,-0.006574125160930754,0.00130394868444703,0.9999775400458736,20.638210596066084,0.014517442599444052,10.694851086243977,-4.568331773201704,-34.47967529296875,5356.25390625,True
1599559021.2356956,0.0,10,0.5,0.5,-0.8743041275024415,-0.001,-0.02275,-0.12575,0.016445998020444812,10,1,100,0.07203569721822314,-10,-1,-100,15031.749479664373,-0.006574125160930754,0.00130394868444703,0.9999775400458736,20.638210596066084,0.014517442599444052,10.694851086243977,-4.568331773201704,-34.47967529296875,5356.25390625,True
1599559021.3005223,0.0,10,0.5,0.5,-1.8253838378906249,-0.001,-0.02275,-0.12575,-0.06557856892030627,10,1,100,0.07033118642632127,-10,-1,-100,15031.319789831177,-0.00655785780593446,0.0005622631916788422,0.9999783389459496,20.25913799225247,0.014478749289400617,12.207198097488604,-5.311464497361616,-27.7093505859375,5356.25390625,True
1599559021.3600261,0.0,10,0.5,0.5,-1.6345382041931151,-0.001,-0.02275,-0.12575,-0.04603312853014018,10,1,100,0.06718145898660242,-10,-1,-100,15030.9779914947,-0.0065137793989694754,7.01083096669964e-05,0.9999787826562954,19.969911811501163,0.014510602793591705,13.296482913459185,-5.868818708890622,-23.308349609375,5356.25390625,True
1599559021.3989174,0.0,10,0.5,0.5,-1.5093642601013182,-0.001,-0.02275,-0.12575,-0.029134809942210158,10,1,100,0.06903850134617731,-10,-1,-100,15030.793420892209,-0.0064902229855105025,-0.00021953246058402641,0.9999789141832427,19.759880707923788,0.01453816766572792,13.990294762379063,-6.240392215005201,-20.68524169921875,5356.25390625,True
1599559021.4368155,0.0,10,0.5,0.5,-1.704694277191162,-0.001,-0.02275,-0.12575,-0.042747885128785246,10,1,100,0.06807931520769522,-10,-1,-100,15030.381311856094,-0.0064598706094031,-0.000602670983569656,0.9999789532082138,19.4588067160439,0.014601099252549394,15.008796979630887,-6.7977609331467725,-17.256683349609375,5356.25390625,True
1599559021.493665,0.0,10,0.5,0.5,-1.6071450141906738,-0.001,-0.02275,-0.12575,-0.029354768269226207,10,1,100,0.06874991805880018,-10,-1,-100,15030.068812073092,-0.006438284824372838,-0.0008254136226436674,0.9999789333685344,19.30183498135135,0.014676582366973287,15.702379733620464,-7.169346030101014,-15.3143310546875,5356.25390625,True
1599559021.5325608,0.0,10,0.5,0.5,-1.747975225830078,-0.001,-0.02275,-0.12575,-0.03833684952570356,10,1,100,0.06973291832093916,-10,-1,-100,15029.641077476088,-0.006427605301583419,-0.0011060027698754592,0.999978731097797,19.10713573325526,0.0148126826630761,16.753920311917582,-7.7267328439018055,-12.91680908203125,5356.25390625,True
1599559021.595652,0.0,10,0.5,0.5,-1.6018941551208494,-0.001,-0.02275,-0.12575,-0.01947235099811806,10,1,100,0.07053333000171567,-10,-1,-100,15029.483851645142,-0.0064252637057262306,-0.0011864241598322236,0.9999786539641857,19.057075928566693,0.01486606806941683,17.1123552079442,-7.912530415545394,-12.25531005859375,5356.25390625,True
1599559021.6255693,0.0,10,0.5,0.5,-1.7238695014953613,-0.001,-0.02275,-0.12575,-0.027183746732525396,10,1,100,0.07117167100270913,-10,-1,-100,15029.159633409232,-0.006429057230702652,-0.0013268078868125745,0.9999784531698449,19.01304572211844,0.015011106606851288,17.875737155982012,-8.284128370148828,-11.1387939453125,5356.25390625,True
1599559021.6634395,0.0,10,0.5,0.5,-1.7562762336730957,-0.001,-0.02275,-0.12575,-0.025934703747677278,10,1,100,0.07225538231962574,-10,-1,-100,15028.83150898898,-0.006442473510649859,-0.0014401166738875178,0.9999782100621143,19.012369342727997,0.015184008316270928,18.678154465904484,-8.655728736012735,-10.29754638671875,5356.25390625,True
1599559021.691404,0.0,10,0.5,0.5,-1.8000053215026854,-0.001,-0.02275,-0.12575,-0.028269887092797805,10,1,100,0.07375237289893673,-10,-1,-100,15028.280728055397,-0.0064683988173685845,-0.0015618589967673487,0.9999778599615163,19.08246527948714,0.0154932460131936,19.95635692365291,-9.213131636669354,-9.551971435546875,5356.25390625,True
1599559021.7273395,0.0,10,0.5,0.5,-1.777012615966797,-0.001,-0.02275,-0.12575,-0.019321196289901303,10,1,100,0.07262769528983079,-10,-1,-100,15028.05416667147,-0.006481839050978792,-0.001588576821467032,0.9999777308451421,19.12608377272062,0.01561243392742265,20.40609423774941,-9.398932508779119,-9.44110107421875,5356.25390625,True
1599559021.7580771,0.0,10,0.5,0.5,-1.809961181640625,-0.001,-0.02275,-0.12575,-0.019093752932002626,10,1,100,0.07284534422146179,-10,-1,-100,15027.886197280372,-0.006496105179780131,-0.0016088427770193506,0.9999776058704576,19.180017440854705,0.015740728731174956,20.868942747785034,-9.584733086760398,-9.3990478515625,5356.25390625,True
1599559021.7973416,0.0,10,0.5,0.5,-1.799968086242676,-0.001,-0.02275,-0.12575,-0.01945114890137571,10,1,100,0.077037141304678,-10,-1,-100,15027.26315234194,-0.0065471977014643955,-0.0016289891080733172,0.999977240039364,19.404452413078214,0.016187164535363376,22.34355677496696,-10.1421308743896,-9.685821533203125,5356.25390625,True
1599559021.8253026,0.0,10,0.5,0.5,-1.8610535575866698,-0.001,-0.02275,-0.12575,-0.017577461460727986,10,1,100,0.07193358660784696,-10,-1,-100,15027.26315234194,-0.0065471977014643955,-0.0016289891080733172,0.999977240039364,19.404452413078214,0.016187164535363376,22.34355677496696,-10.1421308743896,-9.685821533203125,5356.25390625,True
1599559021.86121,0.0,10,0.5,0.5,-1.7634216850280762,-0.001,-0.02275,-0.12575,-0.013201946331789172,10,1,100,0.07865948840303255,-10,-1,-100,15026.64205864293,-0.0066082628749733,-0.0015882786813334155,0.9999769038495867,19.721022688359454,0.016738742874203228,23.95898759586346,-10.69951895494272,-10.59197998046875,5356.25390625,True
1599559021.8911586,0.0,10,0.5,0.5,-1.888114458465576,-0.001,-0.02275,-0.12575,-0.01734927551164831,10,1,100,0.07256996885720218,-10,-1,-100,15026.64205864293,-0.0066082628749733,-0.0015882786813334155,0.9999769038495867,19.721022688359454,0.016738742874203228,23.95898759586346,-10.69951895494272,-10.59197998046875,5356.25390625,True
1599559021.9294758,0.0,10,0.5,0.5,-1.7000369743347168,-0.001,-0.02275,-0.12575,-0.006085879973831414,10,1,100,0.07991231644049909,-10,-1,-100,15026.003388423007,-0.006674847255209281,-0.001485445743797391,0.9999766196592108,20.122855429310356,0.017408499676004906,25.72400478691754,-11.256891719715787,-12.1175537109375,5356.25390625,True
1599559021.956409,0.0,10,0.5,0.5,-1.719673871612549,-0.001,-0.02275,-0.12575,-0.005064419612523581,10,1,100,0.07839755098289644,-10,-1,-100,15025.55221690645,-0.006721381020764255,-0.0013824034140400565,0.9999764557218208,20.434955907825714,0.01792667866531438,26.987645805256292,-11.628462355002432,-13.4786376953125,5356.25390625,True
1599559021.9926002,0.0,10,0.5,0.5,-1.7861586799621583,-0.001,-0.02275,-0.12575,-0.008653764239158425,10,1,100,0.0763488805188581,-10,-1,-100,15025.311982224695,-0.006744794418150191,-0.0013213084331144078,0.9999763806672042,20.6216946399662,0.01822432275089111,27.67062242280414,-11.814243600394965,-14.262451171875,5356.25390625,True
1599559022.023596,0.0,10,0.5,0.5,-1.7676398719787596,-0.001,-0.02275,-0.12575,-0.007098257549887559,10,1,100,0.0763581960381572,-10,-1,-100,15025.03073293122,-0.006765889174215124,-0.0012517345789529676,0.9999763276719236,20.816006001788356,0.01853702123223314,28.37187196201607,-12.000021797907493,-15.115020751953125,5356.25390625,True
1599559022.0624826,0.0,10,0.5,0.5,-1.4856656745910644,-0.001,-0.02275,-0.12575,0.013291503569142844,10,1,100,0.08094066047751076,-10,-1,-100,15024.325654727872,-0.00682645454703478,-0.0010034060871948495,0.9999761960639572,21.435475375545188,0.01955871384483405,30.577374651966064,-12.55733521876903,-18.085662841796875,5356.25390625,True
1599559022.0894117,0.0,10,0.5,0.5,-1.8395575393676757,-0.001,-0.02275,-0.12575,-0.011482828533241745,10,1,100,0.07491858474515072,-10,-1,-100,15024.325654727872,-0.00682645454703478,-0.0010034060871948495,0.9999761960639572,21.435475375545188,0.01955871384483405,30.577374651966064,-12.55733521876903,-18.085662841796875,5356.25390625,True
1599559022.1273937,0.0,10,0.5,0.5,-1.5251698188781737,-0.001,-0.02275,-0.12575,0.010497892169987593,10,1,100,0.07878049524017762,-10,-1,-100,15023.7885451552,-0.0068612625066557026,-0.0008041317505198778,0.9999761379397722,21.87962707502546,0.020308551696940486,32.13744414288373,-12.92885757322928,-20.410125732421875,5356.25390625,True
1599559022.1592758,0.0,10,0.5,0.5,-1.0991587608337403,-0.001,-0.02275,-0.12575,0.043242043330496076,10,1,100,0.07954329689075215,-10,-1,-100,15022.717256353586,-0.00689955515331159,-0.00032604903149942044,0.9999761446308184,22.839947700144382,0.021945529024240528,35.482864647978246,-13.671845171284362,-25.884796142578125,5356.25390625,True
1599559022.1952133,0.0,10,0.5,0.5,-1.7507458976745605,-0.001,-0.02275,-0.12575,-0.00443593456389227,10,1,100,0.07574926797034813,-10,-1,-100,15022.717256353586,-0.00689955515331159,-0.00032604903149942044,0.9999761446308184,22.839947700144382,0.021945529024240528,35.482864647978246,-13.671845171284362,-25.884796142578125,5356.25390625,True
1599559022.226091,0.0,10,0.5,0.5,-1.520669691467285,-0.001,-0.02275,-0.12575,0.010492521912633165,10,1,100,0.07571516249941691,-10,-1,-100,15022.42233482434,-0.006898980292413726,-0.00019148327230358376,0.9999761834189259,23.074785778085264,0.022356017715728455,36.3364975020637,-13.85757909268201,-27.425506591796875,5356.25390625,True
1599559022.2600005,0.0,10,0.5,0.5,-1.0379349113464356,-0.001,-0.02275,-0.12575,0.04537188863721566,10,1,100,0.07339193413886948,-10,-1,-100,15021.592256317846,-0.006877073145213018,0.00024666457408971794,0.9999763222304532,23.737800953378986,0.023527476945011082,38.889357530001234,-14.41474800505667,-32.460479736328125,5356.25390625,True
1599559022.2898319,0.0,10,0.5,0.5,-1.6248026275634766,-0.001,-0.02275,-0.12575,0.001730315029674208,10,1,100,0.07560287144794066,-10,-1,-100,15021.592256317846,-0.006877073145213018,0.00024666457408971794,0.9999763222304532,23.737800953378986,0.023527476945011082,38.889357530001234,-14.41474800505667,-32.460479736328125,5356.25390625,True
1599559022.3266993,0.0,10,0.5,0.5,-0.6085821479797361,-0.001,-0.02275,-0.12575,0.07344551909593638,10,1,100,0.06462703090454973,-10,-1,-100,15020.380341264769,-0.006777151238341783,0.0008971400037938017,0.999976632407431,24.44593593936038,0.02476405750783991,42.121823585044616,-15.157565173013957,-40.137298583984375,5356.25390625,True
1599559022.3565414,0.0,10,0.5,0.5,-0.9762346160888672,-0.001,-0.02275,-0.12575,0.04804693564232479,10,1,100,0.0662590346125901,-10,-1,-100,15019.772919145762,-0.006701120123240854,0.0012555683190038558,0.9999767589985731,24.682571000900325,0.02514544977486687,43.57604057253951,-15.528945652733526,-44.388519287109375,5356.25390625,True
1599559022.389473,0.0,10,0.5,0.5,-1.4442284103393555,-0.001,-0.02275,-0.12575,0.012454834411115067,10,1,100,0.07385566921758563,-10,-1,-100,15019.772919145762,-0.006701120123240854,0.0012555683190038558,0.9999767589985731,24.682571000900325,0.02514544977486687,43.57604057253951,-15.528945652733526,-44.388519287109375,5356.25390625,True
1599559022.4235826,0.0,10,0.5,0.5,-1.103909393310547,-0.001,-0.02275,-0.12575,0.03143673522654376,10,1,100,0.06743416467692058,-10,-1,-100,15019.477997857379,-0.006642856749620075,0.001426077440593027,0.999976919112305,24.762581398571843,0.025258012630284987,44.242315160964594,-15.714630516150649,-46.60137939453125,5356.25390625,True
1599559022.4586105,0.0,10,0.5,0.5,-0.7371922813415526,-0.001,-0.02275,-0.12575,0.05357933230050696,10,1,100,0.05901695120008536,-10,-1,-100,15018.859832886606,-0.006513536830900333,0.0017801734485939499,0.9999772021503518,24.835530359196113,0.025308960020114724,45.42597587980624,-16.08599222528753,-51.178192138671875,5356.25390625,True
1599559022.4905262,0.0,10,0.5,0.5,-0.311069441986084,-0.001,-0.02275,-0.12575,0.07951179411302767,10,1,100,0.04538599434366668,-10,-1,-100,15017.830534025212,-0.006272371593074721,0.0023354791948912374,0.9999776011949111,24.690717651288285,0.024913192946995084,46.7324648120668,-16.643026367529117,-58.528564453125,5356.25390625,True
1599559022.5233917,0.0,10,0.5,0.5,-1.1611141876220703,-0.001,-0.02275,-0.12575,0.024247372305937986,10,1,100,0.06943979977020422,-10,-1,-100,15017.830534025212,-0.006272371593074721,0.0023354791948912374,0.9999776011949111,24.690717651288285,0.024913192946995084,46.7324648120668,-16.643026367529117,-58.528564453125,5356.25390625,True
1599559022.5593312,0.0,10,0.5,0.5,-0.4270827537536621,-0.001,-0.02275,-0.12575,0.06371084794717394,10,1,100,0.04735474713542345,-10,-1,-100,15017.154751913971,-0.006072168554176929,0.002691818493242118,0.9999779411978292,24.447790850070252,0.024375930459774965,47.310415717545744,-17.014385471095782,-63.73382568359375,5356.25390625,True
1599559022.5922408,0.0,10,0.5,0.5,0.027133860778808416,-0.001,-0.02275,-0.12575,0.08566951614059781,10,1,100,0.028676796253966283,-10,-1,-100,15016.100064068218,-0.005721117885109542,0.003212766382805367,0.9999784732394565,23.848582195495744,0.023228636128142667,47.67014098009918,-17.571440583919888,-71.82989501953125,5356.25390625,True
1599559022.6242156,0.0,10,0.5,0.5,-0.19229626388549792,-0.001,-0.02275,-0.12575,0.06946804115640964,10,1,100,0.03446239102601674,-10,-1,-100,15015.424281587591,-0.005455628097757924,0.0035363727809077775,0.9999788648714598,23.25050068831706,0.02227469884429053,47.462717049913394,-17.942828019289404,-77.42425537109375,5356.25390625,True
1599559022.6592786,0.0,10,0.5,0.5,-0.7934944885253906,-0.001,-0.02275,-0.12575,0.0374363721668504,10,1,100,0.06086922525643301,-10,-1,-100,15015.424281587591,-0.005455628097757924,0.0035363727809077775,0.9999788648714598,23.25050068831706,0.02227469884429053,47.462717049913394,-17.942828019289404,-77.42425537109375,5356.25390625,True
1599559022.690222,0.0,10,0.5,0.5,-0.3504919258117676,-0.001,-0.02275,-0.12575,0.05415250485839106,10,1,100,0.04548708971747565,-10,-1,-100,15015.058069454622,-0.005316991886622479,0.003685938321033498,0.9999790715089847,22.886316647693697,0.02176020601531997,47.205762616836296,-18.128528076727314,-80.25009155273438,5356.25390625,True
1599559022.7255669,0.0,10,0.5,0.5,0.8291955680847167,-0.001,-0.02275,-0.12575,0.1017356203514588,10,1,100,-0.008620384822081495,-10,-1,-100,15013.566856266465,-0.004700331133627571,0.004252271343810197,0.9999799123360693,21.045241130327135,0.019680460587642862,45.19875134248353,-18.871368741068437,-91.7171630859375,5356.25390625,True
1599559022.7562273,0.0,10,0.5,0.5,-0.5051160125732421,-0.001,-0.02275,-0.12575,0.04540198837626959,10,1,100,0.05284561157844793,-10,-1,-100,15013.566856266465,-0.004700331133627571,0.004252271343810197,0.9999799123360693,21.045241130327135,0.019680460587642862,45.19875134248353,-18.871368741068437,-91.7171630859375,5356.25390625,True
1599559022.7929835,0.0,10,0.5,0.5,0.35053664894104003,-0.001,-0.02275,-0.12575,0.072377963269027,10,1,100,0.01625124080678545,-10,-1,-100,15012.822714562877,-0.004369420968081542,0.0044949382120141575,0.9999803516524082,21.63271969652117,0.02032592875169878,47.38119738851966,-19.242789110483272,-97.6581039428711,5356.25390625,True
1599559022.8238657,0.0,10,0.5,0.5,0.08456101818084716,-0.001,-0.02275,-0.12575,0.05999938842523452,10,1,100,0.031687020676201334,-10,-1,-100,15012.387167708832,-0.004210868012636949,0.004600543989289263,0.9999805516036713,22.270136402645207,0.021040486366218164,49.25131413631445,-19.428486232915198,-100.61949157714844,5356.25390625,True
1599559022.8600202,0.0,10,0.5,0.5,0.5480384794235229,-0.001,-0.02275,-0.12575,0.07207235696705461,10,1,100,0.009774667006274378,-10,-1,-100,15011.625447829836,-0.0038693998412156544,0.004804244351015543,0.9999809733095348,23.419550712109608,0.022465808251205047,52.79036133154754,-19.79985144518827,-106.45866394042969,5356.25390625,True
1599559022.8959239,0.0,10,0.5,0.5,1.0222499269485472,-0.001,-0.02275,-0.12575,0.07917532241249832,10,1,100,-0.012177299908885268,-10,-1,-100,15010.390094181057,-0.003361595415014716,0.0050517545792197185,0.9999815895564964,24.805593324908582,0.024451490453303127,57.498984005145466,-20.356826085248215,-115.13279724121094,5356.25390625,True
1599559022.9238498,0.0,10,0.5,0.5,0.4096553674697876,-0.001,-0.02275,-0.12575,0.06223969130557039,10,1,100,0.020123066831287076,-10,-1,-100,15010.011187924305,-0.0031960588825964862,0.005120658198355099,0.9999817818676672,25.173495951978122,0.02503261194161664,58.887759587478726,-20.54246576464778,-117.98285675048828,5356.25390625,True
1599559022.956865,0.0,10,0.5,0.5,0.8656878078460692,-0.001,-0.02275,-0.12575,0.0684582461288875,10,1,100,0.00042540551146041244,-10,-1,-100,15009.181108883582,-0.002868796985674683,0.005238095721585101,0.9999821660195078,25.88688362430426,0.02613973003589309,61.65900026453623,-20.913719606091178,-123.5799331665039,5356.25390625,True
1599559022.9919274,0.0,10,0.5,0.5,0.6122173921585083,-0.001,-0.02275,-0.12575,0.06245123402272064,10,1,100,0.01578046952818262,-10,-1,-100,15008.74556086259,-0.0027132293259996853,0.005288700884519333,0.9999823338587431,26.17509089259693,0.026593189372078607,62.9028805045267,-21.09933538179831,-126.30464935302734,5356.25390625,True
1599559023.0238423,0.0,10,0.5,0.5,0.7211812614440918,-0.001,-0.02275,-0.12575,0.062286706872717805,10,1,100,0.013405221110419935,-10,-1,-100,15008.3100140217,-0.0025527041031988976,0.005331616851183508,0.9999825286291324,26.429557398937938,0.026983830446549006,64.07728598206356,-21.28494485519292,-128.99020385742188,5356.25390625,True
1599559023.0587387,0.0,10,0.5,0.5,1.1549376346588134,-0.001,-0.02275,-0.12575,0.06599484421563422,10,1,100,-0.0038851991155001604,-10,-1,-100,15007.424270888092,-0.0022520994329474748,0.005402845634422771,0.9999828685068534,26.833156295559316,0.027555693572247887,66.19895696394298,-21.656148397385593,-134.20188903808594,5356.25390625,True
1599559023.0916576,0.0,10,0.5,0.5,0.9168789794921874,-0.001,-0.02275,-0.12575,0.061839139603816685,10,1,100,0.009680266106371514,-10,-1,-100,15007.044387071976,-0.0021043705362819966,0.0054287739642686576,0.999983049875292,26.974658185738193,0.027723949354067252,67.12277139299127,-21.841743978453675,-136.7317352294922,5356.25390625,True
1599559023.1295578,0.0,10,0.5,0.5,1.3251690891265868,-0.001,-0.02275,-0.12575,0.06344886105106974,10,1,100,-0.00672960938490063,-10,-1,-100,15006.160597321228,-0.001823250817208493,0.005465909456721347,0.9999833996573486,27.14732259403994,0.02783227395929204,68.70953427708137,-22.212927203398266,-141.65489196777344,5356.25390625,True
1599559023.1564887,0.0,10,0.5,0.5,1.40053012676239,-0.001,-0.02275,-0.12575,0.06235022873828184,10,1,100,-0.007247025762746138,-10,-1,-100,15005.218213622575,-0.0015652983511165969,0.005488798727703259,0.999983711332139,27.18736452416089,0.027660834257153034,69.97018491365881,-22.584104564052005,-146.34408569335938,5356.25390625,True
1599559023.1924396,0.0,10,0.5,0.5,1.4766385316848756,-0.001,-0.02275,-0.12575,0.06029772854126407,10,1,100,-0.008583705535025219,-10,-1,-100,15004.320751404506,-0.0013210495382500818,0.005490140558860823,0.9999840564652824,27.11592701287225,0.027257091406683594,70.9431539076951,-22.955281047668233,-150.7760467529297,5356.25390625,True
1599559023.2273777,0.0,10,0.5,0.5,1.2885162645339965,-0.001,-0.02275,-0.12575,0.06008795384615971,10,1,100,0.003300577500294225,-10,-1,-100,15003.885204787715,-0.0012093607816952136,0.005488829820677801,0.9999842049721082,27.044817556184704,0.026985541145889375,71.33423466181655,-23.140870026800854,-152.89340209960938,5356.25390625,True
1599559023.2594216,0.0,10,0.5,0.5,2.0948902112960814,-0.001,-0.02275,-0.12575,0.05646347377483334,10,1,100,-0.029109070619833234,-10,-1,-100,15001.973094167886,-0.0008151489606744651,0.0054542910805525785,0.9999847930048641,26.587636836549034,0.02560963135400829,72.39945881640537,-23.88323908201577,-160.67822265625,5356.25390625,True
1599559023.291306,0.0,10,0.5,0.5,1.437945417022705,-0.001,-0.02275,-0.12575,0.058190365403043245,10,1,100,0.0007440567492848146,-10,-1,-100,15001.467233900097,-0.0007303311084856961,0.005438287938075014,0.9999849457070714,26.442485774506213,0.02522850857708982,72.56929727306567,-24.068835381210164,-162.45230102539062,5356.25390625,True
1599559023.3262823,0.0,10,0.5,0.5,1.519418021583557,-0.001,-0.02275,-0.12575,0.05788971121210879,10,1,100,0.0003799610658834617,-10,-1,-100,15001.01899174566,-0.0006518580692624292,0.0054208244138901065,0.9999850947607827,26.289546959301887,0.02484515071396802,72.71155867408818,-24.254433293916566,-164.15745544433594,5356.25390625,True
1599559023.3582935,0.0,10,0.5,0.5,1.5984847927093506,-0.001,-0.02275,-0.12575,0.058328200055802235,10,1,100,0.00015148689221182975,-10,-1,-100,15000.5131310391,-0.0005803158786231147,0.0054088146327288845,0.9999852038694121,26.13081593619145,0.02446490369557226,72.83130139830074,-24.440032706407443,-165.79354858398438,5356.25390625,True
1599559023.3973215,0.0,10,0.5,0.5,2.0461872440338134,-0.001,-0.02275,-0.12575,0.05274445340364362,10,1,100,-0.013004593080479025,-10,-1,-100,14999.03852150694,-0.0003974698766761626,0.0053470651368521995,0.9999856253527446,25.639264120912618,0.02338810882252596,73.10695380344166,-24.996839397706545,-170.288330078125,5356.25390625,True
1599559023.4242618,0.0,10,0.5,0.5,1.5630651245117186,-0.001,-0.02275,-0.12575,0.05891382494155507,10,1,100,0.005094544158589051,-10,-1,-100,14999.03852150694,-0.0003974698766761626,0.0053470651368521995,0.9999856253527446,25.639264120912618,0.02338810882252596,73.10695380344166,-24.996839397706545,-170.288330078125,5356.25390625,True
1599559023.4572892,0.0,10,0.5,0.5,1.9755135860443116,-0.001,-0.02275,-0.12575,0.05406379948366308,10,1,100,-0.005147026454334878,-10,-1,-100,14998.013130093925,-0.000305916417158314,0.0053030482770781056,0.99998589194754,25.31563101630251,0.02275808160777823,73.26819162039041,-25.368049455878737,-172.9400634765625,5356.25390625,True
1599559023.491276,0.0,10,0.5,0.5,2.014363697052002,-0.001,-0.02275,-0.12575,0.05386956247490409,10,1,100,-0.0038154658816568526,-10,-1,-100,14996.989691655734,-0.0002361704904392066,0.005261415214639887,0.9999861307705415,25.009132141810923,0.022220394809705418,73.45259988630653,-25.73926199044888,-175.31585693359375,5356.25390625,True
1599559023.5292182,0.0,10,0.5,0.5,1.918986962890625,-0.001,-0.02275,-0.12575,0.05520071273068396,10,1,100,0.0002737344218341378,-10,-1,-100,14996.468206590624,-0.00021114794878146102,0.005235875054305926,0.999986270420229,24.86556564651721,0.021989799542101618,73.56380376473453,-25.924868712081413,-176.40042114257812,5356.25390625,True
1599559023.5571449,0.0,10,0.5,0.5,2.08960008354187,-0.001,-0.02275,-0.12575,0.052510404799373314,10,1,100,-0.0010247940304547063,-10,-1,-100,14995.442815123475,-0.00017760438097131067,0.005188430532358188,0.9999865242318493,24.603404702100327,0.021608784068898053,73.84308689367197,-26.296082048809858,-178.36256408691406,5356.25390625,True
1599559023.590769,0.0,10,0.5,0.5,-43.42169639587402,-0.001,-0.02275,-0.12575,0.049517769881504435,10,1,100,0.0013762110439973895,-10,-1,-100,14993.84418225754,-0.0001698755076395784,0.005118366467050817,0.9999868866475304,24.28680820853631,0.021239990929983535,74.45574267650917,-26.85289849442225,179.21139526367188,5356.25390625,True
1599559023.7125547,0.0,10,0.5,0.5,0.8550048843383788,-0.001,-0.02275,-0.12575,0.053887767572319556,10,1,100,0.0031058190132486753,-10,-1,-100,14993.268986066105,-0.00017915958019759247,0.005094704499972892,0.9999870058595275,24.20622642406714,0.021171278242640604,74.72816795024379,-27.038502231222324,178.54058837890625,5356.25390625,True
1599559023.7334964,0.0,10,0.5,0.5,0.23318271408081057,-0.001,-0.02275,-0.12575,0.048550214743672576,10,1,100,0.008609189806267476,-10,-1,-100,14991.65375151916,-0.0002381313547580381,0.005024982761858081,0.999987346340793,24.768530851155962,0.0217495561172022,78.05938806683153,-27.595288031619422,176.66058349609375,5356.25390625,True
1599559023.7680461,0.0,10,0.5,0.5,-0.7785889385223388,-0.001,-0.02275,-0.12575,0.05548280438995053,10,1,100,0.0026706396787724747,-10,-1,-100,14991.65375151916,-0.0002381313547580381,0.005024982761858081,0.999987346340793,24.768530851155962,0.0217495561172022,78.05938806683153,-27.595288031619422,176.66058349609375,5356.25390625,True
1599559023.7899525,0.0,10,0.5,0.5,-1.3261061672210692,-0.001,-0.02275,-0.12575,0.047765227819709044,10,1,100,0.014861911861733659,-10,-1,-100,14989.971132553648,-0.0003492721787157444,0.0049551719129203135,0.999987662064017,25.3246249387755,0.02244557147837331,81.44415151975659,-28.152034990632046,174.83363342285156,5356.25390625,True
1599559023.842932,0.0,10,0.5,0.5,-2.340997605895996,-0.001,-0.02275,-0.12575,0.054707123391092585,10,1,100,0.0037430096961669885,-10,-1,-100,14989.971132553648,-0.0003492721787157444,0.0049551719129203135,0.999987662064017,25.3246249387755,0.02244557147837331,81.44415151975659,-28.152034990632046,174.83363342285156,5356.25390625,True
1599559023.8988152,0.0,10,0.5,0.5,-2.8807247379302976,-0.001,-0.02275,-0.12575,0.04712644225311555,10,1,100,0.021485297288138645,-10,-1,-100,14988.228945225012,-0.000510609518368178,0.004886612896415006,0.9999879300733187,25.852817895558452,0.02323363769624656,84.81015930742957,-28.708742520714996,172.8973388671875,5356.25390625,True
1599559023.9288254,0.0,10,0.5,0.5,-3.7093573940277094,-0.001,-0.02275,-0.12575,0.049211876946177374,10,1,100,0.020470190592816406,-10,-1,-100,14987.065858889837,-0.0006478654998209065,0.004843623592602255,0.9999880597191085,26.23711553010098,0.02386024976767128,87.19952686905984,-29.079857454702477,171.3065185546875,5356.25390625,True
1599559023.9567432,0.0,10,0.5,0.5,-4.584246723556519,-0.001,-0.02275,-0.12575,0.05067601497440255,10,1,100,0.015103019309544226,-10,-1,-100,14986.476991289295,-0.0007234769303760202,0.004818232563594562,0.999988130537605,26.441261884021635,0.024209248491744353,88.44691590646957,-29.26540732464781,170.4093017578125,5356.25390625,True
1599559023.9908767,0.0,10,0.5,0.5,-5.232513570022583,-0.001,-0.02275,-0.12575,0.047803611472868754,10,1,100,0.02621898081827622,-10,-1,-100,14985.309998622979,-0.0008928030364313284,0.004769416725837908,0.9999882277141234,26.87106777227124,0.024980916332567084,91.04127267370241,-29.636490722630047,168.40890502929688,5356.25390625,True
1599559024.0248172,0.0,10,0.5,0.5,-6.133113417816162,-0.001,-0.02275,-0.12575,0.050102669510402834,10,1,100,0.019666319107183576,-10,-1,-100,14984.721131962608,-0.0009865160276030754,0.004746320140769915,0.9999882495465876,27.095032811623526,0.025403334869492297,92.38338494854445,-29.82202374814444,167.30551147460938,5356.25390625,True
1599559024.0587296,0.0,10,0.5,0.5,-6.244779271697997,-0.001,-0.02275,-0.12575,0.052375123384574084,10,1,100,0.010376684042005221,-10,-1,-100,14984.721131962608,-0.0009865160276030754,0.004746320140769915,0.9999882495465876,27.095032811623526,0.025403334869492297,92.38338494854445,-29.82202374814444,167.30551147460938,5356.25390625,True
1599559024.0963182,0.0,10,0.5,0.5,-5.913310543823242,-0.001,-0.02275,-0.12575,0.046850909511966785,10,1,100,0.03289517955143917,-10,-1,-100,14983.501405397197,-0.0011904956627366518,0.004696416727709124,0.9999882631261212,27.60196261886504,0.02636143087504393,95.3005508151606,-30.193071037865927,164.89202880859375,5356.25390625,True
1599559024.124306,0.0,10,0.5,0.5,-5.849206233215332,-0.001,-0.02275,-0.12575,0.04642391245547092,10,1,100,0.03753438225030284,-10,-1,-100,14982.321718070074,-0.0014172404789314103,0.004647466893534942,0.999988196170784,28.139555938816596,0.027423530742896347,98.36894571479999,-30.5640909903571,162.20306396484375,5356.25390625,True
1599559024.1574957,0.0,10,0.5,0.5,-5.778714847564697,-0.001,-0.02275,-0.12575,0.046353959960626204,10,1,100,0.04242682270317928,-10,-1,-100,14981.087343468214,-0.0016667769440217282,0.0046026743087582995,0.9999880185501355,28.68215158050955,0.0285560340655448,101.50169542249816,-30.935082141130785,159.23866271972656,5356.25390625,True
1599559024.1993554,0.0,10,0.5,0.5,-5.486922743988037,-0.001,-0.02275,-0.12575,0.04238840869436987,10,1,100,0.06386607318258748,-10,-1,-100,14979.192812743015,-0.0020873328214027227,0.0045262237634537145,0.999987578092916,29.53202539759389,0.03037550833652422,106.41869152278149,-31.49151179912599,154.27545166015625,5356.25390625,True
1599559024.2313066,0.0,10,0.5,0.5,-5.6012531345367425,-0.001,-0.02275,-0.12575,0.044404381745690585,10,1,100,0.056224457036670866,-10,-1,-100,14977.902774883434,-0.0023986070534746692,0.004475440248324704,0.9999871084762977,30.096927770978,0.0316040776376689,109.75192618614437,-31.86242488305477,150.62240600585938,5356.25390625,True
1599559024.2657115,0.0,10,0.5,0.5,-5.765340922164917,-0.001,-0.02275,-0.12575,0.046194499879899424,10,1,100,0.04363442851612295,-10,-1,-100,14977.298284215853,-0.0025654124619577247,0.004445921010925767,0.999986826135857,30.365715555914512,0.032195694229799385,111.38677716372165,-32.047869604290966,148.69256591796875,5356.25390625,True
1599559024.2916374,0.0,10,0.5,0.5,-5.4411855236053475,-0.001,-0.02275,-0.12575,0.04273692460421101,10,1,100,0.0659424138001077,-10,-1,-100,14975.994575438322,-0.0029181103841038757,0.004388014385858362,0.9999861148843695,30.864774531106047,0.0332936186271581,114.54848349966805,-32.418736196301836,144.62640380859375,5356.25390625,True
1599559024.327542,0.0,10,0.5,0.5,-5.89384931602478,-0.001,-0.02275,-0.12575,0.048484565293177885,10,1,100,0.03089208493086538,-10,-1,-100,14975.994575438322,-0.0029181103841038757,0.004388014385858362,0.9999861148843695,30.864774531106047,0.0332936186271581,114.54848349966805,-32.418736196301836,144.62640380859375,5356.25390625,True
1599559024.3626065,0.0,10,0.5,0.5,-5.2894697231292716,-0.001,-0.02275,-0.12575,0.04238193836103564,10,1,100,0.07261825293548418,-10,-1,-100,14974.691843298846,-0.0032955979956479807,0.004332882688602505,0.9999851824709494,31.296390219431224,0.03422067603028127,117.50030942248462,-32.78957480447749,140.2849884033203,5356.25390625,True
1599559024.393524,0.0,10,0.5,0.5,-5.188754724121093,-0.001,-0.02275,-0.12575,0.04077771493050518,10,1,100,0.08033895929796339,-10,-1,-100,14973.332471200498,-0.0037068576258305736,0.004268554966685237,0.999984019194826,31.639644566519348,0.03490674234410654,120.15418180541373,-33.16038890560749,135.668212890625,5356.25390625,True
1599559024.4266508,0.0,10,0.5,0.5,-5.391685757446289,-0.001,-0.02275,-0.12575,0.04448223664053032,10,1,100,0.06275661739274796,-10,-1,-100,14972.671339767752,-0.003918417507223493,0.004244187021555299,0.9999833163012097,31.77140207050334,0.03513915263245473,121.3401375968686,-33.34578845487816,133.25674438476562,5356.25390625,True
1599559024.4594991,0.0,10,0.5,0.5,-5.308571774291991,-0.001,-0.02275,-0.12575,0.043389298257897425,10,1,100,0.06658188832050577,-10,-1,-100,14972.01216268388,-0.004143039933428957,0.004212509658600651,0.9999825448389018,31.87280765810926,0.03528848999828276,122.41535463404178,-33.53118406188135,130.77638244628906,5356.25390625,True
1599559024.494744,0.0,10,0.5,0.5,-4.894063393783569,-0.001,-0.02275,-0.12575,0.039865489594113464,10,1,100,0.0963832216399528,-10,-1,-100,14970.639120329986,-0.004615685351561172,0.004152072847366512,0.9999807276841917,31.97309761708292,0.03531777700427301,124.18128430557137,-33.90196691144083,125.609375,5356.25390625,True
1599559024.5266936,0.0,10,0.5,0.5,-4.777540082550049,-0.001,-0.02275,-0.12575,0.04021509783575482,10,1,100,0.10433951001382917,-10,-1,-100,14969.318813555525,-0.005115012072891572,0.004100718186133481,0.9999785101500193,31.917589638733613,0.03497152942739621,125.34495514419646,-34.27274529922957,120.16741943359375,5356.25390625,True
1599559024.5606058,0.0,10,0.5,0.5,-5.0263179016113275,-0.001,-0.02275,-0.12575,0.042597194623596915,10,1,100,0.08363990522729976,-10,-1,-100,14968.604949157801,-0.00537801479490395,0.004076074379063217,0.999977231028048,31.824183470616294,0.034659322660933876,125.6661646253486,-34.45813552018565,117.34333801269531,5356.25390625,True
1599559024.5924847,0.0,10,0.5,0.5,-3.786830838394165,-0.001,-0.02275,-0.12575,0.03601438339507994,10,1,100,0.18437414264511598,-10,-1,-100,14965.785630249651,-0.006530165420766779,0.003994190239530334,0.999970701262746,30.95037148050685,0.03262553627252965,124.89554725840924,-35.19972933187489,105.35986328125,5356.25390625,True
