Timestamp,Input Throttle,horizon,dT,dt,Input Roll,Roll P,Roll I,Roll D,Input Pitch,Pitch P,Pitch I,Pitch D,Input Yaw,Yaw P,Yaw I,Yaw D,Altitude,Direction X,Direction Y,Direction Z,Drag X,Drag Y,Drag Z,Vertical Velocity,Roll,Mass,Has Fuel
1599561729.387675,0.0,10,0.5,0.5,-5.850154830932618,-0.1005,-0.03,-0.5,-0.0005001756072010927,10,1,100,0.17117196663072565,-10,-1,-100,14993.300571484957,-0.016777131251058817,-7.668507386179946e-05,0.9998592510880641,28.717116949964794,0.02710917510412268,-88.32788490933366,27.19494990520623,-31.792388916015625,5356.25390625,True
1599561729.4185927,0.0,10,0.5,0.5,-6.024835937500001,-0.1005,-0.03,-0.5,-0.0005287277604423301,10,1,100,0.1732616699187792,-10,-1,-100,14993.839634850505,-0.016811791653632318,-7.445060581123724e-05,0.9998586690720355,28.644521836183433,0.027275164725497916,-87.50369316979499,27.00897855823315,-31.79180908203125,5356.25390625,True
1599561729.4555247,0.0,10,0.5,0.5,-6.175695236206055,-0.1005,-0.03,-0.5,0.0036412612886242606,10,1,100,0.18142351288243957,-10,-1,-100,14995.445109187975,-0.016902216235956384,-3.444259749574691e-05,0.9998571467464843,28.42658911373839,0.027763809897135026,-85.04895503046154,26.45108752171577,-31.830902099609375,5356.25390625,True
1599561729.4897354,0.0,10,0.5,0.5,-6.21317335510254,-0.1005,-0.03,-0.5,0.007616241107199568,10,1,100,0.17807179576694981,-10,-1,-100,14996.459759569145,-0.016938584594986577,3.8095810775834146e-05,0.9998565311586597,28.292812194519957,0.02809063808586666,-83.46165511221795,26.07917963507957,-32.091644287109375,5356.25390625,True
1599561729.5276341,0.0,10,0.5,0.5,-6.517269515991211,-0.1005,-0.03,-0.5,0.0003662098611190465,10,1,100,0.1761288183234292,-10,-1,-100,14996.459759569145,-0.016938584594986577,3.8095810775834146e-05,0.9998565311586597,28.292812194519957,0.02809063808586666,-83.46165511221795,26.07917963507957,-32.091644287109375,5356.25390625,True
1599561729.557553,0.0,10,0.5,0.5,-6.374452941894532,-0.1005,-0.03,-0.5,0.012365205819153723,10,1,100,0.17950087055720032,-10,-1,-100,14997.529096370796,-0.016953840902025417,0.00014714295965726227,0.9998562624835723,28.178817379874967,0.02842270803345579,-81.9430837363167,25.707286050572733,-32.6187744140625,5356.25390625,True
1599561729.59453,0.0,10,0.5,0.5,-6.590343643188477,-0.1005,-0.03,-0.5,0.009408622501598829,10,1,100,0.17929853638642823,-10,-1,-100,14998.001751598204,-0.01695045828787005,0.00021926493488110037,0.999856306619466,28.129447153619946,0.02858899396698324,-81.2093908184867,25.521344324750075,-32.984832763671875,5356.25390625,True
1599561729.6294332,0.0,10,0.5,0.5,-5.653035446166992,-0.1005,-0.03,-0.5,0.0482504351941503,10,1,100,0.17068658528061575,-10,-1,-100,15000.0232322003,-0.01685368321195972,0.0006377384232578928,0.999857763210295,27.973425904910368,0.02922529456212206,-78.41141574566478,24.777608719186606,-35.135345458984375,5356.25390625,True
1599561729.661314,0.0,10,0.5,0.5,-6.8928857574462885,-0.1005,-0.03,-0.5,0.006466860198796842,10,1,100,0.18204946119284476,-10,-1,-100,15000.0232322003,-0.01685368321195972,0.0006377384232578928,0.999857763210295,27.973425904910368,0.02922529456212206,-78.41141574566478,24.777608719186606,-35.135345458984375,5356.25390625,True
1599561729.6972213,0.0,10,0.5,0.5,-5.655757171630859,-0.1005,-0.03,-0.5,0.05479538782592526,10,1,100,0.16483121120151872,-10,-1,-100,15001.502718942938,-0.016681832136391336,0.001076508912210644,0.9998602690401971,27.883901051970877,0.02962518929230511,-76.40527727272557,24.219837636669624,-37.4696044921875,5356.25390625,True
1599561729.7351172,0.0,10,0.5,0.5,-6.980477874755859,-0.1005,-0.03,-0.5,0.011025989821871208,10,1,100,0.18368450197199607,-10,-1,-100,15001.502718942938,-0.016681832136391336,0.001076508912210644,0.9998602690401971,27.883901051970877,0.02962518929230511,-76.40527727272557,24.219837636669624,-37.4696044921875,5356.25390625,True
1599561729.7725642,0.0,10,0.5,0.5,-5.8227198028564455,-0.1005,-0.03,-0.5,0.050521061689623226,10,1,100,0.16616121149046648,-10,-1,-100,15002.449978645076,-0.016522616131208947,0.0014345066619301419,0.9998624632152252,27.82565248450078,0.029823365931075766,-75.07789696882033,23.848004125625735,-39.369232177734375,5356.25390625,True
1599561729.8084683,0.0,10,0.5,0.5,-5.4438678131103515,-0.1005,-0.03,-0.5,0.056780430100901516,10,1,100,0.1584081249495893,-10,-1,-100,15003.394307207549,-0.016307654590237367,0.0018154907315342686,0.9998653731353884,27.75907384510238,0.0299429043406118,-73.73321623345161,23.476182277230695,-41.543975830078125,5356.25390625,True
1599561729.8394182,0.0,10,0.5,0.5,-4.233842147827149,-0.1005,-0.03,-0.5,0.09181753592945528,10,1,100,0.13579184786687476,-10,-1,-100,15004.81226172368,-0.01590717299918918,0.0024786772720439363,0.9998704006050758,27.622582529850245,0.029926300385870883,-71.63161217733527,22.91847256906778,-45.321258544921875,5356.25390625,True
1599561729.8773143,0.0,10,0.5,0.5,-5.244114166259766,-0.1005,-0.03,-0.5,0.05136293001977952,10,1,100,0.15807088958440776,-10,-1,-100,15005.222414120566,-0.015746573215300944,0.0027115862719999744,0.9998723382171668,27.561710091605537,0.029857090311659427,-70.8953342439047,22.73257620031659,-46.7178955078125,5356.25390625,True
1599561729.9126701,0.0,10,0.5,0.5,-5.018567031860352,-0.1005,-0.03,-0.5,0.054641270050608697,10,1,100,0.154990529062835,-10,-1,-100,15005.692134769983,-0.015573653781006145,0.0029506943718209796,0.9998743694638009,27.490877265188544,0.029751802291760946,-70.13619890272581,22.546683700785522,-48.183319091796875,5356.25390625,True
1599561729.9485435,0.0,10,0.5,0.5,-3.820619064331055,-0.1005,-0.03,-0.5,0.08380073329477747,10,1,100,0.12940476429959163,-10,-1,-100,15006.575911928201,-0.015185111149364133,0.0034306027180487334,0.999878814339204,27.31220420600119,0.02942301398886725,-68.53399824461499,22.174911458919656,-51.320648193359375,5356.25390625,True
1599561729.9804578,0.0,10,0.5,0.5,-2.198675842285157,-0.1005,-0.03,-0.5,0.12093694557680235,10,1,100,0.09284494652825451,-10,-1,-100,15007.86495633272,-0.0145011334564397,0.004201565564653129,0.9998860254925481,26.926084382007268,0.028609233420036403,-65.86998022659972,21.617290038474454,-56.54229736328125,5356.25390625,True
1599561730.0189364,0.0,10,0.5,0.5,-4.745279571533203,-0.1005,-0.03,-0.5,0.04419704363050232,10,1,100,0.1610074608451459,-10,-1,-100,15007.86495633272,-0.0145011334564397,0.004201565564653129,0.9998860254925481,26.926084382007268,0.028609233420036403,-65.86998022659972,21.617290038474454,-56.54229736328125,5356.25390625,True
1599561730.055838,0.0,10,0.5,0.5,-1.1732612762451176,-0.1005,-0.03,-0.5,0.12767834136842324,10,1,100,0.07205786471789756,-10,-1,-100,15009.156926863943,-0.013694639445969733,0.004957246610323869,0.9998939356534219,26.353610695326026,0.027395642798787014,-62.81065189855452,21.05972348578762,-62.383758544921875,5356.25390625,True
1599561730.0932322,0.0,10,0.5,0.5,-0.13949308776855496,-0.1005,-0.03,-0.5,0.13650082318946916,10,1,100,0.049565582213198026,-10,-1,-100,15010.384445104864,-0.012759703407036515,0.005720905815944856,0.99990222582291,25.540580008393576,0.025809082897138257,-59.2655391783627,20.502225468127673,-68.84463500976562,5356.25390625,True
1599561730.1351528,0.0,10,0.5,0.5,-3.275806228637695,-0.1005,-0.03,-0.5,0.06059934231774386,10,1,100,0.1426669732335844,-10,-1,-100,15010.384445104864,-0.012759703407036515,0.005720905815944856,0.99990222582291,25.540580008393576,0.025809082897138257,-59.2655391783627,20.502225468127673,-68.84463500976562,5356.25390625,True
1599561730.1730485,0.0,10,0.5,0.5,2.492941680908203,-0.1005,-0.03,-0.5,0.15742590907872994,10,1,100,-0.009324613363390355,-10,-1,-100,15012.018204582506,-0.011381382540449628,0.006597250605450171,0.9999134664639319,23.99387184293695,0.02328049311003716,-53.66375713956247,19.759024672267593,-78.303955078125,5356.25390625,True
1599561730.2079566,0.0,10,0.5,0.5,0.8669536590576172,-0.1005,-0.03,-0.5,0.1168083987802496,10,1,100,0.04230551406174639,-10,-1,-100,15012.769166101352,-0.010602206794735327,0.007020330538765257,0.999919150816809,23.017540771975977,0.021961164443153804,-50.51494337511569,19.387484605135104,-83.28878784179688,5356.25390625,True
1599561730.239839,0.0,10,0.5,0.5,-1.5115601348876953,-0.1005,-0.03,-0.5,0.07495457077541307,10,1,100,0.11969259201273111,-10,-1,-100,15012.769166101352,-0.010602206794735327,0.007020330538765257,0.999919150816809,23.017540771975977,0.021961164443153804,-50.51494337511569,19.387484605135104,-83.28878784179688,5356.25390625,True
1599561730.2767396,0.0,10,0.5,0.5,1.5793946075439456,-0.1005,-0.03,-0.5,0.1117947062816847,10,1,100,0.036646580755641825,-10,-1,-100,15013.523058424005,-0.009851919752780484,0.007351323821307031,0.9999244460034263,21.93530220622101,0.020703737689295978,-47.220098455245065,19.015983470592776,-88.25338745117188,5356.25390625,True
1599561730.3166347,0.0,10,0.5,0.5,2.1150730285644532,-0.1005,-0.03,-0.5,0.11458861074476423,10,1,100,0.020826821582204974,-10,-1,-100,15014.280856908881,-0.009031226207634134,0.007673625364691652,0.999929773747611,21.511763077329636,0.020253026574696947,-45.406358715850736,18.644510370088955,-93.0789794921875,5356.25390625,True
1599561730.354531,0.0,10,0.5,0.5,1.311813980102539,-0.1005,-0.03,-0.5,0.09841193490941616,10,1,100,0.05592748269447751,-10,-1,-100,15014.68709938717,-0.008609832526650592,0.007815708785041195,0.9999323904544998,21.90783199385942,0.020665029234446866,-45.78303675637708,18.458773907673518,-95.55068969726562,5356.25390625,True
1599561730.3934305,0.0,10,0.5,0.5,5.8751383361816405,-0.1005,-0.03,-0.5,0.13216656714243433,10,1,100,-0.0842144754646016,-10,-1,-100,15016.126527525485,-0.006958085288791917,0.008248450239095137,0.9999417723636548,23.375276246766834,0.0225539040763382,-46.88884175630601,17.715808605126092,-105.0130615234375,5356.25390625,True
1599561730.4303267,0.0,10,0.5,0.5,1.289364715576172,-0.1005,-0.03,-0.5,0.0892971102044843,10,1,100,0.08020594350450118,-10,-1,-100,15016.126527525485,-0.006958085288791917,0.008248450239095137,0.9999417723636548,23.375276246766834,0.0225539040763382,-46.88884175630601,17.715808605126092,-105.0130615234375,5356.25390625,True
1599561730.46427,0.0,10,0.5,0.5,4.025106399536133,-0.1005,-0.03,-0.5,0.10626464384203363,10,1,100,-0.01430853615140408,-10,-1,-100,15016.816945988103,-0.006104986886608394,0.008399708541592157,0.999946085562382,23.90576136350214,0.023436261131593507,-46.94991603479328,17.344312347204166,-109.35586547851562,5356.25390625,True
1599561730.5001793,0.0,10,0.5,0.5,5.578013622283936,-0.1005,-0.03,-0.5,0.10764913180300537,10,1,100,-0.06352951960196349,-10,-1,-100,15017.853065024945,-0.0048880291410004955,0.008547367068302239,0.9999515236686809,24.510782385234023,0.02461242750540451,-46.59507160537983,16.787054884684153,-115.3554916381836,5356.25390625,True
1599561730.535081,0.0,10,0.5,0.5,2.717733112335205,-0.1005,-0.03,-0.5,0.09316592525723291,10,1,100,0.057379087532222775,-10,-1,-100,15017.853065024945,-0.0048880291410004955,0.008547367068302239,0.9999515236686809,24.510782385234023,0.02461242750540451,-46.59507160537983,16.787054884684153,-115.3554916381836,5356.25390625,True
1599561730.5759408,0.0,10,0.5,0.5,5.024172634124756,-0.1005,-0.03,-0.5,0.09884939281267119,10,1,100,-0.030074030797852223,-10,-1,-100,15018.478056801134,-0.004098903841090222,0.008597262122021812,0.9999546420069797,24.82947638734249,0.025285931363543183,-46.15854510712692,16.415544278508452,-119.0112533569336,5356.25390625,True
1599561730.6377728,0.0,10,0.5,0.5,5.333339942932129,-0.1005,-0.03,-0.5,0.09655552637003383,10,1,100,-0.0344102487981406,-10,-1,-100,15019.103049837053,-0.0033480091347633926,0.008620334356303579,0.9999572394209759,25.048109961467993,0.02580643126483859,-45.51326621278525,16.04403274547921,-122.39157104492188,5356.25390625,True
1599561730.6846516,0.0,10,0.5,0.5,5.625231803894043,-0.1005,-0.03,-0.5,0.09079795513030711,10,1,100,-0.044662431350216705,-10,-1,-100,15019.789566939231,-0.002578770649138285,0.008587513009091725,0.9999598014731682,25.181214261974254,0.026172847048779008,-44.697659039567654,15.672523708285455,-125.49688720703125,5356.25390625,True
1599561730.72554,0.0,10,0.5,0.5,5.883472923278808,-0.1005,-0.03,-0.5,0.08950958106795745,10,1,100,-0.04613043736243507,-10,-1,-100,15020.35499151866,-0.0018727293794622403,0.008544839120888876,0.9999617385725664,25.243484017412833,0.02639382071012543,-43.74798979990165,15.30102007371709,-128.32647705078125,5356.25390625,True
1599561730.7674391,0.0,10,0.5,0.5,7.476605033874511,-0.1005,-0.03,-0.5,0.07547045900724564,10,1,100,-0.12392709366481602,-10,-1,-100,15021.542483351426,-0.0005301390741243474,0.008377624282192362,0.9999647665612768,25.205878156710593,0.02645580628868043,-41.56529035703251,14.558038031659848,-133.159423828125,5356.25390625,True
1599561730.809329,0.0,10,0.5,0.5,5.795091461181641,-0.1005,-0.03,-0.5,0.08634092426884891,10,1,100,-0.025060711542729902,-10,-1,-100,15021.823730946518,-0.0002157329007929788,0.008323922371667241,0.9999653322869079,25.171357919931744,0.02640447474827778,-40.97966162208752,14.372299154937375,-134.19544982910156,5356.25390625,True
1599561730.853211,0.0,10,0.5,0.5,6.484634727478027,-0.1005,-0.03,-0.5,0.08031696459134575,10,1,100,-0.05943014229134101,-10,-1,-100,15022.444822508027,0.0003764108523247309,0.008220270572182947,0.9999661421601185,25.08100966890303,0.026237775687767903,-39.77891278584733,14.000830581552613,-136.06057739257812,5356.25390625,True
1599561730.9010823,0.0,10,0.5,0.5,6.599731407165528,-0.1005,-0.03,-0.5,0.07767303528444719,10,1,100,-0.06242400098706607,-10,-1,-100,15022.942867872189,0.0009352725286282252,0.008102031560468067,0.999966740621852,24.969724736054896,0.02600151317740048,-38.5533703940955,13.629375056164015,-137.65011596679688,5356.25390625,True
1599561730.9429688,0.0,10,0.5,0.5,6.3050709762573245,-0.1005,-0.03,-0.5,0.08214040674183912,10,1,100,-0.03676768839935379,-10,-1,-100,15023.224117903388,0.001203689156820166,0.008035424633050034,0.9999669909968931,24.90874808083449,0.02586308807854673,-37.935960236486174,13.443652169606603,-138.34158325195312,5356.25390625,True
1599561730.999817,0.0,10,0.5,0.5,7.025402694702149,-0.1005,-0.03,-0.5,0.0685853957493208,10,1,100,-0.09110247631819417,-10,-1,-100,15024.002436830197,0.0019361189650770059,0.00785211091040643,0.9999672973640708,24.715815300622666,0.025393153725374883,-36.084411161147194,12.886503511493803,-140.00204467773438,5356.25390625,True
1599561731.0566661,0.0,10,0.5,0.5,6.893820030212402,-0.1005,-0.03,-0.5,0.06439137134474142,10,1,100,-0.09084331253936255,-10,-1,-100,15024.779781336663,0.002593404439951957,0.0076479666281050645,0.9999673908982563,24.543969844737646,0.02490222871410908,-34.286501385486304,12.329383249330112,-141.0423583984375,5356.25390625,True
1599561731.1060176,0.0,10,0.5,0.5,6.565114158630371,-0.1005,-0.03,-0.5,0.07813790636725947,10,1,100,-0.047393198288072286,-10,-1,-100,15024.995601037866,0.0027898517345710536,0.007588212413030275,0.9999673173457589,24.493856625712553,0.02474115216878227,-33.70184300610618,12.143682435271913,-141.25111389160156,5356.25390625,True
1599561731.1668544,0.0,10,0.5,0.5,6.645036743164062,-0.1005,-0.03,-0.5,0.06382926094118643,10,1,100,-0.08757880747356142,-10,-1,-100,15025.709469701047,0.003328184030575284,0.007404750097219142,0.9999670458905416,24.348297947482045,0.024261307635325562,-31.96667502420869,11.586596611976544,-141.46380615234375,5356.25390625,True
1599561731.2665882,0.0,10,0.5,0.5,6.5865913696289065,-0.1005,-0.03,-0.5,0.08205721623111246,10,1,100,-0.034336273341109724,-10,-1,-100,15025.709469701047,0.003328184030575284,0.007404750097219142,0.9999670458905416,24.348297947482045,0.024261307635325562,-31.96667502420869,11.586596611976544,-141.46380615234375,5356.25390625,True
1599561731.3124688,0.0,10,0.5,0.5,5.763774200439453,-0.1005,-0.03,-0.5,0.04219434063482036,10,1,100,-0.12650799457355427,-10,-1,-100,15027.010252399137,0.0041613806659520185,0.007043396763638005,0.9999665361765778,24.08543427802981,0.023399823553321982,-28.584421299102658,10.472491358184758,-140.0279541015625,5356.25390625,True
1599561731.3583453,0.0,10,0.5,0.5,5.883791549682617,-0.1005,-0.03,-0.5,0.06463418341692453,10,1,100,-0.06669583627485753,-10,-1,-100,15027.442870052299,0.004370820241088101,0.006920105237963876,0.9999665034759492,24.000377514270582,0.02315946970390783,-27.474513858734724,10.101140084524168,-138.99795532226562,5356.25390625,True
1599561731.4152012,0.0,10,0.5,0.5,6.0416610717773445,-0.1005,-0.03,-0.5,0.07227272399026576,10,1,100,-0.055532360764171826,-10,-1,-100,15027.656736446661,0.004455564120076596,0.006878739508139319,0.9999664148815953,23.956411249127438,0.02304961484725386,-26.920596617459346,9.91546745557755,-138.37924194335938,5356.25390625,True
1599561731.4630735,0.0,10,0.5,0.5,5.945075027465821,-0.1005,-0.03,-0.5,0.07144633399462297,10,1,100,-0.05589209676949605,-10,-1,-100,15027.811033847742,0.004532166016234764,0.006834841236578463,0.9999663716428029,23.91040231316945,0.022946502732983404,-26.366255556655332,9.729796675012878,-137.691650390625,5356.25390625,True
1599561731.509945,0.0,10,0.5,0.5,4.802277770996094,-0.1005,-0.03,-0.5,0.05758891725545906,10,1,100,-0.06962642182129754,-10,-1,-100,15028.395016985713,0.004723391700951652,0.00667010919237064,0.999966599049289,23.752951991921073,0.02267699421299981,-24.694528684382355,9.172795202130176,-135.21585083007812,5356.25390625,True
1599561731.553831,0.0,10,0.5,0.5,5.45241960144043,-0.1005,-0.03,-0.5,0.06829529572171072,10,1,100,-0.05586576844700925,-10,-1,-100,15028.549314461881,0.004768936654069719,0.00661892469773007,0.9999667229858378,23.690619927886058,0.022598927595927874,-24.131630010510122,8.98713168446429,-134.252685546875,5356.25390625,True
1599561731.6026976,0.0,10,0.5,0.5,4.6358536529541015,-0.1005,-0.03,-0.5,0.06189358922994605,10,1,100,-0.05881291354673371,-10,-1,-100,15028.915524562239,0.004834558096275463,0.00651531708559776,0.999967088304054,23.54489772666013,0.02245646996741691,-22.99307590197798,8.61580987709092,-132.11962890625,5356.25390625,True
1599561731.940796,0.0,10,0.5,0.5,4.229139617919922,-0.1005,-0.03,-0.5,0.061160768781583316,10,1,100,-0.05602033591530706,-10,-1,-100,15029.282710784231,0.004866789471034695,0.006415496024621915,0.9999675773598877,23.36228743577398,0.022324481181601734,-21.832232959297013,8.244494857157775,-129.71084594726562,5356.25390625,True
1599561731.980688,0.0,10,0.5,0.5,3.7870274047851566,-0.1005,-0.03,-0.5,0.058681483473962806,10,1,100,-0.053164794823916485,-10,-1,-100,15029.588373037754,0.00486824313113366,0.0063032767540186045,0.9999682839525353,23.131337463526695,0.02219027748754898,-20.643537362142748,7.873186304970458,-127.026611328125,5356.25390625,True
1599561732.0176232,0.0,10,0.5,0.5,3.3084315643310553,-0.1005,-0.03,-0.5,0.05731478352911105,10,1,100,-0.049939304937535234,-10,-1,-100,15029.89305805799,0.004838841951256018,0.006189836029738034,0.9999691352929327,22.83936607632986,0.022036952729478428,-19.422305153495657,7.501883373597145,-124.06674194335938,5356.25390625,True
1599561732.1004126,0.0,10,0.5,0.5,2.793323543548584,-0.1005,-0.03,-0.5,0.05518526404847275,10,1,100,-0.04657740575483882,-10,-1,-100,15030.136219605803,0.004780177560687576,0.00606845329790215,0.9999701614433602,22.494401364326958,0.02186530570235451,-18.182727907812616,7.130585340621388,-120.83135223388672,5356.25390625,True
1599561732.1692154,0.0,10,0.5,0.5,2.2451500244140625,-0.1005,-0.03,-0.5,0.05288393010730805,10,1,100,-0.043046841179455356,-10,-1,-100,15030.439927522559,0.004694187712308474,0.005938070454464154,0.9999713515501328,22.079135517297612,0.021647690171961706,-16.91823076185435,6.75929044054555,-117.32048034667969,5356.25390625,True
1599561732.2031245,0.0,10,0.5,0.5,1.6618525085449218,-0.1005,-0.03,-0.5,0.05031411462759692,10,1,100,-0.03939445478747538,-10,-1,-100,15030.679181551212,0.004582517639790181,0.005797071396780875,0.9999726968749205,21.56715217602426,0.02134362822559806,-15.61855571501182,6.387996684397397,-113.53413391113281,5356.25390625,True
1599561732.2330492,0.0,10,0.5,0.5,1.041403553009033,-0.1005,-0.03,-0.5,0.04744111576495948,10,1,100,-0.035725686163318414,-10,-1,-100,15030.922341945814,0.004447531537717839,0.005643755598418788,0.9999741834097351,20.94827124299703,0.020926615857567433,-14.28896780935668,6.0167017697274705,-109.47237396240234,5356.25390625,True
1599561732.2679513,0.0,10,0.5,0.5,1.7060746192932132,-0.1005,-0.03,-0.5,0.053626287471329526,10,1,100,-0.040923746243682425,-10,-1,-100,15031.070776386186,0.004372148931544944,0.005561689238727673,0.9999749756501571,20.64419191543312,0.02071593505231071,-13.647217953912472,5.831052959726366,-107.3382339477539,5356.25390625,True
1599561732.301831,0.0,10,0.5,0.5,0.0023484954833983274,-0.1005,-0.03,-0.5,0.04254460824581325,10,1,100,-0.030247899235323148,-10,-1,-100,15031.313936100341,0.004206885446556688,0.005387348573279823,0.9999766390222271,19.930702230748068,0.020166304591876554,-12.336843405863567,5.459750226365762,-102.86335754394531,5356.25390625,True
1599561732.332747,0.0,10,0.5,0.5,-0.7068891487121582,-0.1005,-0.03,-0.5,0.039010285666758654,10,1,100,-0.02679891409134258,-10,-1,-100,15031.486783282715,0.004025802459992553,0.005197846468630782,0.9999783874197691,19.061632058322026,0.019417482948115444,-10.996680941319863,5.088437851472758,-98.1131362915039,5356.25390625,True
1599561732.3688333,0.0,10,0.5,0.5,0.0779633216857909,-0.1005,-0.03,-0.5,0.046542719303765696,10,1,100,-0.034062859067494004,-10,-1,-100,15031.5785783194,0.003927952658932246,0.00509524619802896,0.9999793046128957,18.563635068382105,0.018958053814783705,-10.318725111468837,4.902777245682238,-95.63480377197266,5356.25390625,True
1599561732.4047372,0.0,10,0.5,0.5,-1.8608055572509765,-0.1005,-0.03,-0.5,0.03291187387102612,10,1,100,-0.021429887008022376,-10,-1,-100,15031.753378228983,0.0037250065818023176,0.004879256675208392,0.9999811584126288,17.500044525422265,0.017919784632492813,-8.99090911792586,4.531446043293762,-90.51289367675781,5356.25390625,True
1599561732.4356856,0.0,10,0.5,0.5,-2.4577886428833007,-0.1005,-0.03,-0.5,0.028962960674523818,10,1,100,-0.018266866692294336,-10,-1,-100,15031.932084210333,0.003512794723858793,0.004648297916384046,0.999983026655807,17.17769174047163,0.017566188993256526,-8.102184673206184,4.160099891414671,-85.43646240234375,5356.25390625,True
1599561732.4725547,0.0,10,0.5,0.5,-4.527558631896973,-0.1005,-0.03,-0.5,0.009671714039215337,10,1,100,-0.002444012685758515,-10,-1,-100,15032.193794647115,0.0031772362231483513,0.004264361837234885,0.9999858600940833,18.555425792381072,0.018846400224721265,-7.580240582216574,3.6030461686949398,-77.95587158203125,5356.25390625,True
1599561732.5094829,0.0,10,0.5,0.5,-2.3612642822265624,-0.1005,-0.03,-0.5,0.03317788612726352,10,1,100,-0.02339314490180631,-10,-1,-100,15032.219183408073,0.003064086916591602,0.004130661594682147,0.9999867744156208,18.94274300730955,0.019190802512042728,-7.339698458500577,3.417355727741602,-75.54891967773438,5356.25390625,True
1599561732.54739,0.0,10,0.5,0.5,-2.689626922607422,-0.1005,-0.03,-0.5,0.031100797468667504,10,1,100,-0.021917427683578582,-10,-1,-100,15032.306094259955,0.002949290209370411,0.003991876394428587,0.999987683229205,19.28832159294518,0.01949321832569139,-7.067547169800678,3.2316636146112945,-73.2066650390625,5356.25390625,True
1599561732.5802684,0.0,10,0.5,0.5,-5.614734100341797,-0.1005,-0.03,-0.5,-0.002312308246924695,10,1,100,0.004626405204383958,-10,-1,-100,15032.443783511524,0.002605106746942778,0.0035635936104221055,0.999990257062246,20.09260398058756,0.02018251344948577,-6.093255789885743,2.674581821376236,-66.58676147460938,5356.25390625,True
1599561732.6181912,0.0,10,0.5,0.5,-2.4334391555786135,-0.1005,-0.03,-0.5,0.04030795395492379,10,1,100,-0.029607698559301846,-10,-1,-100,15032.443783511524,0.002605106746942778,0.0035635936104221055,0.999990257062246,20.09260398058756,0.02018251344948577,-6.093255789885743,2.674581821376236,-66.58676147460938,5356.25390625,True
1599561732.6525836,0.0,10,0.5,0.5,-6.159170043945313,-0.1005,-0.03,-0.5,-0.009873416834184266,10,1,100,0.008466278641928626,-10,-1,-100,15032.642995176604,0.0022605860834630483,0.00310921578109231,0.999992611236596,20.58917442106829,0.02060807903269321,-4.943418187276897,2.117491208278179,-60.585968017578125,5356.25390625,True
1599561732.6904826,0.0,10,0.5,0.5,-4.40401107788086,-0.1005,-0.03,-0.5,0.018708776896475904,10,1,100,-0.013246938285694674,-10,-1,-100,15032.664478407823,0.0021465477245172274,0.002958054181791395,0.9999933211018582,20.698264105410527,0.020704495443833792,-4.533818882397881,1.931791325193287,-58.7235107421875,5356.25390625,True
1599561732.7273867,0.0,10,0.5,0.5,-5.70327530670166,-0.1005,-0.03,-0.5,-0.003084916376966458,10,1,100,0.0007684645654931731,-10,-1,-100,15032.715256555006,0.0019171721493152056,0.002624546236565487,0.9999947180900517,20.830860502742976,0.02082552213743565,-3.685663019373062,1.5603853109803816,-55.205902099609375,5356.25390625,True
1599561732.7617006,0.0,10,0.5,0.5,-6.012709609985352,-0.1005,-0.03,-0.5,-0.004325594635377964,10,1,100,0.0029125283167379216,-10,-1,-100,15032.764081234694,0.0016909853927653399,0.0023123243930667963,0.9999958968537335,20.86339185989167,0.020860057994570497,-2.812796569802808,1.1889681350735164,-51.96368408203125,5356.25390625,True
1599561732.7995973,0.0,10,0.5,0.5,-6.288369934082032,-0.1005,-0.03,-0.5,-0.01061767787687731,10,1,100,0.005240949167938266,-10,-1,-100,15032.809976735502,0.0014660427165173106,0.0019736191715835757,0.9999969777684925,20.815545337812008,0.020822871824970845,-1.929680041186603,0.8175372693600602,-48.99761962890625,5356.25390625,True
1599561732.8364995,0.0,10,0.5,0.5,-6.530275588989259,-0.1005,-0.03,-0.5,-0.013183431840017086,10,1,100,0.007603652556785764,-10,-1,-100,15032.797278901795,0.00124193093639989,0.0016448118239746504,0.999997876098551,20.70442160767083,0.02072793873161532,-1.0473293461452915,0.44609081417967333,-46.307159423828125,5356.25390625,True
1599561732.8754666,0.0,10,0.5,0.5,-7.392938690185547,-0.1005,-0.03,-0.5,-0.035328509330988064,10,1,100,0.022281369810549994,-10,-1,-100,15032.807041093474,0.0009065185297014222,0.0011469585762424914,0.999998931354519,20.45583629951971,0.020507161477952215,0.25773978242664625,-0.11111083634436758,-42.78851318359375,5356.25390625,True
1599561732.915353,0.0,10,0.5,0.5,-6.933611495971681,-0.1005,-0.03,-0.5,-0.021924392250663234,10,1,100,0.013571025700725145,-10,-1,-100,15032.787508354057,0.0006827445322347594,0.0008189327817784269,0.9999994316043398,20.37242753457399,0.020443313947358766,1.1149185134069162,-0.4825971873095283,-40.787322998046875,5356.25390625,True
1599561732.9592466,0.0,10,0.5,0.5,-7.066543762207031,-0.1005,-0.03,-0.5,-0.023895941502158652,10,1,100,0.01652366013908024,-10,-1,-100,15032.773836067645,0.00045453199025923387,0.0005056888332635464,0.9999997688397101,20.303181707557528,0.02039498524771068,1.9665006169918176,-0.8540949771771675,-39.0616455078125,5356.25390625,True
1599561733.0021336,0.0,10,0.5,0.5,-6.286280364990235,-0.1005,-0.03,-0.5,0.007122662871613543,10,1,100,-0.00608253658280396,-10,-1,-100,15032.773836067645,0.00045453199025923387,0.0005056888332635464,0.9999997688397101,20.303181707557528,0.02039498524771068,1.9665006169918176,-0.8540949771771675,-39.0616455078125,5356.25390625,True
1599561733.0429888,0.0,10,0.5,0.5,-7.61286637878418,-0.1005,-0.03,-0.5,-0.0442656452176656,10,1,100,0.03193001409893884,-10,-1,-100,15032.717195331817,0.00011091841565855702,4.130230952206194e-05,0.9999999929956122,20.200400936624064,0.020327770165088424,3.23321964820444,-1.4113604399644204,-36.990020751953125,5356.25390625,True
1599561733.0839138,0.0,10,0.5,0.5,-6.979795486450195,-0.1005,-0.03,-0.5,-0.014531623186616124,10,1,100,0.010590492660949257,-10,-1,-100,15032.675202182028,-5.507668480512483e-06,-0.00010776895407741026,0.9999999941777592,20.17247799775191,0.020313374495856757,3.6537506349319258,-1.5971200757832684,-36.437225341796875,5356.25390625,True
1599561733.1227763,0.0,10,0.5,0.5,-7.517747924804687,-0.1005,-0.03,-0.5,-0.04878041762966997,10,1,100,0.03768107710045157,-10,-1,-100,15032.558992632432,-0.00035567118951787156,-0.000551853849435721,0.9999997844776437,20.12629056102601,0.02031578812858181,4.917563070300016,-2.154411376981543,-35.19244384765625,5356.25390625,True
1599561733.161401,0.0,10,0.5,0.5,-7.246924468994141,-0.1005,-0.03,-0.5,-0.03576413377961832,10,1,100,0.029143339752690005,-10,-1,-100,15032.476962021552,-0.0005943196479005173,-0.000834349901046442,0.9999994753220618,20.119241797236555,0.02034999588886106,5.763746196698582,-2.5259479467777255,-34.70697021484375,5356.25390625,True
1599561733.198328,0.0,10,0.5,0.5,-7.182039337158203,-0.1005,-0.03,-0.5,-0.037404051394900543,10,1,100,0.03223645964507299,-10,-1,-100,15032.331455839681,-0.0008373145135967078,-0.0011032122223822874,0.9999990409131388,20.134986548860283,0.020415528021633322,6.616898210021892,-2.8974914116246846,-34.49700927734375,5356.25390625,True
1599561733.2352293,0.0,10,0.5,0.5,-7.081233520507812,-0.1005,-0.03,-0.5,-0.038641567338788006,10,1,100,0.035521846313334764,-10,-1,-100,15032.252355641569,-0.0010859921273682481,-0.0013560855400011548,0.999998490825415,20.175662031485402,0.02051498068716593,7.480698519404385,-3.269041284848363,-34.5625,5356.25390625,True
1599561733.2671123,0.0,10,0.5,0.5,-7.067516418457031,-0.1005,-0.03,-0.5,-0.02710832665490756,10,1,100,0.024701028044820397,-10,-1,-100,15032.148839617032,-0.0012115753164797286,-0.0014783946431066886,0.9999981732155973,20.205769644986958,0.020577781256428417,7.9177434214572004,-3.4548184104244672,-34.69854736328125,5356.25390625,True
1599561733.3069801,0.0,10,0.5,0.5,-7.036770538330078,-0.1005,-0.03,-0.5,-0.02795962297113449,10,1,100,0.02636600240544868,-10,-1,-100,15032.109779052204,-0.0013389524427266214,-0.001594937109514374,0.9999978316886358,20.245011845563482,0.020651860028686,8.359850296342712,-3.6405967321807746,-34.9034423828125,5356.25390625,True
1599561733.3488965,0.0,10,0.5,0.5,-6.251190048217774,-0.1005,-0.03,-0.5,-0.06363670272881655,10,1,100,0.0710348030322149,-10,-1,-100,15031.757244014181,-0.0018589919295807975,-0.0020230274677809313,0.9999962257473127,20.476835234759072,0.021041482245044367,10.18227000407444,-4.3837219054468335,-36.411651611328125,5356.25390625,True
1599561733.3882704,0.0,10,0.5,0.5,-6.312300903320313,-0.1005,-0.03,-0.5,-0.04200331079867045,10,1,100,0.048562715417381455,-10,-1,-100,15031.548262042343,-0.0021253601902953443,-0.002213234488384615,0.9999952922074988,20.6241193054951,0.02127531386726782,11.125209619616582,-4.755289838294518,-37.57891845703125,5356.25390625,True
1599561733.432153,0.0,10,0.5,0.5,-6.0342682800292975,-0.1005,-0.03,-0.5,-0.03984259137550719,10,1,100,0.051872347643434624,-10,-1,-100,15031.3412333905,-0.0023952553637449116,-0.0023640353093395267,0.9999943370283647,20.786542950692883,0.021525760597583807,12.089479443591003,-5.126859721015629,-39.021240234375,5356.25390625,True
1599561733.5214298,0.0,10,0.5,0.5,-6.254190567016602,-0.1005,-0.03,-0.5,-0.03334301857188177,10,1,100,0.039981922367080744,-10,-1,-100,15031.236742037232,-0.002530241497296389,-0.0024398532687029775,0.9999938224779154,20.87148136958888,0.021653838944904295,12.579038419054266,-5.312645171719821,-39.845794677734375,5356.25390625,True
1599561733.587254,0.0,10,0.5,0.5,-4.922914077758789,-0.1005,-0.03,-0.5,-0.04603053779556751,10,1,100,0.07150028972298622,-10,-1,-100,15030.924246555893,-0.002937191563916131,-0.0026219996935081436,0.999992248981623,21.127578134710593,0.022026445682036478,14.070231472230871,-5.870000874080301,-42.732269287109375,5356.25390625,True
1599561733.633131,0.0,10,0.5,0.5,-4.981319793701172,-0.1005,-0.03,-0.5,-0.03837821489180864,10,1,100,0.06108116232707886,-10,-1,-100,15030.650812105858,-0.0032100799932672855,-0.002716138829802239,0.9999911589490649,21.28727833386871,0.022244091100247332,15.074698074910946,-6.241569235955442,-45.000732421875,5356.25390625,True
1599561733.6839952,0.0,10,0.5,0.5,-4.557195846557617,-0.1005,-0.03,-0.5,-0.036239452004709585,10,1,100,0.06354075901994574,-10,-1,-100,15030.440853899578,-0.003478142389571337,-0.0027805658466152836,0.999990085440396,21.424846839719493,0.02241464030770565,16.07615455742124,-6.61313489729067,-47.544403076171875,5356.25390625,True
1599561733.7358553,0.0,10,0.5,0.5,-4.964146514892578,-0.1005,-0.03,-0.5,-0.03262031948794812,10,1,100,0.051553948255900095,-10,-1,-100,15030.276792211225,-0.003610463717560083,-0.002804709790270917,0.9999895490227568,21.481356117265438,0.0224753001657914,16.571812863747233,-6.79891631575897,-48.91949462890625,5356.25390625,True
1599561733.8036754,0.0,10,0.5,0.5,-4.741572463989258,-0.1005,-0.03,-0.5,-0.03239527360560274,10,1,100,0.05302329102746617,-10,-1,-100,15030.10882542911,-0.003741818521300278,-0.0028232960271635625,0.9999890138365005,21.527308871647918,0.022515568401073254,17.06152075361613,-6.984696726100385,-50.363372802734375,5356.25390625,True
1599561733.8525445,0.0,10,0.5,0.5,-3.5584453125,-0.1005,-0.03,-0.5,-0.03257841607889908,10,1,100,0.06834678890280173,-10,-1,-100,15029.83441423229,-0.003998236284290033,-0.002840634900110428,0.9999879723776577,21.579867315041447,0.02252263814217996,18.01400682437919,-7.356254575612797,-53.45758056640625,5356.25390625,True
1599561733.9024112,0.0,10,0.5,0.5,-0.8377919769287114,-0.1005,-0.03,-0.5,-0.027462367515669408,10,1,100,0.09699753992850393,-10,-1,-100,15029.223091603606,-0.004489387183749318,-0.002808755526950403,0.9999859780492446,21.469471810427187,0.022164321982109974,19.73460704103662,-8.099359854070956,-60.471893310546875,5356.25390625,True
1599561733.9522789,0.0,10,0.5,0.5,-4.272767623901367,-0.1005,-0.03,-0.5,-0.03072887763758884,10,1,100,0.048145489507992294,-10,-1,-100,15029.223091603606,-0.004489387183749318,-0.002808755526950403,0.9999859780492446,21.469471810427187,0.022164321982109974,19.73460704103662,-8.099359854070956,-60.471893310546875,5356.25390625,True
1599561734.0021443,0.0,10,0.5,0.5,-0.6152178955078127,-0.1005,-0.03,-0.5,-0.021273810532941057,10,1,100,0.08414491611059466,-10,-1,-100,15028.722117681406,-0.004814505582869836,-0.0027222589886912725,0.9999847048040239,21.132354241595475,0.021509569743183268,20.763350885597355,-8.656687221204033,-66.4483642578125,5356.25390625,True
1599561734.0450284,0.0,10,0.5,0.5,-2.250552261352539,-0.1005,-0.03,-0.5,-0.025577285520610393,10,1,100,0.0625429404582602,-10,-1,-100,15028.55415055959,-0.004911486848668062,-0.002682422614089646,0.9999843408303226,20.96160586469348,0.02121534410665278,21.03827222989396,-8.842464440622782,-68.56430053710938,5356.25390625,True
1599561734.0899103,0.0,10,0.5,0.5,-0.5625391235351564,-0.1005,-0.03,-0.5,-0.019746025549509716,10,1,100,0.07488049575698444,-10,-1,-100,15028.155714876833,-0.005109646460880877,-0.002592975756218719,0.9999835838601415,20.523402202292708,0.020518194493601632,21.465475634556594,-9.214023855676503,-72.99365234375,5356.25390625,True
1599561734.1347895,0.0,10,0.5,0.5,1.5496707305908204,-0.1005,-0.03,-0.5,-0.010012924138446625,10,1,100,0.08115144252003648,-10,-1,-100,15027.582473975257,-0.005344825210832123,-0.002423204076178475,0.9999827803144767,19.60103532478257,0.019232881787625913,21.74320884446736,-9.77138089008647,-80.04794311523438,5356.25390625,True
1599561734.178671,0.0,10,0.5,0.5,-0.3879061126708985,-0.1005,-0.03,-0.5,-0.019904890020996324,10,1,100,0.06561619679621092,-10,-1,-100,15027.417436219868,-0.005415453890373419,-0.0023590594521229083,0.9999825536966447,19.231555016656067,0.018767346343663813,21.73979305372844,-9.957172544790176,-82.51992797851562,5356.25390625,True
1599561734.2205603,0.0,10,0.5,0.5,1.534858612060547,-0.1005,-0.03,-0.5,-0.01143671529579065,10,1,100,0.07160932230740451,-10,-1,-100,15027.016070225975,-0.005532383547784719,-0.0022241459385655164,0.9999822227955475,18.4392227983063,0.017848437211066333,21.623675914825903,-10.328764828731025,-87.60540771484375,5356.25390625,True
1599561734.2634466,0.0,10,0.5,0.5,5.120552619934082,-0.1005,-0.03,-0.5,0.007171143067602213,10,1,100,0.07777442199601678,-10,-1,-100,15026.15083649347,-0.005692982397300353,-0.0019328627264385936,0.9999819268332326,18.717120421368314,0.01815083238217492,23.53276136658244,-11.071961052406085,-97.61769104003906,5356.25390625,True
1599561734.3083506,0.0,10,0.5,0.5,1.7352588500976562,-0.1005,-0.03,-0.5,-0.013724882332043616,10,1,100,0.06448780309446109,-10,-1,-100,15025.917437448748,-0.00571642012150406,-0.0018588331584115576,0.9999819334769421,19.248429513433127,0.018743479625057794,24.607912009191114,-11.257751222146196,-100.08078002929688,5356.25390625,True
1599561734.348254,0.0,10,0.5,0.5,4.864214000701905,-0.1005,-0.03,-0.5,0.002804598817432759,10,1,100,0.06584535403047942,-10,-1,-100,15025.225055078976,-0.005748506530346493,-0.001642158087702375,0.9999821288350534,20.67792873531908,0.020494760630200556,27.747818294183656,-11.815089859407927,-107.10930633544922,5356.25390625,True
1599561734.3871903,0.0,10,0.5,0.5,4.101661491394043,-0.1005,-0.03,-0.5,-0.0025834743839132455,10,1,100,0.061947459458034114,-10,-1,-100,15024.697710492299,-0.0057410959337750225,-0.0014952237774692163,0.9999824019068208,21.436547649587215,0.02154529625524711,29.673022424407822,-12.186620641412985,-111.45867919921875,5356.25390625,True
1599561734.4270828,0.0,10,0.5,0.5,2.079935417175293,-0.1005,-0.03,-0.5,-0.01714555223228099,10,1,100,0.06281368999018372,-10,-1,-100,15024.697710492299,-0.0057410959337750225,-0.0014952237774692163,0.9999824019068208,21.436547649587215,0.02154529625524711,29.673022424407822,-12.186620641412985,-111.45867919921875,5356.25390625,True
1599561734.4676065,0.0,10,0.5,0.5,6.9429784088134765,-0.1005,-0.03,-0.5,0.011433549682337337,10,1,100,0.053917784473041894,-10,-1,-100,15023.701614477788,-0.00565938171057291,-0.0012365292466192516,0.9999832210562716,22.694013446627437,0.02343554802670585,33.334944380693045,-12.929612875687628,-119.33213806152344,5356.25390625,True
1599561734.5075,0.0,10,0.5,0.5,5.274266754150391,-0.1005,-0.03,-0.5,-0.000946978956619075,10,1,100,0.05387894823109464,-10,-1,-100,15023.175245818915,-0.005584063091951556,-0.0011152171092620423,0.9999837871336635,23.186210109488943,0.024216046740498275,35.039648495480314,-13.301076002238181,-122.85539245605469,5356.25390625,True
1599561734.810766,0.0,10,0.5,0.5,3.66222477722168,-0.1005,-0.03,-0.5,-0.012930416827644337,10,1,100,0.06145825175633713,-10,-1,-100,15023.175245818915,-0.005584063091951556,-0.0011152171092620423,0.9999837871336635,23.186210109488943,0.024216046740498275,35.039648495480314,-13.301076002238181,-122.85539245605469,5356.25390625,True
1599561734.844675,0.0,10,0.5,0.5,5.740943504333496,-0.1005,-0.03,-0.5,-0.0015156923076862002,10,1,100,0.05214924663871772,-10,-1,-100,15022.643994326703,-0.005499218283717635,-0.001012635965414165,0.9999843664611311,23.584127626941576,0.02485663702973529,36.63973346116685,-13.672519517440996,-126.10317993164062,5356.25390625,True
1599561734.8815775,0.0,10,0.5,0.5,6.032540573120118,-0.1005,-0.03,-0.5,-0.0010419721733870378,10,1,100,0.04897036772963669,-10,-1,-100,15022.056101829046,-0.005393111591246657,-0.0009162978547740195,0.9999850372608612,23.90202077214533,0.02535928849976259,38.14599415339377,-14.043945679433614,-129.0752716064453,5356.25390625,True
1599561734.9703395,0.0,10,0.5,0.5,6.290163352966309,-0.1005,-0.03,-0.5,-0.0012787981543580188,10,1,100,0.04575625315176532,-10,-1,-100,15021.521920371451,-0.005267558349161971,-0.0008320596704588884,0.9999857801517694,24.153921013927825,0.025731501999780724,39.57127463063562,-14.415356884829215,-131.77178955078125,5356.25390625,True
1599561735.0261898,0.0,10,0.5,0.5,5.791949592590332,-0.1005,-0.03,-0.5,-0.005578188390564528,10,1,100,0.05108188755309645,-10,-1,-100,15021.226996555692,-0.0052022206455044845,-0.0007955655987342645,0.9999861518919817,24.259235956426544,0.025872321030587137,40.25775766677696,-14.601057473047925,-133.0167236328125,5356.25390625,True
1599561735.0600996,0.0,10,0.5,0.5,7.26279776763916,-0.1005,-0.03,-0.5,0.0010891625139591108,10,1,100,0.03353975856196949,-10,-1,-100,15020.340275713941,-0.004983816287238342,-0.0007027434958159162,0.9999873337831806,24.511830061945016,0.026137056830636423,42.235186047142875,-15.158141990277215,-136.338134765625,5356.25390625,True
1599561735.0930116,0.0,10,0.5,0.5,6.271879577636719,-0.1005,-0.03,-0.5,-0.005368213776878952,10,1,100,0.046577120481307,-10,-1,-100,15019.979922258412,-0.004904483515575015,-0.000677917199981297,0.9999877431597426,24.579527505861307,0.026179602758750475,42.87281177343993,-15.343831669117648,-137.3074951171875,5356.25390625,True
1599561735.1259239,0.0,10,0.5,0.5,6.904836112976074,-0.1005,-0.03,-0.5,-0.003472685156731743,10,1,100,0.035789433707412194,-10,-1,-100,15019.390076102456,-0.004735053491044038,-0.000638858767746203,0.9999885854988105,24.698276678737745,0.02620963563834907,44.127134753627416,-15.715204003927232,-139.03953552246094,5356.25390625,True
1599561735.1586287,0.0,10,0.5,0.5,7.70530209350586,-0.1005,-0.03,-0.5,-0.0022144451864734016,10,1,100,0.01268650084130031,-10,-1,-100,15018.078548057587,-0.004371914117635525,-0.0005926910705389718,0.9999902674947606,24.89898170275237,0.026107804275361413,46.59798542934501,-16.457922365340313,-141.67691040039062,5356.25390625,True
1599561735.186554,0.0,10,0.5,0.5,6.453648971557618,-0.1005,-0.03,-0.5,-0.006766831089588499,10,1,100,0.048871691422857924,-10,-1,-100,15018.078548057587,-0.004371914117635525,-0.0005926910705389718,0.9999902674947606,24.89898170275237,0.026107804275361413,46.59798542934501,-16.457922365340313,-141.67691040039062,5356.25390625,True
1599561735.2204635,0.0,10,0.5,0.5,6.802620872497559,-0.1005,-0.03,-0.5,-0.006121121774577701,10,1,100,0.03821717206149934,-10,-1,-100,15017.777766612824,-0.004276156804327098,-0.0005872960095286219,0.999990684739804,24.947010945064285,0.026059809380658685,47.217138733004,-16.643596593556552,-142.1640167236328,5356.25390625,True
1599561735.2503831,0.0,10,0.5,0.5,7.077878433227539,-0.1005,-0.03,-0.5,-0.006010955429485635,10,1,100,0.026170218436369727,-10,-1,-100,15017.05803812726,-0.004080775946807008,-0.0005818698246544972,0.9999915043115012,25.04538023809901,0.025947685710266632,48.466255944728196,-17.01493850082922,-142.9315185546875,5356.25390625,True
1599561735.2832966,0.0,10,0.5,0.5,7.040106986999512,-0.1005,-0.03,-0.5,-0.007926470621601244,10,1,100,0.022339339265891385,-10,-1,-100,15016.402762431535,-0.0038696203041815873,-0.0005947423093706709,0.999992336130776,25.150544190576152,0.025823189889160825,49.73746250729929,-17.386271291511076,-143.42359924316406,5356.25390625,True
1599561735.3152103,0.0,10,0.5,0.5,6.9670782394409185,-0.1005,-0.03,-0.5,-0.008305017317174217,10,1,100,0.019845358794416165,-10,-1,-100,15015.681080572307,-0.003656373071406035,-0.000610178225022768,0.9999931292856449,25.2845381548558,0.025714899111535183,51.07613947238136,-17.75759402565002,-143.64002990722656,5356.25390625,True
1599561735.350118,0.0,10,0.5,0.5,6.8944676284790045,-0.1005,-0.03,-0.5,-0.006739237607420898,10,1,100,0.041008963544195816,-10,-1,-100,15015.681080572307,-0.003656373071406035,-0.000610178225022768,0.9999931292856449,25.2845381548558,0.025714899111535183,51.07613947238136,-17.75759402565002,-143.64002990722656,5356.25390625,True
1599561735.3850236,0.0,10,0.5,0.5,6.8110132522583005,-0.1005,-0.03,-0.5,-0.010890308243093557,10,1,100,0.004138695985332369,-10,-1,-100,15014.604904818,-0.003322594136847366,-0.0006480837647777117,0.9999942701614024,25.504438873283323,0.025559430128744818,53.14547105992097,-18.314558129481618,-143.44798278808594,5356.25390625,True
1599561735.4149432,0.0,10,0.5,0.5,6.6446645584106445,-0.1005,-0.03,-0.5,-0.011044457536610265,10,1,100,0.011789614193175812,-10,-1,-100,15013.819746925146,-0.003090222745638417,-0.0006839943942514835,0.999994991324982,25.66196383547998,0.025467763553358804,54.56420725423988,-18.685853233608256,-142.9755401611328,5356.25390625,True
1599561735.4497373,0.0,10,0.5,0.5,6.448697021484375,-0.1005,-0.03,-0.5,-0.011646675804099262,10,1,100,0.008831841367477035,-10,-1,-100,15013.098065549042,-0.0028537365104602352,-0.000722109607846385,0.9999956673634357,25.826501797382754,0.02539174985540813,56.0118504246503,-19.057136447172343,-142.22750854492188,5356.25390625,True
1599561735.485642,0.0,10,0.5,0.5,6.545606170654297,-0.1005,-0.03,-0.5,-0.009990651621351935,10,1,100,0.019091786796895327,-10,-1,-100,15012.676190238562,-0.0027337315432753124,-0.0007416293541439559,0.9999959883408286,25.910630730579477,0.025361119393865546,56.745106600325094,-19.24277334767844,-141.7501220703125,5356.25390625,True
1599561735.5155978,0.0,10,0.5,0.5,6.087103019714355,-0.1005,-0.03,-0.5,-0.012757709150649922,10,1,100,0.003991498040955589,-10,-1,-100,15011.952555720462,-0.0024888500231208034,-0.0007843942480593611,0.9999965951698164,26.080008632874623,0.025317035930073267,58.225084987032076,-19.614037851392567,-140.58872985839844,5356.25390625,True
1599561735.5494702,0.0,10,0.5,0.5,6.66453458404541,-0.1005,-0.03,-0.5,-0.008500390076861434,10,1,100,0.02829134364695502,-10,-1,-100,15011.952555720462,-0.0024888500231208034,-0.0007843942480593611,0.9999965951698164,26.080008632874623,0.025317035930073267,58.225084987032076,-19.614037851392567,-140.58872985839844,5356.25390625,True
1599561735.5843763,0.0,10,0.5,0.5,5.796910675048829,-0.1005,-0.03,-0.5,-0.013424182097862216,10,1,100,0.0006266406713854589,-10,-1,-100,15011.10587487882,-0.0022389775476894494,-0.0008289768134879767,0.9999971498844303,26.247032642881635,0.025299246968382358,59.714430568822785,-19.98528967317943,-139.15176391601562,5356.25390625,True
1599561735.6162915,0.0,10,0.5,0.5,4.899428512573243,-0.1005,-0.03,-0.5,-0.016222291966057636,10,1,100,-0.016637976593368665,-10,-1,-100,15009.896887801471,-0.0018565440479805606,-0.0008947191381441005,0.999997876358676,26.479656729889555,0.025329485190611834,61.93380966300649,-20.542144169218634,-136.4796142578125,5356.25390625,True
1599561735.6511986,0.0,10,0.5,0.5,4.938104927062988,-0.1005,-0.03,-0.5,-0.014446129307787188,10,1,100,-0.007240964596962513,-10,-1,-100,15009.050207139808,-0.0015961346811727186,-0.0009380652483665059,0.9999982861923661,26.611955181866733,0.02539250048087839,63.376056158179836,-20.913365625726218,-134.35377502441406,5356.25390625,True
1599561735.6851084,0.0,10,0.5,0.5,5.97316577911377,-0.1005,-0.03,-0.5,-0.01014430698788102,10,1,100,0.018593948244798358,-10,-1,-100,15009.050207139808,-0.0015961346811727186,-0.0009380652483665059,0.9999982861923661,26.611955181866733,0.02539250048087839,63.376056158179836,-20.913365625726218,-134.35377502441406,5356.25390625,True
1599561735.7150276,0.0,10,0.5,0.5,4.503203552246093,-0.1005,-0.03,-0.5,-0.013909281627851358,10,1,100,-0.00997197263918483,-10,-1,-100,15008.200597024173,-0.0013383174353094472,-0.0009719942114359238,0.9999986320659121,26.715671845562795,0.025492192595964473,64.76064015173365,-21.28457652879247,-131.9522705078125,5356.25390625,True
1599561735.7509322,0.0,10,0.5,0.5,4.061929000854493,-0.1005,-0.03,-0.5,-0.014276023660066896,10,1,100,-0.013306996124636379,-10,-1,-100,15007.352939645178,-0.0010754236134764936,-0.001005878277749483,0.9999989158358833,26.780792130704857,0.02562805016314003,66.0592318579551,-21.655777755018036,-129.2752685546875,5356.25390625,True
1599561735.784841,0.0,10,0.5,0.5,4.493544799804687,-0.1005,-0.03,-0.5,-0.012914556646888132,10,1,100,-0.0020480557957414745,-10,-1,-100,15006.92715882929,-0.0009406148685566367,-0.0010240123798388224,0.9999990333206902,26.795458865543818,0.02570841530378514,66.66624212385047,-21.84137551926306,-127.83349609375,5356.25390625,True
1599561735.8147612,0.0,10,0.5,0.5,3.3154817008972177,-0.1005,-0.03,-0.5,-0.013527671673338498,10,1,100,-0.017420153016482663,-10,-1,-100,15006.017978851683,-0.0006800543272063046,-0.0010457972430950504,0.9999992219168163,26.781268642094368,0.025888354729818257,67.77232462179397,-22.212566738063337,-124.74312591552734,5356.25390625,True
1599561735.8496678,0.0,10,0.5,0.5,3.8197224311828615,-0.1005,-0.03,-0.5,-0.012381044942434787,10,1,100,-0.005884616545976799,-10,-1,-100,15005.593173208646,-0.0005499166004524825,-0.001054901268602541,0.9999992923872726,26.749282359685964,0.025984496600549172,68.26156661814825,-22.398160806781252,-123.0946273803711,5356.25390625,True
1599561735.8855715,0.0,10,0.5,0.5,1.3735649642944336,-0.1005,-0.03,-0.5,-0.013395729422757487,10,1,100,-0.03592482339592809,-10,-1,-100,15004.251376854023,-0.00016027945333369446,-0.0010721561443208815,0.9999994123956768,26.53447597203001,0.026265958132534812,69.4109903366851,-22.954941879415678,-117.73588562011719,5356.25390625,True
1599561735.9172614,0.0,10,0.5,0.5,1.6322876434326172,-0.1005,-0.03,-0.5,-0.011907118664101629,10,1,100,-0.0253830682056821,-10,-1,-100,15003.27481424145,9.598511452679733e-05,-0.0010740479681713546,0.9999994186037409,26.274906948538746,0.026407816800171287,69.85334629822002,-23.32613294496102,-113.81900024414062,5356.25390625,True
1599561735.9521687,0.0,10,0.5,0.5,3.5147320404052733,-0.1005,-0.03,-0.5,-0.011742443394522663,10,1,100,9.89231414545255e-06,-10,-1,-100,15003.27481424145,9.598511452679733e-05,-0.0010740479681713546,0.9999994186037409,26.274906948538746,0.026407816800171287,69.85334629822002,-23.32613294496102,-113.81900024414062,5356.25390625,True
1599561735.9870749,0.0,10,0.5,0.5,0.9292151565551761,-0.1005,-0.03,-0.5,-0.010907956352529799,10,1,100,-0.027426474628475375,-10,-1,-100,15002.364658474457,0.0003436316056756163,-0.0010662986961259401,0.9999993724620082,25.9105979031371,0.026467051241216673,69.99123621467709,-23.697331199139914,-109.62660217285156,5356.25390625,True
1599561736.0239804,0.0,10,0.5,0.5,-2.5800406684875488,-0.1005,-0.03,-0.5,-0.007679765051167249,10,1,100,-0.05619849182356203,-10,-1,-100,15000.413487006794,0.000828565148232741,-0.0010297901338470316,0.9999991265056563,25.00341740657807,0.02631374442024692,69.67801957194335,-24.43975825017986,-100.41548919677734,5356.25390625,True
1599561736.0548968,0.0,10,0.5,0.5,1.9237009620666503,-0.1005,-0.03,-0.5,-0.011339793767606155,10,1,100,-0.0079476075507901,-10,-1,-100,15000.413487006794,0.000828565148232741,-0.0010297901338470316,0.9999991265056563,25.00341740657807,0.02631374442024692,69.67801957194335,-24.43975825017986,-100.41548919677734,5356.25390625,True
1599561736.0898037,0.0,10,0.5,0.5,0.34466370773315447,-0.1005,-0.03,-0.5,-0.009783849007594327,10,1,100,-0.020500471762234525,-10,-1,-100,14999.923251922824,0.0009407122023517429,-0.0010155926397356413,0.9999990418156122,24.688968623821943,0.026131272592944284,69.32974605875647,-24.62537311170182,-97.9435043334961,5356.25390625,True
1599561736.1257083,0.0,10,0.5,0.5,-4.654018836975098,-0.1005,-0.03,-0.5,-0.0032857092538018766,10,1,100,-0.05729748201927801,-10,-1,-100,14997.907628285582,0.0013753494940550233,-0.0009436029979071858,0.9999986090126084,23.19582224216503,0.024761487200493038,67.1224721239107,-25.367865813709326,-87.71755981445312,5356.25390625,True
1599561736.1586204,0.0,10,0.5,0.5,0.33860561370849607,-0.1005,-0.03,-0.5,-0.01047663249845426,10,1,100,-0.01406534928521113,-10,-1,-100,14997.907628285582,0.0013753494940550233,-0.0009436029979071858,0.9999986090126084,23.19582224216503,0.024761487200493038,67.1224721239107,-25.367865813709326,-87.71755981445312,5356.25390625,True
1599561736.1935263,0.0,10,0.5,0.5,-2.9699393310546878,-0.1005,-0.03,-0.5,-0.005696598394694071,10,1,100,-0.03626753522704541,-10,-1,-100,14996.868566717138,0.0015753189991432792,-0.0009002410462777185,0.9999983539667,24.243889854962717,0.02571039704583203,71.19364161994545,-25.739096944513115,-82.39288330078125,5356.25390625,True
1599561736.2324526,0.0,10,0.5,0.5,-5.209076423645019,-0.1005,-0.03,-0.5,-0.002242293568840541,10,1,100,-0.04696615559363622,-10,-1,-100,14995.34024789161,0.0018524376111019776,-0.0008295589193089205,0.9999979401513266,25.919441695249258,0.02692560946828448,77.77964098269946,-26.295867153357143,-74.43389892578125,5356.25390625,True
1599561736.2698972,0.0,10,0.5,0.5,-2.9375253219604494,-0.1005,-0.03,-0.5,-0.00674663670223479,10,1,100,-0.028660957364860597,-10,-1,-100,14994.788489730447,0.0019361229861988016,-0.0008064715571181537,0.999997800513286,26.413196587438105,0.027201656036982116,79.82718335270548,-26.481436400738538,-71.8060302734375,5356.25390625,True
1599561736.3087597,0.0,10,0.5,0.5,-4.800656639099121,-0.1005,-0.03,-0.5,-0.004028199715325243,10,1,100,-0.037780810644610585,-10,-1,-100,14993.745522006066,0.0020934355044012125,-0.0007610132338010545,0.9999975191902463,27.282929885165945,0.027588079731611467,83.6248286251915,-26.852544890841013,-66.7252197265625,5356.25390625,True
1599561736.3466647,0.0,10,0.5,0.5,-6.677108100891113,-0.1005,-0.03,-0.5,-0.001106332405865662,10,1,100,-0.045690360807665906,-10,-1,-100,14992.091226959135,0.0023065360220767485,-0.0006934096322762139,0.999997099533124,28.29029033298929,0.02787643452672739,88.5311294851428,-27.409139926387336,-59.605194091796875,5356.25390625,True
1599561736.377582,0.0,10,0.5,0.5,-4.6097996597290045,-0.1005,-0.03,-0.5,-0.0056983314770746325,10,1,100,-0.031404181771508596,-10,-1,-100,14991.537515809992,0.002368604951983623,-0.0006740362488681219,0.999996967688261,28.553361440865615,0.027930375328100054,89.96632181084745,-27.594656061878524,-57.36932373046875,5356.25390625,True
1599561736.4159923,0.0,10,0.5,0.5,-6.181942687988282,-0.1005,-0.03,-0.5,-0.0038265964788852178,10,1,100,-0.03785343444060592,-10,-1,-100,14990.432047576876,0.0024822607854328017,-0.000639731722045388,0.9999967145569614,28.98362314030121,0.028019774298633417,92.56451678267405,-27.96566893114649,-53.104644775390625,5356.25390625,True
1599561736.4678538,0.0,10,0.5,0.5,-5.409853630065919,-0.1005,-0.03,-0.5,-0.005326053833400591,10,1,100,-0.032490081644499534,-10,-1,-100,14989.883220368181,0.0025353231580245426,-0.0006225318176219531,0.999996592289504,29.155304207595794,0.028066514921835293,93.73787103340896,-28.15116686471456,-51.0758056640625,5356.25390625,True
1599561736.5057518,0.0,10,0.5,0.5,-7.942126388549805,-0.1005,-0.03,-0.5,-0.002731029170476484,10,1,100,-0.0422641102536183,-10,-1,-100,14988.161540653673,0.002670966837776593,-0.0005836617355941691,0.9999962626305811,29.522657443144805,0.028260794846566777,96.81837561983517,-28.707633769838136,-45.403717041015625,5356.25390625,True
1599561736.5451581,0.0,10,0.5,0.5,-5.23302360534668,-0.1005,-0.03,-0.5,-0.006582043247023579,10,1,100,-0.02882930401278539,-10,-1,-100,14988.161540653673,0.002670966837776593,-0.0005836617355941691,0.9999962626305811,29.522657443144805,0.028260794846566777,96.81837561983517,-28.707633769838136,-45.403717041015625,5356.25390625,True
1599561736.5850508,0.0,10,0.5,0.5,-9.320886444091798,-0.1005,-0.03,-0.5,-0.0036021448140145357,10,1,100,-0.043816673058381266,-10,-1,-100,14985.822674691794,0.0028060378133331725,-0.0005568989691689169,0.9999959079992919,29.748341738055082,0.02871596735809783,100.11225607570907,-29.44954563961891,-38.80767822265625,5356.25390625,True
1599561736.6284468,0.0,10,0.5,0.5,-7.040206802368164,-0.1005,-0.03,-0.5,-0.0057867352920423255,10,1,100,-0.03334767052091976,-10,-1,-100,14985.206464604009,0.0028325380236675127,-0.000552741224107221,0.9999958355940707,29.7710781485294,0.028868225057595464,100.82808484934469,-29.635018146134108,-37.331268310546875,5356.25390625,True
1599561736.6703355,0.0,10,0.5,0.5,-8.82423440551758,-0.1005,-0.03,-0.5,-0.007122199348057907,10,1,100,-0.037244936982759325,-10,-1,-100,14983.41837859177,0.0028911678187040313,-0.0005613536906469134,0.9999956630059342,29.78692898851691,0.0294093679648209,102.80176046364468,-30.191426570381683,-33.31640625,5356.25390625,True
1599561736.7102292,0.0,10,0.5,0.5,-6.932272247314454,-0.1005,-0.03,-0.5,-0.006236440907441546,10,1,100,-0.031477461962358,-10,-1,-100,14983.41837859177,0.0028911678187040313,-0.0005613536906469134,0.9999956630059342,29.78692898851691,0.0294093679648209,102.80176046364468,-30.191426570381683,-33.31640625,5356.25390625,True
1599561736.7521162,0.0,10,0.5,0.5,-8.432498611450196,-0.1005,-0.03,-0.5,-0.007714590769805588,10,1,100,-0.03433469853583546,-10,-1,-100,14982.186933412217,0.0029164174854499148,-0.0005749729253439993,0.9999955819478333,29.770382722974187,0.02983281313994926,104.0248361182013,-30.56235926374521,-30.985015869140625,5356.25390625,True
1599561736.7969975,0.0,10,0.5,0.5,-9.655173156738282,-0.1005,-0.03,-0.5,-0.012664440254020692,10,1,100,-0.03340177210572557,-10,-1,-100,14979.725019387668,0.0029303361408875616,-0.0006324603492041532,0.9999955065519085,29.722449887106524,0.030803419639480505,106.41580446093359,-31.304210969832255,-27.15069580078125,5356.25390625,True
1599561736.8428743,0.0,10,0.5,0.5,-8.731214935302734,-0.1005,-0.03,-0.5,-0.01155518755919644,10,1,100,-0.030858691040797068,-10,-1,-100,14978.489667667192,0.0029193598805234322,-0.0006746753244874034,0.9999955110654719,29.709582854388344,0.031342852554991835,107.6495218218357,-31.675129194335426,-25.647705078125,5356.25390625,True
1599561736.8847613,0.0,10,0.5,0.5,-8.062090393066406,-0.1005,-0.03,-0.5,-0.007337184391115616,10,1,100,-0.03200002698671906,-10,-1,-100,14978.489667667192,0.0029193598805234322,-0.0006746753244874034,0.9999955110654719,29.709582854388344,0.031342852554991835,107.6495218218357,-31.675129194335426,-25.647705078125,5356.25390625,True
1599561736.9276476,0.0,10,0.5,0.5,-8.875145385742188,-0.1005,-0.03,-0.5,-0.012816967818858606,10,1,100,-0.02944180766265568,-10,-1,-100,14977.192792651244,0.0028957542169205843,-0.0007244441342788257,0.9999955448841819,29.71425747166537,0.03191663181451416,108.9471754458713,-32.04604122328302,-24.4207763671875,5356.25390625,True
1599561736.9712043,0.0,10,0.5,0.5,-8.895643630981446,-0.1005,-0.03,-0.5,-0.014215555281369145,10,1,100,-0.02805710146139974,-10,-1,-100,14975.895917610498,0.002861501932380083,-0.0007822749542950465,0.999995599916613,29.742432676461288,0.03252574047376606,110.33312425950992,-32.41694588360254,-23.469879150390625,5356.25390625,True
1599561737.0110986,0.0,10,0.5,0.5,-9.130808334350586,-0.1005,-0.03,-0.5,-0.02396324400083353,10,1,100,-0.020024550788871644,-10,-1,-100,14973.238690439146,0.002757167090234278,-0.00092328322156065,0.99999577277993,29.88667623186536,0.03385998418736282,113.44802060374182,-33.15872801941208,-22.396087646484375,5356.25390625,True
1599561737.0509915,0.0,10,0.5,0.5,-8.716982025146486,-0.1005,-0.03,-0.5,-0.018760123170632255,10,1,100,-0.022686550388073937,-10,-1,-100,14971.940838704817,0.002686561658024566,-0.0010038383803890128,0.9999958873390247,30.008393883359695,0.03459153163965889,115.20620851089109,-33.52960234847946,-22.27313232421875,5356.25390625,True
1599561737.0918818,0.0,10,0.5,0.5,-8.700678771972656,-0.1005,-0.03,-0.5,-0.01074971700342416,10,1,100,-0.02973249597248085,-10,-1,-100,14971.940838704817,0.002686561658024566,-0.0010038383803890128,0.9999958873390247,30.008393883359695,0.03459153163965889,115.20620851089109,-33.52960234847946,-22.27313232421875,5356.25390625,True
1599561737.1337695,0.0,10,0.5,0.5,-8.642032958984375,-0.1005,-0.03,-0.5,-0.019930379864482643,10,1,100,-0.02026916021309616,-10,-1,-100,14970.58243990736,0.0026007173385398682,-0.0010868966930443244,0.9999960274545613,30.16499810141703,0.035369975929766914,117.11098760298034,-33.900463343779805,-22.42596435546875,5356.25390625,True
1599561737.1731725,0.0,10,0.5,0.5,-8.493661056518555,-0.1005,-0.03,-0.5,-0.021623233604439816,10,1,100,-0.018090171244149862,-10,-1,-100,14969.219158256194,0.002503132103363508,-0.0011773160630920388,0.9999961741209616,30.356401628839798,0.036196961906949175,119.16652082793064,-34.27130928588609,-22.854705810546875,5356.25390625,True
1599561737.2130675,0.0,10,0.5,0.5,-7.720636657714843,-0.1005,-0.03,-0.5,-0.03408109977759543,10,1,100,-0.0019439298391989782,-10,-1,-100,14966.435954195214,0.0022680099544146143,-0.001372221234584332,0.999996486563693,30.83744766215149,0.03799270720510676,123.7231278176943,-35.01294969605684,-24.53961181640625,5356.25390625,True
