Timestamp,Input Throttle,horizon,dT,dt,Input Roll,Roll P,Roll I,Roll D,Input Pitch,Pitch P,Pitch I,Pitch D,Input Yaw,Yaw P,Yaw I,Yaw D,Altitude,Direction X,Direction Y,Direction Z,Drag X,Drag Y,Drag Z,Vertical Velocity,Roll,Mass,Has Fuel
1599560318.4917972,0.0,10,0.5,0.5,-2.9543525085449223,-0.05075,-0.02275,-0.5,-0.0005814021241873955,10,1,100,0.17112957234240742,-10,-1,-100,14993.318149668397,-0.01677677674297546,-7.713207397586467e-05,0.999859257002084,28.71709994022593,0.027109229437822385,-88.32783470713709,27.19495089005158,-31.7918701171875,5356.25390625,True
1599560318.5187984,0.0,10,0.5,0.5,-3.08682223815918,-0.05075,-0.02275,-0.5,-0.0004955387574517672,10,1,100,0.1732906725238441,-10,-1,-100,14993.851354315411,-0.01681173335588266,-7.455484497855134e-05,0.9998586700444948,28.64445357936281,0.027275178302167816,-87.50348654032837,27.00897939009407,-31.791259765625,5356.25390625,True
1599560318.5526645,0.0,10,0.5,0.5,-3.21927809753418,-0.05075,-0.02275,-0.5,-0.0005018103977494624,10,1,100,0.1754012283823378,-10,-1,-100,14994.384559368482,-0.016847415572370163,-7.220114730644686e-05,0.999858069615646,28.571765492153766,0.02743955751202527,-86.68206049344892,26.823011954395028,-31.7906494140625,5356.25390625,True
1599560318.5868242,0.0,10,0.5,0.5,-3.275529885864258,-0.05075,-0.02275,-0.5,0.007185558626791755,10,1,100,0.18158518324786616,-10,-1,-100,14995.987102068146,-0.01692075589016145,-1.1061179297131884e-07,0.9998568337617608,28.357476295102618,0.027926553813648204,-84.24729705976202,26.265132738554755,-31.92840576171875,5356.25390625,True
1599560318.6228998,0.0,10,0.5,0.5,-3.476520936584473,-0.05075,-0.02275,-0.5,-2.3505985735096605e-05,10,1,100,0.17594322705775348,-10,-1,-100,14995.987102068146,-0.01692075589016145,-1.1061179297131884e-07,0.9998568337617608,28.357476295102618,0.027926553813648204,-84.24729705976202,26.265132738554755,-31.92840576171875,5356.25390625,True
1599560318.653011,0.0,10,0.5,0.5,-3.3926567169189457,-0.05075,-0.02275,-0.5,0.009422749168597552,10,1,100,0.18094545441826776,-10,-1,-100,14997.050580207491,-0.016950848178993252,8.576453562077365e-05,0.9998563203733111,28.233259842581617,0.028256423629215537,-82.69369655829794,25.893232206576474,-32.320556640625,5356.25390625,True
1599560318.686011,0.0,10,0.5,0.5,-3.3544893890380862,-0.05075,-0.02275,-0.5,0.015459187093737675,10,1,100,0.17962058602359326,-10,-1,-100,14998.054486663197,-0.016950750685089673,0.00021863159210216038,0.9998563018011333,28.12933674212426,0.028589003636988578,-81.20907449864812,25.521345485351233,-32.984130859375,5356.25390625,True
1599560318.7119825,0.0,10,0.5,0.5,-3.2994577850341797,-0.05075,-0.02275,-0.5,0.022461504365598767,10,1,100,0.1783283570307965,-10,-1,-100,14999.056438759086,-0.016923504744620003,0.000402878499018429,0.9998567060714619,28.043873754279527,0.02891576781867832,-79.78564517999996,25.14947163870409,-33.9219970703125,5356.25390625,True
1599560318.7339199,0.0,10,0.5,0.5,-3.2281537185668947,-0.05075,-0.02275,-0.5,0.0298567719077794,10,1,100,0.17547972469221293,-10,-1,-100,15000.062295613927,-0.016857454045892617,0.0006372391388721168,0.9998576999600345,27.973204607511505,0.02922520576230096,-78.41079749314072,24.777609870666925,-35.134552001953125,5356.25390625,True
1599560318.7568545,0.0,10,0.5,0.5,-3.5685752433776856,-0.05075,-0.02275,-0.5,0.021417064170796585,10,1,100,0.17868908606592532,-10,-1,-100,15000.53104400693,-0.016811259010405203,0.0007729903419130145,0.9998583820003792,27.94186245518822,0.029369051372427256,-77.73667967279702,24.5916832723455,-35.843902587890625,5356.25390625,True
1599560318.7867799,0.0,10,0.5,0.5,-4.046455657958985,-0.05075,-0.02275,-0.5,0.007919242900898115,10,1,100,0.18498971551570723,-10,-1,-100,15000.53104400693,-0.016811259010405203,0.0007729903419130145,0.9998583820003792,27.94186245518822,0.029369051372427256,-77.73667967279702,24.5916832723455,-35.843902587890625,5356.25390625,True
1599560318.8197916,0.0,10,0.5,0.5,-3.1423525718688965,-0.05075,-0.02275,-0.5,0.04145521144910633,10,1,100,0.17136503480432047,-10,-1,-100,15001.53103975067,-0.016687366929149478,0.0010770899447004629,0.9998601760557438,27.883653748423445,0.029625072039920815,-76.40460170428838,24.219838720087644,-37.46875,5356.25390625,True
1599560318.8531137,0.0,10,0.5,0.5,-3.437666918182373,-0.05075,-0.02275,-0.5,0.02992540619896982,10,1,100,0.17537217192178664,-10,-1,-100,15001.998810117482,-0.01661127934400918,0.0012476807678790123,0.9998612447191144,27.855069050361987,0.02973271566074708,-75.74178147465484,24.033920688763047,-38.38421630859375,5356.25390625,True
1599560318.8869457,0.0,10,0.5,0.5,-2.758495334625244,-0.05075,-0.02275,-0.5,0.05445079951070333,10,1,100,0.16271296205572075,-10,-1,-100,15002.936303442344,-0.016427239755306817,0.0016245215627705568,0.999863744079019,27.793781171876226,0.029894285113364026,-74.40866357484445,23.662092950740295,-40.4212646484375,5356.25390625,True
1599560318.922704,0.0,10,0.5,0.5,-2.4843409889221193,-0.05075,-0.02275,-0.5,0.06172929801490918,10,1,100,0.15521689153986767,-10,-1,-100,15003.870865561883,-0.01619223359373769,0.0020317953334605928,0.9998668328227357,27.719568027348163,0.029966270854821505,-73.04657166695992,23.29027701860883,-42.733306884765625,5356.25390625,True
1599560318.9539056,0.0,10,0.5,0.5,-1.4218402297973638,-0.05075,-0.02275,-0.5,0.09589606793009488,10,1,100,0.13003846919065407,-10,-1,-100,15005.27417209954,-0.015750359173042384,0.002710804027912083,0.9998722807076125,27.561501318263932,0.029856926517461083,-70.89479874101137,22.73257751046096,-46.71685791015625,5356.25390625,True
1599560318.9870117,0.0,10,0.5,0.5,-2.5737821182250977,-0.05075,-0.02275,-0.5,0.05441902295663831,10,1,100,0.15504354968681444,-10,-1,-100,15005.739010346239,-0.0155770654214717,0.0029486342144799315,0.9998743223971324,27.490657767705887,0.029751605151584534,-70.13564054681648,22.54668503896112,-48.182281494140625,5356.25390625,True
1599560319.0200992,0.0,10,0.5,0.5,-3.2719181175231933,-0.05075,-0.02275,-0.5,0.03090900456209124,10,1,100,0.17223555631752102,-10,-1,-100,15005.739010346239,-0.0155770654214717,0.0029486342144799315,0.9998743223971324,27.490657767705887,0.029751605151584534,-70.13564054681648,22.54668503896112,-48.182281494140625,5356.25390625,True
1599560319.0560474,0.0,10,0.5,0.5,-1.5116423904418945,-0.05075,-0.02275,-0.5,0.08432267920998618,10,1,100,0.1293352519707697,-10,-1,-100,15006.609115979401,-0.015188286690431369,0.0034318987515376477,0.9998787616598166,27.312057652915573,0.029422923003785226,-68.5336318114176,22.174912659445088,-51.31951904296875,5356.25390625,True
1599560319.0869377,0.0,10,0.5,0.5,-0.16770112228393597,-0.05075,-0.02275,-0.5,0.12152173493951532,10,1,100,0.0927574229048446,-10,-1,-100,15007.945034487755,-0.014503843186482167,0.004206862783119777,0.999885963917059,26.926047970908904,0.02860928789194841,-65.86989283827796,21.617291326931515,-56.541015625,5356.25390625,True
1599560319.119967,0.0,10,0.5,0.5,-2.7313634811401366,-0.05075,-0.02275,-0.5,0.04436871902542307,10,1,100,0.16097103171737245,-10,-1,-100,15007.945034487755,-0.014503843186482167,0.004206862783119777,0.999885963917059,26.926047970908904,0.02860928789194841,-65.86989283827796,21.617291326931515,-56.541015625,5356.25390625,True
1599560319.1534739,0.0,10,0.5,0.5,0.5138138130187988,-0.05075,-0.02275,-0.5,0.12882189039673458,10,1,100,0.07189104559920305,-10,-1,-100,15009.217475087149,-0.013696122781611466,0.004971497184276057,0.9998938445837625,26.353702935208347,0.0273956598944556,-62.81087373958014,21.059724956008044,-62.347808837890625,5356.25390625,True
1599560319.1905367,0.0,10,0.5,0.5,-0.10035121307373052,-0.05075,-0.02275,-0.5,0.10959063240376238,10,1,100,0.08552942797601179,-10,-1,-100,15010.021171321976,-0.013088536111652307,0.005488249378809678,0.9998992795983054,25.857331458307577,0.026392045579822065,-60.54292469280886,20.68805066438728,-66.401611328125,5356.25390625,True
1599560319.3870134,0.0,10,0.5,0.5,-0.8998921569824219,-0.05075,-0.02275,-0.5,0.08701685289422932,10,1,100,0.1098815592128964,-10,-1,-100,15010.422531757737,-0.01276077009859962,0.0057489528613800045,0.9999020513467748,25.56987519056179,0.025840335427768472,-59.33350887209546,20.502225975391895,-68.514404296875,5356.25390625,True
1599560319.412942,0.0,10,0.5,0.5,-0.7268063446044923,-0.05075,-0.02275,-0.5,0.08667144307679693,10,1,100,0.10614282839788752,-10,-1,-100,15010.825844271923,-0.012432145688103193,0.005979066455104908,0.9999048417314095,25.25285759566619,0.025258993817500994,-58.06822181434072,20.31641017998852,-70.6307373046875,5356.25390625,True
1599560319.4454195,0.0,10,0.5,0.5,1.812887558746338,-0.05075,-0.02275,-0.5,0.1404805168872454,10,1,100,0.020944173955020934,-10,-1,-100,15012.03187736764,-0.01136228126354005,0.006673845601202856,0.9999131754054347,24.16586408097876,0.023439218025722127,-54.0483580851713,19.759018094064665,-77.04815673828125,5356.25390625,True
1599560319.5133367,0.0,10,0.5,0.5,-0.1036653617858887,-0.05075,-0.02275,-0.5,0.09553870250145509,10,1,100,0.0855549593733987,-10,-1,-100,15012.431283583515,-0.010981037179476537,0.006893298292718088,0.9999159460980261,23.749227254063946,0.022818056998825498,-52.618549529264385,19.573239559979022,-79.26904296875,5356.25390625,True
1599560319.5402634,0.0,10,0.5,0.5,0.10805411376953122,-0.05075,-0.02275,-0.5,0.09716236090893737,10,1,100,0.08031027818638968,-10,-1,-100,15012.829714493593,-0.01059095093612053,0.007103975212274284,0.9999186793407011,23.29963589530841,0.022193938556622255,-51.13391885290941,19.387470691602644,-81.54129028320312,5356.25390625,True
1599560319.5632026,0.0,10,0.5,0.5,1.5006329086303711,-0.05075,-0.02275,-0.5,0.11701930079276525,10,1,100,0.03346725595989035,-10,-1,-100,15013.573841145146,-0.00981501425326994,0.007472239737180358,0.9999239126696182,22.343677379042223,0.02099821285302935,-48.099052196363125,19.015960761722816,-85.994873046875,5356.25390625,True
1599560319.5941496,0.0,10,0.5,0.5,0.5568885101318359,-0.05075,-0.02275,-0.5,0.10066219644247561,10,1,100,0.06486233512017373,-10,-1,-100,15013.968365369714,-0.009399911872533036,0.00765465168301448,0.9999265212826393,21.853868153093355,0.02044864864582313,-46.58647419672794,18.830218489797666,-88.1812744140625,5356.25390625,True
1599560319.6210792,0.0,10,0.5,0.5,1.939128935623169,-0.05075,-0.02275,-0.5,0.11840069490627872,10,1,100,0.013333706670408868,-10,-1,-100,15014.706633578287,-0.008558743932605214,0.00797860544808017,0.9999315425354878,21.42403512377258,0.01998927729363728,-44.77184753717547,18.45875233304947,-92.54524993896484,5356.25390625,True
1599560319.6569817,0.0,10,0.5,0.5,1.0155167085647583,-0.05075,-0.02275,-0.5,0.10179654016550899,10,1,100,0.050992541906544474,-10,-1,-100,15015.049400833435,-0.008141803488684679,0.00811873315261929,0.9999338964191324,21.781223428986188,0.02035258474708032,-45.06160785406232,18.273020095859145,-94.68136596679688,5356.25390625,True
1599560319.687899,0.0,10,0.5,0.5,3.3694819021224975,-0.05075,-0.02275,-0.5,0.12763636086551533,10,1,100,-0.04913344760677525,-10,-1,-100,15016.120672009303,-0.006857579834356674,0.008478168312229145,0.9999405453630155,22.72658760824179,0.021521591712862484,-45.587645818701745,17.71581847755268,-100.76119232177734,5356.25390625,True
1599560319.7208095,0.0,10,0.5,0.5,0.4077367713928223,-0.05075,-0.02275,-0.5,0.0919918367978718,10,1,100,0.07866582219829568,-10,-1,-100,15016.120672009303,-0.006857579834356674,0.008478168312229145,0.9999405453630155,22.72658760824179,0.021521591712862484,-45.587645818701745,17.71581847755268,-100.76119232177734,5356.25390625,True
1599560319.7548537,0.0,10,0.5,0.5,2.54352401638031,-0.05075,-0.02275,-0.5,0.11233996678065947,10,1,100,-0.017118526976825144,-10,-1,-100,15016.85405999003,-0.0059921795602776145,0.008660670207117352,0.9999445417500318,23.258196763136546,0.02233321105283782,-45.67830729984221,17.344344344385153,-104.50595092773438,5356.25390625,True
1599560319.778798,0.0,10,0.5,0.5,3.5736030324935912,-0.05075,-0.02275,-0.5,0.11517028761193697,10,1,100,-0.07083462975012408,-10,-1,-100,15017.856976474053,-0.00472297834601923,0.008849873388434596,0.9999496853424935,23.844228529409552,0.023452177919333135,-45.328437070496314,16.787124985516268,-109.63603210449219,5356.25390625,True
1599560319.802726,0.0,10,0.5,0.5,1.082699860572815,-0.05075,-0.02275,-0.5,0.09646757225893565,10,1,100,0.055421561383962314,-10,-1,-100,15017.856976474053,-0.00472297834601923,0.008849873388434596,0.9999496853424935,23.844228529409552,0.023452177919333135,-45.328437070496314,16.787124985516268,-109.63603210449219,5356.25390625,True
1599560319.8306217,0.0,10,0.5,0.5,2.0457912782669068,-0.05075,-0.02275,-0.5,0.10095648704244485,10,1,100,0.007007922861595184,-10,-1,-100,15018.192909522098,-0.004288543503846308,0.008888903000015847,0.9999512967130308,23.996248296219918,0.023795677751507843,-45.11386767507406,16.601383699095766,-111.25928497314453,5356.25390625,True
1599560319.854587,0.0,10,0.5,0.5,3.786278837966919,-0.05075,-0.02275,-0.5,0.10447446602611063,10,1,100,-0.0852856392373984,-10,-1,-100,15019.14016501105,-0.003060299816818505,0.008954743430588726,0.9999552225650523,24.44966781740078,0.02481997502333624,-44.4267965710781,16.044156677067306,-115.77041625976562,5356.25390625,True
1599560319.8886242,0.0,10,0.5,0.5,1.5984525554656983,-0.05075,-0.02275,-0.5,0.09803867333816359,10,1,100,0.03686325802173677,-10,-1,-100,15019.14016501105,-0.003060299816818505,0.008954743430588726,0.9999552225650523,24.44966781740078,0.02481997502333624,-44.4267965710781,16.044156677067306,-115.77041625976562,5356.25390625,True
1599560319.9235666,0.0,10,0.5,0.5,2.4159359508514404,-0.05075,-0.02275,-0.5,0.0978934997056767,10,1,100,-0.009789302505324553,-10,-1,-100,15019.47121631878,-0.00264194891389587,0.008952241768704686,0.9999564377877923,24.56126628195981,0.025112362876947843,-44.11397695213711,15.8584141219298,-117.14076232910156,5356.25390625,True
1599560319.954452,0.0,10,0.5,0.5,3.1827785322189333,-0.05075,-0.02275,-0.5,0.09654007597127362,10,1,100,-0.05458702903346847,-10,-1,-100,15020.073749910109,-0.001859756756454629,0.00893677855456951,0.9999583367790247,24.7321790884685,0.025619137417449273,-43.382455521117905,15.486930598172322,-119.67559814453125,5356.25390625,True
1599560319.9883869,0.0,10,0.5,0.5,3.7824341173172,-0.05075,-0.02275,-0.5,0.0862948716458398,10,1,100,-0.10693213895406603,-10,-1,-100,15021.015150389052,-0.0006785192928955502,0.00882883918839545,0.9999607948365548,24.876809049761253,0.026188912203758737,-42.06904588350794,14.929713122854405,-122.96240997314453,5356.25390625,True
1599560320.021433,0.0,10,0.5,0.5,2.1895359731674198,-0.05075,-0.02275,-0.5,0.09712387535086237,10,1,100,0.010573701347695714,-10,-1,-100,15021.015150389052,-0.0006785192928955502,0.00882883918839545,0.9999607948365548,24.876809049761253,0.026188912203758737,-42.06904588350794,14.929713122854405,-122.96240997314453,5356.25390625,True
1599560320.057402,0.0,10,0.5,0.5,3.2572328397750856,-0.05075,-0.02275,-0.5,0.08610176099675104,10,1,100,-0.07155024588686539,-10,-1,-100,15021.612803354394,6.244471783549512e-05,0.008728319357107014,0.9999619055453352,24.913835360511385,0.026453822847028206,-41.08522595838692,14.558242543163583,-124.809326171875,5356.25390625,True
1599560320.0884507,0.0,10,0.5,0.5,3.621253363609314,-0.05075,-0.02275,-0.5,0.07556174642944954,10,1,100,-0.11358073658983504,-10,-1,-100,15022.42432421376,0.0011126395300924304,0.008541057878823886,0.9999629054937921,24.90144182569394,0.026706431788592215,-39.4957311752619,14.001052021984682,-127.06314086914062,5356.25390625,True
1599560320.1223586,0.0,10,0.5,0.5,2.5339926874160765,-0.05075,-0.02275,-0.5,0.09425701270680126,10,1,100,-0.009144817151752681,-10,-1,-100,15022.42432421376,0.0011126395300924304,0.008541057878823886,0.9999629054937921,24.90144182569394,0.026706431788592215,-39.4957311752619,14.001052021984682,-127.06314086914062,5356.25390625,True
1599560320.1553922,0.0,10,0.5,0.5,3.6974681982040405,-0.05075,-0.02275,-0.5,0.06170276188561409,10,1,100,-0.14904335491574044,-10,-1,-100,15023.561041934765,0.002379139311695854,0.008245390885458195,0.9999631759346349,24.795856423794696,0.026837475569918532,-37.2447605242782,13.258165172467137,-129.1036834716797,5356.25390625,True
1599560320.190299,0.0,10,0.5,0.5,2.9040206256866457,-0.05075,-0.02275,-0.5,0.08069341249038303,10,1,100,-0.05661563922751474,-10,-1,-100,15023.77002679254,0.0026841892588827855,0.008149829998909609,0.9999631870219079,24.758046452554385,0.026843334075553803,-36.66783756434121,13.072449886845012,-129.4418182373047,5356.25390625,True
1599560320.2222145,0.0,10,0.5,0.5,2.7660556823730467,-0.05075,-0.02275,-0.5,0.09016900980207372,10,1,100,-0.026685093416391744,-10,-1,-100,15023.77002679254,0.0026841892588827855,0.008149829998909609,0.9999631870219079,24.758046452554385,0.026843334075553803,-36.66783756434121,13.072449886845012,-129.4418182373047,5356.25390625,True
1599560320.2554057,0.0,10,0.5,0.5,3.055481856155396,-0.05075,-0.02275,-0.5,0.07175647753828093,10,1,100,-0.08836670078059627,-10,-1,-100,15024.302253978327,0.0032397088812158256,0.007983175081449382,0.9999628859122642,24.672600030116133,0.026833112158602408,-35.504562529393446,12.701027705984092,-129.91085815429688,5356.25390625,True
1599560320.2892923,0.0,10,0.5,0.5,2.9530693962097168,-0.05075,-0.02275,-0.5,0.05665384381571663,10,1,100,-0.11919599261713759,-10,-1,-100,15025.04151333205,0.0040196460474915905,0.007695254910541551,0.9999623120385661,24.523785362107944,0.026780813478083566,-33.744571625017514,12.143915216889972,-130.0979766845703,5356.25390625,True
1599560320.324196,0.0,10,0.5,0.5,2.762114196395874,-0.05075,-0.02275,-0.5,0.06399329151427134,10,1,100,-0.09329507706534493,-10,-1,-100,15025.510264548706,0.0044878720547224015,0.0075013602102885915,0.9999617935698423,24.412568648897004,0.026733655551870506,-32.56556226356425,11.77252091604178,-129.87808227539062,5356.25390625,True
1599560320.3551152,0.0,10,0.5,0.5,2.614730594444275,-0.05075,-0.02275,-0.5,0.06316569342037266,10,1,100,-0.09335058328367085,-10,-1,-100,15025.981945769046,0.004909339943873722,0.007318775481003283,0.9999611661993552,24.29122986833909,0.02668387488152683,-31.382754455961024,11.40113783140771,-129.3822784423828,5356.25390625,True
1599560320.3891125,0.0,10,0.5,0.5,2.8772377117156984,-0.05075,-0.02275,-0.5,0.08127315997816432,10,1,100,-0.05176258029221575,-10,-1,-100,15025.981945769046,0.004909339943873722,0.007318775481003283,0.9999611661993552,24.29122986833909,0.02668387488152683,-31.382754455961024,11.40113783140771,-129.3822784423828,5356.25390625,True
1599560320.4220333,0.0,10,0.5,0.5,2.6942366294860842,-0.05075,-0.02275,-0.5,0.07028440574453747,10,1,100,-0.0742580963408631,-10,-1,-100,15026.189954594127,0.005109438366837754,0.007220159118766769,0.9999608807057779,24.22615491361275,0.02665919335776695,-30.789550208891665,11.215450454082763,-129.03111267089844,5356.25390625,True
1599560320.4580176,0.0,10,0.5,0.5,1.7210293781280517,-0.05075,-0.02275,-0.5,0.036704788020331294,10,1,100,-0.1316634029032328,-10,-1,-100,15027.062027957523,0.005809578993884103,0.006826439445386298,0.9999598234511287,23.927955651473496,0.02656679373869305,-28.398933628808546,10.472728222186879,-126.93711853027344,5356.25390625,True
1599560320.4880996,0.0,10,0.5,0.5,2.767739747619629,-0.05075,-0.02275,-0.5,0.07590529351503464,10,1,100,-0.06211903414497708,-10,-1,-100,15027.062027957523,0.005809578993884103,0.006826439445386298,0.9999598234511287,23.927955651473496,0.02656679373869305,-28.398933628808546,10.472728222186879,-126.93711853027344,5356.25390625,True
1599560320.5220942,0.0,10,0.5,0.5,1.4991683181762694,-0.05075,-0.02275,-0.5,0.044723164995375195,10,1,100,-0.10821872654353655,-10,-1,-100,15027.662615067558,0.006225548525069018,0.006544255505607641,0.9999592068006772,23.647881841581146,0.026497216061240052,-26.575289356787124,9.915715029312945,-124.64271545410156,5356.25390625,True
1599560320.5550005,0.0,10,0.5,0.5,1.6034259307861332,-0.05075,-0.02275,-0.5,0.049656202007122514,10,1,100,-0.09332649874663404,-10,-1,-100,15028.070819101413,0.006465099337750566,0.006334030055455022,0.9999590404380619,23.4221713961761,0.026439127962438483,-25.33688495592569,9.544386324392907,-122.76885986328125,5356.25390625,True
1599560320.5920074,0.0,10,0.5,0.5,1.9521275226593016,-0.05075,-0.02275,-0.5,0.060236281043536746,10,1,100,-0.08076950261342013,-10,-1,-100,15028.268084643409,0.006565281102541968,0.006240749273777728,0.9999589742247161,23.294683473141852,0.02640262212126499,-24.709253530320463,9.358725831930009,-121.72837829589844,5356.25390625,True
1599560320.6219203,0.0,10,0.5,0.5,2.4537531646728516,-0.05075,-0.02275,-0.5,0.06939011663049893,10,1,100,-0.07108388335641258,-10,-1,-100,15028.268084643409,0.006565281102541968,0.006240749273777728,0.9999589742247161,23.294683473141852,0.02640262212126499,-24.709253530320463,9.358725831930009,-121.72837829589844,5356.25390625,True
1599560320.655842,0.0,10,0.5,0.5,1.1748011116027834,-0.05075,-0.02275,-0.5,0.04797209444772786,10,1,100,-0.09054920468784436,-10,-1,-100,15028.609881625627,0.006739924355504938,0.006047362259058686,0.9999590005742185,23.004830967405546,0.026305425882189447,-23.434493180935842,8.987412479197653,-119.44075012207031,5356.25390625,True
1599560320.6887534,0.0,10,0.5,0.5,0.12049773788452178,-0.05075,-0.02275,-0.5,0.033409342449525925,10,1,100,-0.09509359067887203,-10,-1,-100,15029.143083834555,0.0069379562287526335,0.005740489043831566,0.9999594549525024,22.464292582382928,0.026065214190016242,-21.466867031808547,8.430460360423144,-115.49272918701172,5356.25390625,True
1599560320.724657,0.0,10,0.5,0.5,2.0629094808578494,-0.05075,-0.02275,-0.5,0.06393883532852075,10,1,100,-0.07549326498259042,-10,-1,-100,15029.143083834555,0.0069379562287526335,0.005740489043831566,0.9999594549525024,22.464292582382928,0.026065214190016242,-21.466867031808547,8.430460360423144,-115.49272918701172,5356.25390625,True
1599560320.7555745,0.0,10,0.5,0.5,0.39197736320495613,-0.05075,-0.02275,-0.5,0.04106120708786416,10,1,100,-0.08513969188184643,-10,-1,-100,15029.42140210222,0.007023806822123253,0.005533945411132116,0.9999600199937555,22.016934974251967,0.025808097504937753,-20.113437855533657,8.059169751646959,-112.51618194580078,5356.25390625,True
1599560320.7885613,0.0,10,0.5,0.5,0.11964449367523189,-0.05075,-0.02275,-0.5,0.03903370775082184,10,1,100,-0.08226065961443325,-10,-1,-100,15029.759290749906,0.007073939460524346,0.0053292795817119,0.9999607783106539,21.4912162560187,0.025447846854238298,-18.72927422527694,7.687886099810113,-109.38765716552734,5356.25390625,True
1599560320.822561,0.0,10,0.5,0.5,0.750849334716797,-0.05075,-0.02275,-0.5,0.04691795434109884,10,1,100,-0.0789190447750423,-10,-1,-100,15029.897961894865,0.0070879868510157484,0.005216255760208471,0.9999612748093017,21.219084325859583,0.025248725065525567,-18.045861485136925,7.502246103650339,-107.7659912109375,5356.25390625,True
1599560320.8574612,0.0,10,0.5,0.5,-0.3574367710113524,-0.05075,-0.02275,-0.5,0.033436567174602264,10,1,100,-0.07785731478721299,-10,-1,-100,15030.228036864311,0.007089942926248456,0.004992412569769183,0.9999624035562716,20.660382407126747,0.0248112285452012,-16.701645772795025,7.130968302700755,-104.36062622070312,5356.25390625,True
1599560320.8885393,0.0,10,0.5,0.5,-0.6293109840393067,-0.05075,-0.02275,-0.5,0.030513545100141395,10,1,100,-0.07447406546351173,-10,-1,-100,15030.495611650986,0.007060178551334379,0.004763756598634585,0.9999637295931749,20.007959002262307,0.02422257958694245,-15.332535390031905,6.759691944710589,-100.85919189453125,5356.25390625,True
1599560320.9226444,0.0,10,0.5,0.5,-1.9442265197753905,-0.05075,-0.02275,-0.5,0.012819746884192351,10,1,100,-0.06644069722361251,-10,-1,-100,15030.843261313974,0.0069595484272192394,0.004396462344237068,0.9999661173282547,18.8925734255667,0.023076368872138757,-13.285482558058886,6.202773542053826,-95.38340759277344,5356.25390625,True
1599560320.9555871,0.0,10,0.5,0.5,-1.2490355670928954,-0.05075,-0.02275,-0.5,0.021279526331384444,10,1,100,-0.06539030761765802,-10,-1,-100,15031.111811012379,0.006858159074947093,0.004141142186967927,0.9999679077827898,18.106713085998393,0.022182069915594304,-11.970951452734038,5.831487901610035,-91.78328704833984,5356.25390625,True
1599560320.991714,0.0,10,0.5,0.5,0.4828996225357055,-0.05075,-0.02275,-0.5,0.046601581349617574,10,1,100,-0.0755585306421132,-10,-1,-100,15031.111811012379,0.006858159074947093,0.004141142186967927,0.9999679077827898,18.106713085998393,0.022182069915594304,-11.970951452734038,5.831487901610035,-91.78328704833984,5356.25390625,True
1599560321.02263,0.0,10,0.5,0.5,-0.5308287593841553,-0.05075,-0.02275,-0.5,0.03225727661139017,10,1,100,-0.06906428126674515,-10,-1,-100,15031.185051367851,0.006799012958153345,0.004012472343958669,0.9999688362586525,17.698030166038127,0.02169068842684363,-11.32837474686338,5.645841902775702,-90.05690002441406,5356.25390625,True
1599560321.0555391,0.0,10,0.5,0.5,-2.3952559968948366,-0.05075,-0.02275,-0.5,-0.000476350099259365,10,1,100,-0.05104733755595289,-10,-1,-100,15031.520980742178,0.006581579675761462,0.003599492259035142,0.9999718628363744,17.782004234318073,0.021729395891837564,-10.259563196223116,5.088883597076359,-85.20941162109375,5356.25390625,True
1599560321.0900533,0.0,10,0.5,0.5,-0.9250048305511475,-0.05075,-0.02275,-0.5,0.024457427565521776,10,1,100,-0.06346490670259108,-10,-1,-100,15031.59031384415,0.006497124026331908,0.003452672884952488,0.9999729328483526,18.066488647125404,0.022032104794625283,-10.043489492492329,4.903222247659769,-83.60324096679688,5356.25390625,True
1599560321.1249647,0.0,10,0.5,0.5,-2.756731402015686,-0.05075,-0.02275,-0.5,-0.00995785357743658,10,1,100,-0.04091912977257951,-10,-1,-100,15031.862765954924,0.006215863357301109,0.003008226600419708,0.9999761565234663,18.838120514498698,0.02279743838625236,-9.283001432346152,4.346214296173319,-78.93862915039062,5356.25390625,True
1599560321.3284183,0.0,10,0.5,0.5,-0.49369703254699715,-0.05075,-0.02275,-0.5,0.0342546695777122,10,1,100,-0.06895938906533708,-10,-1,-100,15031.862765954924,0.006215863357301109,0.003008226600419708,0.9999761565234663,18.838120514498698,0.02279743838625236,-9.283001432346152,4.346214296173319,-78.93862915039062,5356.25390625,True
1599560321.3546069,0.0,10,0.5,0.5,-2.123508109664917,-0.05075,-0.02275,-0.5,-0.0012062876840953154,10,1,100,-0.04525908542894321,-10,-1,-100,15032.06881479104,0.006001198891055451,0.002687861560912175,0.9999783802723433,19.244883797658005,0.023162379796367823,-8.673278699758377,3.9748588054715235,-76.09844970703125,5356.25390625,True
1599560321.3886223,0.0,10,0.5,0.5,-2.8526081424713134,-0.05075,-0.02275,-0.5,-0.023255883995743243,10,1,100,-0.02799222297295477,-10,-1,-100,15032.273884267313,0.0056500676667187695,0.002198264786716579,0.9999816220147694,19.69195707290868,0.02352377984385632,-7.631185639499893,3.4178049951986087,-72.31289672851562,5356.25390625,True
1599560321.4556057,0.0,10,0.5,0.5,-2.2798115001678467,-0.05075,-0.02275,-0.5,-0.012202880951835374,10,1,100,-0.03487014841723554,-10,-1,-100,15032.408644578769,0.005394665976710353,0.0018559909213123982,0.9999837263059334,19.90468307736599,0.023680065849060843,-6.875554778511709,3.0464243476682387,-70.03411865234375,5356.25390625,True
1599560321.488726,0.0,10,0.5,0.5,-2.3140802078247074,-0.05075,-0.02275,-0.5,-0.01518458362475034,10,1,100,-0.030920863326989345,-10,-1,-100,15032.483834504616,0.00512800265083729,0.0015200359933938473,0.9999856964373999,20.05631719143088,0.02378092479467448,-6.083435525973491,2.6750350243795094,-68.0078125,5356.25390625,True
1599560321.5146565,0.0,10,0.5,0.5,-1.856957193183899,-0.05075,-0.02275,-0.5,-0.0010495768639701385,10,1,100,-0.04206881985658262,-10,-1,-100,15032.55219127913,0.004988499374334544,0.0013455053078327793,0.9999866521556471,20.11196128332116,0.023814229368439507,-5.676876933380908,2.489337247895994,-67.096435546875,5356.25390625,True
1599560321.5615325,0.0,10,0.5,0.5,-1.9215551593780518,-0.05075,-0.02275,-0.5,-0.0030972198431542565,10,1,100,-0.04010697432297347,-10,-1,-100,15032.616642158828,0.004845542945117976,0.0011707676001293484,0.9999875749312056,20.15292880882631,0.023834643845804325,-5.264130153083986,2.3036370817729357,-66.25372314453125,5356.25390625,True
1599560321.5924487,0.0,10,0.5,0.5,-1.9805908096313478,-0.05075,-0.02275,-0.5,-0.0049977003862332284,10,1,100,-0.03821490491864125,-10,-1,-100,15032.62249903765,0.004700157805802653,0.0009972214106835381,0.9999884569664085,20.180068750881084,0.023843012530793666,-4.846325975181776,2.1179344901001746,-65.47979736328125,5356.25390625,True
1599560321.6224716,0.0,10,0.5,0.5,-2.6894556625366213,-0.05075,-0.02275,-0.5,-0.046583659726539585,10,1,100,-0.0023685205362899975,-10,-1,-100,15032.762141080806,0.004243823659194583,0.0004637636725012452,0.9999908874004833,20.208569567214987,0.023828604970288905,-3.576621916344246,1.5608124736713465,-63.57159423828125,5356.25390625,True
1599560321.6565597,0.0,10,0.5,0.5,-2.291724535369873,-0.05075,-0.02275,-0.5,-0.0330928443742958,10,1,100,-0.01256382489929634,-10,-1,-100,15032.831473531784,0.0039237074750028845,0.00010416305845815073,0.9999922968051843,20.175258533736372,0.023772998526175385,-2.721035967432855,1.189384157055978,-62.644134521484375,5356.25390625,True
1599560321.6907115,0.0,10,0.5,0.5,-2.063612313079834,-0.05075,-0.02275,-0.5,-0.016081312780293993,10,1,100,-0.02652325098363782,-10,-1,-100,15032.831471977406,0.00376168041367017,-6.545624568831726e-05,0.9999929227129285,20.14502003792432,0.02373278231411036,-2.292730042105846,1.0036654924351023,-62.28363037109375,5356.25390625,True
1599560321.725837,0.0,10,0.5,0.5,-2.2043904510498047,-0.05075,-0.02275,-0.5,-0.037570006634201014,10,1,100,-0.0056764189387788835,-10,-1,-100,15032.842210946954,0.003427097505635922,-0.00041221311826961744,0.9999940425237701,20.06072302906822,0.02362958747742166,-1.4381917503001795,0.6322188542468905,-61.76953125,5356.25390625,True
1599560321.7567847,0.0,10,0.5,0.5,-2.111172578430176,-0.05075,-0.02275,-0.5,-0.04199971549195664,10,1,100,-0.0007522777725388549,-10,-1,-100,15032.84806811565,0.0030805063980802595,-0.0007648984696147762,0.9999949626926441,19.948119490629086,0.02349774581276471,-0.5898627796005936,0.26075910121032875,-61.53125,5356.25390625,True
1599560321.790632,0.0,10,0.5,0.5,-1.996139019012451,-0.05075,-0.02275,-0.5,-0.04357275241272095,10,1,100,0.0037245290566641984,-10,-1,-100,15032.848065920989,0.0027270612939174826,-0.001097128067157022,0.9999956797140193,19.810697086502703,0.023338781314807815,0.24872575018564833,-0.11071445580757988,-61.568328857421875,5356.25390625,True
1599560321.8236597,0.0,10,0.5,0.5,-1.9667919326782228,-0.05075,-0.02275,-0.5,-0.02865946879724221,10,1,100,-0.011522309303094252,-10,-1,-100,15032.851971576922,0.0025467802794789376,-0.0012608950147924667,0.9999959620188322,19.784658173220183,0.0233097101048898,0.6651332897217381,-0.29645567298050346,-61.69024658203125,5356.25390625,True
1599560321.859662,0.0,10,0.5,0.5,-2.0421232574462893,-0.05075,-0.02275,-0.5,-0.01256086713451638,10,1,100,-0.029292288509812917,-10,-1,-100,15032.851971576922,0.0025467802794789376,-0.0012608950147924667,0.9999959620188322,19.784658173220183,0.0233097101048898,0.6651332897217381,-0.29645567298050346,-61.69024658203125,5356.25390625,True
1599560321.8896158,0.0,10,0.5,0.5,-1.806342808532715,-0.05075,-0.02275,-0.5,-0.04796256147920645,10,1,100,0.011274459088733941,-10,-1,-100,15032.85197082092,0.0021802114095783804,-0.0015803591449054443,0.9999963745650196,19.75512823651456,0.02327681132816103,1.49640280649109,-0.6679447249034984,-62.14068603515625,5356.25390625,True
1599560321.923525,0.0,10,0.5,0.5,-1.6410175109863285,-0.05075,-0.02275,-0.5,-0.0509555130828447,10,1,100,0.01632752955525453,-10,-1,-100,15032.794352632714,0.0018034530068236317,-0.0018954887080002856,0.9999965773340477,19.705800346783022,0.023216948305757143,2.3229009341930142,-1.0394418232478533,-62.866790771484375,5356.25390625,True
1599560321.9565625,0.0,10,0.5,0.5,-1.4583232460021973,-0.05075,-0.02275,-0.5,-0.05402178711611575,10,1,100,0.021699509145943336,-10,-1,-100,15032.731852795114,0.0014147425578575792,-0.0022072156110083474,0.9999965633454653,19.635089048547037,0.023125886353057446,3.1418725211471523,-1.4109460583153353,-63.868499755859375,5356.25390625,True
1599560321.9924655,0.0,10,0.5,0.5,-1.2552068984985352,-0.05075,-0.02275,-0.5,-0.0542685173372167,10,1,100,0.025855229439557592,-10,-1,-100,15032.673259525443,0.0010261620389477083,-0.00249041854367704,0.9999963723968938,19.53982284812816,0.0229974551028729,3.949973167325275,-1.7824559508379485,-65.14547729492188,5356.25390625,True
1599560322.0226343,0.0,10,0.5,0.5,-1.0329711166381834,-0.05075,-0.02275,-0.5,-0.05633335284630743,10,1,100,0.03085284255274598,-10,-1,-100,15032.608807419776,0.0006301083074879814,-0.002764288276547462,0.9999959808288456,19.415152378409918,0.022823510262799714,4.74291516570189,-2.153970603490162,-66.69796752929688,5356.25390625,True
1599560322.0566907,0.0,10,0.5,0.5,-1.7991736167907715,-0.05075,-0.02275,-0.5,-0.029216262762351116,10,1,100,-0.008439373382608495,-10,-1,-100,15032.608807419776,0.0006301083074879814,-0.002764288276547462,0.9999959808288456,19.415152378409918,0.022823510262799714,4.74291516570189,-2.153970603490162,-66.69796752929688,5356.25390625,True
1599560322.0906012,0.0,10,0.5,0.5,-0.7812560409545899,-0.05075,-0.02275,-0.5,-0.05747316212210191,10,1,100,0.03560201882758866,-10,-1,-100,15032.480879436014,0.00023227473212086887,-0.003019030929674035,0.9999954157398395,19.2604464315372,0.022601415720190008,5.5168012986902975,-2.5254891545849296,-68.52584838867188,5356.25390625,True
1599560322.1265042,0.0,10,0.5,0.5,-1.1190711051940918,-0.05075,-0.02275,-0.5,-0.045232495301467134,10,1,100,0.017972571360967207,-10,-1,-100,15032.416427014512,3.346485118001571e-05,-0.0031372871591832767,0.99999507814258,19.171462069233154,0.02247147639455115,5.895299011132359,-2.711249732564637,-69.54302978515625,5356.25390625,True
1599560322.1574523,0.0,10,0.5,0.5,0.9935509002685547,-0.05075,-0.02275,-0.5,-0.08040227239334834,10,1,100,0.08598715768130487,-10,-1,-100,15032.161548371078,-0.0007631371012758863,-0.003562663378579665,0.9999933625036797,18.68728683990847,0.021766906616570797,7.3216890555850505,-3.4542989091750584,-74.26943969726562,5356.25390625,True
1599560322.1904602,0.0,10,0.5,0.5,-1.3410363914489747,-0.05075,-0.02275,-0.5,-0.0380948272900882,10,1,100,0.006657954173790143,-10,-1,-100,15032.161548371078,-0.0007631371012758863,-0.003562663378579665,0.9999933625036797,18.68728683990847,0.021766906616570797,7.3216890555850505,-3.4542989091750584,-74.26943969726562,5356.25390625,True
1599560322.2234757,0.0,10,0.5,0.5,0.9582148788452147,-0.05075,-0.02275,-0.5,-0.066772820090006,10,1,100,0.07121739025849942,-10,-1,-100,15031.96233391075,-0.001347032049881648,-0.0038212798873391114,0.9999917916286509,18.16080298660077,0.02101821565163735,8.263748265462945,-4.011595188238304,-78.39224243164062,5356.25390625,True
1599560322.259469,0.0,10,0.5,0.5,-1.0662141975402832,-0.05075,-0.02275,-0.5,-0.04113526128830475,10,1,100,0.013180619743869245,-10,-1,-100,15031.96233391075,-0.001347032049881648,-0.0038212798873391114,0.9999917916286509,18.16080298660077,0.02101821565163735,8.263748265462945,-4.011595188238304,-78.39224243164062,5356.25390625,True
1599560322.2903988,0.0,10,0.5,0.5,1.8959404182434083,-0.05075,-0.02275,-0.5,-0.06941649725713006,10,1,100,0.09470413898055495,-10,-1,-100,15031.578551070881,-0.0020852908747090587,-0.004076631313256306,0.9999895162645975,17.305458992523654,0.019840067598292196,9.333795116088062,-4.7546784289323565,-83.70651245117188,5356.25390625,True
1599560322.3234594,0.0,10,0.5,0.5,-0.7160631126403809,-0.05075,-0.02275,-0.5,-0.04406829623563538,10,1,100,0.021228259841070546,-10,-1,-100,15031.578551070881,-0.0020852908747090587,-0.004076631313256306,0.9999895162645975,17.305458992523654,0.019840067598292196,9.333795116088062,-4.7546784289323565,-83.70651245117188,5356.25390625,True
1599560322.3574197,0.0,10,0.5,0.5,0.04243405532836908,-0.05075,-0.02275,-0.5,-0.050120170532749045,10,1,100,0.04188682446252726,-10,-1,-100,15031.508240232943,-0.0022702674140735227,-0.004130206340712267,0.9999888935790494,17.08262105924974,0.019542062377435956,9.57377487065913,-4.9404546120911945,-85.00704956054688,5356.25390625,True
1599560322.3933191,0.0,10,0.5,0.5,0.9087993675231933,-0.05075,-0.02275,-0.5,-0.053725929008404255,10,1,100,0.06104950739392048,-10,-1,-100,15031.311953907949,-0.0026099974076706453,-0.004210448789938039,0.9999877299419824,16.598659251573512,0.01891979005365493,10.002542571964526,-5.312015091300797,-87.6851806640625,5356.25390625,True
1599560322.424287,0.0,10,0.5,0.5,1.1246216896057128,-0.05075,-0.02275,-0.5,-0.05312812434440302,10,1,100,0.06514082232050145,-10,-1,-100,15031.057074184879,-0.002953091077804985,-0.00427664719182201,0.9999864946797447,16.077129116501332,0.01828704789500917,10.366362542802738,-5.683586897399889,-90.42170715332031,5356.25390625,True
1599560322.4577,0.0,10,0.5,0.5,0.5774954868316651,-0.05075,-0.02275,-0.5,-0.04922064037412613,10,1,100,0.04883355787629674,-10,-1,-100,15030.92719313968,-0.0031138507686071363,-0.00430016168811206,0.9999859061721055,16.02668118307306,0.018225272029144826,10.671857797842222,-5.869376589634808,-91.82220458984375,5356.25390625,True
1599560322.490689,0.0,10,0.5,0.5,1.454553812789917,-0.05075,-0.02275,-0.5,-0.05076710609633303,10,1,100,0.06703516699502154,-10,-1,-100,15030.726024281234,-0.0034226039198522384,-0.004334540123551323,0.9999847486558607,16.65828226857206,0.018966223756747023,11.795200247857862,-6.240959950288113,-94.59410095214844,5356.25390625,True
1599560322.5267284,0.0,10,0.5,0.5,2.185098157501221,-0.05075,-0.02275,-0.5,-0.04949855229383738,10,1,100,0.08367157224237964,-10,-1,-100,15030.33540393773,-0.00385211095339779,-0.004353559233250719,0.9999831037388607,17.50799782972916,0.02004175813222934,13.505005727575192,-6.798341488433438,-98.35307312011719,5356.25390625,True
1599560322.5576568,0.0,10,0.5,0.5,0.9965767436981201,-0.05075,-0.02275,-0.5,-0.04744756087996212,10,1,100,0.05583777527670083,-10,-1,-100,15030.142046005698,-0.003986729217067464,-0.004351484960256148,0.9999825851327565,17.761713443770404,0.020384854492319165,14.0755091958481,-6.984136172607045,-99.5081787109375,5356.25390625,True
1599560322.5905643,0.0,10,0.5,0.5,1.070798524093628,-0.05075,-0.02275,-0.5,-0.047087661135097054,10,1,100,0.05635504768245593,-10,-1,-100,15030.009234241908,-0.004111412208485682,-0.0043458454370596585,0.9999821047984255,18.003712982423636,0.02072296142888803,14.64722017649692,-7.1699310281366735,-100.60438537597656,5356.25390625,True
1599560322.6243649,0.0,10,0.5,0.5,1.6721058380126954,-0.05075,-0.02275,-0.5,-0.04550774219950887,10,1,100,0.06912145286155646,-10,-1,-100,15029.748494155472,-0.004338305538531699,-0.004325878820603211,0.9999812327626373,18.454557290763237,0.02138431760369538,15.793008901835933,-7.541520234767836,-102.59962463378906,5356.25390625,True
1599560322.6603322,0.0,10,0.5,0.5,1.2107824180603028,-0.05075,-0.02275,-0.5,-0.04577383111064847,10,1,100,0.058812190701188705,-10,-1,-100,15029.555136350682,-0.004448803441966714,-0.004309919752555577,0.9999808161858214,18.671961297346787,0.02171641016239203,16.373196022264487,-7.727314249269982,-103.4953384399414,5356.25390625,True
1599560322.6904895,0.0,10,0.5,0.5,2.0609778184890746,-0.05075,-0.02275,-0.5,-0.040327657229572975,10,1,100,0.07923372903766093,-10,-1,-100,15029.09322479961,-0.00473275778217806,-0.004245688756830405,0.9999797873611023,19.24111461850055,0.022653032347486207,18.09094585486282,-8.28469217681963,-105.77047729492188,5356.25390625,True
1599560322.7239373,0.0,10,0.5,0.5,1.3124268434524538,-0.05075,-0.02275,-0.5,-0.04385209070481301,10,1,100,0.059941710278107005,-10,-1,-100,15028.900842989096,-0.004813277475130516,-0.004219232262840505,0.9999795150097123,19.405476886189344,0.022946479775413548,18.65524861588971,-8.47048314331661,-106.39105224609375,5356.25390625,True
1599560322.7569406,0.0,10,0.5,0.5,1.8421675443649292,-0.05075,-0.02275,-0.5,-0.03625650636152723,10,1,100,0.07474097979840277,-10,-1,-100,15028.371547249146,-0.005019013027937747,-0.00412612215293536,0.9999788920893302,19.85440989662265,0.023802652727776083,20.344793855740015,-9.027849997045918,-107.83902740478516,5356.25390625,True
1599560322.7939403,0.0,10,0.5,0.5,1.1578043685913086,-0.05075,-0.02275,-0.5,-0.0455524648481531,10,1,100,0.05437401671269297,-10,-1,-100,15028.371547249146,-0.005019013027937747,-0.00412612215293536,0.9999788920893302,19.85440989662265,0.023802652727776083,20.344793855740015,-9.027849997045918,-107.83902740478516,5356.25390625,True
1599560322.824859,0.0,10,0.5,0.5,1.6498954877853396,-0.05075,-0.02275,-0.5,-0.033255393765566674,10,1,100,0.07093502740814013,-10,-1,-100,15027.843228233629,-0.0051678357049333296,-0.004014488815398371,0.9999785884476114,20.229648435317145,0.02460632917870373,22.01141084941883,-9.585206191536017,-108.6663589477539,5356.25390625,True
1599560322.8592844,0.0,10,0.5,0.5,1.2682441032409668,-0.05075,-0.02275,-0.5,-0.04438672238845024,10,1,100,0.05622728288708997,-10,-1,-100,15027.843228233629,-0.0051678357049333296,-0.004014488815398371,0.9999785884476114,20.229648435317145,0.02460632917870373,22.01141084941883,-9.585206191536017,-108.6663589477539,5356.25390625,True
1599560322.8921978,0.0,10,0.5,0.5,1.4055864252090455,-0.05075,-0.02275,-0.5,-0.035105688126117265,10,1,100,0.06368165394682672,-10,-1,-100,15027.446743652341,-0.005234406601156813,-0.003930424022484301,0.999978576147778,20.42588482891869,0.025092928149426985,23.088177359774587,-9.95677063183421,-108.87313079833984,5356.25390625,True
1599560322.9282165,0.0,10,0.5,0.5,1.2095295257568361,-0.05075,-0.02275,-0.5,-0.028779176659272113,10,1,100,0.06270400393182486,-10,-1,-100,15026.796352143516,-0.005284903618147155,-0.003796870525534528,0.9999788265598224,20.641618106180946,0.0257456180605532,24.640914359557456,-10.514107664129789,-108.66618347167969,5356.25390625,True
1599560322.9591424,0.0,10,0.5,0.5,1.0654902603149417,-0.05075,-0.02275,-0.5,-0.03133574304059435,10,1,100,0.05815528872385026,-10,-1,-100,15026.397913729656,-0.005288391230420731,-0.0036991988362390506,0.9999791742062252,20.732661341051806,0.02612518688718213,25.626275014739228,-10.885659888874558,-108.1834716796875,5356.25390625,True
1599560322.9920552,0.0,10,0.5,0.5,1.3195494083404542,-0.05075,-0.02275,-0.5,-0.041040243971705685,10,1,100,0.057901536065681526,-10,-1,-100,15026.397913729656,-0.005288391230420731,-0.0036991988362390506,0.9999791742062252,20.732661341051806,0.02612518688718213,25.626275014739228,-10.885659888874558,-108.1834716796875,5356.25390625,True
1599560323.0249662,0.0,10,0.5,0.5,0.9125051221847533,-0.05075,-0.02275,-0.5,-0.029947695916935003,10,1,100,0.055769252772420064,-10,-1,-100,15025.937951639644,-0.0052682435752197596,-0.003598912691119605,0.9999796465114047,20.779598040741355,0.026454497749490342,26.563154717710706,-11.25720822116403,-107.42503356933594,5356.25390625,True
1599560323.0608675,0.0,10,0.5,0.5,1.029659984779358,-0.05075,-0.02275,-0.5,-0.034040969381069715,10,1,100,0.055834821321124856,-10,-1,-100,15025.681115071755,-0.005250036797486155,-0.0035455430234719795,0.9999799329178031,20.785757596339696,0.026598137025807843,27.010669814760128,-11.442981172950585,-106.94236755371094,5356.25390625,True
1599560323.0917885,0.0,10,0.5,0.5,0.6266942144393921,-0.05075,-0.02275,-0.5,-0.026972605455106033,10,1,100,0.05175359618736336,-10,-1,-100,15025.216269756202,-0.005195986080764723,-0.0034333797346829853,0.9999806066280714,20.76584025014039,0.026843449171296684,27.86339008854984,-11.81452487110991,-105.77023315429688,5356.25390625,True
1599560323.3057296,0.0,10,0.5,0.5,0.41741065826416013,-0.05075,-0.02275,-0.5,-0.025440787387886833,10,1,100,0.04895770767792071,-10,-1,-100,15024.757283183513,-0.005121271012702281,-0.0033181172555530455,0.9999813811672159,20.7286947000972,0.027061536467773126,28.690805221363235,-12.186066302879844,-104.33465576171875,5356.25390625,True
1599560323.3356495,0.0,10,0.5,0.5,-0.32640819988250724,-0.05075,-0.02275,-0.5,-0.016238566610584523,10,1,100,0.03980281272811845,-10,-1,-100,15023.968216891633,-0.004970028944024801,-0.0031304111810025177,0.9999827495202771,20.57725133923495,0.027239955663511957,29.787904414385586,-12.743375865154597,-101.69528198242188,5356.25390625,True
1599560323.3665664,0.0,10,0.5,0.5,-0.11616835327148434,-0.05075,-0.02275,-0.5,-0.020347004705475978,10,1,100,0.04132167616238446,-10,-1,-100,15023.503370489692,-0.004846523828048517,-0.0029979224392141382,0.9999837617020751,20.42240876040206,0.02725936017140195,30.42864576162271,-13.11491497153387,-99.70964813232422,5356.25390625,True
1599560323.3924985,0.0,10,0.5,0.5,0.30071929550170906,-0.05075,-0.02275,-0.5,-0.026055306436387964,10,1,100,0.0463511111743396,-10,-1,-100,15023.244580065482,-0.004780260688066838,-0.002930295931847706,0.9999842811132111,20.340806245726853,0.027251694377616095,30.73787404541201,-13.300684363731511,-98.700927734375,5356.25390625,True
1599560323.421422,0.0,10,0.5,0.5,-0.308481886100769,-0.05075,-0.02275,-0.5,-0.01727293823121355,10,1,100,0.03684137908854887,-10,-1,-100,15022.656686749426,-0.004633982219951841,-0.0027898867851863063,0.9999853712632557,20.16521066384184,0.027192037052087958,31.32689999638497,-13.672222555322783,-96.7210464477539,5356.25390625,True
1599560323.4453545,0.0,10,0.5,0.5,0.6542835704803467,-0.05075,-0.02275,-0.5,-0.0312131545233187,10,1,100,0.051404133760229044,-10,-1,-100,15022.656686749426,-0.004633982219951841,-0.0027898867851863063,0.9999853712632557,20.16521066384184,0.027192037052087958,31.32689999638497,-13.672222555322783,-96.7210464477539,5356.25390625,True
1599560323.4714363,0.0,10,0.5,0.5,-0.4744741777420044,-0.05075,-0.02275,-0.5,-0.014708095023142994,10,1,100,0.03339704142407994,-10,-1,-100,15022.121527415118,-0.004470876297814548,-0.0026406674370493023,0.9999865189794394,19.9752259787367,0.027071593932689302,31.878332533686013,-14.043759354460978,-94.71890258789062,5356.25390625,True
1599560323.5012088,0.0,10,0.5,0.5,0.49596585750579836,-0.05075,-0.02275,-0.5,-0.029524176696924413,10,1,100,0.04962588214454861,-10,-1,-100,15022.121527415118,-0.004470876297814548,-0.0026406674370493023,0.9999865189794394,19.9752259787367,0.027071593932689302,31.878332533686013,-14.043759354460978,-94.71890258789062,5356.25390625,True
1599560323.5301292,0.0,10,0.5,0.5,-1.2108641324996947,-0.05075,-0.02275,-0.5,-0.003632893367506527,10,1,100,0.020112923439871647,-10,-1,-100,15021.266053888598,-0.004203301552569671,-0.002406163266103749,0.9999882712484157,19.64308121468353,0.026735760332896107,32.597473469563674,-14.601061069471465,-91.67228698730469,5356.25390625,True
1599560323.5600505,0.0,10,0.5,0.5,0.2777042345046997,-0.05075,-0.02275,-0.5,-0.026969372486325027,10,1,100,0.04676572443986767,-10,-1,-100,15021.266053888598,-0.004203301552569671,-0.002406163266103749,0.9999882712484157,19.64308121468353,0.026735760332896107,32.597473469563674,-14.601061069471465,-91.67228698730469,5356.25390625,True
1599560323.592963,0.0,10,0.5,0.5,-0.30158900623321533,-0.05075,-0.02275,-0.5,-0.017969697102667343,10,1,100,0.03626468543804652,-10,-1,-100,15020.941833886667,-0.0041087400021242015,-0.0023252818684964785,0.9999888555978147,19.522348324136036,0.02658313948068093,32.81108268405521,-14.786827090948789,-90.67869567871094,5356.25390625,True
1599560323.6278687,0.0,10,0.5,0.5,-0.9222086492538453,-0.05075,-0.02275,-0.5,-0.007406214164534727,10,1,100,0.023672850044554116,-10,-1,-100,15020.34417451371,-0.003909224208151642,-0.0021566242397678057,0.9999900334193232,19.314193651965205,0.02628059316743128,33.28051383737877,-15.158356222926425,-88.70620727539062,5356.25390625,True
1599560323.663771,0.0,10,0.5,0.5,-1.033617978477478,-0.05075,-0.02275,-0.5,-0.004307406882455456,10,1,100,0.019730298691953845,-10,-1,-100,15019.750421467237,-0.0036929692056401064,-0.0019760134083057776,0.9999912286362599,19.86793727630289,0.026956658166941434,35.07767620277585,-15.529873000786667,-86.766845703125,5356.25390625,True
1599560323.6936932,0.0,10,0.5,0.5,-0.6255765258789063,-0.05075,-0.02275,-0.5,-0.012240602648867564,10,1,100,0.029164922723621103,-10,-1,-100,15019.4203416917,-0.0035831917442106023,-0.0018848707130630516,0.9999918039660721,20.140165542267663,0.02726630780428856,35.985669034217416,-15.715625305156447,-85.800537109375,5356.25390625,True
1599560323.7266054,0.0,10,0.5,0.5,-1.1942246810913086,-0.05075,-0.02275,-0.5,-0.0007301668018600792,10,1,100,0.015140654313090866,-10,-1,-100,15018.763112145709,-0.0033569889473097385,-0.0016983237780684914,0.9999929231357352,20.665413036078693,0.027816768964605446,37.80135239086165,-16.087117378483015,-83.94406127929688,5356.25390625,True
1599560323.759615,0.0,10,0.5,0.5,-1.5941104223251343,-0.05075,-0.02275,-0.5,0.012706161274037273,10,1,100,-0.0014615250807123378,-10,-1,-100,15017.774826948531,-0.003001582040431326,-0.0014075795482990225,0.9999945045974352,21.358349787356186,0.028419882458817058,40.42923459625545,-16.644324075572158,-81.58535766601562,5356.25390625,True
1599560323.7965188,0.0,10,0.5,0.5,-1.168875054550171,-0.05075,-0.02275,-0.5,0.0056603825097688455,10,1,100,0.007018443096153577,-10,-1,-100,15017.113691427978,-0.0027570594723129323,-0.0012085757893082066,0.9999954689735485,21.753106806127025,0.02868093123407211,42.100441618080104,-17.015774554832618,-80.27862548828125,5356.25390625,True
1599560323.8594217,0.0,10,0.5,0.5,-0.5483605960845948,-0.05075,-0.02275,-0.5,-0.014096784224538628,10,1,100,0.03129931822544277,-10,-1,-100,15017.113691427978,-0.0027570594723129323,-0.0012085757893082066,0.9999954689735485,21.753106806127025,0.02868093123407211,42.100441618080104,-17.015774554832618,-80.27862548828125,5356.25390625,True
1599560323.8933306,0.0,10,0.5,0.5,-1.3910675121307374,-0.05075,-0.02275,-0.5,0.01834572500848245,10,1,100,-0.009327151499090663,-10,-1,-100,15016.057047296432,-0.002389285944658539,-0.0009149457886877796,0.9999967270880833,22.24935319973915,0.028887474204196694,44.47891475477789,-17.572920587643956,-78.80816650390625,5356.25390625,True
1599560323.9283662,0.0,10,0.5,0.5,-1.0364154327392578,-0.05075,-0.02275,-0.5,0.010820806737788513,10,1,100,-0.00017839537353310161,-10,-1,-100,15015.336342429975,-0.0021397659893940785,-0.0007177734246549872,0.9999974530981675,22.514904647812365,0.028911312748704808,45.96676410492758,-17.944333176758654,-78.1702880859375,5356.25390625,True
1599560323.9592505,0.0,10,0.5,0.5,-0.9828099475860597,-0.05075,-0.02275,-0.5,0.013842790929669103,10,1,100,-0.0038938777112812704,-10,-1,-100,15014.60684824991,-0.0018810284956861088,-0.000512588137282124,0.9999980994907941,22.734545310732962,0.028860026154917413,47.38178569167836,-18.315732570335694,-77.74429321289062,5356.25390625,True
1599560323.9921603,0.0,10,0.5,0.5,-0.872468798828125,-0.05075,-0.02275,-0.5,0.0038576644214500288,10,1,100,0.008214893752220623,-10,-1,-100,15014.272863819497,-0.0017579175251710973,-0.00041847783859170747,0.9999983672998037,22.832503104322836,0.02881453288681052,48.071434721996255,-18.501427751473777,-77.611328125,5356.25390625,True
1599560324.0250745,0.0,10,0.5,0.5,-0.8693970649719238,-0.05075,-0.02275,-0.5,0.015816560422116693,10,1,100,-0.007493702414698555,-10,-1,-100,15013.487706014886,-0.0015051487747154402,-0.00022578591832270108,0.9999988417732718,22.99779998393283,0.02867814325765066,49.39769150891422,-18.872809550324742,-77.54202270507812,5356.25390625,True
1599560324.0620327,0.0,10,0.5,0.5,-0.7451539154052734,-0.05075,-0.02275,-0.5,0.017643635126830315,10,1,100,-0.01032531745755736,-10,-1,-100,15012.758213042747,-0.0012516059743033308,-3.5592791208010595e-05,0.999999216107512,23.118967281064354,0.02848170430524597,50.64166364316371,-19.244181035189104,-77.7427978515625,5356.25390625,True
1599560324.0919583,0.0,10,0.5,0.5,-0.6127175338745117,-0.05075,-0.02275,-0.5,0.01978087451484501,10,1,100,-0.013426062168991632,-10,-1,-100,15011.967196823098,-0.0009950435545246536,0.00015505833885833703,0.9999994929224895,23.196215071231464,0.028231241648893422,51.79820676053097,-19.61554355605843,-78.19882202148438,5356.25390625,True
1599560324.12593,0.0,10,0.5,0.5,-0.6779761932373047,-0.05075,-0.02275,-0.5,0.010786396951596174,10,1,100,-0.0017639041142828334,-10,-1,-100,15011.565829004277,-0.0008699718328530134,0.0002449246773282756,0.9999995915803729,23.225507622650333,0.028096247959083144,52.35803794387943,-19.80122174386475,-78.51806640625,5356.25390625,True
1599560324.158948,0.0,10,0.5,0.5,-0.4032100486755371,-0.05075,-0.02275,-0.5,0.021458249937552704,10,1,100,-0.016897135118098112,-10,-1,-100,15010.774813094526,-0.0006206332678510002,0.00042213591742270884,0.9999997183077673,23.25240787402448,0.027794661625440732,53.40893408275141,-20.17257299329252,-79.3194580078125,5356.25390625,True
1599560324.194842,0.0,10,0.5,0.5,-0.5452682991027833,-0.05075,-0.02275,-0.5,0.013402832077784928,10,1,100,-0.005784945932185745,-10,-1,-100,15010.376375395688,-0.0004969239524524296,0.000508523508140913,0.9999997472351816,23.2508182405771,0.02763065492438309,53.900512641607925,-20.358246001121152,-79.79302978515625,5356.25390625,True
1599560324.2264667,0.0,10,0.5,0.5,-0.18798654708862306,-0.05075,-0.02275,-0.5,0.023623687230835917,10,1,100,-0.020813234160629565,-10,-1,-100,15009.522860125173,-0.00024989480503138565,0.0006784135471875175,0.9999997386537887,23.220477918256808,0.027283918907779103,54.81962765651736,-20.72958805034089,-80.87368774414062,5356.25390625,True
1599560324.2593856,0.0,10,0.5,0.5,-0.0479190933227539,-0.05075,-0.02275,-0.5,0.02419108801637747,10,1,100,-0.022613233106886926,-10,-1,-100,15008.667391892639,-1.0904127082303508e-05,0.0008365687177021945,0.9999996500168792,23.154326093242688,0.02691854700223238,55.6504704428776,-21.10092534452564,-82.10055541992188,5356.25390625,True
1599560324.2932577,0.0,10,0.5,0.5,-0.2869648796081543,-0.05075,-0.02275,-0.5,0.01717784547721625,10,1,100,-0.012182723539153098,-10,-1,-100,15008.26700118347,0.0001096019823808166,0.0009151763567755651,0.9999995752197306,23.110076816098292,0.026733653119591798,56.03683018518415,-21.286592329991173,-82.76409912109375,5356.25390625,True
1599560324.3292522,0.0,10,0.5,0.5,0.17611713562011722,-0.05075,-0.02275,-0.5,0.0258027360397876,10,1,100,-0.02601291500008473,-10,-1,-100,15007.407626505825,0.0003430723401938797,0.001063747975143771,0.9999993753706122,22.99595799027909,0.02636034223109339,56.740967572535965,-21.65792337786744,-84.18658447265625,5356.25390625,True
1599560324.3601696,0.0,10,0.5,0.5,0.29115071105957036,-0.05075,-0.02275,-0.5,0.02639848351207762,10,1,100,-0.02763680012128088,-10,-1,-100,15006.546298940433,0.0005681707212481158,0.0012028814908504714,0.9999991151286838,22.856138694930678,0.025997816398474885,57.37125467008142,-22.029251074123092,-85.65969848632812,5356.25390625,True
1599560324.3920836,0.0,10,0.5,0.5,0.41347283935546875,-0.05075,-0.02275,-0.5,0.027370546006972713,10,1,100,-0.029853116392930576,-10,-1,-100,15005.624424955924,0.0007910691069524517,0.0013369046483472698,0.9999987934470869,22.700095658514336,0.025662030323317816,57.94858474109717,-22.400575307532094,-87.18563842773438,5356.25390625,True
1599560324.4259937,0.0,10,0.5,0.5,0.09694758071899412,-0.05075,-0.02275,-0.5,0.020811576323832296,10,1,100,-0.01932254641402647,-10,-1,-100,15005.166417738772,0.0008961145713470327,0.0013978691603707598,0.9999986214692926,22.613578760865316,0.025503181401435975,58.210531396734574,-22.586236143862298,-87.95724487304688,5356.25390625,True
1599560324.4618986,0.0,10,0.5,0.5,0.5606126838684082,-0.05075,-0.02275,-0.5,0.02769264512914921,10,1,100,-0.03151606014912807,-10,-1,-100,15004.23966079182,0.0011007413382740556,0.0015147167869663477,0.9999982469992441,22.436683124440737,0.025220398444722028,58.71352366715782,-22.957555287454863,-89.45932006835938,5356.25390625,True
1599560324.4928133,0.0,10,0.5,0.5,0.9846453227996826,-0.05075,-0.02275,-0.5,0.033630106767378695,10,1,100,-0.043037316055592204,-10,-1,-100,15002.847084318171,0.001389712804474544,0.0016737644695738428,0.9999976336026108,22.467171532190765,0.025226347796691147,60.23349196014253,-23.514524194013116,-91.5477066040039,5356.25390625,True
1599560324.5269005,0.0,10,0.5,0.5,0.663385622215271,-0.05075,-0.02275,-0.5,0.028087679285846132,10,1,100,-0.03363984349527216,-10,-1,-100,15001.921304170159,0.001565154981315419,0.001766829723428405,0.9999972142974264,22.85262045825611,0.025701666005693236,62.243931582443345,-23.88581893716675,-92.80982971191406,5356.25390625,True
1599560324.5593247,0.0,10,0.5,0.5,0.36983911113739015,-0.05075,-0.02275,-0.5,0.02353916335970172,10,1,100,-0.02517141125812035,-10,-1,-100,15001.399820428924,0.0016457875045295907,0.0018089404401355237,0.9999970095545158,23.03402130236949,0.025943496562310733,63.230569116002535,-24.07146038860658,-93.36888885498047,5356.25390625,True
1599560324.5952272,0.0,10,0.5,0.5,0.11873612213134768,-0.05075,-0.02275,-0.5,0.01944114437828465,10,1,100,-0.017297727167659267,-10,-1,-100,15001.399820428924,0.0016457875045295907,0.0018089404401355237,0.9999970095545158,23.03402130236949,0.025943496562310733,63.230569116002535,-24.07146038860658,-93.36888885498047,5356.25390625,True
1599560324.626658,0.0,10,0.5,0.5,1.0952128492355346,-0.05075,-0.02275,-0.5,0.03596614432233618,10,1,100,-0.05009157085915278,-10,-1,-100,14999.479900584789,0.0019424072729689755,0.0019582837380610527,0.9999961960821587,23.651993234359473,0.0268798559819946,66.95101495281406,-24.813988739540775,-95.0953369140625,5356.25390625,True
1599560324.6596127,0.0,10,0.5,0.5,0.4589934278488159,-0.05075,-0.02275,-0.5,0.024698772408243724,10,1,100,-0.028007524898428796,-10,-1,-100,14998.94962775684,0.0020096313670976635,0.0019906714393367973,0.9999959992964916,23.787434655279174,0.02711116219150468,67.84356544822447,-24.999611873655063,-95.45657348632812,5356.25390625,True
1599560324.692625,0.0,10,0.5,0.5,0.30401436672210697,-0.05075,-0.02275,-0.5,0.021552694627088573,10,1,100,-0.021451771388250378,-10,-1,-100,14998.94962775684,0.0020096313670976635,0.0019906714393367973,0.9999959992964916,23.787434655279174,0.02711116219150468,67.84356544822447,-24.999611873655063,-95.45657348632812,5356.25390625,True
1599560324.7285347,0.0,10,0.5,0.5,0.8327097223281861,-0.05075,-0.02275,-0.5,0.030720050553744237,10,1,100,-0.04070852121485867,-10,-1,-100,14997.429121573456,0.0021833823103887848,0.0020732948659895885,0.9999954671347693,24.17086968781904,0.027817689769061477,70.48986660114966,-25.55645989479119,-96.37606048583984,5356.25390625,True
1599560324.7594602,0.0,10,0.5,0.5,0.6354368316650392,-0.05075,-0.02275,-0.5,0.027691336776755816,10,1,100,-0.03484999968569037,-10,-1,-100,14996.434005202493,0.002286812687476059,0.0021202038647761927,0.9999951375998305,24.395633349571312,0.028279838321233947,72.19064187123901,-25.92767472139859,-96.81466674804688,5356.25390625,True
1599560324.7928262,0.0,10,0.5,0.5,0.4362843353271485,-0.05075,-0.02275,-0.5,0.023072670368535934,10,1,100,-0.02464603178857583,-10,-1,-100,14996.434005202493,0.002286812687476059,0.0021202038647761927,0.9999951375998305,24.395633349571312,0.028279838321233947,72.19064187123901,-25.92767472139859,-96.81466674804688,5356.25390625,True
1599560324.8267395,0.0,10,0.5,0.5,0.6308332893371582,-0.05075,-0.02275,-0.5,0.027255652572927926,10,1,100,-0.03419038631368674,-10,-1,-100,14995.3783418003,0.0023725013001141566,0.002157680532927202,0.9999948578129282,24.6020663712221,0.028737290673081374,73.85608099596745,-26.298876527357326,-97.13752746582031,5356.25390625,True
1599560324.8627026,0.0,10,0.5,0.5,0.5636952466964722,-0.05075,-0.02275,-0.5,0.026940803273793366,10,1,100,-0.033566179424700915,-10,-1,-100,14994.317795939161,0.002443831986707429,0.0021884480411965748,0.9999946191757192,24.783746615715113,0.02917796278967869,75.4642914984658,-26.670065744039775,-97.28564453125,5356.25390625,True
