Timestamp,Input Throttle,horizon,dT,dt,Input Roll,Roll P,Roll I,Roll D,Input Pitch,Pitch P,Pitch I,Pitch D,Input Yaw,Yaw P,Yaw I,Yaw D,Altitude,Direction X,Direction Y,Direction Z,Drag X,Drag Y,Drag Z,Vertical Velocity,Roll,Mass,Has Fuel
1599559239.3422382,0.0,10,0.5,0.5,-0.058281410217285154,-0.001,-0.03,-0.12575,-0.0005066809812541285,10,1,100,0.171578457489386,-10,-1,-100,14994.554479422397,-0.01681091069802181,-7.412993384030601e-05,0.9998586839080091,28.576402057061348,0.027199463169049178,-86.69233290324374,26.823330015686704,-31.79150390625,5356.25390625,True
1599559239.373605,0.0,10,0.5,0.5,-0.23298870849609374,-0.001,-0.03,-0.12575,-0.00019403339862568338,10,1,100,0.17773939747579653,-10,-1,-100,14995.617959370138,-0.016883176147347047,-6.908739808429322e-05,0.9998574666371749,28.43129496981267,0.027525352217546043,-85.05932920851097,26.45140652038794,-31.790283203125,5356.25390625,True
1599559239.4063394,0.0,10,0.5,0.5,-0.4073831253051758,-0.001,-0.03,-0.12575,0.0034236382783808398,10,1,100,0.17837919505832261,-10,-1,-100,14996.643353088642,-0.016939340010077186,-3.155254360778202e-05,0.9998565185887722,28.286378757201096,0.027845252276656865,-83.43906415999163,26.079498897054947,-31.790924072265625,5356.25390625,True
1599559239.4404638,0.0,10,0.5,0.5,-0.5773331756591796,-0.001,-0.03,-0.12575,0.007860967951173822,10,1,100,0.1785782602374938,-10,-1,-100,14997.70976169256,-0.016976808350542435,4.293809616317144e-05,0.9998558826823739,28.144147884555277,0.028161097814348553,-81.83876331295612,25.70760684364587,-31.828460693359375,5356.25390625,True
1599559239.4753413,0.0,10,0.5,0.5,-0.7565680236816406,-0.001,-0.03,-0.12575,0.0004161977836947934,10,1,100,0.1765291070260232,-10,-1,-100,14997.70976169256,-0.016976808350542435,4.293809616317144e-05,0.9998558826823739,28.144147884555277,0.028161097814348553,-81.83876331295612,25.70760684364587,-31.828460693359375,5356.25390625,True
1599559239.509252,0.0,10,0.5,0.5,-0.9250097198486327,-0.001,-0.03,-0.12575,0.0057140561718385325,10,1,100,0.17958520514003412,-10,-1,-100,14998.185348197352,-0.01698915759853295,9.106141051342073e-05,0.9998556697003381,28.0751731115693,0.028318204170876257,-81.04926547448775,25.521666538201632,-31.876373291015625,5356.25390625,True
1599559239.5404592,0.0,10,0.5,0.5,-1.0824600219726561,-0.001,-0.03,-0.12575,0.015681893081695937,10,1,100,0.18038475991719377,-10,-1,-100,14999.196090350277,-0.016992208178681658,0.00022534379418461155,0.9998555966145245,27.94412312492046,0.028632012891269164,-79.4985689758207,25.14979722918003,-32.057403564453125,5356.25390625,True
1599559239.573627,0.0,10,0.5,0.5,-1.2013963317871093,-0.001,-0.03,-0.12575,0.03527130845630063,10,1,100,0.17621951269522315,-10,-1,-100,15000.683393115643,-0.016941668087545585,0.0005252994247510235,0.9998563416526026,27.771216411662316,0.029102133656199698,-77.25894278405194,24.592020371793108,-32.670074462890625,5356.25390625,True
1599559239.6089013,0.0,10,0.5,0.5,-1.450429473876953,-0.001,-0.03,-0.12575,0.005328275342134536,10,1,100,0.18296768861758497,-10,-1,-100,15000.683393115643,-0.016941668087545585,0.0005252994247510235,0.9998563416526026,27.771216411662316,0.029102133656199698,-77.25894278405194,24.592020371793108,-32.670074462890625,5356.25390625,True
1599559239.6406221,0.0,10,0.5,0.5,-1.4092635650634764,-0.001,-0.03,-0.12575,0.06837158618571527,10,1,100,0.1632661820359512,-10,-1,-100,15002.632604658254,-0.016747161965814782,0.0010979428874883475,0.9998591536249026,27.596993759570534,0.029713707169039528,-74.45843853898124,23.848364134540798,-34.351776123046875,5356.25390625,True
1599559239.6737907,0.0,10,0.5,0.5,-1.712869239807129,-0.001,-0.03,-0.12575,0.030784356299303837,10,1,100,0.176895741726834,-10,-1,-100,15003.096469143173,-0.01667901861418952,0.0012758276338390032,0.9998600815123664,27.5627394167959,0.02985744099482948,-73.78774575556747,23.662457682598994,-34.9420166015625,5356.25390625,True
1599559239.7069058,0.0,10,0.5,0.5,-1.777640441894531,-0.001,-0.03,-0.12575,0.013130877421006201,10,1,100,0.1836968876809771,-10,-1,-100,15003.096469143173,-0.01667901861418952,0.0012758276338390032,0.9998600815123664,27.5627394167959,0.02985744099482948,-73.78774575556747,23.662457682598994,-34.9420166015625,5356.25390625,True
1599559239.7474928,0.0,10,0.5,0.5,-1.5924263763427735,-0.001,-0.03,-0.12575,0.05479897640132528,10,1,100,0.16419484181927,-10,-1,-100,15004.03591642715,-0.016501912885931416,0.0016534058836310645,0.9998624671023956,27.501775024262294,0.030122641768766622,-72.47050230059473,23.290653367966332,-36.32867431640625,5356.25390625,True
1599559239.8073688,0.0,10,0.5,0.5,-1.4242534561157225,-0.001,-0.03,-0.12575,0.08979161620070747,10,1,100,0.14452046897295334,-10,-1,-100,15005.381608446478,-0.016162447404479485,0.002313241964866196,0.9998667032187387,27.41754748506208,0.030433596512253677,-70.52266850074754,22.73296779906885,-38.923797607421875,5356.25390625,True
1599559239.8403444,0.0,10,0.5,0.5,-1.4664472579956054,-0.001,-0.03,-0.12575,0.0774304146273622,10,1,100,0.14688409597101398,-10,-1,-100,15006.322029623552,-0.015876070267638338,0.002798654475441628,0.9998700505195584,27.355276918455626,0.03055500040657915,-69.21443873531025,22.361191516278854,-40.99761962890625,5356.25390625,True
1599559239.8766708,0.0,10,0.5,0.5,-1.4020104827880857,-0.001,-0.03,-0.12575,0.08608180113658401,10,1,100,0.13842517205977428,-10,-1,-100,15007.194090090226,-0.015539828778665029,0.003316082347521966,0.999873750690253,27.277614147259737,0.030582725401167386,-67.8730805240366,21.989427150578578,-43.346435546875,5356.25390625,True
1599559239.9073613,0.0,10,0.5,0.5,-1.1509933853149414,-0.001,-0.03,-0.12575,0.123751535428236,10,1,100,0.10519365290031063,-10,-1,-100,15008.470440969104,-0.01493336754980314,0.004125991614849102,0.9998799781607873,27.10956901757876,0.030400639188703754,-65.74817209471975,21.4318054224773,-47.385650634765625,5356.25390625,True
1599559239.9425712,0.0,10,0.5,0.5,-1.61293994140625,-0.001,-0.03,-0.12575,0.04315067347758886,10,1,100,0.16563389172361165,-10,-1,-100,15008.470440969104,-0.01493336754980314,0.004125991614849102,0.9998799781607873,27.10956901757876,0.030400639188703754,-65.74817209471975,21.4318054224773,-47.385650634765625,5356.25390625,True
1599559239.9767344,0.0,10,0.5,0.5,-0.9783079452514649,-0.001,-0.03,-0.12575,0.13467449974609938,10,1,100,0.0851128650750087,-10,-1,-100,15009.734094957821,-0.014203183944395606,0.004954753042571836,0.9998868535930098,26.84386242256553,0.02988932432976804,-63.4137053886632,20.874219113122123,-52.0443115234375,5356.25390625,True
1599559240.0186183,0.0,10,0.5,0.5,-1.0687421340942382,-0.001,-0.03,-0.12575,0.11447239687959083,10,1,100,0.0965347421489883,-10,-1,-100,15010.601269681007,-0.013645705443918708,0.005520490265698952,0.9998916535856094,26.590201793186793,0.029339667572547985,-61.69846329401558,20.502518841916007,-55.494171142578125,5356.25390625,True
1599559240.0435555,0.0,10,0.5,0.5,-1.439134796142578,-0.001,-0.03,-0.12575,0.058340929304700306,10,1,100,0.1519724465444885,-10,-1,-100,15010.601269681007,-0.013645705443918708,0.005520490265698952,0.9998916535856094,26.590201793186793,0.029339667572547985,-61.69846329401558,20.502518841916007,-55.494171142578125,5356.25390625,True
1599559240.0765681,0.0,10,0.5,0.5,-0.9056123123168944,-0.001,-0.03,-0.12575,0.11635333624804438,10,1,100,0.08475425406387158,-10,-1,-100,15011.40496767417,-0.01303738852424971,0.006044016999154934,0.9998967428484712,26.258567153688272,0.028613590286392123,-59.82693138099471,20.130841659187155,-59.21697998046875,5356.25390625,True
1599559240.1094797,0.0,10,0.5,0.5,-1.0520530166625974,-0.001,-0.03,-0.12575,0.0935485559970012,10,1,100,0.10954479552351623,-10,-1,-100,15011.79558585689,-0.012713052274265517,0.006308299491500602,0.99989928675812,26.0588023986535,0.028184202596545062,-58.82501007800786,19.94501293843467,-61.180511474609375,5356.25390625,True
1599559240.146381,0.0,10,0.5,0.5,-0.7005389251708984,-0.001,-0.03,-0.12575,0.1254495406717938,10,1,100,0.0654391563334531,-10,-1,-100,15012.541666023666,-0.012020685200380828,0.006834333532851261,0.9999043929358822,25.581103828141774,0.02719812542376725,-56.67323634006977,19.57337758192985,-65.31362915039062,5356.25390625,True
1599559240.176337,0.0,10,0.5,0.5,-0.5839396820068358,-0.001,-0.03,-0.12575,0.12585605569861646,10,1,100,0.053717630705006486,-10,-1,-100,15013.34145735926,-0.011288466502230777,0.007312131805624807,0.9999095475354185,24.986250589508717,0.026059107065073604,-54.30707006361892,19.201775369258925,-69.70944213867188,5356.25390625,True
1599559240.2112463,0.0,10,0.5,0.5,-0.4598487396240235,-0.001,-0.03,-0.12575,0.13003768469187624,10,1,100,0.039819927038582156,-10,-1,-100,15014.084608100937,-0.01050064092854997,0.0077804055196029525,0.9999145972682069,24.259380880542494,0.024798916204529745,-51.70958141128387,18.830210013798627,-74.37002563476562,5356.25390625,True
1599559240.252673,0.0,10,0.5,0.5,-0.646024543762207,-0.001,-0.03,-0.12575,0.10696672331089453,10,1,100,0.07375359367095613,-10,-1,-100,15014.478156309924,-0.010097504819907286,0.00799231440778136,0.9999170782153983,23.840910917733698,0.02413509859592289,-50.317608566915325,18.64444205570985,-76.79071044921875,5356.25390625,True
1599559240.2854335,0.0,10,0.5,0.5,0.4218914184570314,-0.001,-0.03,-0.12575,0.16898686169640814,10,1,100,-0.07275059951435461,-10,-1,-100,15015.939069167129,-0.008403557385574655,0.008745263452545551,0.9999264475902281,21.87779016157676,0.021498544404385405,-44.339302113874965,17.90146891386431,-86.92169189453125,5356.25390625,True
1599559240.3103673,0.0,10,0.5,0.5,-0.7334713745117187,-0.001,-0.03,-0.12575,0.09415388440375863,10,1,100,0.09599116290248572,-10,-1,-100,15015.939069167129,-0.008403557385574655,0.008745263452545551,0.9999264475902281,21.87779016157676,0.021498544404385405,-44.339302113874965,17.90146891386431,-86.92169189453125,5356.25390625,True
1599559240.3412836,0.0,10,0.5,0.5,-0.2957259368896485,-0.001,-0.03,-0.12575,0.11252078592459977,10,1,100,0.046336901214446724,-10,-1,-100,15016.276954004541,-0.007957427394373228,0.008908789365998676,0.9999286538655124,21.297679776561107,0.02085780108598762,-42.71703730195798,17.71574875621223,-89.5498046875,5356.25390625,True
1599559240.375194,0.0,10,0.5,0.5,0.15306818199157712,-0.001,-0.03,-0.12575,0.12660605026393346,10,1,100,-0.005435688452339341,-10,-1,-100,15017.008388532326,-0.007086365930900736,0.009182416873040642,0.9999327310565761,21.448223652647457,0.021006981153126828,-42.11949537979313,17.344319345796798,-94.89191436767578,5356.25390625,True
1599559240.411097,0.0,10,0.5,0.5,-0.058135345458984355,-0.001,-0.03,-0.12575,0.11358183887919214,10,1,100,0.029884930236894147,-10,-1,-100,15017.329672809108,-0.0066215514426578815,0.009309438206301743,0.9999347425791221,21.88288580756162,0.02149971794671589,-42.51416718128548,17.158602495002178,-97.59308624267578,5356.25390625,True
1599559240.4420154,0.0,10,0.5,0.5,0.7687619132995606,-0.001,-0.03,-0.12575,0.13281372374398398,10,1,100,-0.07422373545978092,-10,-1,-100,15018.329658089438,-0.005258382980723324,0.0095967788978489,0.9999401238290289,23.155252731571967,0.0231587336922251,-43.52903678297587,16.601434639114345,-105.88848114013672,5356.25390625,True
1599559240.4757726,0.0,10,0.5,0.5,0.21140753364562992,-0.001,-0.03,-0.12575,0.1121324428400424,10,1,100,0.012098336112355577,-10,-1,-100,15018.663638314581,-0.004810662001705461,0.009666996537031984,0.9999417016551807,23.505641598502002,0.023686894122367273,-43.69454906706101,16.415705074136714,-108.66297912597656,5356.25390625,True
1599559240.5166643,0.0,10,0.5,0.5,0.3443412895202637,-0.001,-0.03,-0.12575,0.11182786343037066,10,1,100,0.005909047028600442,-10,-1,-100,15018.988829708309,-0.0043539312320175156,0.009725486702561244,0.9999432274840534,23.81320099942727,0.024182536283942603,-43.76657193760963,16.229972157839015,-111.4383544921875,5356.25390625,True
1599559240.543591,0.0,10,0.5,0.5,0.8209026489257814,-0.001,-0.03,-0.12575,0.11544255326112324,10,1,100,-0.04577656116744581,-10,-1,-100,15019.59136157413,-0.00347515639894643,0.009809326437961107,0.9999458487352385,24.321658137319396,0.025063994379326663,-43.68012837879809,15.858497055813197,-116.96401977539062,5356.25390625,True
1599559240.5745778,0.0,10,0.5,0.5,1.2836711368560791,-0.001,-0.03,-0.12575,0.11112221668423475,10,1,100,-0.10227215862870703,-10,-1,-100,15020.57572802424,-0.0021690606506245256,0.009844424118608943,0.999949189954003,24.917858394020048,0.026101244365917417,-43.18144734064433,15.30126696518444,-125.08898162841797,5356.25390625,True
1599559240.6084838,0.0,10,0.5,0.5,0.4068519973754882,-0.001,-0.03,-0.12575,0.10779765959053388,10,1,100,0.027544571786555096,-10,-1,-100,15020.57572802424,-0.0021690606506245256,0.009844424118608943,0.999949189954003,24.917858394020048,0.026101244365917417,-43.18144734064433,15.30126696518444,-125.08898162841797,5356.25390625,True
1599559240.641034,0.0,10,0.5,0.5,1.1917396373748779,-0.001,-0.03,-0.12575,0.10552477525356688,10,1,100,-0.06380485865301286,-10,-1,-100,15021.167520266841,-0.0013442790072965899,0.009822762296758276,0.9999508519196391,25.107554107801818,0.02643528245209723,-42.45570002392355,14.929776723499918,-130.37802124023438,5356.25390625,True
1599559240.6778908,0.0,10,0.5,0.5,1.6103561706542968,-0.001,-0.03,-0.12575,0.0989773069032146,10,1,100,-0.11036490980390558,-10,-1,-100,15022.039586050552,-0.0001776218468796944,0.009742567747487002,0.9999525242851107,25.102557362015485,0.02636926421350742,-40.86563871387249,14.372553470642504,-137.89947509765625,5356.25390625,True
1599559240.709072,0.0,10,0.5,0.5,1.4169209518432617,-0.001,-0.03,-0.12575,0.09732098699661812,10,1,100,-0.07494783227809561,-10,-1,-100,15022.559115419863,0.0005539295891305802,0.009653848177742704,0.9999532470957687,24.920214326817955,0.025966827680483365,-39.521992331953,14.001089785633518,-142.69110107421875,5356.25390625,True
1599559240.7436287,0.0,10,0.5,0.5,0.9577715454101561,-0.001,-0.03,-0.12575,0.10624008710151812,10,1,100,-0.002556718229071265,-10,-1,-100,15022.559115419863,0.0005539295891305802,0.009653848177742704,0.9999532470957687,24.920214326817955,0.025966827680483365,-39.521992331953,14.001089785633518,-142.69110107421875,5356.25390625,True
1599559240.7755444,0.0,10,0.5,0.5,1.9439747619628907,-0.001,-0.03,-0.12575,0.09220427098843814,10,1,100,-0.11361220700496065,-10,-1,-100,15023.415560301277,0.0015570017770643126,0.00952593674946794,0.9999534150521768,24.477288732450724,0.0249908537418289,-37.277257292017694,13.443935295513793,-149.40438842773438,5356.25390625,True
1599559240.811632,0.0,10,0.5,0.5,1.2303265991210939,-0.001,-0.03,-0.12575,0.10498832960107647,10,1,100,-0.013986526687366198,-10,-1,-100,15023.415560301277,0.0015570017770643126,0.00952593674946794,0.9999534150521768,24.477288732450724,0.0249908537418289,-37.277257292017694,13.443935295513793,-149.40438842773438,5356.25390625,True
1599559240.842584,0.0,10,0.5,0.5,1.876845115661621,-0.001,-0.03,-0.12575,0.09264473784565269,10,1,100,-0.08302361557475182,-10,-1,-100,15023.94095134025,0.0021788228907871185,0.0094138505151346,0.9999533149848995,24.099429953840705,0.02417281920404329,-35.689516963864975,13.072530492459089,-153.54083251953125,5356.25390625,True
1599559240.8777068,0.0,10,0.5,0.5,2.204550643920898,-0.001,-0.03,-0.12575,0.08900444051212802,10,1,100,-0.11358942142847524,-10,-1,-100,15024.711461529369,0.0030160469072755144,0.009279143631969909,0.9999523993443441,23.395343591348407,0.022769181669707,-33.17278144051857,12.515473431333742,-159.23358154296875,5356.25390625,True
1599559240.9088461,0.0,10,0.5,0.5,1.8385851135253906,-0.001,-0.03,-0.12575,0.09626546760694518,10,1,100,-0.059143207515261385,-10,-1,-100,15024.925329730962,0.0032762929745937283,0.00922317415068761,0.9999520983341805,23.140414046033307,0.02228687633204543,-32.32532259354424,12.329800996553729,-160.99365234375,5356.25390625,True
1599559240.9447465,0.0,10,0.5,0.5,1.9392863388061523,-0.001,-0.03,-0.12575,0.09774835365382942,10,1,100,-0.06075926201114287,-10,-1,-100,15025.177284073201,0.0035226213915499197,0.009186338359009852,0.9999515999917623,22.885428343106447,0.021812673908959423,-31.488491576346522,12.144134873486006,-162.68450927734375,5356.25390625,True
1599559241.1094127,0.0,10,0.5,0.5,2.4299387321472166,-0.001,-0.03,-0.12575,0.09020987784264638,10,1,100,-0.11145959006944832,-10,-1,-100,15025.897014545975,0.004202294132910894,0.009084917937164406,0.9999499012401047,22.079229083559255,0.020424242151443065,-28.988071349912303,11.587171028323564,-167.3432159423828,5356.25390625,True
1599559241.1323898,0.0,10,0.5,0.5,1.955001953125,-0.001,-0.03,-0.12575,0.10027813559123153,10,1,100,-0.04404697324737166,-10,-1,-100,15025.897014545975,0.004202294132910894,0.009084917937164406,0.9999499012401047,22.079229083559255,0.020424242151443065,-28.988071349912303,11.587171028323564,-167.3432159423828,5356.25390625,True
1599559241.1544752,0.0,10,0.5,0.5,2.708196262359619,-0.001,-0.03,-0.12575,0.0917705927438941,10,1,100,-0.1285774944626913,-10,-1,-100,15026.795458939509,0.004966771674886717,0.009008174502016178,0.9999470905859323,20.97585487333261,0.018773336802813265,-25.777079459871306,10.844620825107393,-172.58868408203125,5356.25390625,True
1599559241.1884563,0.0,10,0.5,0.5,2.2826367340087894,-0.001,-0.03,-0.12575,0.0974919665961749,10,1,100,-0.07085544724796045,-10,-1,-100,15026.995656289975,0.005132993700107407,0.008991007208425546,0.999946405646349,20.70574602665191,0.018410148564820365,-25.010183191022506,10.658993020218137,-173.7276611328125,5356.25390625,True
1599559241.225415,0.0,10,0.5,0.5,2.3681318740844723,-0.001,-0.03,-0.12575,0.09809321637958472,10,1,100,-0.07189645931718618,-10,-1,-100,15027.19097087474,0.005289405592654652,0.008981469067709896,0.9999456762253948,20.44079807382454,0.018068975667154045,-24.260739363409982,10.473368347758761,-174.79757690429688,5356.25390625,True
1599559241.2682679,0.0,10,0.5,0.5,2.554690078735352,-0.001,-0.03,-0.12575,0.10162482916120644,10,1,100,-0.08791878315885931,-10,-1,-100,15027.642147456878,0.005573862617335004,0.009005398572057463,0.9999439158533249,19.930788579995255,0.017453891393209624,-22.8179481503458,10.102126931391357,-176.72988891601562,5356.25390625,True
1599559241.2912397,0.0,10,0.5,0.5,2.3936783447265624,-0.001,-0.03,-0.12575,0.09917982490870862,10,1,100,-0.05987476677485123,-10,-1,-100,15027.642147456878,0.005573862617335004,0.009005398572057463,0.9999439158533249,19.930788579995255,0.017453891393209624,-22.8179481503458,10.102126931391357,-176.72988891601562,5356.25390625,True
1599559241.3411477,0.0,10,0.5,0.5,2.6731964759826656,-0.001,-0.03,-0.12575,0.10285290246365626,10,1,100,-0.08734376402287669,-10,-1,-100,15028.024964488344,0.0058204943743838285,0.009039161506141603,0.9999422060321805,19.45513231233628,0.016929165030076132,-21.455809591829265,9.730893594444206,-178.3863067626953,5356.25390625,True
1599559241.3795009,0.0,10,0.5,0.5,-42.85835805892945,-0.001,-0.03,-0.12575,0.11111616664452956,10,1,100,-0.09582145672969,-10,-1,-100,15028.547432828927,0.006119225498610964,0.00914519383161315,0.9999394584218985,19.01863745004751,0.016475624877910117,-19.775391845921266,9.174052347510667,179.64697265625,5356.25390625,True
1599559241.410393,0.0,10,0.5,0.5,1.3129264068603517,-0.001,-0.03,-0.12575,0.11887937757815024,10,1,100,-0.08998519575385815,-10,-1,-100,15029.108963773819,0.006335157845833509,0.009312232390819356,0.9999365720399308,19.126268234881923,0.016571343912288122,-18.68125751170201,8.617209421429807,178.3016357421875,5356.25390625,True
1599559241.444302,0.0,10,0.5,0.5,0.1706188240051269,-0.001,-0.03,-0.12575,0.11009185270551491,10,1,100,-0.07444230928305229,-10,-1,-100,15029.237872178666,0.006387604160433694,0.009384084587590305,0.9999355666589435,19.13325675515729,0.016589463655652514,-18.28586993392947,8.431593741670198,177.9085235595703,5356.25390625,True
1599559241.4762158,0.0,10,0.5,0.5,-0.8059713249206543,-0.001,-0.03,-0.12575,0.1212124949906252,10,1,100,-0.07761745155655533,-10,-1,-100,15029.605065041222,0.006462160912531596,0.009550229544837238,0.9999335145858356,19.15647345080771,0.016648468390508594,-17.502580524676986,8.06035958099757,177.05172729492188,5356.25390625,True
1599559241.5210977,0.0,10,0.5,0.5,-1.8470083923339842,-0.001,-0.03,-0.12575,0.1258332893785038,10,1,100,-0.07459807591601278,-10,-1,-100,15029.931242892868,0.006500436484270556,0.00974285462621728,0.9999314082022059,19.171550777212993,0.016718960148107833,-16.71014583277209,7.689120726422553,176.26364135742188,5356.25390625,True
1599559241.57624,0.0,10,0.5,0.5,-2.881830551147461,-0.001,-0.03,-0.12575,0.13157981775912886,10,1,100,-0.07037804462474553,-10,-1,-100,15030.183201704407,0.0064954742970131955,0.009969541612637363,0.9999292060209517,19.177850637548634,0.016797290888783716,-15.909064756815175,7.317875993103107,175.38919067382812,5356.25390625,True
1599559241.609243,0.0,10,0.5,0.5,-3.8170387382507327,-0.001,-0.03,-0.12575,0.15265041762478265,10,1,100,-0.061806512309550934,-10,-1,-100,15030.608991496498,0.006411801577916639,0.010366282022339553,0.9999257117394067,19.233646747713255,0.016985871758733107,-14.741794041812126,6.760994667735433,173.6368865966797,5356.25390625,True
1599559241.6451466,0.0,10,0.5,0.5,-5.082694366455078,-0.001,-0.03,-0.12575,0.1131148579500266,10,1,100,-0.07028602381773279,-10,-1,-100,15030.608991496498,0.006411801577916639,0.010366282022339553,0.9999257117394067,19.233646747713255,0.016985871758733107,-14.741794041812126,6.760994667735433,173.6368865966797,5356.25390625,True
1599559241.6758556,0.0,10,0.5,0.5,-6.042695064544678,-0.001,-0.03,-0.12575,0.12948306579544053,10,1,100,-0.06491098827812658,-10,-1,-100,15030.73594835389,0.006362175855774236,0.010513846745070332,0.9999244880214713,19.26887329973749,0.017072268928756136,-14.363487435754598,6.5753630492509725,172.91815185546875,5356.25390625,True
1599559241.7088597,0.0,10,0.5,0.5,-6.973740139007568,-0.001,-0.03,-0.12575,0.14982154068681136,10,1,100,-0.05511422136420277,-10,-1,-100,15030.980095592793,0.006227283397119617,0.010831520402771673,0.9999219465074544,19.362655794234318,0.01727935430306524,-13.618768504642494,6.204091774877583,171.27491760253906,5356.25390625,True
1599559241.7426915,0.0,10,0.5,0.5,-7.986227035522461,-0.001,-0.03,-0.12575,0.15677709043597826,10,1,100,-0.050656341780825564,-10,-1,-100,15031.234985631425,0.0060637579030185925,0.011181917490313836,0.9999190945078175,19.48366483492302,0.017527391028780207,-12.884073514155512,5.832808871635521,169.35670471191406,5356.25390625,True
1599559241.777634,0.0,10,0.5,0.5,-7.766479061126709,-0.001,-0.03,-0.12575,0.18628761568707913,10,1,100,-0.02992969245596276,-10,-1,-100,15031.591443051584,0.0057267247032421744,0.011766886232490628,0.9999143688399348,19.7593013898059,0.018007634724589144,-11.819079837852595,5.275861776218056,165.96347045898438,5356.25390625,True
1599559241.809563,0.0,10,0.5,0.5,-8.156163772583007,-0.001,-0.03,-0.12575,0.12803620685356706,10,1,100,-0.06357216911934543,-10,-1,-100,15031.591443051584,0.0057267247032421744,0.011766886232490628,0.9999143688399348,19.7593013898059,0.018007634724589144,-11.819079837852595,5.275861776218056,165.96347045898438,5356.25390625,True
1599559241.8416812,0.0,10,0.5,0.5,-7.790008087158204,-0.001,-0.03,-0.12575,0.17573476054268575,10,1,100,-0.032715171501168025,-10,-1,-100,15031.77406951401,0.005446807342583463,0.012198343264532707,0.9999107623740098,19.98401332620809,0.018372218983145703,-11.11242864091105,4.9045487749160355,163.35739135742188,5356.25390625,True
1599559241.8757036,0.0,10,0.5,0.5,-7.898397338867188,-0.001,-0.03,-0.12575,0.15781267663283188,10,1,100,-0.0426864803481589,-10,-1,-100,15031.829738985747,0.005283908325657232,0.012425241518372565,0.9999088426881803,20.09827175120361,0.01855579641533922,-10.753001694815655,4.71888815878417,161.95114135742188,5356.25390625,True
1599559241.9112325,0.0,10,0.5,0.5,-7.649670761108398,-0.001,-0.03,-0.12575,0.1886964100872488,10,1,100,-0.020969772423254117,-10,-1,-100,15032.061195451184,0.0049394996274602625,0.012909835337910631,0.9999044641839432,20.327132697822915,0.018918365599134877,-10.019842569428702,4.34755959665133,158.93240356445312,5356.25390625,True
1599559241.9422665,0.0,10,0.5,0.5,-7.562406845092774,-0.001,-0.03,-0.12575,0.19762205065780153,10,1,100,-0.01078934450008117,-10,-1,-100,15032.175465848763,0.004535265988588312,0.01342884436656365,0.9998995437049623,20.595219338539643,0.01930594629921208,-9.285043593923362,3.976222379515179,155.63851928710938,5356.25390625,True
1599559241.9763715,0.0,10,0.5,0.5,-7.2310124740600585,-0.001,-0.03,-0.12575,0.2401527849101932,10,1,100,0.023856183593326537,-10,-1,-100,15032.40498152189,0.0038545274574822218,0.01428452964732066,0.9998905414248274,21.00037570676674,0.01985382772845945,-8.141603496270358,3.4192033734058125,150.18206787109375,5356.25390625,True
1599559242.0142295,0.0,10,0.5,0.5,-7.846796783447266,-0.001,-0.03,-0.12575,0.15497608159699033,10,1,100,-0.043961942105239044,-10,-1,-100,15032.40498152189,0.0038545274574822218,0.01428452964732066,0.9998905414248274,21.00037570676674,0.01985382772845945,-8.141603496270358,3.4192033734058125,150.18206787109375,5356.25390625,True
1599559242.045061,0.0,10,0.5,0.5,-7.273950008392332,-0.001,-0.03,-0.12575,0.22392157145041863,10,1,100,0.013615018255786107,-10,-1,-100,15032.517304468784,0.0033333802254713494,0.014907878934258871,0.9998833150532885,21.24538348348023,0.020163772028325703,-7.342150702490531,3.0478495278952416,146.20069885253906,5356.25390625,True
1599559242.076166,0.0,10,0.5,0.5,-7.433997825622558,-0.001,-0.03,-0.12575,0.19816194342805826,10,1,100,-0.006483886599879751,-10,-1,-100,15032.620830835891,0.003044958152487199,0.015236675887152617,0.9998792786820615,21.33941805353985,0.020281561426247416,-6.925430698781513,2.862170009390954,144.10691833496094,5356.25390625,True
1599559242.109114,0.0,10,0.5,0.5,-7.064642837524414,-0.001,-0.03,-0.12575,0.24229673174845,10,1,100,0.029731527708654552,-10,-1,-100,15032.679448473384,0.0024562695921972336,0.015933121412335185,0.9998700427464312,21.45010603325016,0.02042491765004355,-6.058219617208188,2.4908047725235947,139.71324157714844,5356.25390625,True
1599559242.1438727,0.0,10,0.5,0.5,-6.637738224029541,-0.001,-0.03,-0.12575,0.2990329393432819,10,1,100,0.08105890344783259,-10,-1,-100,15032.822070504073,0.0014574588080420508,0.017078249926836132,0.9998530938059147,21.378847752931772,0.020377720849420612,-4.687784888507741,1.9337356353239237,132.60745239257812,5356.25390625,True
1599559242.178779,0.0,10,0.5,0.5,-6.787265235900878,-0.001,-0.03,-0.12575,0.27736476869959736,10,1,100,0.061076990949810665,-10,-1,-100,15032.86702833441,0.0007349839050604478,0.017917463967172274,0.9998391992133756,21.16356956562714,0.020170165645231518,-3.7493569974867613,1.5623374138841113,127.52691650390625,5356.25390625,True
1599559242.2097282,0.0,10,0.5,0.5,-7.318651199340819,-0.001,-0.03,-0.12575,0.19401527673624708,10,1,100,-0.010699317004597333,-10,-1,-100,15032.86702833441,0.0007349839050604478,0.017917463967172274,0.9998391992133756,21.16356956562714,0.020170165645231518,-3.7493569974867613,1.5623374138841113,127.52691650390625,5356.25390625,True
1599559242.245602,0.0,10,0.5,0.5,-6.536640552520751,-0.001,-0.03,-0.12575,0.29545030349527884,10,1,100,0.07812444735611931,-10,-1,-100,15032.957890965044,-6.836947601825186e-05,0.018834607644573655,0.9998226107067641,20.79010460851146,0.01980363531138691,-2.8076264688741497,1.1909210387470166,122.17198181152344,5356.25390625,True
1599559242.2880027,0.0,10,0.5,0.5,-6.016402709960937,-0.001,-0.03,-0.12575,0.3703275276946587,10,1,100,0.1361387435955067,-10,-1,-100,15032.988243828178,-0.001321540816353793,0.020343690505563214,0.9997921722970653,19.874870864695147,0.01891417384980213,-1.4283617851074726,0.6337593836310536,113.62492370605469,5356.25390625,True
1599559242.3159652,0.0,10,0.5,0.5,-6.586668334960937,-0.001,-0.03,-0.12575,0.28086155807211144,10,1,100,0.06172436357518167,-10,-1,-100,15033.036126249004,-0.0017789687557422916,0.020895970795222384,0.9997800726533268,19.468092815558137,0.018526757911305085,-0.9891048761128239,0.4480290529150599,110.63883972167969,5356.25390625,True
1599559242.3438542,0.0,10,0.5,0.5,-6.060534088134765,-0.001,-0.03,-0.12575,0.35685346370777266,10,1,100,0.12117042363552752,-10,-1,-100,15033.009830086608,-0.0027301097046320486,0.02208286889055682,0.9997524160523761,18.500522661709063,0.01762838419821519,-0.16061463246999483,0.07655646105558223,104.46128845214844,5356.25390625,True
1599559242.3770785,0.0,10,0.5,0.5,-6.700198822021484,-0.001,-0.03,-0.12575,0.23894348809865257,10,1,100,0.026714792462763252,-10,-1,-100,15033.009830086608,-0.0027301097046320486,0.02208286889055682,0.9997524160523761,18.500522661709063,0.01762838419821519,-0.16061463246999483,0.07655646105558223,104.46128845214844,5356.25390625,True
1599559242.4109554,0.0,10,0.5,0.5,-5.33536381149292,-0.001,-0.03,-0.12575,0.4575615047597513,10,1,100,0.1903337479513385,-10,-1,-100,15033.014844951336,-0.004212042490955366,0.02406378268751563,0.9997015519948054,16.784583292112973,0.016024705480605646,0.914914640086847,-0.4806633103824667,94.6812744140625,5356.25390625,True
1599559242.4438686,0.0,10,0.5,0.5,-5.986382503509521,-0.001,-0.03,-0.12575,0.3403365479925871,10,1,100,0.09954893848937557,-10,-1,-100,15033.004154653521,-0.004727340391919225,0.024790907344321815,0.9996814808557096,16.13370676065258,0.015402878333284225,1.219276858268544,-0.6664013705868064,91.28450012207031,5356.25390625,True
1599559242.48187,0.0,10,0.5,0.5,-5.828974998474121,-0.001,-0.03,-0.12575,0.34902911326233754,10,1,100,0.10355045319309669,-10,-1,-100,15032.976866497425,-0.0052256398810255475,0.025522900547568818,0.9996605795146034,15.416483341241708,0.014714936469936758,1.4898095393266828,-0.8521379764563939,87.81889343261719,5356.25390625,True
1599559242.5437043,0.0,10,0.5,0.5,-4.760835926055908,-0.001,-0.03,-0.12575,0.5535640123119356,10,1,100,0.22848730008022222,-10,-1,-100,15032.872572935536,-0.006808353389469647,0.02804008013222541,0.9995836134262618,16.972441958530503,0.016176304613274697,2.7127379554301685,-1.4093444486642146,77.01358032226562,5356.25390625,True
1599559242.5781286,0.0,10,0.5,0.5,-4.020574737548828,-0.001,-0.03,-0.12575,0.7222056552628271,10,1,100,0.2938379396839574,-10,-1,-100,15032.725453097606,-0.008834422996003212,0.031852328675862185,0.9994535417558199,19.11819871308791,0.018205181973801575,4.666819889288966,-2.1523329065132515,61.648773193359375,5356.25390625,True
1599559242.6140282,0.0,10,0.5,0.5,-5.246635540008545,-0.001,-0.03,-0.12575,0.4629118461626621,10,1,100,0.14496584929836379,-10,-1,-100,15032.71285893058,-0.00931422235580009,0.03294812466488622,0.9994136612749366,19.518935049249997,0.0185957652160808,5.175923615571992,-2.338093071115797,57.63749694824219,5356.25390625,True
1599559242.6449497,0.0,10,0.5,0.5,-4.514663650512695,-0.001,-0.03,-0.12575,0.6112248481237144,10,1,100,0.19452599173385876,-10,-1,-100,15032.603710594936,-0.010192545020592858,0.03527977238453553,0.9993254973663479,20.212585257341356,0.019275672447989698,6.211733718245446,-2.7096266892946064,49.41038513183594,5356.25390625,True
1599559242.6788871,0.0,10,0.5,0.5,-4.279039951324463,-0.001,-0.03,-0.12575,0.6459204051224398,10,1,100,0.1945349562744526,-10,-1,-100,15032.438930299832,-0.010983037116951465,0.03770128802795152,0.9992286954329929,20.591222339514935,0.01964421266369894,7.196021814269674,-3.0811735039614154,40.909088134765625,5356.25390625,True
1599559242.7117987,0.0,10,0.5,0.5,-4.587231544494628,-0.001,-0.03,-0.12575,0.5507614910696444,10,1,100,0.1526588105486463,-10,-1,-100,15032.416611328023,-0.011312606726714497,0.03902230728763817,0.9991743013423615,20.653132927639387,0.0196980560433695,7.652957109931894,-3.2669496226771946,36.5567626953125,5356.25390625,True
1599559242.747675,0.0,10,0.5,0.5,-3.801553421020508,-0.001,-0.03,-0.12575,0.7237381119165862,10,1,100,0.1787858065425279,-10,-1,-100,15032.25188116345,-0.011841931338241556,0.04178034913287361,0.9990566405807609,20.502618333428526,0.019516839563951647,8.46149325279542,-3.6385032121944585,27.6473388671875,5356.25390625,True
1599559242.7905614,0.0,10,0.5,0.5,-3.5275110664367673,-0.001,-0.03,-0.12575,0.766208166684822,10,1,100,0.16635531595916508,-10,-1,-100,15032.072534928913,-0.012201847596477758,0.044655844508033136,0.9989279105453538,19.92835765525054,0.01889390156561274,9.06465176647691,-4.010053073957115,18.464218139648438,5356.25390625,True
1599559242.8460076,0.0,10,0.5,0.5,-3.255072727203369,-0.001,-0.03,-0.12575,0.8142164388226605,10,1,100,0.13821912559469313,-10,-1,-100,15031.907868279144,-0.01226599718691954,0.04768764999413986,0.9987869809679374,18.85280938191844,0.01778315619804208,9.370288526625151,-4.381597895836945,9.008087158203125,5356.25390625,True
1599559242.8819115,0.0,10,0.5,0.5,-2.3343149490356443,-0.001,-0.03,-0.12575,1.0271117373350318,10,1,100,0.08698949045370444,-10,-1,-100,15031.652616786305,-0.011851737716225807,0.052358433383758604,0.9985580257384665,16.435875562929592,0.015448426438187324,9.208571903134741,-4.938923166083683,-5.6904296875,5356.25390625,True
1599559242.9158208,0.0,10,0.5,0.5,-3.9021254730224606,-0.001,-0.03,-0.12575,0.5627169516567765,10,1,100,0.12907804730659772,-10,-1,-100,15031.652616786305,-0.011851737716225807,0.052358433383758604,0.9985580257384665,16.435875562929592,0.015448426438187324,9.208571903134741,-4.938923166083683,-5.6904296875,5356.25390625,True
1599559242.9477358,0.0,10,0.5,0.5,-2.368410720825195,-0.001,-0.03,-0.12575,0.9092298103838568,10,1,100,0.05444745913558234,-10,-1,-100,15031.416718557943,-0.011168692928919526,0.055486442687412485,0.9983969726397192,18.18255280524094,0.017189944240721827,10.953999381982307,-5.31048187890852,-15.833251953125,5356.25390625,True
1599559242.9836361,0.0,10,0.5,0.5,-2.7554793701171874,-0.001,-0.03,-0.12575,0.7667875024218244,10,1,100,0.06831801698360714,-10,-1,-100,15031.321233164403,-0.010671717039138662,0.05701367187834158,0.9983163605162371,19.025529881410492,0.018068470353623373,11.863076797462908,-5.496263450513716,-21.00836181640625,5356.25390625,True
1599559243.0494635,0.0,10,0.5,0.5,-0.45889928436279304,-0.001,-0.03,-0.12575,1.2609203052778974,10,1,100,-0.17654629965468288,-10,-1,-100,15030.838706115843,-0.007992647447459478,0.0628723006713201,0.9979895747927809,21.17341277035632,0.020505871671620313,14.988816768219364,-6.239398409630765,-42.400177001953125,5356.25390625,True
1599559243.102475,0.0,10,0.5,0.5,-1.465023078918457,-0.001,-0.03,-0.12575,0.9718018948903298,10,1,100,-0.10178909462489696,-10,-1,-100,15030.607681353926,-0.00623874049854294,0.06554489354478925,0.9978301183303669,21.525313070124504,0.020954236536484493,16.14620506004536,-6.610964620371215,-53.5123291015625,5356.25390625,True
1599559243.1816318,0.0,10,0.5,0.5,-1.8643251953125,-0.001,-0.03,-0.12575,0.8360320127872096,10,1,100,-0.031849688436021276,-10,-1,-100,15030.453584285686,-0.0052844054163526015,0.06671493940562662,0.9977580828635263,21.45641804273314,0.02089494636094323,16.547257839262866,-6.7967469716916336,-59.15167236328125,5356.25390625,True
1599559243.2719097,0.0,10,0.5,0.5,1.3759416961669921,-0.001,-0.03,-0.12575,1.241334824522137,10,1,100,-0.5164947448517289,-10,-1,-100,15029.737618948566,-1.6444102682553463e-05,0.07143801335659812,0.9974450410810884,18.56429349551751,0.017840404736165754,16.275874492396117,-7.7256884206752,-88.04547119140625,5356.25390625,True
1599559243.3317463,0.0,10,0.5,0.5,1.9620263805389404,-0.001,-0.03,-0.12575,1.0528313398949831,10,1,100,-0.5673506092414661,-10,-1,-100,15028.907077222015,0.005224187233982774,0.0739910873933947,0.9972452190179139,20.41517827267309,0.020064245205342106,20.053921042662726,-8.654663198506839,-118.59696197509766,5356.25390625,True
1599559243.3716402,0.0,10,0.5,0.5,0.10660139656066914,-0.001,-0.03,-0.12575,0.8620287462285074,10,1,100,-0.23481189017770032,-10,-1,-100,15028.53220217512,0.006949476425980238,0.07455082635452785,0.9971929999088752,21.574871628049664,0.021492181049510627,22.104384704978727,-9.026209826392487,-131.02490234375,5356.25390625,True
1599559243.4075432,0.0,10,0.5,0.5,0.5100256652832029,-0.001,-0.03,-0.12575,0.8522695659402169,10,1,100,-0.22093718762721826,-10,-1,-100,15028.160223085666,0.008374318874052732,0.07494653906533681,0.9971523890888111,22.074766118763556,0.022142932328790825,23.54908978253113,-9.397741525527179,-143.22323608398438,5356.25390625,True
1599559243.4564126,0.0,10,0.5,0.5,0.9057207450866699,-0.001,-0.03,-0.12575,0.8439382169375849,10,1,100,-0.20367433779417599,-10,-1,-100,15027.772598435753,0.009494307867827088,0.07521000371542869,0.9971225167747623,21.96398903891137,0.021993703420958667,24.358979835854246,-9.769274100786678,-155.1919708251953,5356.25390625,True
1599559243.5860653,0.0,10,0.5,0.5,1.3494220085144044,-0.001,-0.03,-0.12575,0.8416337233087712,10,1,100,-0.17994056691641486,-10,-1,-100,15027.384956752532,0.010277312630929536,0.07540779293676693,0.9970998152690089,21.115619009386347,0.020984946536087776,24.310596779306533,-10.140826366686493,-167.02838134765625,5356.25390625,True
1599559243.7002847,0.0,10,0.5,0.5,-41.669629684448246,-0.001,-0.03,-0.12575,0.9019952280187052,10,1,100,-0.17040385991100704,-10,-1,-100,15026.274737886852,0.010882941437737282,0.07611823195330168,0.9970394056154281,19.19060051458478,0.019138728111935434,24.12327274512446,-11.069808636934285,164.20797729492188,5356.25390625,True
1599559243.945627,0.0,10,0.5,0.5,2.1972899780273436,-0.001,-0.03,-0.12575,0.9631130774227827,10,1,100,-0.03988359520445256,-10,-1,-100,15025.375527310418,0.010227370075251214,0.07730233463557493,0.9969552396979683,22.274544823394216,0.023098023076811216,29.884458896241412,-11.812869433853868,142.35711669921875,5356.25390625,True
1599559243.999513,0.0,10,0.5,0.5,0.26274930191040036,-0.001,-0.03,-0.12575,0.9503615408295361,10,1,100,-0.038330572497001086,-10,-1,-100,15024.918663919554,0.009600714068811857,0.07824975034682631,0.9968875577817332,22.89498438684577,0.024091654939454133,31.685471725070684,-12.184343443896674,131.56834411621094,5356.25390625,True
1599559244.0423677,0.0,10,0.5,0.5,0.42207032394409216,-0.001,-0.03,-0.12575,1.071704071380216,10,1,100,0.03108826003823917,-10,-1,-100,15024.166102279909,0.00838554699030357,0.0802026014013319,0.9967433096490451,22.939173529696873,0.02428381965651329,33.20268648786478,-12.741531848009839,115.22711181640625,5356.25390625,True
1599559244.1391125,0.0,10,0.5,0.5,-1.4783945808410643,-0.001,-0.03,-0.12575,0.9670417007344255,10,1,100,-0.04222645540038722,-10,-1,-100,15023.876222279156,0.007934919829822954,0.08101418293410642,0.9966813629294036,22.681585463335253,0.023967414440382848,33.30991634424589,-12.927266954314623,109.88130187988281,5356.25390625,True
1599559244.1700275,0.0,10,0.5,0.5,-1.4026738662719722,-0.001,-0.03,-0.12575,1.0932117838905202,10,1,100,0.016155078402034687,-10,-1,-100,15023.36488342646,0.006987289045789007,0.08289027947479548,0.9965341837390129,21.74460767017147,0.02283506547100584,32.85467309745335,-13.298758827224896,99.29560852050781,5356.25390625,True
1599559244.2278776,0.0,10,0.5,0.5,-1.3974370040893553,-0.001,-0.03,-0.12575,1.2886804485373524,10,1,100,0.07540504065743385,-10,-1,-100,15022.545315959956,0.005585567674516512,0.0863647194703191,0.9962479293150709,19.63187389098538,0.020563823778093973,30.910173108581056,-13.856054288367119,83.59489440917969,5356.25390625,True
1599559244.3147607,0.0,10,0.5,0.5,-1.9790411262512206,-0.001,-0.03,-0.12575,1.4106119347488641,10,1,100,0.06611575439213405,-10,-1,-100,15021.670314647257,0.0043969634928182995,0.09062102943806723,0.9958757431204095,21.01807294137772,0.022527802332909467,34.42903055137545,-14.413338963840523,67.52688598632812,5356.25390625,True
1599559244.3920872,0.0,10,0.5,0.5,-1.7992278366088867,-0.001,-0.03,-0.12575,1.7345927105922554,10,1,100,0.04506310504237693,-10,-1,-100,15020.492309107329,0.003511417735709748,0.09742143237971206,0.995237024260337,23.865000406433605,0.026692932391521703,41.11562868341719,-15.156200805741621,45.1788330078125,5356.25390625,True
1599559244.425996,0.0,10,0.5,0.5,-2.9961382675170904,-0.001,-0.03,-0.12575,1.6912343507746794,10,1,100,-0.05634580966651931,-10,-1,-100,15019.53486560937,0.0036337143539938647,0.10318925775680732,0.9946551026378907,24.56432253853175,0.027884461168624516,43.88260831153371,-15.713267172050005,27.707672119140625,5356.25390625,True
1599559244.4868383,0.0,10,0.5,0.5,-4.257942436218261,-0.001,-0.03,-0.12575,1.56286768851223,10,1,100,-0.10358038500782196,-10,-1,-100,15018.936401218525,0.004180337963061209,0.10724050983830798,0.9942243196704326,24.214561159851375,0.027480707902678057,44.284976378571294,-16.084657792691722,15.72027587890625,5356.25390625,True
1599559244.537699,0.0,10,0.5,0.5,-2.9757311401367184,-0.001,-0.03,-0.12575,1.8377673532764356,10,1,100,-0.22367122096481803,-10,-1,-100,15017.924575709854,0.005775096664981192,0.11339426115763317,0.9935332857005972,22.661223871159308,0.025647486175649686,42.887313797526765,-16.641812481907913,-2.77410888671875,5356.25390625,True
1599559244.5676172,0.0,10,0.5,0.5,-3.2596450500488277,-0.001,-0.03,-0.12575,1.6693671453828487,10,1,100,-0.23799743213419955,-10,-1,-100,15017.273510921746,0.007359163107730345,0.11742485871569432,0.9930545026703987,20.917342167884758,0.023909349827619254,40.47561389065897,-17.013289880213513,-15.44757080078125,5356.25390625,True
1599559244.6140823,0.0,10,0.5,0.5,-3.5959529418945304,-0.001,-0.03,-0.12575,1.4855247334512502,10,1,100,-0.1830825495229823,-10,-1,-100,15016.912826062413,0.008302035078274038,0.11938212992512731,0.9928136699643589,21.521241594060907,0.024869633933146677,42.10137421241249,-17.199018365301974,-21.8880615234375,5356.25390625,True
1599559244.646987,0.0,10,0.5,0.5,-2.3353536987304686,-0.001,-0.03,-0.12575,1.7014888322453945,10,1,100,-0.3241846840045322,-10,-1,-100,15016.188508938183,0.010442014012156966,0.12308915962408244,0.992340678963836,23.69504496673536,0.02816199306617323,47.360544619029504,-17.570416829395946,-34.97796630859375,5356.25390625,True
1599559244.6799242,0.0,10,0.5,0.5,-2.7040259246826173,-0.001,-0.03,-0.12575,1.5275737092789914,10,1,100,-0.2413747129078727,-10,-1,-100,15015.82975297398,0.011632352311006056,0.12483989007190165,0.992108708875468,24.478916316471306,0.02950927642808853,49.44718519330204,-17.756089092328246,-41.6273193359375,5356.25390625,True
1599559244.7168615,0.0,10,0.5,0.5,-1.4052284240722652,-0.001,-0.03,-0.12575,1.7140862100458505,10,1,100,-0.40736105928273453,-10,-1,-100,15015.105355996871,0.014219222037671958,0.12808889538543863,0.9916607527796901,25.360415968686826,0.03128623804267415,52.30493611249664,-18.127396760967176,-55.13568115234375,5356.25390625,True
1599559244.7468135,0.0,10,0.5,0.5,0.8433774871826172,-0.001,-0.03,-0.12575,1.9751208746878017,10,1,100,-0.7645460660383738,-10,-1,-100,15013.660191184841,0.019810209437543903,0.13337764791638534,0.9908672759952937,24.801785160366137,0.031160701881215735,53.26070802551749,-18.869999761360123,-82.994384765625,5356.25390625,True
1599559244.7867007,0.0,10,0.5,0.5,-2.20829067993164,-0.001,-0.03,-0.12575,1.4505212834409624,10,1,100,-0.20698865064565194,-10,-1,-100,15013.660191184841,0.019810209437543903,0.13337764791638534,0.9908672759952937,24.801785160366137,0.031160701881215735,53.26070802551749,-18.869999761360123,-82.994384765625,5356.25390625,True
1599559244.8126051,0.0,10,0.5,0.5,-0.004824588775634631,-0.001,-0.03,-0.12575,1.6782449089848834,10,1,100,-0.5137853864353984,-10,-1,-100,15012.871032592491,0.02258445358863084,0.13541517522538765,0.9905315102382056,23.30562098889138,0.029412608724425884,51.0392597500953,-19.241358223687882,-97.34504699707031,5356.25390625,True
1599559244.8495533,0.0,10,0.5,0.5,-0.5211568393707275,-0.001,-0.03,-0.12575,1.576651806766133,10,1,100,-0.3789004301953889,-10,-1,-100,15012.510099765961,0.023863038906314662,0.13631460283388422,0.990378152237011,22.309438043826315,0.028311396223758653,49.33240239522119,-19.427053237410572,-104.54903411865234,5356.25390625,True
1599559244.880195,0.0,10,0.5,0.5,-0.15779921722412094,-0.001,-0.03,-0.12575,1.5806912697985163,10,1,100,-0.38970225224248944,-10,-1,-100,15012.075897163595,0.02510569421287064,0.13714255569372497,0.9902331157540043,21.174196821121377,0.02712049910287734,47.27272763996525,-19.612753215791383,-111.71630096435547,5356.25390625,True
1599559244.9129345,0.0,10,0.5,0.5,1.0932203159332277,-0.001,-0.03,-0.12575,1.6503692498258227,10,1,100,-0.5357491270899623,-10,-1,-100,15011.286511462531,0.027545506446945926,0.13850708693515926,0.9899782987234201,23.495336010809318,0.030916784378399807,53.454760342254566,-19.98409265612447,-126.11848449707031,5356.25390625,True
1599559244.9458985,0.0,10,0.5,0.5,1.4519387092590332,-0.001,-0.03,-0.12575,1.6424459703874974,10,1,100,-0.5236308474417923,-10,-1,-100,15010.492150546866,0.029635000168995354,0.13965637440682432,0.9897564669415021,25.26950673545167,0.034168852159844734,58.566357624890365,-20.355353455292278,-140.61773681640625,5356.25390625,True
1599559244.9824777,0.0,10,0.5,0.5,2.754211250305176,-0.001,-0.03,-0.12575,1.6980045720298733,10,1,100,-0.5922056720779917,-10,-1,-100,15009.254593523801,0.03213855380837781,0.14118782826464898,0.98946102020697,26.106742794100356,0.03619186386732282,62.17329540455696,-20.912187363289878,-162.46676635742188,5356.25390625,True
1599559245.0183487,0.0,10,0.5,0.5,2.208300094604492,-0.001,-0.03,-0.12575,1.6614872988257319,10,1,100,-0.48239833229379947,-10,-1,-100,15008.390799154993,0.03339653899178173,0.14223163049841506,0.9892698491661072,25.637028457256914,0.03579256186773614,62.14670051382031,-21.283432122017594,-176.81893920898438,5356.25390625,True
1599559245.0492923,0.0,10,0.5,0.5,-43.92397311782837,-0.001,-0.03,-0.12575,1.6222842661118686,10,1,100,-0.41511078415301106,-10,-1,-100,15007.960377947893,0.033908671278431966,0.1428083397404159,0.9891693384414608,25.05120727376882,0.035087005421141466,61.26055311753934,-21.46907176282016,176.10462951660156,5356.25390625,True
1599559245.079183,0.0,10,0.5,0.5,0.6506404685974121,-0.001,-0.03,-0.12575,1.6344523433018752,10,1,100,-0.41458055331449856,-10,-1,-100,15007.528995316476,0.03435152630481774,0.1434298584400031,0.989064127520764,24.255730797907056,0.03413068653506774,59.83249805425948,-21.654723665419226,169.09716796875,5356.25390625,True
1599559245.1156578,0.0,10,0.5,0.5,1.635260124206543,-0.001,-0.03,-0.12575,1.8122806942983165,10,1,100,-0.47608387551871695,-10,-1,-100,15006.23496583919,0.035300023515327454,0.14560235843911948,0.9887132352491208,23.177312648883554,0.033644566642489084,58.65541673247201,-22.21169857446496,148.41012573242188,5356.25390625,True
1599559245.146623,0.0,10,0.5,0.5,0.07333480834960948,-0.001,-0.03,-0.12575,1.7971595794321624,10,1,100,-0.4285811030105583,-10,-1,-100,15005.302101868321,0.03571636867110049,0.1474287803845123,0.9884275874960621,25.354528332678328,0.03794004165616377,65.24655554479519,-22.582927496490406,134.73214721679688,5356.25390625,True
1599559245.1790204,0.0,10,0.5,0.5,-1.4856729202270509,-0.001,-0.03,-0.12575,1.730863657186906,10,1,100,-0.40875909838861,-10,-1,-100,15004.872830960201,0.03590272612061966,0.14847555230976786,0.9882641370723807,26.12379976595733,0.03965683427577749,67.7830467857604,-22.768514782441734,127.968994140625,5356.25390625,True
1599559245.2132025,0.0,10,0.5,0.5,-3.033693504333496,-0.001,-0.03,-0.12575,1.6274025596089376,10,1,100,-0.39132732215812355,-10,-1,-100,15004.872830960201,0.03590272612061966,0.14847555230976786,0.9882641370723807,26.12379976595733,0.03965683427577749,67.7830467857604,-22.768514782441734,127.968994140625,5356.25390625,True
1599559245.2491415,0.0,10,0.5,0.5,-2.0586343727111815,-0.001,-0.03,-0.12575,1.8862538602264463,10,1,100,-0.43140417044240964,-10,-1,-100,15003.942142189946,0.036257245621469765,0.1508184432275488,0.9878963555567775,26.98977232142296,0.04194142625858213,71.18067722000119,-23.139659389539798,114.60319519042969,5356.25390625,True
1599559245.28109,0.0,10,0.5,0.5,-3.612832672119141,-0.001,-0.03,-0.12575,1.796407260007178,10,1,100,-0.4176676444408224,-10,-1,-100,15003.495415966143,0.03644673880479677,0.15212036464509052,0.9876897437407861,27.213151969578366,0.04265335502324362,72.35009049702742,-23.325226124083752,107.90721130371094,5356.25390625,True
1599559245.312347,0.0,10,0.5,0.5,-3.4822838172912602,-0.001,-0.03,-0.12575,1.9828678320325097,10,1,100,-0.4519258324864485,-10,-1,-100,15002.564012128161,0.03692425091856719,0.15498769477923302,0.9872261210893492,27.040837065890287,0.04289887078871943,73.04592011931105,-23.696372077973525,94.35183715820312,5356.25390625,True
1599559245.34631,0.0,10,0.5,0.5,-4.206740539550781,-0.001,-0.03,-0.12575,2.0479158392370587,10,1,100,-0.48102258499921935,-10,-1,-100,15001.563457444892,0.03761851813837441,0.15817315872439067,0.9866945317332116,26.00693864600021,0.041675401445715465,71.3640345114325,-24.06755755933289,80.54049682617188,5356.25390625,True
1599559245.3820174,0.0,10,0.5,0.5,-5.827638965606689,-0.001,-0.03,-0.12575,1.9176365020398145,10,1,100,-0.46103620608620244,-10,-1,-100,15001.061296273954,0.03806413763976574,0.15987018512889906,0.9864038956394041,25.17704167975824,0.04061621665981958,69.62492265612313,-24.25316821075448,73.53492736816406,5356.25390625,True
1599559245.412934,0.0,10,0.5,0.5,-4.599390529632569,-0.001,-0.03,-0.12575,2.141416657017769,10,1,100,-0.5437565829325153,-10,-1,-100,15000.128393932246,0.039217472006577665,0.163431790682444,0.9857748422858759,23.206060788843843,0.038232195439715976,65.16665362160303,-24.624412192813267,59.321990966796875,5356.25390625,True
1599559245.44685,0.0,10,0.5,0.5,-4.221540054321288,-0.001,-0.03,-0.12575,2.1948605299020154,10,1,100,-0.6004500406085003,-10,-1,-100,14999.13021956454,0.04077692927736859,0.16713728372803036,0.98509003163504,25.626247084493645,0.04350576473798403,73.05834459573268,-24.995589999915737,44.838348388671875,5356.25390625,True
1599559245.4797623,0.0,10,0.5,0.5,-3.8618569412231434,-0.001,-0.03,-0.12575,2.241025159657926,10,1,100,-0.664367834731271,-10,-1,-100,14998.113617183757,0.04277070955578367,0.17090601501699085,0.9843585730998167,27.535502108777127,0.048148025149734985,79.67796142924436,-25.366681921444545,30.0826416015625,5356.25390625,True
1599559245.5217745,0.0,10,0.5,0.5,-4.455250457763672,-0.001,-0.03,-0.12575,2.0705855372645114,10,1,100,-0.5953686517436778,-10,-1,-100,14997.613650624757,0.04394955874456046,0.1727613403173489,0.9839827008529731,28.126838060732133,0.049793843762253376,81.98996389218229,-25.5522089876818,22.60186767578125,5356.25390625,True
1599559245.5826342,0.0,10,0.5,0.5,-1.1994953536987296,-0.001,-0.03,-0.12575,2.6488722580891144,10,1,100,-1.1179327204383338,-10,-1,-100,14995.487855009269,0.049764506965559924,0.17968307369970937,0.9824650054186661,28.230941803262354,0.05165206331704515,84.70855234111347,-26.29433153029599,-8.012420654296875,5356.25390625,True
1599559245.615523,0.0,10,0.5,0.5,-1.6383038177490237,-0.001,-0.03,-0.12575,2.438422418971867,10,1,100,-1.1262838237212627,-10,-1,-100,14993.914599383948,0.05511414103190884,0.18403400776316214,0.9813734841766122,25.726506929095383,0.04843649232513313,78.84775851889007,-26.851033906940252,-31.704681396484375,5356.25390625,True
1599559245.6544187,0.0,10,0.5,0.5,-3.1596843872070313,-0.001,-0.03,-0.12575,2.134227178690379,10,1,100,-0.7976124330329927,-10,-1,-100,14993.35787845531,0.05697238036286864,0.18519379512325512,0.9810491354278001,24.754936137936838,0.04729295740232359,76.40053759450308,-27.03661215167995,-39.744110107421875,5356.25390625,True
1599559245.683378,0.0,10,0.5,0.5,-2.699790489196777,-0.001,-0.03,-0.12575,2.1378529148850753,10,1,100,-0.8213199902184704,-10,-1,-100,14992.846026337123,0.05885855241855637,0.18625104175194765,0.9807375899054274,26.118118477052597,0.050726705613968984,81.16712362362006,-27.222160374953518,-47.853759765625,5356.25390625,True
1599559245.7162902,0.0,10,0.5,0.5,-0.1555360412597655,-0.001,-0.03,-0.12575,2.30350790433613,10,1,100,-1.2622868246646348,-10,-1,-100,14991.146045450703,0.06456210341732854,0.18868970827579343,0.9799122046352552,28.952148396186388,0.058914841730062645,91.83344877434124,-27.778661619619257,-72.60662841796875,5356.25390625,True
1599559245.7541516,0.0,10,0.5,0.5,-2.8087678985595703,-0.001,-0.03,-0.12575,2.0626929069066926,10,1,100,-0.6946260833153133,-10,-1,-100,14991.146045450703,0.06456210341732854,0.18868970827579343,0.9799122046352552,28.952148396186388,0.058914841730062645,91.83344877434124,-27.778661619619257,-72.60662841796875,5356.25390625,True
1599559245.7980664,0.0,10,0.5,0.5,0.843388938903809,-0.001,-0.03,-0.12575,2.2125313512917457,10,1,100,-1.2836671847913252,-10,-1,-100,14989.507032979978,0.06989293346185814,0.190025676385524,0.9792881190774859,29.103669182496667,0.061047958616012934,94.1839629683055,-28.33511068811169,-97.96151733398438,5356.25390625,True
1599559245.8319447,0.0,10,0.5,0.5,-1.8731378173828124,-0.001,-0.03,-0.12575,2.0815939288889957,10,1,100,-0.7536517264838936,-10,-1,-100,14989.507032979978,0.06989293346185814,0.190025676385524,0.9792881190774859,29.103669182496667,0.061047958616012934,94.1839629683055,-28.33511068811169,-97.96151733398438,5356.25390625,True
1599559245.8698435,0.0,10,0.5,0.5,0.7215638694763185,-0.001,-0.03,-0.12575,2.1307862406092477,10,1,100,-1.1076262769045595,-10,-1,-100,14988.363288605236,0.07308441482551466,0.19045207158965585,0.9789722553457889,27.706851357807157,0.05913421174855111,90.85246315460485,-28.7061329150209,-115.05265808105469,5356.25390625,True
1599559245.8987653,0.0,10,0.5,0.5,1.171635608673096,-0.001,-0.03,-0.12575,2.115751402864527,10,1,100,-1.0911061006715037,-10,-1,-100,14987.165651166462,0.07580802018556577,0.19068525410793946,0.978719713677688,25.355908279026547,0.0554159313407028,84.23219226001869,-29.077205723557416,-132.12466430664062,5356.25390625,True
1599559245.9286861,0.0,10,0.5,0.5,2.7486337661743168,-0.001,-0.03,-0.12575,2.111462674365874,10,1,100,-1.191959587370138,-10,-1,-100,14985.382158323657,0.07917191269974437,0.19084195530749082,0.9784227901750233,28.420618722436302,0.06494950735239628,96.24142048552457,-29.633681784102738,-157.84161376953125,5356.25390625,True
1599559245.9556131,0.0,10,0.5,0.5,2.124005088806152,-0.001,-0.03,-0.12575,2.127087033733763,10,1,100,-1.048608895812266,-10,-1,-100,14984.22731688153,0.08090007469325863,0.1911163061362385,0.9782278545632733,29.728057486114817,0.06958073869586448,101.94335073268155,-30.004573141008116,-174.88137817382812,5356.25390625,True
1599559245.982543,0.0,10,0.5,0.5,-44.151054016113285,-0.001,-0.03,-0.12575,2.1243707533282308,10,1,100,-0.9597746266689055,-10,-1,-100,14983.59865055466,0.08164010502818528,0.19133458406925605,0.9781236988183201,29.861137052829047,0.07055580291333964,103.0403278696403,-30.190018350615542,176.69131469726562,5356.25390625,True
1599559246.0633268,0.0,10,0.5,0.5,0.4693869934082031,-0.001,-0.03,-0.12575,2.1357652955911313,10,1,100,-0.9620390082873687,-10,-1,-100,14983.014935696381,0.08231101996131797,0.19163102276625654,0.9780094309905636,29.80233628998974,0.07102023245272006,103.47731564395148,-30.375471265220007,168.33248901367188,5356.25390625,True
1599559246.093247,0.0,10,0.5,0.5,0.8724279975891114,-0.001,-0.03,-0.12575,2.201353022875055,10,1,100,-1.0283583296767995,-10,-1,-100,14981.748018571292,0.08350252512448546,0.19249187366518875,0.977739334828409,28.747976948881295,0.06973820255754712,101.05247497823552,-30.746415554137418,151.7429656982422,5356.25390625,True
1599559246.1490984,0.0,10,0.5,0.5,0.23596296310424814,-0.001,-0.03,-0.12575,2.25472968801613,10,1,100,-1.0327107635571913,-10,-1,-100,14980.535998385982,0.08460806065199841,0.1937562512878738,0.9773944910626303,26.743852281650295,0.06643865611211118,95.15841334056303,-31.117406157812,134.99569702148438,5356.25390625,True
1599559246.1820111,0.0,10,0.5,0.5,1.7417714653015137,-0.001,-0.03,-0.12575,2.5408050293179842,10,1,100,-1.2041135168159123,-10,-1,-100,14977.986775186611,0.08715307620005795,0.1975017644630479,0.9764207056094465,30.304804259902816,0.07977556838487569,110.43280089591312,-31.859175493580867,101.58674621582031,5356.25390625,True
1599559246.2149556,0.0,10,0.5,0.5,-0.9778913879394531,-0.001,-0.03,-0.12575,2.42825630166511,10,1,100,-1.139090244485192,-10,-1,-100,14976.708195195766,0.08885991500188899,0.1998768097453823,0.9757833655232422,31.076183161120262,0.08363031176997499,114.5788261979321,-32.22996882804307,85.17524719238281,5356.25390625,True
1599559246.2508256,0.0,10,0.5,0.5,-3.5910476837158205,-0.001,-0.03,-0.12575,2.191736886767656,10,1,100,-0.9703030624560917,-10,-1,-100,14976.708195195766,0.08885991500188899,0.1998768097453823,0.9757833655232422,31.076183161120262,0.08363031176997499,114.5788261979321,-32.22996882804307,85.17524719238281,5356.25390625,True
1599559246.2867281,0.0,10,0.5,0.5,-1.1140732917785647,-0.001,-0.03,-0.12575,2.6238895019264463,10,1,100,-1.3459233081714566,-10,-1,-100,14974.77078707586,0.0922603031445956,0.20379690193941155,0.9746562774760984,30.319560655937938,0.08387055920221845,113.74683114593165,-32.786206757548975,60.8939208984375,5356.25390625,True
1599559246.314655,0.0,10,0.5,0.5,-2.678786212921142,-0.001,-0.03,-0.12575,2.525896284679628,10,1,100,-1.3275851756045927,-10,-1,-100,14973.435161489411,0.09516989817557646,0.20645785500643846,0.9738161246289728,28.51712358430402,0.08066818121836954,108.21421219610167,-33.15709461056674,44.58055114746094,5356.25390625,True
1599559246.3478327,0.0,10,0.5,0.5,-3.237177646636964,-0.001,-0.03,-0.12575,2.539448518229031,10,1,100,-1.4170891121026152,-10,-1,-100,14972.08500810212,0.09861411309419942,0.208985909099913,0.9729337832022935,28.185442346553284,0.08201402180139793,108.16977958112327,-33.52798127572673,28.010284423828125,5356.25390625,True
1599559246.3839006,0.0,10,0.5,0.5,-4.866413623809814,-0.001,-0.03,-0.12575,2.4167690498512373,10,1,100,-1.284750424478267,-10,-1,-100,14971.44364214351,0.10052603491599808,0.21015262710603383,0.9724867040862306,29.63778884112499,0.08751833236687118,114.38123591691848,-33.71337710629576,19.622512817382812,5356.25390625,True
1599559246.4147837,0.0,10,0.5,0.5,-5.449969497680664,-0.001,-0.03,-0.12575,2.3019790535428313,10,1,100,-1.0954468352871816,-10,-1,-100,14971.44364214351,0.10052603491599808,0.21015262710603383,0.9724867040862306,29.63778884112499,0.08751833236687118,114.38123591691848,-33.71337710629576,19.622512817382812,5356.25390625,True
1599559246.4478161,0.0,10,0.5,0.5,-2.851044895172119,-0.001,-0.03,-0.12575,2.5307013598494783,10,1,100,-1.5550689064199674,-10,-1,-100,14970.096439008834,0.10468785827633734,0.21221508297760355,0.9715993057255251,31.691749896491256,0.09610022145934524,123.67118763696756,-34.08409880775156,2.637939453125,5356.25390625,True
1599559246.4818425,0.0,10,0.5,0.5,-2.3510368499755856,-0.001,-0.03,-0.12575,2.5025173969369607,10,1,100,-1.6394878831290705,-10,-1,-100,14968.689562711865,0.10921951990749955,0.2138158948259055,0.9707491228896232,32.4646564016126,0.10057637464346095,128.08479317666502,-34.454789713321745,-14.62835693359375,5356.25390625,True
1599559246.5208356,0.0,10,0.5,0.5,-1.8488940887451175,-0.001,-0.03,-0.12575,2.4603061104138484,10,1,100,-1.7138398527645284,-10,-1,-100,14967.283471587696,0.11399276524228254,0.21486920331638984,0.9699674607627813,32.132867569625475,0.1015131234843895,128.16163400960448,-34.825507754534556,-32.1787109375,5356.25390625,True
1599559246.6634872,0.0,10,0.5,0.5,-2.528731742858886,-0.001,-0.03,-0.12575,2.3904062408500777,10,1,100,-1.5066356231139293,-10,-1,-100,14966.631111349678,0.11642400465067779,0.21517551454911102,0.9696107203819605,31.44106674914071,0.10040390759928526,126.08126900550401,-35.01088663681686,-41.060943603515625,5356.25390625,True
1599559246.6874204,0.0,10,0.5,0.5,-2.132066368103027,-0.001,-0.03,-0.12575,2.3785019423834903,10,1,100,-1.5340639428728182,-10,-1,-100,14965.92105937202,0.11885851239280083,0.21533185049752154,0.9692805827999874,30.496032801761146,0.09857703360594816,122.95023984683847,-35.19627762380935,-50.0147705078125,5356.25390625,True
