Timestamp,Input Throttle,horizon,dT,dt,Input Roll,Roll P,Roll I,Roll D,Input Pitch,Pitch P,Pitch I,Pitch D,Input Yaw,Yaw P,Yaw I,Yaw D,Altitude,Direction X,Direction Y,Direction Z,Drag X,Drag Y,Drag Z,Vertical Velocity,Roll,Mass,Has Fuel
1599558578.0486116,0.0,10,0.5,0.5,-0.05828061676025391,-0.001,-0.00825,-0.12575,-0.0005578948495957862,10,1,100,0.1711131520415427,-10,-1,-100,14993.98025866237,-0.01677414206099813,-7.664744393681298e-05,0.9998593012435735,28.6491061408056,0.027034391418121403,-87.51386475409313,27.009298028739288,-31.79229736328125,5356.25390625,True
1599558578.0785313,0.0,10,0.5,0.5,-0.10644953918457033,-0.001,-0.00825,-0.12575,1.6498007982125584e-05,10,1,100,0.18119191183919664,-10,-1,-100,14995.54862284998,-0.016881170033935543,-6.94598331027772e-05,0.9998575004837523,28.431413498284098,0.027525498356005228,-85.05968891752914,26.451407203601153,-31.790557861328125,5356.25390625,True
1599558578.112442,0.0,10,0.5,0.5,-0.1540911262512207,-0.001,-0.00825,-0.12575,0.003139431428503871,10,1,100,0.17410509667666563,-10,-1,-100,14996.083780432935,-0.01689869608055206,-3.447219230972627e-05,0.9998572062461945,28.35891466871984,0.027686184160886848,-84.24791365590892,26.265451476675537,-31.791839599609375,5356.25390625,True
1599558578.146352,0.0,10,0.5,0.5,-0.20037093048095703,-0.001,-0.00825,-0.12575,0.0077574190361420665,10,1,100,0.1779953543554177,-10,-1,-100,14997.119915666757,-0.016934632378118864,3.934779774640338e-05,0.9998565980569257,28.216087596308586,0.028004635318037208,-82.63984185585326,25.893551683780743,-31.806854248046875,5356.25390625,True
1599558578.1822882,0.0,10,0.5,0.5,-0.24426120376586918,-0.001,-0.00825,-0.12575,0.012125386224225905,10,1,100,0.17801610539049323,-10,-1,-100,14998.135541365715,-0.0169520952649729,0.00014612990150933213,0.999856292230128,28.077115931166098,0.028319450360724585,-81.05487932651661,25.52166731551016,-31.854248046875,5356.25390625,True
1599558578.2122076,0.0,10,0.5,0.5,-0.2930543785095215,-0.001,-0.00825,-0.12575,0.009457508796929744,10,1,100,0.17762905250786576,-10,-1,-100,14998.617963133147,-0.01694904095839362,0.0002188182647715665,0.9998563307441514,28.009581742616717,0.028475629692976394,-80.2723603021439,25.33573080741666,-31.894775390625,5356.25390625,True
1599558578.3228788,0.0,10,0.5,0.5,-0.34608750228881835,-0.001,-0.00825,-0.12575,0.002210554297183464,10,1,100,0.1796293872616333,-10,-1,-100,14998.617963133147,-0.01694904095839362,0.0002188182647715665,0.9998563307441514,28.009581742616717,0.028475629692976394,-80.2723603021439,25.33573080741666,-31.894775390625,5356.25390625,True
1599558578.3807237,0.0,10,0.5,0.5,-0.35411709365844724,-0.001,-0.00825,-0.12575,0.048440692122856066,10,1,100,0.17150015241983407,-10,-1,-100,15000.637490969151,-0.016859730604415087,0.0006388933193097069,0.9998576605193727,27.75517893619791,0.029090879246279858,-77.21435471677667,24.592022145156594,-32.209625244140625,5356.25390625,True
1599558578.4126685,0.0,10,0.5,0.5,-0.38401481781005864,-0.001,-0.00825,-0.12575,0.05648283155294213,10,1,100,0.16572689573165728,-10,-1,-100,15002.06912620063,-0.016710728193992618,0.0010933092788730627,0.9998597682865569,27.583870991166147,0.02953920811295228,-75.00181512507764,24.034278575988445,-32.662261962890625,5356.25390625,True
1599558578.4455516,0.0,10,0.5,0.5,-0.48823751907348634,-0.001,-0.00825,-0.12575,0.011150566524493859,10,1,100,0.18229820959330342,-10,-1,-100,15002.06912620063,-0.016710728193992618,0.0010933092788730627,0.9998597682865569,27.583870991166147,0.02953920811295228,-75.00181512507764,24.034278575988445,-32.662261962890625,5356.25390625,True
1599558578.4804575,0.0,10,0.5,0.5,-0.4509109268188477,-0.001,-0.00825,-0.12575,0.07151340689427924,10,1,100,0.15692787090984256,-10,-1,-100,15003.499781638617,-0.016464897180330253,0.0016410684556175906,0.9998630976564566,27.430331331618316,0.029969093080502187,-72.85796093327887,23.476566133776934,-33.3299560546875,5356.25390625,True
1599558578.5163608,0.0,10,0.5,0.5,-0.45914390716552733,-0.001,-0.00825,-0.12575,0.06508791902061309,10,1,100,0.15935522168283897,-10,-1,-100,15004.447040222469,-0.01626376239755595,0.002079056257534238,0.9998655747438022,27.33758917336411,0.030240916210317402,-71.46455505694995,23.104774377896902,-33.91741943359375,5356.25390625,True
1599558578.546962,0.0,10,0.5,0.5,-0.4407723640441895,-0.001,-0.00825,-0.12575,0.0717402898467991,10,1,100,0.15086838978751216,-10,-1,-100,15005.325938738999,-0.01600432085747305,0.002535749888523211,0.9998687072243004,27.25252120752128,0.030496934240506725,-70.09862594774229,22.73299557983239,-34.63134765625,5356.25390625,True
1599558578.5788789,0.0,10,0.5,0.5,-0.47702350463867194,-0.001,-0.00825,-0.12575,0.05348170571119489,10,1,100,0.1608794559389981,-10,-1,-100,15005.792731712805,-0.015860287672613993,0.002782602222661482,0.9998703457947996,27.212448990312748,0.030617462712076497,-69.42460141102761,22.547110906339547,-35.03515625,5356.25390625,True
1599558578.6128283,0.0,10,0.5,0.5,-0.4109178718566895,-0.001,-0.00825,-0.12575,0.08593418303424978,10,1,100,0.13960234760717924,-10,-1,-100,15006.67260505876,-0.015536896833094229,0.0032995420889741227,0.9998738509726118,27.136141438232,0.030839850302482586,-68.09118525613,22.17535086521945,-35.936309814453125,5356.25390625,True
1599558578.6486907,0.0,10,0.5,0.5,-0.520870231628418,-0.001,-0.00825,-0.12575,0.03455553762173219,10,1,100,0.1717999117159678,-10,-1,-100,15006.67260505876,-0.015536896833094229,0.0032995420889741227,0.9998738509726118,27.136141438232,0.030839850302482586,-68.09118525613,22.17535086521945,-35.936309814453125,5356.25390625,True
1599558578.68064,0.0,10,0.5,0.5,-0.31621280746459957,-0.001,-0.00825,-0.12575,0.126636382722405,10,1,100,0.10836538102714979,-10,-1,-100,15008.016340166912,-0.014961503048764337,0.0041338400227764185,0.9998795251394981,27.027482893845704,0.03111460715081341,-66.1171661699831,21.617733857670693,-37.524658203125,5356.25390625,True
1599558578.7155154,0.0,10,0.5,0.5,-0.43608770065307617,-0.001,-0.00825,-0.12575,0.07664701695485203,10,1,100,0.1422198857329061,-10,-1,-100,15008.428444453515,-0.01474799286752552,0.0044342847994752925,0.9998814098805401,26.99164939929139,0.03118694600401184,-65.46310964084941,21.431867629115654,-38.118072509765625,5356.25390625,True
1599558578.7464669,0.0,10,0.5,0.5,-0.34311172256469735,-0.001,-0.00825,-0.12575,0.11276321414109622,10,1,100,0.11150378352269846,-10,-1,-100,15009.289762099972,-0.01427657517152188,0.00503229512409452,0.9998854211394202,26.918801270986222,0.03129709144127081,-64.15665318107821,21.060144462389385,-39.401885986328125,5356.25390625,True
1599558578.7825258,0.0,10,0.5,0.5,-0.323340518951416,-0.001,-0.00825,-0.12575,0.12136438851797685,10,1,100,0.10090995381219611,-10,-1,-100,15010.113970466424,-0.013753918953261704,0.005650552471860713,0.9998894443738217,26.841746911587997,0.031354574780556865,-62.84641227903247,20.688433524316377,-40.787689208984375,5356.25390625,True
1599558578.8137245,0.0,10,0.5,0.5,-0.3981408180236817,-0.001,-0.00825,-0.12575,0.09413418786680657,10,1,100,0.12196431476146319,-10,-1,-100,15010.511425971636,-0.013472868226419183,0.005960914379189352,0.9998914687712449,26.800641225408654,0.03136123308410025,-62.1877168355145,20.50258284732778,-41.51953125,5356.25390625,True
1599558578.8466058,0.0,10,0.5,0.5,-0.2888286323547363,-0.001,-0.00825,-0.12575,0.13201288682712234,10,1,100,0.08344429856473057,-10,-1,-100,15011.319032739848,-0.01286990562655015,0.006583486243742284,0.9998955061595396,26.711712503008,0.031326550519323086,-60.860164300537,20.130891247192157,-43.054718017578125,5356.25390625,True
1599558578.8801308,0.0,10,0.5,0.5,-0.4743400970458984,-0.001,-0.00825,-0.12575,0.07020614337044999,10,1,100,0.14340117287453333,-10,-1,-100,15011.319032739848,-0.01286990562655015,0.006583486243742284,0.9998955061595396,26.711712503008,0.031326550519323086,-60.860164300537,20.130891247192157,-43.054718017578125,5356.25390625,True
1599558578.915558,0.0,10,0.5,0.5,-0.26095015792846676,-0.001,-0.00825,-0.12575,0.1399991651558749,10,1,100,0.07091364127474943,-10,-1,-100,15012.128592776833,-0.012213777534943862,0.007214288499650493,0.9998993837780733,26.61155926602691,0.031222958281252343,-59.51493535072576,19.759212905855442,-44.683441162109375,5356.25390625,True
1599558578.9464695,0.0,10,0.5,0.5,-0.2398617294311524,-0.001,-0.00825,-0.12575,0.14447293897399455,10,1,100,0.05817492057245208,-10,-1,-100,15012.866863887059,-0.011504805909042416,0.007824386961298144,0.9999032045201551,26.49746523392221,0.031045510772663397,-58.14748950412677,19.387548626529796,-46.40289306640625,5356.25390625,True
1599558578.9794676,0.0,10,0.5,0.5,-0.0953073799133301,-0.001,-0.00825,-0.12575,0.18693649961359,10,1,100,0.0007530146061418969,-10,-1,-100,15014.057280424051,-0.010341934459369238,0.008760940800544764,0.9999081409349199,26.29381904937786,0.030631545141592078,-56.04494786033746,18.83007966368938,-49.181121826171875,5356.25390625,True
1599558579.0138257,0.0,10,0.5,0.5,-0.1853485725402832,-0.001,-0.00825,-0.12575,0.15840515745832726,10,1,100,0.024660867340825343,-10,-1,-100,15014.795554168755,-0.009506845404866857,0.00934801263598333,0.9999111133246822,26.13232596237958,0.0302517670656004,-54.603719023930516,18.458453471736764,-51.140838623046875,5356.25390625,True
1599558579.0492024,0.0,10,0.5,0.5,-0.4205496109008789,-0.001,-0.00825,-0.12575,0.10021939117579141,10,1,100,0.10762430702667367,-10,-1,-100,15014.795554168755,-0.009506845404866857,0.00934801263598333,0.9999111133246822,26.13232596237958,0.0302517670656004,-54.603719023930516,18.458453471736764,-51.140838623046875,5356.25390625,True
1599558579.0800228,0.0,10,0.5,0.5,-0.02609387664794921,-0.001,-0.00825,-0.12575,0.18955286859257675,10,1,100,-0.03938335448056357,-10,-1,-100,15015.860973652801,-0.008175176797948935,0.010155668132648189,0.9999150108329717,25.847340422427926,0.02952643339923818,-52.38066446582049,17.90104657734314,-54.16815185546875,5356.25390625,True
1599558579.1129377,0.0,10,0.5,0.5,-0.12741099777221682,-0.001,-0.00825,-0.12575,0.16826608260773215,10,1,100,-0.012053618907685262,-10,-1,-100,15016.546515606227,-0.007218567840843876,0.010691726554291698,0.9999167861685367,25.626143203686766,0.02894251309041124,-50.856640247947375,17.529465220405868,-56.276123046875,5356.25390625,True
1599558579.1462593,0.0,10,0.5,0.5,-0.379710417175293,-0.001,-0.00825,-0.12575,0.11516435785162436,10,1,100,0.08295374169157892,-10,-1,-100,15016.546515606227,-0.007218567840843876,0.010691726554291698,0.9999167861685367,25.626143203686766,0.02894251309041124,-50.856640247947375,17.529465220405868,-56.276123046875,5356.25390625,True
1599558579.1833024,0.0,10,0.5,0.5,0.045259989929199274,-0.001,-0.00825,-0.12575,0.18616689897300098,10,1,100,-0.07891380146189036,-10,-1,-100,15017.596314256894,-0.005752730448890133,0.011332903462508665,0.999919232434046,25.240635207810694,0.027922656975612494,-48.502236243390364,16.972131066290874,-59.53289794921875,5356.25390625,True
1599558579.2132676,0.0,10,0.5,0.5,-0.06606219863891599,-0.001,-0.00825,-0.12575,0.16884318201810616,10,1,100,-0.04823631067337183,-10,-1,-100,15018.266234170995,-0.004705507440807498,0.011753985572917076,0.9999198477992504,24.94751144349586,0.02715940270745954,-46.891737908759715,16.60060167970523,-61.7784423828125,5356.25390625,True
1599558579.2465508,0.0,10,0.5,0.5,-0.3329923385620117,-0.001,-0.00825,-0.12575,0.1272520209101825,10,1,100,0.05566955031631734,-10,-1,-100,15018.266234170995,-0.004705507440807498,0.011753985572917076,0.9999198477992504,24.94751144349586,0.02715940270745954,-46.891737908759715,16.60060167970523,-61.7784423828125,5356.25390625,True
1599558579.2794745,0.0,10,0.5,0.5,0.11625715560913086,-0.001,-0.00825,-0.12575,0.17789027691026665,10,1,100,-0.11640406872491166,-10,-1,-100,15019.263303268584,-0.0031480275132455405,0.01221020635739669,0.9999204972313978,24.46905398121905,0.025931444801432613,-44.45173315383386,16.043349862953832,-65.2115478515625,5356.25390625,True
1599558579.3167868,0.0,10,0.5,0.5,-0.002868404388427781,-0.001,-0.00825,-0.12575,0.16337201574830432,10,1,100,-0.08270327013806554,-10,-1,-100,15019.86193696782,-0.002046104637520359,0.012488981224182046,0.9999199161951893,24.139494899987955,0.025090193104452565,-42.83976834622226,15.671877708727541,-67.5552978515625,5356.25390625,True
1599558579.3466022,0.0,10,0.5,0.5,0.017674369812011703,-0.001,-0.00825,-0.12575,0.1545109169776057,10,1,100,-0.08917439262937243,-10,-1,-100,15020.514283250668,-0.0009930698458690847,0.012658468350231803,0.9999193852462844,23.774115162213135,0.024216106276203242,-41.1934161498039,15.300429215324804,-69.92303466796875,5356.25390625,True
1599558579.3798103,0.0,10,0.5,0.5,-0.11488924026489261,-0.001,-0.00825,-0.12575,0.14595862545601151,10,1,100,-0.04406174643093475,-10,-1,-100,15020.771120398422,-0.00045362025122553957,0.012731789945795045,0.999918844583621,23.58018213932176,0.023773353776639913,-40.36250026761662,15.114714031553202,-71.10397338867188,5356.25390625,True
1599558579.4138012,0.0,10,0.5,0.5,-0.24692269821166996,-0.001,-0.00825,-0.12575,0.13896484363066844,10,1,100,0.008977890518055628,-10,-1,-100,15020.771120398422,-0.00045362025122553957,0.012731789945795045,0.999918844583621,23.58018213932176,0.023773353776639913,-40.36250026761662,15.114714031553202,-71.10397338867188,5356.25390625,True
1599558579.4487965,0.0,10,0.5,0.5,0.06628967285156248,-0.001,-0.00825,-0.12575,0.14963867911614515,10,1,100,-0.10943527232973942,-10,-1,-100,15021.371709843865,0.0006158434505301214,0.01282648288492379,0.9999175476376276,23.169804333892838,0.022884742673468295,-38.68750024081625,14.74330162968342,-73.46484375,5356.25390625,True
1599558579.4794745,0.0,10,0.5,0.5,-0.06624932098388672,-0.001,-0.00825,-0.12575,0.14325835363550599,10,1,100,-0.06237570567048202,-10,-1,-100,15021.697883515852,0.0011531467449589514,0.012852623728552628,0.9999167366915492,22.953647047468415,0.022442467120005773,-37.84483214895921,14.557604344081788,-74.6495361328125,5356.25390625,True
1599558579.5125728,0.0,10,0.5,0.5,0.40941906738281253,-0.001,-0.00825,-0.12575,0.13425750628500882,10,1,100,-0.240324397427257,-10,-1,-100,15022.81312805647,0.0032517090153323853,0.012792597794870452,0.9999128841204808,22.00432784594054,0.020712358515497624,-34.43231578052487,13.814873382645183,-79.45809936523438,5356.25390625,True
1599558579.5465384,0.0,10,0.5,0.5,-0.17881946792602538,-0.001,-0.00825,-0.12575,0.1404060690864627,10,1,100,-0.03136861433633589,-10,-1,-100,15022.81312805647,0.0032517090153323853,0.012792597794870452,0.9999128841204808,22.00432784594054,0.020712358515497624,-34.43231578052487,13.814873382645183,-79.45809936523438,5356.25390625,True
1599558579.582496,0.0,10,0.5,0.5,0.14240238037109376,-0.001,-0.00825,-0.12575,0.12772447825176755,10,1,100,-0.14612909655380718,-10,-1,-100,15023.324853353784,0.004287752293258361,0.012676366412535084,0.9999104584485786,21.482151948157192,0.01989413654276468,-32.71341853263738,13.443541241019993,-81.8773193359375,5356.25390625,True
1599558579.6126254,0.0,10,0.5,0.5,0.3036178497314453,-0.001,-0.00825,-0.12575,0.10756808910432816,10,1,100,-0.2011488287490393,-10,-1,-100,15024.110995645751,0.005721613511571298,0.012386623090126557,0.9999069130210309,20.65257616574371,0.018762475123086892,-30.14956035556483,12.886580611362792,-85.41854858398438,5356.25390625,True
1599558579.6465373,0.0,10,0.5,0.5,0.022670957183837867,-0.001,-0.00825,-0.12575,0.12302184562776146,10,1,100,-0.10902590054385719,-10,-1,-100,15024.368811287102,0.006179579234513388,0.012263548386574808,0.9999057046449203,20.365936528588605,0.01841517583392852,-29.303571472820078,12.700936124309717,-86.58377075195312,5356.25390625,True
1599558579.68047,0.0,10,0.5,0.5,0.18310704956054685,-0.001,-0.00825,-0.12575,0.10417348376626509,10,1,100,-0.158994108453559,-10,-1,-100,15024.88346580998,0.00704269025102891,0.011980518487184712,0.9999034291824419,19.778162270169837,0.01776799220599909,-27.627388580008926,12.329659010456718,-88.8817138671875,5356.25390625,True
1599558579.7167776,0.0,10,0.5,0.5,-0.09021838684082031,-0.001,-0.00825,-0.12575,0.13240867871896997,10,1,100,-0.07348658281169658,-10,-1,-100,15024.88346580998,0.00704269025102891,0.011980518487184712,0.9999034291824419,19.778162270169837,0.01776799220599909,-27.627388580008926,12.329659010456718,-88.8817138671875,5356.25390625,True
1599558579.7468288,0.0,10,0.5,0.5,0.21144118614196777,-0.001,-0.00825,-0.12575,0.09547245026534573,10,1,100,-0.16707807311306072,-10,-1,-100,15025.342456100509,0.00788670715331199,0.011645417566205046,0.9999010871581181,19.668851509686355,0.01762903767606659,-26.648731779725402,11.95839322950307,-91.14595794677734,5356.25390625,True
1599558579.7803984,0.0,10,0.5,0.5,0.36674252223968506,-0.001,-0.00825,-0.12575,0.06511202237116018,10,1,100,-0.20945066644214932,-10,-1,-100,15026.043636199203,0.009031618524375106,0.011065764086621473,0.9998979841623891,20.12704043447402,0.018107393970433195,-26.00150989060205,11.40149837771298,-94.48714447021484,5356.25390625,True
1599558579.8134072,0.0,10,0.5,0.5,0.2452192001342773,-0.001,-0.00825,-0.12575,0.07490977376400582,10,1,100,-0.17272702213004293,-10,-1,-100,15026.488953578053,0.009730945026982567,0.010629477498569823,0.9998961560667133,20.398619929384004,0.018471381304372796,-25.49546362530001,11.03023581888116,-96.70637512207031,5356.25390625,True
1599558579.8491852,0.0,10,0.5,0.5,-0.015652162170410155,-0.001,-0.00825,-0.12575,0.11831611794617254,10,1,100,-0.1036521516974992,-10,-1,-100,15026.488953578053,0.009730945026982567,0.010629477498569823,0.9998961560667133,20.398619929384004,0.018471381304372796,-25.49546362530001,11.03023581888116,-96.70637512207031,5356.25390625,True
1599558579.8796208,0.0,10,0.5,0.5,0.4041821136474609,-0.001,-0.00825,-0.12575,0.042108585356569736,10,1,100,-0.20490228746867326,-10,-1,-100,15027.136420386378,0.010645510592164467,0.009938648220751889,0.9998939425637982,20.748075902585796,0.019057992127095382,-24.62464511006085,10.473340001907815,-99.90641021728516,5356.25390625,True
1599558579.913814,0.0,10,0.5,0.5,0.01864755687713623,-0.001,-0.00825,-0.12575,0.11090611818095128,10,1,100,-0.11418511110816643,-10,-1,-100,15027.136420386378,0.010645510592164467,0.009938648220751889,0.9998939425637982,20.748075902585796,0.019057992127095382,-24.62464511006085,10.473340001907815,-99.90641021728516,5356.25390625,True
1599558579.9472017,0.0,10,0.5,0.5,0.42614948654174806,-0.001,-0.00825,-0.12575,0.026893990293273412,10,1,100,-0.20244810103847383,-10,-1,-100,15027.766307233716,0.011442121629440983,0.009177390438310984,0.9998924208920478,21.04843623765261,0.019682656097357285,-23.65432035073067,9.916439761027156,-103.00406646728516,5356.25390625,True
1599558579.9814165,0.0,10,0.5,0.5,0.05112726535797119,-0.001,-0.00825,-0.12575,0.10269884527218236,10,1,100,-0.12335904812260917,-10,-1,-100,15027.766307233716,0.011442121629440983,0.009177390438310984,0.9998924208920478,21.04843623765261,0.019682656097357285,-23.65432035073067,9.916439761027156,-103.00406646728516,5356.25390625,True
1599558580.0139945,0.0,10,0.5,0.5,0.5571280078887939,-0.001,-0.00825,-0.12575,-0.01196039178995395,10,1,100,-0.21365228586352517,-10,-1,-100,15028.515332058189,0.012258185115817558,0.008137839335880893,0.9998917503753143,21.392679806164654,0.020539933362545143,-22.242740188880102,9.173895499773648,-106.8893051147461,5356.25390625,True
1599558580.0471869,0.0,10,0.5,0.5,0.20076311931610108,-0.001,-0.00825,-0.12575,0.06076866607750569,10,1,100,-0.15143621759207834,-10,-1,-100,15028.702831867733,0.012429719032906029,0.007857459477149812,0.9998918753621953,21.456973502683887,0.02074003626671052,-21.858552222235147,8.988257414785501,-107.81512451171875,5356.25390625,True
1599558580.0805514,0.0,10,0.5,0.5,0.3294820562362671,-0.001,-0.00825,-0.12575,0.03035775079996282,10,1,100,-0.16551630824088587,-10,-1,-100,15029.009471309371,0.012708762482719365,0.007329854065789379,0.9998923745061424,21.593285509869457,0.021149170148582707,-21.089526320693516,8.616978556563957,-109.62593841552734,5356.25390625,True
1599558580.1167173,0.0,10,0.5,0.5,0.11701819171905517,-0.001,-0.00825,-0.12575,0.08268673558596448,10,1,100,-0.13809416879249306,-10,-1,-100,15029.009471309371,0.012708762482719365,0.007329854065789379,0.9998923745061424,21.593285509869457,0.021149170148582707,-21.089526320693516,8.616978556563957,-109.62593841552734,5356.25390625,True
1599558580.1467702,0.0,10,0.5,0.5,0.34904962024688724,-0.001,-0.00825,-0.12575,0.02250976265073823,10,1,100,-0.16290237299141289,-10,-1,-100,15029.382515586214,0.012930948753656505,0.006786186957306261,0.9998933634297764,21.71910386169332,0.021545085537416842,-20.299120938684307,8.245696211764297,-111.35802459716797,5356.25390625,True
1599558580.1800094,0.0,10,0.5,0.5,0.3530298301696777,-0.001,-0.00825,-0.12575,0.018877015580324286,10,1,100,-0.1582959756914659,-10,-1,-100,15029.68817594822,0.013088150839302865,0.006262413058537175,0.99989473570486,21.81850961709274,0.0219065273722608,-19.474455980980768,7.874410601973806,-113.01248168945312,5356.25390625,True
1599558580.2143378,0.0,10,0.5,0.5,0.4588370719909668,-0.001,-0.00825,-0.12575,-0.016837377022243027,10,1,100,-0.15665384763259196,-10,-1,-100,15030.110042761778,0.01321308138407132,0.005465548730941969,0.9998977659027984,21.92119049412789,0.02237741723243436,-18.183088496350855,7.317476053307001,-115.38252258300781,5356.25390625,True
1599558580.2496378,0.0,10,0.5,0.5,0.26889098415374757,-0.001,-0.00825,-0.12575,0.034445005085891794,10,1,100,-0.14591597979113866,-10,-1,-100,15030.296563022654,0.013226703470945879,0.005211396542738289,0.9998989427243967,21.944533899888285,0.022514918846959154,-17.740909028582312,7.131829640734889,-116.1345443725586,5356.25390625,True
1599558580.280893,0.0,10,0.5,0.5,0.3688005990982056,-0.001,-0.00825,-0.12575,0.004783742428058346,10,1,100,-0.14344507439166132,-10,-1,-100,15030.534837339888,0.013214277870946792,0.004714998758098289,0.9999015709793942,21.97297609308954,0.022756234610944448,-16.839557525713335,6.7605344696422005,-117.56324768066406,5356.25390625,True
1599558580.3140163,0.0,10,0.5,0.5,0.37040133056640623,-0.001,-0.00825,-0.12575,-0.00036744390415710537,10,1,100,-0.13716225785862204,-10,-1,-100,15030.820962035563,0.01314425430588226,0.004220955797841978,0.9999047015145468,21.977484367870478,0.022951274557809972,-15.91839534375167,6.389236113116565,-118.89854431152344,5356.25390625,True
1599558580.3463347,0.0,10,0.5,0.5,0.29596539897918706,-0.001,-0.00825,-0.12575,0.023010434822612995,10,1,100,-0.13874929358308433,-10,-1,-100,15030.940098259947,0.01309347672361285,0.003988857853889122,0.9999063205522354,21.972121257381016,0.023032473238832864,-15.452285783851273,6.203585754942974,-119.53258514404297,5356.25390625,True
1599558580.382938,0.0,10,0.5,0.5,0.37795084781646726,-0.001,-0.00825,-0.12575,-0.0037874641253807795,10,1,100,-0.12868494892113927,-10,-1,-100,15031.17348747002,0.012955061886797709,0.003538014261206575,0.9999098203471134,21.945957875546814,0.023161788742920766,-14.51048007671041,5.832282326619007,-120.72615814208984,5356.25390625,True
1599558580.4137335,0.0,10,0.5,0.5,0.37824199981689455,-0.001,-0.00825,-0.12575,-0.007134523598859778,10,1,100,-0.12165360750551411,-10,-1,-100,15031.408828883665,0.01276483134695654,0.0031016554046598534,0.9999137156847258,21.92491422101585,0.023274601952553636,-13.573973336519579,5.460974906835297,-121.82857513427734,5356.25390625,True
1599558580.4469082,0.0,10,0.5,0.5,0.24968023834228517,-0.001,-0.00825,-0.12575,0.03607854218969942,10,1,100,-0.1406822683760546,-10,-1,-100,15031.408828883665,0.01276483134695654,0.0031016554046598534,0.9999137156847258,21.92491422101585,0.023274601952553636,-13.573973336519579,5.460974906835297,-121.82857513427734,5356.25390625,True
1599558580.4806454,0.0,10,0.5,0.5,0.3251889476776123,-0.001,-0.00825,-0.12575,0.013045954560461929,10,1,100,-0.12889426749053048,-10,-1,-100,15031.511362756137,0.012657616730847924,0.0028961120613587212,0.9999156950831521,21.912054398870104,0.023320554898578233,-13.104959443480961,5.275319493840661,-122.34487915039062,5356.25390625,True
1599558580.5166988,0.0,10,0.5,0.5,0.5008135313034058,-0.001,-0.00825,-0.12575,-0.05227085663266657,10,1,100,-0.07901567192218246,-10,-1,-100,15031.911730107153,0.012106955603784934,0.0021190017155982943,0.9999244628759401,21.813365875083395,0.023404584181967045,-11.209864847249438,4.532684148286642,-124.17119598388672,5356.25390625,True
1599558580.5473716,0.0,10,0.5,0.5,0.38019006576538084,-0.001,-0.00825,-0.12575,-0.013718978305623866,10,1,100,-0.09718825835377948,-10,-1,-100,15032.076756862458,0.011772451906047206,0.0017667761236464206,0.9999291414286557,21.739169820188714,0.023393026441507248,-10.256724568160235,4.161357120672649,-124.95880889892578,5356.25390625,True
1599558580.5805078,0.0,10,0.5,0.5,0.3338234045028687,-0.001,-0.00825,-0.12575,0.003143063959658028,10,1,100,-0.11207404394846651,-10,-1,-100,15032.12557871663,0.011604992622126447,0.0016032248539266396,0.9999313745534282,21.69605803918684,0.02337484942574118,-9.779761678847171,3.97569067435671,-125.31206512451172,5356.25390625,True
1599558580.613589,0.0,10,0.5,0.5,0.29697288875579836,-0.001,-0.00825,-0.12575,0.01913737376275497,10,1,100,-0.1286578012556604,-10,-1,-100,15032.12557871663,0.011604992622126447,0.0016032248539266396,0.9999313745534282,21.69605803918684,0.02337484942574118,-9.779761678847171,3.97569067435671,-125.31206512451172,5356.25390625,True
1599558580.646833,0.0,10,0.5,0.5,0.41480184326171876,-0.001,-0.00825,-0.12575,-0.03229026872828546,10,1,100,-0.06491569147828333,-10,-1,-100,15032.321848914842,0.011026981883467402,0.0011385297166482463,0.9999385528224353,21.540122928010828,0.023271072651643063,-8.349356351406293,3.418678488382834,-126.19124603271484,5356.25390625,True
1599558580.680226,0.0,10,0.5,0.5,0.3689539842605591,-0.001,-0.00825,-0.12575,-0.016838767061697256,10,1,100,-0.07526132211600645,-10,-1,-100,15032.487852055812,0.010597493556322493,0.0008593499943470485,0.9999434757264587,21.423613353582986,0.023173800229862877,-7.402277874363872,3.04732474270103,-126.65430450439453,5356.25390625,True
1599558580.7145333,0.0,10,0.5,0.5,0.31659979991912846,-0.001,-0.00825,-0.12575,0.010766254382468313,10,1,100,-0.1179605565137683,-10,-1,-100,15032.487852055812,0.010597493556322493,0.0008593499943470485,0.9999434757264587,21.423613353582986,0.023173800229862877,-7.402277874363872,3.04732474270103,-126.65430450439453,5356.25390625,True
1599558580.7465851,0.0,10,0.5,0.5,0.38757802791595464,-0.001,-0.00825,-0.12575,-0.030852118977483908,10,1,100,-0.043083022455771586,-10,-1,-100,15032.613809351227,0.009918931945186591,0.0004834362949537188,0.9999506893234363,21.232602476584404,0.02299303115951776,-5.995350855448027,2.4902728313836793,-127.17570495605469,5356.25390625,True
1599558580.7837937,0.0,10,0.5,0.5,0.3545560165405274,-0.001,-0.00825,-0.12575,-0.018000370038537872,10,1,100,-0.055953328237734606,-10,-1,-100,15032.711453041644,0.009421647714355226,0.00026091084868629766,0.9999555812534254,21.090067442933435,0.022846928676419145,-5.067076142374101,2.1188892897875258,-127.39765930175781,5356.25390625,True
1599558580.8136163,0.0,10,0.5,0.5,0.3312397520065308,-0.001,-0.00825,-0.12575,0.003968100132606884,10,1,100,-0.10534743295761098,-10,-1,-100,15032.711453041644,0.009421647714355226,0.00026091084868629766,0.9999555812534254,21.090067442933435,0.022846928676419145,-5.067076142374101,2.1188892897875258,-127.39765930175781,5356.25390625,True
1599558580.8479872,0.0,10,0.5,0.5,0.3536580057144166,-0.001,-0.00825,-0.12575,-0.02946019274998692,10,1,100,-0.022601902123688747,-10,-1,-100,15032.838388053817,0.008672357405880017,-4.0587085507580145e-05,0.9999623935777351,20.855794365356193,0.02259499161139924,-3.6934306566473065,1.5617881122983537,-127.54164123535156,5356.25390625,True
1599558580.8810058,0.0,10,0.5,0.5,0.33833289489746093,-0.001,-0.00825,-0.12575,0.0004736417892902762,10,1,100,-0.09718747315141912,-10,-1,-100,15032.838388053817,0.008672357405880017,-4.0587085507580145e-05,0.9999623935777351,20.855794365356193,0.02259499161139924,-3.6934306566473065,1.5617881122983537,-127.54164123535156,5356.25390625,True
1599558580.916662,0.0,10,0.5,0.5,0.3210835683822632,-0.001,-0.00825,-0.12575,-0.03698246603768513,10,1,100,0.01960976362758589,-10,-1,-100,15032.928209301317,0.007613382611980124,-0.00037945409919903477,0.9999709457878214,20.52628083759255,0.02222590830034846,-1.9061350659418175,0.8189343829232341,-127.38874053955078,5356.25390625,True
1599558580.9475307,0.0,10,0.5,0.5,0.34202408809661866,-0.001,-0.00825,-0.12575,-0.0032940325638522376,10,1,100,-0.08588855476138885,-10,-1,-100,15032.928209301317,0.007613382611980124,-0.00037945409919903477,0.9999709457878214,20.52628083759255,0.02222590830034846,-1.9061350659418175,0.8189343829232341,-127.38874053955078,5356.25390625,True
1599558580.9804425,0.0,10,0.5,0.5,0.2975454259872436,-0.001,-0.00825,-0.12575,-0.026622502370342263,10,1,100,0.006324967285883984,-10,-1,-100,15032.931122970534,0.006778706602468686,-0.0005897286620279207,0.9999768504104997,20.26890504698813,0.02193107275269254,-0.6016252567433259,0.2617527094674794,-127.02430725097656,5356.25390625,True
1599558581.049648,0.0,10,0.5,0.5,0.29882852478027344,-0.001,-0.00825,-0.12575,-0.019299784705645914,10,1,100,-0.014591860367732384,-10,-1,-100,15032.941855728393,0.006213925277292072,-0.0007127460509399629,0.9999804393715485,20.092120437564734,0.02172756227100975,0.24999505270366182,-0.10972203254301016,-126.66744995117188,5356.25390625,True
1599558581.0818958,0.0,10,0.5,0.5,0.31690338611602786,-0.001,-0.00825,-0.12575,-0.013895011426906563,10,1,100,-0.04033564230083867,-10,-1,-100,15032.918413945707,0.005938507152231598,-0.0007740165601030189,0.9999820673547939,20.064200259126125,0.021690522531314003,0.6722682346865679,-0.29546441473189233,-126.45592498779297,5356.25390625,True
1599558581.115262,0.0,10,0.5,0.5,0.2097318075180054,-0.001,-0.00825,-0.12575,-0.03181877581509135,10,1,100,0.055156290754949655,-10,-1,-100,15032.87054730393,0.004824253998400447,-0.0009911754569125223,0.9999878719987421,19.980645007116237,0.021576205529469417,2.3530504107754013,-1.0384602396798972,-125.40182495117188,5356.25390625,True
1599558581.1482646,0.0,10,0.5,0.5,0.3408214361190796,-0.001,-0.00825,-0.12575,-0.01025034730932763,10,1,100,-0.05575955683348682,-10,-1,-100,15032.87054730393,0.004824253998400447,-0.0009911754569125223,0.9999878719987421,19.980645007116237,0.021576205529469417,2.3530504107754013,-1.0384602396798972,-125.40182495117188,5356.25390625,True
1599558581.1838546,0.0,10,0.5,0.5,0.29912936916351324,-0.001,-0.00825,-0.12575,-0.015515600935590094,10,1,100,-0.024034170601982204,-10,-1,-100,15032.849059471395,0.004540020845128546,-0.0010379031386916367,0.9999891554250978,19.95935607598754,0.02154880597345679,2.7710258918704156,-1.224215215495401,-125.08588409423828,5356.25390625,True
1599558581.2148423,0.0,10,0.5,0.5,0.24918155860900887,-0.001,-0.00825,-0.12575,-0.02158393603227049,10,1,100,0.008385519491810232,-10,-1,-100,15032.78753031639,0.003991340456637092,-0.0011343687921084916,0.9999913911673453,19.92359994956024,0.0215045423086579,3.6055643300489733,-1.5957314796918385,-124.39341735839844,5356.25390625,True
1599558581.2478428,0.0,10,0.5,0.5,0.18224120483398437,-0.001,-0.00825,-0.12575,-0.02474605843859945,10,1,100,0.04878548107754005,-10,-1,-100,15032.691819174914,0.0031295231953648115,-0.0012498170609935313,0.9999943220048221,19.876592975851526,0.021456546257792218,4.853455679459189,-2.153020601044743,-123.19877624511719,5356.25390625,True
1599558581.2814808,0.0,10,0.5,0.5,0.21474447708129885,-0.001,-0.00825,-0.12575,-0.021327346632049642,10,1,100,0.02516396312271744,-10,-1,-100,15032.57755758462,0.002565832970352503,-0.0013225915344881273,0.9999958336177212,19.841863762855606,0.02143124577973921,5.681190506744148,-2.524554883723526,-122.29826354980469,5356.25390625,True
1599558581.317084,0.0,10,0.5,0.5,0.20176015987396245,-0.001,-0.00825,-0.12575,-0.022339569205099805,10,1,100,0.02957238768130597,-10,-1,-100,15032.448648260906,0.0020178994058465335,-0.0013970947724788623,0.9999969880995565,19.803372227787932,0.02141250645641333,6.504829794376166,-2.896094894064735,-121.3355484008789,5356.25390625,True
1599558581.3490279,0.0,10,0.5,0.5,0.18859438419342042,-0.001,-0.00825,-0.12575,-0.02227673394850914,10,1,100,0.03599091688643402,-10,-1,-100,15032.317786405096,0.0014665145209818823,-0.0014633286313439065,0.9999978539999355,19.760950688636147,0.021401958141130967,7.323838354165913,-3.267639747336091,-120.31595611572266,5356.25390625,True
1599558581.382288,0.0,10,0.5,0.5,0.31127372436523437,-0.001,-0.00825,-0.12575,-0.015740708058936324,10,1,100,-0.018616352391882418,-10,-1,-100,15032.317786405096,0.0014665145209818823,-0.0014633286313439065,0.9999978539999355,19.760950688636147,0.021401958141130967,7.323838354165913,-3.267639747336091,-120.31595611572266,5356.25390625,True
1599558581.4154131,0.0,10,0.5,0.5,0.09876434230804443,-0.001,-0.00825,-0.12575,-0.02700587143380715,10,1,100,0.06942448125823067,-10,-1,-100,15032.09805831057,0.0006704591339411363,-0.0015650568596787286,0.9999985505397374,19.69326813966927,0.02140827241928349,8.54402945393928,-3.8249650665905817,-118.68069458007812,5356.25390625,True
1599558581.4509394,0.0,10,0.5,0.5,0.22484872436523437,-0.001,-0.00825,-0.12575,-0.02012482069569131,10,1,100,0.02002851098447766,-10,-1,-100,15032.059972134186,0.00040061582822756764,-0.0015942629330006268,0.9999986489154166,19.6709733582277,0.021418263209547515,8.949018340804566,-4.010742009018461,-118.10369110107422,5356.25390625,True
1599558581.481857,0.0,10,0.5,0.5,0.13847790470123292,-0.001,-0.00825,-0.12575,-0.024461828668035975,10,1,100,0.04983447116313806,-10,-1,-100,15031.861729745753,-0.00011163805298152305,-0.001659692992609042,0.9999986164771006,19.61834624340301,0.021441334903308452,9.752243012661175,-4.38229811469043,-116.8973159790039,5356.25390625,True
1599558581.515842,0.0,10,0.5,0.5,0.12321632919311529,-0.001,-0.00825,-0.12575,-0.024561886974652947,10,1,100,0.055318819525200034,-10,-1,-100,15031.678136803443,-0.000622693937325458,-0.0017194767427353042,0.9999983278245976,19.570981523847756,0.021486102293593604,10.553954841078555,-4.753857005778512,-115.63540649414062,5356.25390625,True
1599558581.5490193,0.0,10,0.5,0.5,0.19170357112884523,-0.001,-0.00825,-0.12575,-0.02214138387373338,10,1,100,0.03165431884190757,-10,-1,-100,15031.572668815032,-0.0008674649943514183,-0.001751201420474416,0.999998090397211,19.553072246804202,0.021520805028502343,10.95658209485999,-4.939637386028663,-114.98529815673828,5356.25390625,True
1599558581.583572,0.0,10,0.5,0.5,0.2656929962158203,-0.001,-0.00825,-0.12575,-0.019030599362658805,10,1,100,0.007663093684410391,-10,-1,-100,15031.572668815032,-0.0008674649943514183,-0.001751201420474416,0.999998090397211,19.553072246804202,0.021520805028502343,10.95658209485999,-4.939637386028663,-114.98529815673828,5356.25390625,True
1599558581.6146426,0.0,10,0.5,0.5,-0.0840436429977417,-0.001,-0.00825,-0.12575,-0.03225454717817125,10,1,100,0.11286767411978464,-10,-1,-100,15031.173258640687,-0.001820236645409624,-0.001870963323925001,0.9999965931115941,19.455585132305036,0.021669242145696283,12.543121082145063,-5.682765654559927,-112.27949523925781,5356.25390625,True
1599558581.6477253,0.0,10,0.5,0.5,0.1579425687789917,-0.001,-0.00825,-0.12575,-0.023401735699348475,10,1,100,0.04384534645032176,-10,-1,-100,15031.012126968359,-0.002054929649725819,-0.0018988591574458378,0.999996085791357,19.4238462984359,0.02170678510629504,12.932346788359068,-5.8685493793965,-111.56941223144531,5356.25390625,True
1599558581.6815345,0.0,10,0.5,0.5,0.23917844467163085,-0.001,-0.00825,-0.12575,-0.020662328785761495,10,1,100,0.02078332892425947,-10,-1,-100,15031.012126968359,-0.002054929649725819,-0.0018988591574458378,0.999996085791357,19.4238462984359,0.02170678510629504,12.932346788359068,-5.8685493793965,-111.56941223144531,5356.25390625,True
1599558581.717439,0.0,10,0.5,0.5,0.04711944065093998,-0.001,-0.00825,-0.12575,-0.027275647241832242,10,1,100,0.06911633974312203,-10,-1,-100,15030.795333296293,-0.002491119344287563,-0.0019585842974772973,0.9999949791233765,19.348376962958497,0.021776926076343055,13.698377148038462,-6.240119107985285,-110.111083984375,5356.25390625,True
1599558581.748409,0.0,10,0.5,0.5,0.03355095558166504,-0.001,-0.00825,-0.12575,-0.027338889968373293,10,1,100,0.07366218163561965,-10,-1,-100,15030.52775848459,-0.0029253834166706994,-0.002013004580777967,0.9999936949523348,19.260486266981246,0.021842589109921484,14.44884094264774,-6.611692072949765,-108.6236343383789,5356.25390625,True
1599558581.7833138,0.0,10,0.5,0.5,0.017092019462585428,-0.001,-0.00825,-0.12575,-0.027660803950580588,10,1,100,0.07707406286605802,-10,-1,-100,15030.257254167576,-0.0033479170913406162,-0.0020649968311430974,0.9999922635896925,19.158130349399652,0.021898607122503824,15.180551778209063,-6.983268312600092,-107.08352661132812,5356.25390625,True
1599558581.816225,0.0,10,0.5,0.5,-0.09890588340759277,-0.001,-0.00825,-0.12575,-0.03106028564583558,10,1,100,0.09821617259099014,-10,-1,-100,15029.813900701236,-0.003920831854067589,-0.0021427389524335864,0.999990017823855,19.020035888666555,0.022005890795758844,16.275382824727004,-7.540639003788036,-104.71212768554688,5356.25390625,True
1599558581.8531282,0.0,10,0.5,0.5,0.08827275676727296,-0.001,-0.00825,-0.12575,-0.026016099047390627,10,1,100,0.06121733444149499,-10,-1,-100,15029.650816858746,-0.0041018474790048024,-0.002167118233657418,0.9999892391650124,18.969286191997462,0.022035887103330418,16.63237432286858,-7.726430923076762,-103.9155044555664,5356.25390625,True
1599558581.88305,0.0,10,0.5,0.5,-0.023113527679443358,-0.001,-0.00825,-0.12575,-0.02877327070847733,10,1,100,0.08069522619813142,-10,-1,-100,15029.312930703629,-0.00444031601442471,-0.002213939466697215,0.9999876909571087,18.858662771994453,0.022081584253638226,17.33165720887509,-8.09801763454224,-102.32266235351562,5356.25390625,True
1599558581.916956,0.0,10,0.5,0.5,-0.03351780376434327,-0.001,-0.00825,-0.12575,-0.028878858973967473,10,1,100,0.08180325530630092,-10,-1,-100,15028.973091087886,-0.004754839628498828,-0.0022570434463776473,0.9999861485315626,18.75252829440793,0.022124013223920422,18.026067132289143,-8.469607705239468,-100.74272155761719,5356.25390625,True
1599558581.9488728,0.0,10,0.5,0.5,-0.04679951896667481,-0.001,-0.00825,-0.12575,-0.029044094999040065,10,1,100,0.08172707677669092,-10,-1,-100,15028.634227407048,-0.005036543677720528,-0.002297271171746061,0.9999846777690875,18.657992929703944,0.02216756923356815,18.723313434813733,-8.84120099255664,-99.16316223144531,5356.25390625,True
1599558581.9867697,0.0,10,0.5,0.5,0.04120429725646972,-0.001,-0.00825,-0.12575,-0.027025234150207474,10,1,100,0.06814264211298486,-10,-1,-100,15028.458448238554,-0.005166219491859009,-0.0023151009981390307,0.9999839751133668,18.607132315133303,0.02217909124335221,19.065322464692475,-9.026998737695623,-98.37574768066406,5356.25390625,True
1599558582.0196815,0.0,10,0.5,0.5,-0.06938882331848142,-0.001,-0.00825,-0.12575,-0.02885903694684549,10,1,100,0.08174778907365719,-10,-1,-100,15028.102982929675,-0.005404961304498164,-0.0023476024640650822,0.9999826374272544,18.49895455806024,0.022179795627852123,19.73613287564574,-9.398595924271898,-96.80789184570312,5356.25390625,True
1599558582.054589,0.0,10,0.5,0.5,-0.08318715286254884,-0.001,-0.00825,-0.12575,-0.028529757180110308,10,1,100,0.0819350352816,-10,-1,-100,15027.695759740775,-0.005620656070919811,-0.0023737478503851554,0.9999813866000083,18.38213717047091,0.022147248165951813,20.388391927812524,-9.770195184768983,-95.2396240234375,5356.25390625,True
1599558582.1214116,0.0,10,0.5,0.5,0.002502882766723641,-0.001,-0.00825,-0.12575,-0.027180349728822925,10,1,100,0.0710337363357308,-10,-1,-100,15027.518026638776,-0.005714794471134649,-0.0023848716215254203,0.9999808265719407,18.31960900790077,0.022116171616045743,20.70622829932803,-9.955995303143613,-94.45658111572266,5356.25390625,True
1599558582.184242,0.0,10,0.5,0.5,-0.3019101539611816,-0.001,-0.00825,-0.12575,-0.028567342013990936,10,1,100,0.0962266348824074,-10,-1,-100,15026.686977123143,-0.006026865357159322,-0.0024072551005719636,0.9999789407866785,18.051407073141814,0.02189408673465146,21.929607861249195,-10.699196663876767,-91.37024688720703,5356.25390625,True
1599558582.2161896,0.0,10,0.5,0.5,-0.023271415901184075,-0.001,-0.00825,-0.12575,-0.026477217799025114,10,1,100,0.07221377137837988,-10,-1,-100,15026.45357962849,-0.006089831995994394,-0.002408291444778742,0.9999785568093836,17.98073588066671,0.021813356168169627,22.224000949299246,-10.884996644633416,-90.60887145996094,5356.25390625,True
1599558582.252678,0.0,10,0.5,0.5,-0.13196730365753173,-0.001,-0.00825,-0.12575,-0.02578258766873688,10,1,100,0.07774315948133431,-10,-1,-100,15026.031706118956,-0.006195369741196839,-0.002402677345152879,0.9999779220239541,17.833287884347797,0.021617164517424074,22.79614988876204,-11.256595800655518,-89.08773803710938,5356.25390625,True
1599558582.283614,0.0,10,0.5,0.5,-0.1403001979827881,-0.001,-0.00825,-0.12575,-0.024579680607776502,10,1,100,0.07498391013423203,-10,-1,-100,15025.554168149829,-0.006264325858896139,-0.002386423954837459,0.9999775313487005,18.293259632846897,0.022118649001890794,24.158163082121767,-11.62818826321807,-87.609375,5356.25390625,True
1599558582.3165262,0.0,10,0.5,0.5,-0.0581157154083252,-0.001,-0.00825,-0.12575,-0.02493105191267496,10,1,100,0.07160543013310079,-10,-1,-100,15025.320770274266,-0.006294641593299336,-0.002374685625969663,0.9999773689216119,18.5202373580583,0.022351053799925445,24.849800523158542,-11.813981110274273,-86.8868408203125,5356.25390625,True
1599558582.349161,0.0,10,0.5,0.5,-0.15990490264892576,-0.001,-0.00825,-0.12575,-0.022715011227882095,10,1,100,0.07271824389572457,-10,-1,-100,15024.827606385341,-0.006330918020630821,-0.0023437616460648294,0.9999772128695544,18.963224254592312,0.022773476140330994,26.246855965952836,-12.1855595433879,-85.45712280273438,5356.25390625,True
1599558582.3851821,0.0,10,0.5,0.5,-0.1683871898651123,-0.001,-0.00825,-0.12575,-0.021199854489595743,10,1,100,0.0703995757607177,-10,-1,-100,15024.350067388266,-0.006341641085756736,-0.0023018325208266333,0.9999772423187366,19.391873458060356,0.023140272688822273,27.661158098631507,-12.557127125518944,-84.06097412109375,5356.25390625,True
1599558582.4171288,0.0,10,0.5,0.5,-0.0917602020263672,-0.001,-0.00825,-0.12575,-0.022603264702140816,10,1,100,0.06905837275660763,-10,-1,-100,15024.10104356485,-0.006338128007112115,-0.002276485471158058,0.9999773226165006,19.6002304134851,0.02330251819562551,28.373356706159115,-12.742906758310253,-83.37356567382812,5356.25390625,True
1599558582.4505272,0.0,10,0.5,0.5,-0.1883545608520508,-0.001,-0.00825,-0.12575,-0.018661878959967668,10,1,100,0.06671810338662881,-10,-1,-100,15023.554168000352,-0.006312810789796639,-0.0022176765710695124,0.9999776149147331,20.00708782833402,0.02358802278360897,29.809690319315425,-13.114456971771867,-82.01693725585938,5356.25390625,True
1599558582.4839964,0.0,10,0.5,0.5,-0.27718900527954105,-0.001,-0.00825,-0.12575,-0.012507577394182715,10,1,100,0.06053426324862715,-10,-1,-100,15022.74361934897,-0.006232949177601758,-0.002108407621553986,0.9999783522466129,20.58902224625145,0.02391811441588057,31.985160854136545,-13.671758552889335,-80.05621337890625,5356.25390625,True
1599558582.5209568,0.0,10,0.5,0.5,-0.12329361286163332,-0.001,-0.00825,-0.12575,-0.01874877177052469,10,1,100,0.06442960432726837,-10,-1,-100,15022.442837176495,-0.006195288853860907,-0.00206606167450659,0.9999786746652023,20.775248560820337,0.02400292345383166,32.71465383836221,-13.857519202533105,-79.41885375976562,5356.25390625,True
1599558582.551791,0.0,10,0.5,0.5,-0.13244864006042478,-0.001,-0.00825,-0.12575,-0.01805958264905123,10,1,100,0.0635043360313239,-10,-1,-100,15022.195765987854,-0.006152487553681818,-0.0020216101792010764,0.9999790297747173,20.95812822315357,0.024076220754761075,33.44675079122296,-14.04327632649358,-78.79208374023438,5356.25390625,True
1599558582.5833495,0.0,10,0.5,0.5,-0.21603584594726563,-0.001,-0.00825,-0.12575,-0.012010883536488888,10,1,100,0.05683849059808363,-10,-1,-100,15021.632287261658,-0.006052921726346201,-0.0019265630835960223,0.9999798250431154,21.311394352007436,0.024186998813483383,34.91389442397589,-14.414780241775127,-77.58770751953125,5356.25390625,True
1599558582.616329,0.0,10,0.5,0.5,-0.14773721542358398,-0.001,-0.00825,-0.12575,-0.015571265121933513,10,1,100,0.060394064487903354,-10,-1,-100,15021.315880075912,-0.0059948602350529566,-0.0018729565695150669,0.99998027664772,21.480795438562208,0.024224145880498198,35.646778999444734,-14.600526922457002,-77.00653076171875,5356.25390625,True
1599558582.7091231,0.0,10,0.5,0.5,-0.22701651382446292,-0.001,-0.00825,-0.12575,-0.00833750986886674,10,1,100,0.051872687574897526,-10,-1,-100,15020.69771332678,-0.005864854967053448,-0.0017589287520366117,0.9999812546472363,21.80826945774859,0.024267358050167023,37.11498458320401,-14.972009567977533,-75.87347412109375,5356.25390625,True
1599558582.73402,0.0,10,0.5,0.5,-0.2310388969421387,-0.001,-0.00825,-0.12575,-0.006345649574075667,10,1,100,0.04870167677608853,-10,-1,-100,15020.135209965054,-0.0057182317039976725,-0.0016377190578980363,0.9999823096947599,22.121926877304883,0.024272868599151655,38.58709206346684,-15.343477674852235,-74.789306640625,5356.25390625,True
1599558582.786101,0.0,10,0.5,0.5,-0.16984761962890627,-0.001,-0.00825,-0.12575,-0.011082277640558016,10,1,100,0.054374145136193514,-10,-1,-100,15019.818802516558,-0.00563706271023577,-0.0015712305389111408,0.9999828772327027,22.273029593654726,0.02426178214432758,39.323102066924214,-15.529206312297868,-74.26589965820312,5356.25390625,True
1599558582.817019,0.0,10,0.5,0.5,-0.3000109687805176,-0.001,-0.00825,-0.12575,0.005137325268904373,10,1,100,0.03338334706637362,-10,-1,-100,15018.866649339674,-0.005373087804704334,-0.0013639996788205918,0.9999846345981118,22.70495699079068,0.02417890539601642,41.53084495903887,-16.086370581850126,-72.783447265625,5356.25390625,True
1599558582.8569117,0.0,10,0.5,0.5,-0.23802825775146486,-0.001,-0.00825,-0.12575,0.0010319774125999454,10,1,100,0.03803745034058004,-10,-1,-100,15018.17914620752,-0.0051762979568980025,-0.0012137588645158943,0.9999858662645589,22.97449335591345,0.02408485064303518,42.99906271366419,-16.45779544579898,-71.87063598632812,5356.25390625,True
1599558582.911765,0.0,10,0.5,0.5,-0.1863582000732422,-0.001,-0.00825,-0.12575,-0.005749965648627147,10,1,100,0.046499767469449615,-10,-1,-100,15017.863715164596,-0.0050753614444573325,-0.0011397429863469189,0.9999864707545464,23.104259356797066,0.024027632100406177,43.732378417873335,-16.64350259127665,-71.438720703125,5356.25390625,True
1599558582.950671,0.0,10,0.5,0.5,-0.1914394332885742,-0.001,-0.00825,-0.12575,-0.004702558324992956,10,1,100,0.04495720691981853,-10,-1,-100,15017.547307065455,-0.004970630053362936,-0.0010638145438286368,0.9999870804842874,23.230410210948488,0.023963686462993856,44.46434699014891,-16.82920610891501,-71.02621459960938,5356.25390625,True
1599558582.9835823,0.0,10,0.5,0.5,-0.3348828079223633,-0.001,-0.00825,-0.12575,0.023762643040825853,10,1,100,0.00522711215671863,-10,-1,-100,15016.156675624778,-0.0045153503443403015,-0.0007369252628779166,0.9999895342214462,23.700270298711423,0.023647052766914558,47.376995081049664,-17.571985271800116,-69.53988647460938,5356.25390625,True
1599558583.019815,0.0,10,0.5,0.5,-0.15561010894775393,-0.001,-0.00825,-0.12575,-0.00879781656261385,10,1,100,0.050591369338047906,-10,-1,-100,15016.156675624778,-0.0045153503443403015,-0.0007369252628779166,0.9999895342214462,23.700270298711423,0.023647052766914558,47.376995081049664,-17.571985271800116,-69.53988647460938,5356.25390625,True
1599558583.0497048,0.0,10,0.5,0.5,-0.24599785995483398,-0.001,-0.00825,-0.12575,0.010220495753981818,10,1,100,0.023372914700930926,-10,-1,-100,15015.45354769053,-0.004269307639804698,-0.0005651130034731543,0.9999907267867888,23.918371901736194,0.023459135489215927,48.829307571758996,-17.943354199516676,-68.879150390625,5356.25390625,True
1599558583.0835445,0.0,10,0.5,0.5,-0.278088599395752,-0.001,-0.00825,-0.12575,0.02113254800517361,10,1,100,0.005762038628694524,-10,-1,-100,15014.310965368757,-0.0038871022646567712,-0.00031090851406348306,0.9999923968570361,24.25643246183183,0.023174623649899893,51.06602701174102,-18.50038211022497,-68.02334594726562,5356.25390625,True
1599558583.1165876,0.0,10,0.5,0.5,-0.20887486877441405,-0.001,-0.00825,-0.12575,0.005284404634991664,10,1,100,0.029261357520622817,-10,-1,-100,15013.97795589373,-0.003755070961451092,-0.0002252039363635934,0.9999929243375983,24.36409690493826,0.023071706780060635,51.81064607042575,-18.686051391392837,-67.77145385742188,5356.25390625,True
1599558583.1525745,0.0,10,0.5,0.5,-0.2403105857849121,-0.001,-0.00825,-0.12575,0.015306365360441148,10,1,100,0.012853141003085461,-10,-1,-100,15013.205492376233,-0.003487661590870632,-5.746605469736607e-05,0.9999939164386352,24.57186053062499,0.022854387518183753,53.29743403126566,-19.057380213629962,-67.3192138671875,5356.25390625,True
1599558583.1836157,0.0,10,0.5,0.5,-0.18917242279052734,-0.001,-0.00825,-0.12575,-0.001316046357760208,10,1,100,0.03937913794919496,-10,-1,-100,15013.205492376233,-0.003487661590870632,-5.746605469736607e-05,0.9999939164386352,24.57186053062499,0.022854387518183753,53.29743403126566,-19.057380213629962,-67.3192138671875,5356.25390625,True
1599558583.2166703,0.0,10,0.5,0.5,-0.2818035385131836,-0.001,-0.00825,-0.12575,0.03582779651688758,10,1,100,-0.022074841831891928,-10,-1,-100,15011.605878632865,-0.0029307030712369636,0.0002790174863229564,0.9999956665549858,24.95638707309492,0.022375344347932265,56.25509198710833,-19.799999921296838,-66.62396240234375,5356.25390625,True
1599558583.250815,0.0,10,0.5,0.5,-0.21579345169067382,-0.001,-0.00825,-0.12575,0.011984246596666824,10,1,100,0.01730341780973297,-10,-1,-100,15011.218182050157,-0.002784402772753547,0.0003667950003841164,0.9999960562735369,25.046719446094905,0.02224726314767324,56.991738709942354,-19.98564708078476,-66.4891357421875,5356.25390625,True
1599558583.2846878,0.0,10,0.5,0.5,-0.23145353469848634,-0.001,-0.00825,-0.12575,0.021061560505652093,10,1,100,4.211689323745452e-05,-10,-1,-100,15010.445719180629,-0.0024965642736838487,0.0005277441959880088,0.9999967443211457,25.22152161116951,0.021982272608030776,58.46322949047917,-20.356932283472617,-66.2640380859375,5356.25390625,True
1599558583.3167603,0.0,10,0.5,0.5,-0.2182667221069336,-0.001,-0.00825,-0.12575,0.014300390048859682,10,1,100,0.012221212447570773,-10,-1,-100,15009.989663703134,-0.0023478611120959524,0.0006111495889845103,0.9999970570178586,25.305862380544486,0.021845332253907227,59.197525154243195,-20.542570405811198,-66.17575073242188,5356.25390625,True
1599558583.3500087,0.0,10,0.5,0.5,-0.21919636993408204,-0.001,-0.00825,-0.12575,0.015244324497089715,10,1,100,0.010362730880916394,-10,-1,-100,15009.602944287006,-0.00219775157753032,0.0006943283731908189,0.9999973438945294,25.388022391434735,0.021705293490502917,59.93035220617274,-20.728205621129042,-66.10272216796875,5356.25390625,True
1599558583.3839903,0.0,10,0.5,0.5,-0.22019808425903323,-0.001,-0.00825,-0.12575,0.016052639002232513,10,1,100,0.008543843138457042,-10,-1,-100,15009.21720176749,-0.0020468599291453963,0.0007759926237559714,0.999997604097069,25.468305605459932,0.0215624158327451,60.662295990279134,-20.91383795296065,-66.04473876953125,5356.25390625,True
1599558583.4196308,0.0,10,0.5,0.5,-0.22404499588012697,-0.001,-0.00825,-0.12575,0.025244106439710427,10,1,100,-0.009732555678906185,-10,-1,-100,15008.317786241183,-0.001745557030192763,0.0009325724594947919,0.9999980416677133,25.623172766800632,0.021268084680771664,62.12289469616243,-21.28509389547396,-65.97531127929688,5356.25390625,True
1599558583.450624,0.0,10,0.5,0.5,-0.21810265884399413,-0.001,-0.00825,-0.12575,0.026754558967331137,10,1,100,-0.013624372201096604,-10,-1,-100,15007.460363482824,-0.0014382120129745144,0.0010875187140779459,0.9999983744233049,25.770398654365152,0.020962165951488827,63.57820572289926,-21.65633844121557,-65.96664428710938,5356.25390625,True
1599558583.4835808,0.0,10,0.5,0.5,-0.2161654182434082,-0.001,-0.00825,-0.12575,0.019711072111742264,10,1,100,-0.00013680033234165882,-10,-1,-100,15007.020910112653,-0.0012835279769906757,0.001163153862602331,0.9999984998133868,25.841258172406352,0.02080491451281337,64.30385607399751,-21.841956464792833,-65.98507690429688,5356.25390625,True
1599558583.516493,0.0,10,0.5,0.5,-0.20910529174804687,-0.001,-0.00825,-0.12575,0.02824673055334162,10,1,100,-0.018909254064603,-10,-1,-100,15006.162511242786,-0.0009742512136337918,0.0013084003289869483,0.9999986694606907,25.977364501978,0.020481666294171263,65.75030259149848,-22.213184199092208,-66.0677490234375,5356.25390625,True
1599558583.552534,0.0,10,0.5,0.5,-0.20233821258544923,-0.001,-0.00825,-0.12575,0.028789443200675904,10,1,100,-0.022144092263401725,-10,-1,-100,15005.249425268848,-0.0006659678182086698,0.0014441346257817445,0.9999987354802242,26.106064985104602,0.020146639743286423,67.18969058001603,-22.58440128868763,-66.2113037109375,5356.25390625,True
1599558583.5838366,0.0,10,0.5,0.5,-0.20877821960449217,-0.001,-0.00825,-0.12575,0.022800010854711728,10,1,100,-0.008770657397957606,-10,-1,-100,15004.794346928247,-0.0005093457168289857,0.0015120208586869223,0.9999987271791219,26.16764544103947,0.019974660270306862,67.90646498608676,-22.770005845056204,-66.30560302734375,5356.25390625,True
1599558583.617742,0.0,10,0.5,0.5,-0.19121999359130862,-0.001,-0.00825,-0.12575,0.02982102796289094,10,1,100,-0.027274248924781964,-10,-1,-100,15003.883214426809,-0.00020081575356352836,0.0016365219297129834,0.9999986407335795,26.285251843175175,0.01962163821326605,69.33355326539433,-23.14120701126114,-66.53887939453125,5356.25390625,True
1599558583.6516201,0.0,10,0.5,0.5,-0.18349567565917974,-0.001,-0.00825,-0.12575,0.029768550363096447,10,1,100,-0.030088724354324334,-10,-1,-100,15002.954503746005,0.00010316512738261777,0.0017482196727078845,0.9999984665412905,26.395570227001556,0.0192565842149329,70.75156361487623,-23.512397828844875,-66.8294677734375,5356.25390625,True
1599558583.6895163,0.0,10,0.5,0.5,-0.17544015426635745,-0.001,-0.00825,-0.12575,0.030363566718515065,10,1,100,-0.03353256003275342,-10,-1,-100,15001.988684289623,0.00040859077419258,0.0018541386149491244,0.9999981976101637,26.498597701591272,0.018879443608389543,72.1595719569042,-23.883578660452613,-67.17706298828125,5356.25390625,True
1599558583.7194395,0.0,10,0.5,0.5,-0.13927338943481443,-0.001,-0.00825,-0.12575,0.0340230215276312,10,1,100,-0.05169399585128538,-10,-1,-100,15000.534584426438,0.0008489850129594518,0.0019826419604860725,0.9999976741749473,26.639245941306054,0.01829112240957803,74.25019347242063,-24.440331601082146,-67.80026245117188,5356.25390625,True
1599558583.753349,0.0,10,0.5,0.5,-0.21619241485595703,-0.001,-0.00825,-0.12575,0.0212933519076094,10,1,100,-0.00794415646880869,-10,-1,-100,15000.534584426438,0.0008489850129594518,0.0019826419604860725,0.9999976741749473,26.639245941306054,0.01829112240957803,74.25019347242063,-24.440331601082146,-67.80026245117188,5356.25390625,True
1599558583.7932432,0.0,10,0.5,0.5,-0.12158159027099612,-0.001,-0.00825,-0.12575,0.03203799485058095,10,1,100,-0.05461222190039117,-10,-1,-100,14999.026773731806,0.0012708814786618814,0.00207936592405764,0.9999970305444016,26.76366340342823,0.0176768149605417,76.31359829270563,-24.997063088595038,-68.53482055664062,5356.25390625,True
1599558583.830144,0.0,10,0.5,0.5,-0.14176284027099612,-0.001,-0.00825,-0.12575,0.028592463791192083,10,1,100,-0.04363553104799832,-10,-1,-100,14998.043376420625,0.0015521728092863039,0.0021350721111191846,0.9999965161072566,26.83781861454017,0.017253782457166824,77.6732209385951,-25.368206171659025,-69.087646484375,5356.25390625,True
1599558583.8909786,0.0,10,0.5,0.5,-0.13172649002075196,-0.001,-0.00825,-0.12575,0.02698880952567946,10,1,100,-0.044735488458663125,-10,-1,-100,14996.99161988974,0.0018153139037815707,0.0021702518621718224,0.999995997313132,26.903280190904198,0.016819762221487074,79.01413807659728,-25.739340184691613,-69.69509887695312,5356.25390625,True
1599558583.9208977,0.0,10,0.5,0.5,-0.08027417144775391,-0.001,-0.00825,-0.12575,0.02660453184140382,10,1,100,-0.0599855051656363,-10,-1,-100,14995.454512990545,0.002190633627824828,0.0021979565191506375,0.9999951850441325,26.98735340447366,0.016151881379563506,80.99458003943072,-26.296025142380493,-70.68008422851562,5356.25390625,True
1599558583.9568365,0.0,10,0.5,0.5,-0.15641098251342772,-0.001,-0.00825,-0.12575,0.02412209209147971,10,1,100,-0.03580599612882482,-10,-1,-100,14994.927169627277,0.002309422748033109,0.0021998896442290057,0.9999949135131259,27.01188488423205,0.015925522191512567,81.64682353564986,-26.48158253454647,-71.02752685546875,5356.25390625,True
1599558583.9857552,0.0,10,0.5,0.5,-0.19620630569458009,-0.001,-0.00825,-0.12575,0.023997566462197098,10,1,100,-0.024208960954482918,-10,-1,-100,14994.927169627277,0.002309422748033109,0.0021998896442290057,0.9999949135131259,27.01188488423205,0.015925522191512567,81.64682353564986,-26.48158253454647,-71.02752685546875,5356.25390625,True
1599558584.0187228,0.0,10,0.5,0.5,-0.1011927314758301,-0.001,-0.00825,-0.12575,0.02319237630984114,10,1,100,-0.04904675074897369,-10,-1,-100,14993.8207259326,0.002532938802072483,0.0021920575812853006,0.9999943895365538,27.055562308310964,0.015468172224461783,82.93834187886716,-26.85269115047685,-71.7479248046875,5356.25390625,True
1599558584.0512433,0.0,10,0.5,0.5,-0.09186571731567382,-0.001,-0.00825,-0.12575,0.021858601787309084,10,1,100,-0.05064659907616892,-10,-1,-100,14992.75334440323,0.0027484704053785157,0.0021724088121238432,0.9999938632563621,27.09252669079041,0.01500623550096365,84.21326402165579,-27.2237916757026,-72.50421142578125,5356.25390625,True
1599558584.0876558,0.0,10,0.5,0.5,-0.13244711532592773,-0.001,-0.00825,-0.12575,0.022273105780883803,10,1,100,-0.04076238364664504,-10,-1,-100,14992.212329599657,0.0028524245593599777,0.002158025176284857,0.999993603280277,27.107969846400906,0.014773804192801176,84.84260333397455,-27.40933909697184,-72.89968872070312,5356.25390625,True
1599558584.1176112,0.0,10,0.5,0.5,-0.0732153923034668,-0.001,-0.00825,-0.12575,0.01924511272973129,10,1,100,-0.05174893343760309,-10,-1,-100,14991.089283884387,0.0030449847524005613,0.0021172624948609386,0.9999931226100435,27.131330451146095,0.014306586658343065,86.07979932906368,-27.780428268439767,-73.72616577148438,5356.25390625,True
1599558584.1525404,0.0,10,0.5,0.5,-0.007660491180419948,-0.001,-0.00825,-0.12575,0.014165066084080708,10,1,100,-0.061362477563299704,-10,-1,-100,14989.427176227095,0.0033054389656352054,0.0020339008872111214,0.9999924686318522,27.15043508161992,0.013605876022806947,87.88880325025109,-28.33704806512828,-75.02474975585938,5356.25390625,True
1599558584.1854827,0.0,10,0.5,0.5,-0.1086376823425293,-0.001,-0.00825,-0.12575,0.018770508054514086,10,1,100,-0.044348581320471904,-10,-1,-100,14988.831473423517,0.003385694141380108,0.002000026593657815,0.9999922684545143,27.152896466247114,0.013373750916557086,88.4799013003902,-28.52258439814912,-75.47418212890625,5356.25390625,True
1599558584.2214544,0.0,10,0.5,0.5,-0.10208384780883788,-0.001,-0.00825,-0.12575,0.0181037528078061,10,1,100,-0.04458227560242778,-10,-1,-100,14988.250419636955,0.0034591110479549876,0.001963293138655156,0.9999920899841207,27.1531141013092,0.013142757458204956,89.06388911551224,-28.708119121917264,-75.93020629882812,5356.25390625,True
