Timestamp,Input Throttle,horizon,dT,dt,Input Roll,Roll P,Roll I,Roll D,Input Pitch,Pitch P,Pitch I,Pitch D,Input Yaw,Yaw P,Yaw I,Yaw D,Altitude,Direction X,Direction Y,Direction Z,Drag X,Drag Y,Drag Z,Vertical Velocity,Roll,Mass,Has Fuel
1599560728.436976,0.0,10,0.5,0.5,-5.850137702941895,-0.1005,-0.001,-0.37525,-0.0005755656951832185,10,1,100,0.17108073109345695,-10,-1,-100,14994.00760170666,-0.01677352124879185,-7.684856320135236e-05,0.9998593116430005,28.64909971835437,0.02703448415543045,-87.51384074009958,27.00929840472602,-31.791839599609375,5356.25390625,True
1599560728.462909,0.0,10,0.5,0.5,-5.856016792297363,-0.1005,-0.001,-0.37525,-0.0004935134230904099,10,1,100,0.17326522245423875,-10,-1,-100,14994.542759250733,-0.01680854541098677,-7.427895351732282e-05,0.9998587236624001,28.576520680133356,0.027199714258900724,-86.69269227435089,26.823330887735928,-31.791259765625,5356.25390625,True
1599560728.4971418,0.0,10,0.5,0.5,-5.861910458374024,-0.1005,-0.001,-0.37525,-0.00048424308011340693,10,1,100,0.17533027429966214,-10,-1,-100,14995.077917248243,-0.016843878261203284,-7.179114254703474e-05,0.9998581292419209,28.503913972751477,0.027363386411018372,-85.87450622622576,26.637367234019813,-31.7906494140625,5356.25390625,True
1599560728.5293224,0.0,10,0.5,0.5,-5.848642518615724,-0.1005,-0.001,-0.37525,0.0033821203965404448,10,1,100,0.17946268717340688,-10,-1,-100,14996.083779673558,-0.01689825380728761,-3.431547265669507e-05,0.9998572137263965,28.358895672640866,0.02768629715681788,-84.24785241282625,26.26545185906405,-31.830291748046875,5356.25390625,True
1599560728.566091,0.0,10,0.5,0.5,-5.822643014526367,-0.1005,-0.001,-0.37525,0.0034338770348993374,10,1,100,0.17774870232523815,-10,-1,-100,14996.6218664255,-0.01691674239255611,2.5502893110973557e-07,0.999856901674814,28.28988670648882,0.027848246994714304,-83.4494115278888,26.079499922203482,-31.928436279296875,5356.25390625,True
1599560728.5965235,0.0,10,0.5,0.5,-5.678727644348145,-0.1005,-0.001,-0.37525,0.009414087802963378,10,1,100,0.18087032558900332,-10,-1,-100,14997.67948549171,-0.016946549733932108,8.604807823975891e-05,0.999856393212467,28.165821102479477,0.028176669841481324,-81.90177294645946,25.707607119753714,-32.320556640625,5356.25390625,True
1599560728.6307077,0.0,10,0.5,0.5,-5.309181974792481,-0.1005,-0.001,-0.37525,0.02489447109437079,10,1,100,0.1785816215033169,-10,-1,-100,14999.15604780335,-0.016937434961918654,0.0003046942910983803,0.9998565049337329,28.017183997359346,0.028671766444976793,-79.7063420320419,25.149793507146036,-33.418731689453125,5356.25390625,True
1599560728.6576073,0.0,10,0.5,0.5,-5.215391600036622,-0.1005,-0.001,-0.37525,0.026135374993836464,10,1,100,0.17606327685810297,-10,-1,-100,15000.157999452786,-0.01689085709516637,0.0005144675252458165,0.9998572069399492,27.939784619252887,0.028990070079619054,-78.3138518542146,24.77793336977257,-34.49395751953125,5356.25390625,True
1599560728.6825597,0.0,10,0.5,0.5,-5.319628834533692,-0.1005,-0.001,-0.37525,0.018598856099207067,10,1,100,0.17811522251495338,-10,-1,-100,15000.68924757617,-0.016851812306730964,0.0006361889594966313,0.9998577957317663,27.90610507814427,0.02914117929719642,-77.63398425407372,24.592007823559833,-35.134613037109375,5356.25390625,True
1599560728.7114947,0.0,10,0.5,0.5,-4.857863557434082,-0.1005,-0.001,-0.37525,0.03729731904500359,10,1,100,0.17215388949974494,-10,-1,-100,15001.630649915664,-0.01674680327864531,0.0009162524819959799,0.9998593426384212,27.84541078765384,0.029417930276003805,-76.29669911424607,24.220165258367174,-36.6220703125,5356.25390625,True
1599560728.73543,0.0,10,0.5,0.5,-5.018518275451661,-0.1005,-0.001,-0.37525,0.026820684689832203,10,1,100,0.17704186677953718,-10,-1,-100,15002.096467954805,-0.016680552316312238,0.0010747805969647424,0.9998602922514181,27.816816050521012,0.029539373838961436,-75.63470484343466,24.034248142766177,-37.468841552734375,5356.25390625,True
1599560728.7634327,0.0,10,0.5,0.5,-5.335701483154297,-0.1005,-0.001,-0.37525,0.011083036108972561,10,1,100,0.18365766611959633,-10,-1,-100,15002.096467954805,-0.016680552316312238,0.0010747805969647424,0.9998602922514181,27.816816050521012,0.029539373838961436,-75.63470484343466,24.034248142766177,-37.468841552734375,5356.25390625,True
1599560728.7973871,0.0,10,0.5,0.5,-3.9304022872924804,-0.1005,-0.001,-0.37525,0.07029920415684063,10,1,100,0.15428622986969226,-10,-1,-100,15003.565207992215,-0.016413655616853724,0.0016120647978085593,0.999863987328466,27.72719518737602,0.029807503789954247,-73.64562830824015,23.476513698462618,-40.4215087890625,5356.25390625,True
1599560728.8325057,0.0,10,0.5,0.5,-5.03752758178711,-0.1005,-0.001,-0.37525,0.016739169666494497,10,1,100,0.18093287755110876,-10,-1,-100,15003.565207992215,-0.016413655616853724,0.0016120647978085593,0.999863987328466,27.72719518737602,0.029807503789954247,-73.64562830824015,23.476513698462618,-40.4215087890625,5356.25390625,True
1599560728.864412,0.0,10,0.5,0.5,-3.3376857635498043,-0.1005,-0.001,-0.37525,0.08588594996378536,10,1,100,0.14021883633262255,-10,-1,-100,15004.906992820324,-0.016043968513222425,0.002239175182083508,0.999868779975078,27.608120015074167,0.029874612098861678,-71.59132563828379,22.918805613016048,-43.99267578125,5356.25390625,True
1599560728.897332,0.0,10,0.5,0.5,-4.676559753417969,-0.1005,-0.001,-0.37525,0.023398803551605746,10,1,100,0.17710026930781902,-10,-1,-100,15004.906992820324,-0.016043968513222425,0.002239175182083508,0.999868779975078,27.608120015074167,0.029874612098861678,-71.59132563828379,22.918805613016048,-43.99267578125,5356.25390625,True
1599560728.930549,0.0,10,0.5,0.5,-2.682100511169434,-0.1005,-0.001,-0.37525,0.10108055580768686,10,1,100,0.12430748702079938,-10,-1,-100,15006.251703895512,-0.015564854657177437,0.002943415541589842,0.9998745279306052,27.424432999026376,0.02966525926281578,-69.38846688636093,22.361128043773505,-48.182464599609375,5356.25390625,True
1599560728.9664106,0.0,10,0.5,0.5,-4.252842391967774,-0.1005,-0.001,-0.37525,0.03092039198210261,10,1,100,0.17208161459482407,-10,-1,-100,15006.251703895512,-0.015564854657177437,0.002943415541589842,0.9998745279306052,27.424432999026376,0.02966525926281578,-69.38846688636093,22.361128043773505,-48.182464599609375,5356.25390625,True
1599560728.9971702,0.0,10,0.5,0.5,-1.9636398773193364,-0.1005,-0.001,-0.37525,0.11311725406610425,10,1,100,0.10595965437006123,-10,-1,-100,15007.590554140974,-0.01496495138462322,0.0036884516077931805,0.9998812157225441,27.134658717580283,0.029111057291696205,-66.94701949599944,21.803487735504593,-52.991363525390625,5356.25390625,True
1599560729.0300813,0.0,10,0.5,0.5,-2.9382592391967775,-0.1005,-0.001,-0.37525,0.06608118320813086,10,1,100,0.14071423265641936,-10,-1,-100,15008.050508148619,-0.014737250813015466,0.00393538169413437,0.9998836563367739,27.006660310694357,0.028840996553903715,-66.06450760380382,21.617617477362227,-54.7320556640625,5356.25390625,True
1599560729.0641701,0.0,10,0.5,0.5,-2.728914114379883,-0.1005,-0.001,-0.37525,0.0712326169181013,10,1,100,0.13671121616853135,-10,-1,-100,15008.457728549489,-0.0144956861002691,0.004203950143433238,0.9998860944566005,26.859752717080934,0.028526387613256834,-65.14152766866574,21.431752819134218,-56.541259765625,5356.25390625,True
1599560729.1010327,0.0,10,0.5,0.5,-1.5860014480590827,-0.1005,-0.001,-0.37525,0.10097434082816253,10,1,100,0.10292838578948726,-10,-1,-100,15009.323926058598,-0.013970951418159313,0.004715637887845067,0.9998912817280597,26.502034989988363,0.027763563594338334,-63.16184269837519,21.060042175751615,-60.366607666015625,5356.25390625,True
1599560729.1319501,0.0,10,0.5,0.5,-0.04376142272949224,-0.1005,-0.001,-0.37525,0.13565177592032387,10,1,100,0.05706737913077298,-10,-1,-100,15010.540701455553,-0.013079464920160426,0.005492748104247397,0.999899373594996,25.77555282215958,0.026298971848706484,-59.808222674760025,20.50253064184261,-66.62075805664062,5356.25390625,True
1599560729.1639967,0.0,10,0.5,0.5,-1.3306698333740234,-0.1005,-0.001,-0.37525,0.08625366365561256,10,1,100,0.11015792699281166,-10,-1,-100,15010.942061570007,-0.012754695075904238,0.005746610295564467,0.9999021423237533,25.47440032818536,0.025734135014331166,-58.57511125116426,20.316710029033402,-68.84323120117188,5356.25390625,True
1599560729.198085,0.0,10,0.5,0.5,-1.0716422439575197,-0.1005,-0.001,-0.37525,0.08795516436826077,10,1,100,0.10552540288676909,-10,-1,-100,15011.343421196565,-0.012420662235199088,0.005989103616424282,0.999904924374068,25.140378323355144,0.025137131555656448,-57.279790567667234,20.13089862887525,-71.13470458984375,5356.25390625,True
1599560729.2330172,0.0,10,0.5,0.5,1.418840017700195,-0.1005,-0.001,-0.37525,0.13954786823144744,10,1,100,0.021583366964862766,-10,-1,-100,15012.548477762728,-0.011357180513702552,0.006675167644658229,0.9999132245288561,23.945825218366195,0.02322718816445012,-53.05170557476206,19.57352301284735,-78.1712646484375,5356.25390625,True
1599560729.265022,0.0,10,0.5,0.5,-1.2182112854003908,-0.1005,-0.001,-0.37525,0.07138506465431027,10,1,100,0.12746286031456436,-10,-1,-100,15012.548477762728,-0.011357180513702552,0.006675167644658229,0.9999132245288561,23.945825218366195,0.02322718816445012,-53.05170557476206,19.57352301284735,-78.1712646484375,5356.25390625,True
1599560729.2979712,0.0,10,0.5,0.5,1.1388267028808592,-0.1005,-0.001,-0.37525,0.11864745160145515,10,1,100,0.04238270902179002,-10,-1,-100,15013.292603683425,-0.0105875497511714,0.007101433205902211,0.9999187334162155,22.97966683551015,0.021916094832377536,-49.947609074414686,19.20198912566265,-83.11932373046875,5356.25390625,True
1599560729.3308659,0.0,10,0.5,0.5,2.807444038391113,-0.1005,-0.001,-0.37525,0.13636424807566955,10,1,100,-0.012355080058687795,-10,-1,-100,15014.435160966124,-0.009394793979871467,0.007646229122558405,0.9999266338218427,21.354197069885196,0.020090628624104805,-45.07153189932159,18.644759175288417,-90.52212524414062,5356.25390625,True
1599560729.366813,0.0,10,0.5,0.5,0.03329584655761719,-0.1005,-0.001,-0.37525,0.08228043416152664,10,1,100,0.10636348133083023,-10,-1,-100,15014.435160966124,-0.009394793979871467,0.007646229122558405,0.9999266338218427,21.354197069885196,0.020090628624104805,-45.07153189932159,18.644759175288417,-90.52212524414062,5356.25390625,True
1599560729.39777,0.0,10,0.5,0.5,4.7205035156249995,-0.1005,-0.001,-0.37525,0.1456550658382191,10,1,100,-0.07626069352696699,-10,-1,-100,15015.91462747776,-0.007739430987376169,0.00821898864013886,0.999936272686277,22.635777016147422,0.02152164633013003,-45.87808513190042,17.901822587171182,-100.36685180664062,5356.25390625,True
1599560729.4315379,0.0,10,0.5,0.5,1.0306524322509765,-0.1005,-0.001,-0.37525,0.08878061792984417,10,1,100,0.08859998021127356,-10,-1,-100,15015.91462747776,-0.007739430987376169,0.00821898864013886,0.999936272686277,22.635777016147422,0.02152164633013003,-45.87808513190042,17.901822587171182,-100.36685180664062,5356.25390625,True
1599560729.4646766,0.0,10,0.5,0.5,2.1571142238616945,-0.1005,-0.001,-0.37525,0.1022784934435214,10,1,100,0.03911469344274958,-10,-1,-100,15016.257395199384,-0.00729522976259939,0.008338511735033841,0.9999386225387814,22.99340474452003,0.022001726316258418,-46.12070254512226,17.716083531148904,-102.72620391845703,5356.25390625,True
1599560729.5004683,0.0,10,0.5,0.5,3.4874346302032473,-0.1005,-0.001,-0.37525,0.11190954686879671,10,1,100,-0.009371456892056665,-10,-1,-100,15016.930235744221,-0.006455885678083681,0.008532137067321975,0.9999427604504051,23.616342410997323,0.02294053754894621,-46.37945640170148,17.344598052088234,-107.37582397460938,5356.25390625,True
1599560729.5313823,0.0,10,0.5,0.5,3.8489872722625726,-0.1005,-0.001,-0.37525,0.10905218727158411,10,1,100,-0.02314555680224234,-10,-1,-100,15017.606006687158,-0.005573352701520276,0.008679651803271293,0.9999467992769608,24.10021909375369,0.023793796172115803,-46.31842867125099,16.973103474357274,-111.79509735107422,5356.25390625,True
1599560729.564302,0.0,10,0.5,0.5,3.198430358123779,-0.1005,-0.001,-0.37525,0.10076930041175036,10,1,100,0.017510430048935627,-10,-1,-100,15017.94291582529,-0.0051468747028675975,0.008736011184329597,0.9999485945734312,24.300170295167458,0.024183206283035413,-46.192780863331585,16.787353397208047,-113.90483856201172,5356.25390625,True
1599560729.5982504,0.0,10,0.5,0.5,6.099309558868408,-0.1005,-0.001,-0.37525,0.10938480269615139,10,1,100,-0.12474133958234579,-10,-1,-100,15019.288602423389,-0.003471615258181545,0.008863696239204726,0.9999546903617575,24.9656330490606,0.025526965629367106,-45.3616353272011,16.044340943921252,-121.65888214111328,5356.25390625,True
1599560729.634195,0.0,10,0.5,0.5,3.193953467559815,-0.1005,-0.001,-0.37525,0.09683515006809308,10,1,100,0.04199604836070737,-10,-1,-100,15019.288602423389,-0.003471615258181545,0.008863696239204726,0.9999546903617575,24.9656330490606,0.025526965629367106,-45.3616353272011,16.044340943921252,-121.65888214111328,5356.25390625,True
1599560729.6651144,0.0,10,0.5,0.5,4.038293524551392,-0.1005,-0.001,-0.37525,0.09751972129579631,10,1,100,-0.004495552899271518,-10,-1,-100,15019.56594284682,-0.003055433368993546,0.008868317556699026,0.9999560076676578,25.06444900008206,0.025757837937331732,-45.014957877091234,15.858587087527267,-123.425537109375,5356.25390625,True
1599560729.6981976,0.0,10,0.5,0.5,4.961261602020263,-0.1005,-0.001,-0.37525,0.09715407024751493,10,1,100,-0.049785339610475404,-10,-1,-100,15020.233905949048,-0.002271123918367037,0.008868083664496613,0.9999580986662725,25.194871808831866,0.026092911786460095,-44.19116461904674,15.48708159155773,-126.75210571289062,5356.25390625,True
1599560729.731157,0.0,10,0.5,0.5,5.168376398468018,-0.1005,-0.001,-0.37525,0.09114685419155959,10,1,100,-0.05960330163047288,-10,-1,-100,15020.84327581164,-0.0014753371903988737,0.008812149203311245,0.9999600839066494,25.24756247395354,0.026267306962291223,-43.22322141935981,15.115581809767448,-129.80368041992188,5356.25390625,True
1599560729.7671368,0.0,10,0.5,0.5,4.702913262939453,-0.1005,-0.001,-0.37525,0.09337725113042711,10,1,100,-0.021909295164877822,-10,-1,-100,15021.117687896825,-0.0011002621272032053,0.008781036792075004,0.9999608406413261,25.249552153521503,0.026299086384736787,-42.69636836580632,14.929834929841247,-131.22605895996094,5356.25390625,True
1599560729.7978663,0.0,10,0.5,0.5,5.427367481231689,-0.1005,-0.001,-0.37525,0.08777240932243816,10,1,100,-0.0650656669170136,-10,-1,-100,15021.72120005649,-0.0003729897527878842,0.008701288721649488,0.999962073507404,25.21289055482879,0.026262105677897284,-41.57533542160048,14.558348615310969,-133.86424255371094,5356.25390625,True
1599560729.8316438,0.0,10,0.5,0.5,5.564507274627686,-0.1005,-0.001,-0.37525,0.08512610104318812,10,1,100,-0.06943910103366309,-10,-1,-100,15022.268072557868,0.00032163249773211987,0.008604403330554369,0.9999629297108276,25.13227246856831,0.02610758072277167,-40.38667985435756,14.186874129290727,-136.22683715820312,5356.25390625,True
1599560729.8656142,0.0,10,0.5,0.5,5.193724941253662,-0.1005,-0.001,-0.37525,0.08799657204612457,10,1,100,-0.03802687704177853,-10,-1,-100,15022.542486039572,0.0006613802181187951,0.008542355196618926,0.9999632946983114,25.079024436763714,0.0259929057776787,-39.77435020907256,14.001141872712884,-137.30491638183594,5356.25390625,True
1599560729.9015992,0.0,10,0.5,0.5,5.719103811645509,-0.1005,-0.001,-0.37525,0.08049450456687487,10,1,100,-0.07549775887633539,-10,-1,-100,15023.085453849286,0.0013052182234029811,0.008417872003781392,0.9999637172599399,24.953446951090484,0.025702605469294017,-38.52690182329983,13.629687641647195,-139.25421142578125,5356.25390625,True
1599560729.932517,0.0,10,0.5,0.5,6.451484001922608,-0.1005,-0.001,-0.37525,0.06267904112657065,10,1,100,-0.1410875905898195,-10,-1,-100,15024.172368076048,0.0024809311593054872,0.00814303592372682,0.9999637673168601,24.66708348598464,0.02496019494552546,-36.01210442922838,12.8868217704646,-142.32582092285156,5356.25390625,True
1599560729.9655125,0.0,10,0.5,0.5,5.3009292320251475,-0.1005,-0.001,-0.37525,0.09009058310047997,10,1,100,-0.0241115516413176,-10,-1,-100,15024.172368076048,0.0024809311593054872,0.00814303592372682,0.9999637673168601,24.66708348598464,0.02496019494552546,-36.01210442922838,12.8868217704646,-142.32582092285156,5356.25390625,True
1599560729.9992225,0.0,10,0.5,0.5,5.586307315826416,-0.1005,-0.001,-0.37525,0.08265550547839326,10,1,100,-0.05410411703036118,-10,-1,-100,15024.439946190105,0.0027481794388263497,0.008076099454721921,0.9999636114016196,24.60721856284407,0.02476790283852605,-35.4077640303322,12.7011139477614,-142.92132568359375,5356.25390625,True
1599560730.0349388,0.0,10,0.5,0.5,6.017969968414307,-0.1005,-0.001,-0.37525,0.06669258169120049,10,1,100,-0.11006360210867025,-10,-1,-100,15025.126471465454,0.003494579000186471,0.007870850828562967,0.9999629181248902,24.426026569257672,0.024162406970986348,-33.60754786935239,12.144009954006181,-144.2942657470703,5356.25390625,True
1599560730.0658562,0.0,10,0.5,0.5,5.504528425598146,-0.1005,-0.001,-0.37525,0.08711772102350257,10,1,100,-0.03600021626451348,-10,-1,-100,15025.126471465454,0.003494579000186471,0.007870850828562967,0.9999629181248902,24.426026569257672,0.024162406970986348,-33.60754786935239,12.144009954006181,-144.2942657470703,5356.25390625,True
1599560730.0987682,0.0,10,0.5,0.5,5.777514177703858,-0.1005,-0.001,-0.37525,0.07087154152591021,10,1,100,-0.08634468703514558,-10,-1,-100,15025.60303560691,0.003947737901564412,0.0077240140134709895,0.9999623767787369,24.31014513897952,0.023750964731782967,-32.42656629503568,11.772622737728687,-144.86502075195312,5356.25390625,True
1599560730.1336756,0.0,10,0.5,0.5,5.725816691589356,-0.1005,-0.001,-0.37525,0.06427514749753398,10,1,100,-0.10746657691265284,-10,-1,-100,15026.290538277593,0.004547128628950091,0.007531519711109957,0.9999612991671591,24.15185585553836,0.023147395553952777,-30.692960998240086,11.215562774084239,-145.20367431640625,5356.25390625,True
1599560730.1695797,0.0,10,0.5,0.5,5.599870884704591,-0.1005,-0.001,-0.37525,0.08340760083258329,10,1,100,-0.048019516012258776,-10,-1,-100,15026.290538277593,0.004547128628950091,0.007531519711109957,0.9999612991671591,24.15185585553836,0.023147395553952777,-30.692960998240086,11.215562774084239,-145.20367431640625,5356.25390625,True
1599560730.2054834,0.0,10,0.5,0.5,5.544210825347901,-0.1005,-0.001,-0.37525,0.06906931619712996,10,1,100,-0.08739663731700109,-10,-1,-100,15026.761243323097,0.004901261098873914,0.0074021470177144215,0.9999605921530953,24.059126002515143,0.022765256018788368,-29.563938869484925,10.84420171765966,-145.0847930908203,5356.25390625,True
1599560730.241388,0.0,10,0.5,0.5,5.2586588836669925,-0.1005,-0.001,-0.37525,0.06284248333094249,10,1,100,-0.10250770925506499,-10,-1,-100,15027.38136376068,0.0053567186519863745,0.007228964459643053,0.9999595229998686,23.939032893139228,0.022236106138557022,-27.907017974011172,10.28717579277356,-144.38917541503906,5356.25390625,True
1599560730.2772918,0.0,10,0.5,0.5,5.344330182647706,-0.1005,-0.001,-0.37525,0.0732886335904718,10,1,100,-0.07221395603705102,-10,-1,-100,15027.58448908839,0.0054916900342624995,0.007167571597886746,0.999959232797996,23.903439245365387,0.022073599710015677,-27.363113854247633,10.101504228838133,-144.01950073242188,5356.25390625,True
1599560730.5408835,0.0,10,0.5,0.5,5.03291406326294,-0.1005,-0.001,-0.37525,0.06846941700199789,10,1,100,-0.08488202291582522,-10,-1,-100,15027.996600118931,0.005726818481706963,0.007068835631236559,0.9999586167001594,23.836495564092612,0.021771267319716354,-26.28440978128213,9.730166195327467,-143.07298278808594,5356.25390625,True
1599560730.574792,0.0,10,0.5,0.5,4.466708906555176,-0.1005,-0.001,-0.37525,0.06304733906812107,10,1,100,-0.09267959190914936,-10,-1,-100,15028.545430340804,0.0060085077999390574,0.006930760589694319,0.9999579303109039,23.73892693981482,0.02137774318078468,-24.67970764235973,9.173170575474739,-141.13612365722656,5356.25390625,True
1599560730.609698,0.0,10,0.5,0.5,4.415009020233155,-0.1005,-0.001,-0.37525,0.06777756291319524,10,1,100,-0.08011836436444286,-10,-1,-100,15028.89504053432,0.0061474320857789816,0.006849281076761163,0.9999576473168663,23.667365521735515,0.021155539112165257,-23.61013896881483,8.801846985384179,-139.5001220703125,5356.25390625,True
1599560730.6974661,0.0,10,0.5,0.5,4.590045913696289,-0.1005,-0.001,-0.37525,0.07191571097336052,10,1,100,-0.07247750416991403,-10,-1,-100,15029.038595146965,0.00620185284105993,0.0068137570198705255,0.9999575539674732,23.626949927113934,0.02105592519520627,-23.073054762364254,8.616187191509141,-138.57864379882812,5356.25390625,True
1599560730.7682748,0.0,10,0.5,0.5,4.464067956542968,-0.1005,-0.001,-0.37525,0.07161865220495081,10,1,100,-0.07224127060063135,-10,-1,-100,15029.237814182532,0.006246717519011974,0.006779722882810487,0.9999575060360666,23.581946938365373,0.020963332812801726,-22.533266536317687,8.43052859055275,-137.58822631835938,5356.25390625,True
1599560730.8031824,0.0,10,0.5,0.5,2.6223605751037597,-0.1005,-0.001,-0.37525,0.06005434071832683,10,1,100,-0.0774674019395924,-10,-1,-100,15029.86671954149,0.006332923893306707,0.006644511100269017,0.99995787138619,23.33207135343926,0.02064862704561908,-20.33196613039435,7.687906307794073,-132.93739318847656,5356.25390625,True
1599560730.835096,0.0,10,0.5,0.5,4.366359078979492,-0.1005,-0.001,-0.37525,0.0734868181113898,10,1,100,-0.06902534403655472,-10,-1,-100,15029.86671954149,0.006332923893306707,0.006644511100269017,0.99995787138619,23.33207135343926,0.02064862704561908,-20.33196613039435,7.687906307794073,-132.93739318847656,5356.25390625,True
1599560730.8710008,0.0,10,0.5,0.5,2.3613651512146,-0.1005,-0.001,-0.37525,0.06287517540829361,10,1,100,-0.06561369318036178,-10,-1,-100,15030.28761564463,0.006300285435282811,0.006548847992614361,0.9999587086442138,23.030601826910384,0.020435190905784027,-18.616181164368513,7.130950629103188,-128.7255859375,5356.25390625,True
1599560730.9098954,0.0,10,0.5,0.5,3.940209901428223,-0.1005,-0.001,-0.37525,0.07235615627124914,10,1,100,-0.06901744141639231,-10,-1,-100,15030.28761564463,0.006300285435282811,0.006548847992614361,0.9999587086442138,23.030601826910384,0.020435190905784027,-18.616181164368513,7.130950629103188,-128.7255859375,5356.25390625,True
1599560730.9477956,0.0,10,0.5,0.5,2.4389414112091066,-0.1005,-0.001,-0.37525,0.06441232423701074,10,1,100,-0.06168227557130365,-10,-1,-100,15030.565933583886,0.0062327443214335535,0.006477249625454947,0.999959598251606,22.750308798949707,0.02027558825673209,-17.432591654583785,6.7596506105581255,-125.57329559326172,5356.25390625,True
1599560730.9876866,0.0,10,0.5,0.5,1.124618351364136,-0.1005,-0.001,-0.37525,0.05888548288582641,10,1,100,-0.050591652479700176,-10,-1,-100,15030.987804131117,0.006069845776840405,0.006362543753910561,0.9999613367571892,22.173203128351815,0.019958685739157482,-15.591123921798555,6.202703186583739,-120.32815551757812,5356.25390625,True
1599560731.0225937,0.0,10,0.5,0.5,0.30034261550903363,-0.1005,-0.001,-0.37525,0.055135476218371435,10,1,100,-0.04094629643948609,-10,-1,-100,15031.335454171873,0.005833759292940021,0.006224816802690915,0.9999636087919825,21.41789226523228,0.01952012784924991,-13.708261898457291,5.645751943834522,-114.46322631835938,5356.25390625,True
1599560731.0555062,0.0,10,0.5,0.5,1.502892971420288,-0.1005,-0.001,-0.37525,0.06313274070566884,10,1,100,-0.05450534436818388,-10,-1,-100,15031.41553050885,0.005742558151025106,0.006172954654909398,0.9999644581967453,21.116195491642426,0.019329253232087895,-13.070883910123927,5.4600992103329125,-112.37053680419922,5356.25390625,True
1599560731.094403,0.0,10,0.5,0.5,0.20978677482605002,-0.1005,-0.001,-0.37525,0.05566165546569546,10,1,100,-0.041391321896888295,-10,-1,-100,15031.627439631964,0.005540797703122271,0.0060585031333099445,0.9999662964823348,20.461911281014437,0.01888932891593832,-11.804792557635704,5.088787743232317,-108.00758361816406,5356.25390625,True
1599560731.1303065,0.0,10,0.5,0.5,-0.3357811420440673,-0.1005,-0.001,-0.37525,0.05242699305812065,10,1,100,-0.03612518808190841,-10,-1,-100,15031.83934866637,0.005310106129563457,0.005925736868047544,0.9999683437066712,19.732186166820032,0.018354073107929598,-10.553336286894764,4.717464350634699,-103.42595672607422,5356.25390625,True
1599560731.1672082,0.0,10,0.5,0.5,1.380058122253418,-0.1005,-0.001,-0.37525,0.06561822098288445,10,1,100,-0.05910068429884496,-10,-1,-100,15031.83934866637,0.005310106129563457,0.005925736868047544,0.9999683437066712,19.732186166820032,0.018354073107929598,-10.553336286894764,4.717464350634699,-103.42595672607422,5356.25390625,True
1599560731.206104,0.0,10,0.5,0.5,-3.1281989162445063,-0.1005,-0.001,-0.37525,0.03078216509742366,10,1,100,-0.0031902705182641697,-10,-1,-100,15032.141094724531,0.004802759474979762,0.005609698882027192,0.9999727320181678,17.83028697523783,0.01675567302017188,-8.035066294866002,3.974769530653492,-93.9560546875,5356.25390625,True
1599560731.2459981,0.0,10,0.5,0.5,0.42148368988037116,-0.1005,-0.001,-0.37525,0.0622824824776346,10,1,100,-0.05377191953480098,-10,-1,-100,15032.141094724531,0.004802759474979762,0.005609698882027192,0.9999727320181678,17.83028697523783,0.01675567302017188,-8.035066294866002,3.974769530653492,-93.9560546875,5356.25390625,True
1599560731.2878857,0.0,10,0.5,0.5,-1.8857104263305664,-0.1005,-0.001,-0.37525,0.04082751780286059,10,1,100,-0.0219606909708406,-10,-1,-100,15032.286596183782,0.004514927875271307,0.0054155075205388715,0.9999751435433665,16.846200084011407,0.015849330799456263,-6.882368025640779,3.603392753364107,-89.11376953125,5356.25390625,True
1599560731.3267794,0.0,10,0.5,0.5,-4.631444213867187,-0.1005,-0.001,-0.37525,0.011843313020121309,10,1,100,0.014068286084447879,-10,-1,-100,15032.580529025407,0.003927349681906463,0.004976507457953746,0.9999799049470929,17.932068496661074,0.01677941650004468,-5.815916096292477,2.8605792744522707,-79.53134155273438,5356.25390625,True
1599560731.359694,0.0,10,0.5,0.5,-2.1628746726989747,-0.1005,-0.001,-0.37525,0.04236876209928385,10,1,100,-0.0280699755237251,-10,-1,-100,15032.595173960784,0.003778358606775929,0.004856284885566474,0.9999810700725033,18.329761930954763,0.017123404341894608,-5.55898548796395,2.6748685979089464,-77.171630859375,5356.25390625,True
1599560731.3985875,0.0,10,0.5,0.5,-1.2817088874816895,-0.1005,-0.001,-0.37525,0.05424039345117662,10,1,100,-0.04273993431977205,-10,-1,-100,15032.595173960784,0.003778358606775929,0.004856284885566474,0.9999810700725033,18.329761930954763,0.017123404341894608,-5.55898548796395,2.6748685979089464,-77.171630859375,5356.25390625,True
1599560731.4334931,0.0,10,0.5,0.5,-3.447887891387939,-0.1005,-0.001,-0.37525,0.026604043186908972,10,1,100,-0.009497982493567453,-10,-1,-100,15032.738722504466,0.0034780275907978545,0.004606289457634154,0.99998334257202,19.01457068591453,0.017714737896423614,-4.9659934900462614,2.3034460973297106,-72.62628173828125,5356.25390625,True
1599560731.4713924,0.0,10,0.5,0.5,-5.688028332519531,-0.1005,-0.001,-0.37525,-0.012719841088565782,10,1,100,0.029531175782830328,-10,-1,-100,15032.841249754652,0.0028522475288143773,0.004022955270825252,0.9999878401835312,19.965011149371083,0.018534093282324138,-3.5327670388022914,1.5606020420184543,-64.3408203125,5356.25390625,True
1599560731.5073063,0.0,10,0.5,0.5,-2.583275608825684,-0.1005,-0.001,-0.37525,0.045410022806075964,10,1,100,-0.0327779753980866,-10,-1,-100,15032.841249754652,0.0028522475288143773,0.004022955270825252,0.9999878401835312,19.965011149371083,0.018534093282324138,-3.5327670388022914,1.5606020420184543,-64.3408203125,5356.25390625,True
1599560731.5432115,0.0,10,0.5,0.5,-5.199903582000732,-0.1005,-0.001,-0.37525,-0.004785580856335868,10,1,100,0.01786118974617086,-10,-1,-100,15032.931085573742,0.002394125898958172,0.003568361402618983,0.9999907674364199,20.33761503839858,0.018862490815177997,-2.313991177405963,1.0034572112700237,-58.849029541015625,5356.25390625,True
1599560731.575126,0.0,10,0.5,0.5,-4.721245429992676,-0.1005,-0.001,-0.37525,0.004549711028149626,10,1,100,0.006021403947898161,-10,-1,-100,15032.94865930092,0.0020879369974646515,0.0032421036081680867,0.9999925646140018,20.448483615160285,0.01896756618348386,-1.4654056912505375,0.6320148223739328,-55.5328369140625,5356.25390625,True
1599560731.612028,0.0,10,0.5,0.5,-4.220256452941895,-0.1005,-0.001,-0.37525,0.017966388580502795,10,1,100,-0.007561282923871017,-10,-1,-100,15032.957446352462,0.0019355304426480026,0.003069627768483082,0.9999934155319568,20.469195664804147,0.018990299447619843,-1.0358325814136555,0.4462886470370315,-53.978302001953125,5356.25390625,True
1599560731.6499262,0.0,10,0.5,0.5,-4.3478178268432615,-0.1005,-0.001,-0.37525,0.01769844432462174,10,1,100,-0.006221106757495688,-10,-1,-100,15032.968186423648,0.001787402181331575,0.0029127048492737445,0.9999941606549025,20.469990409778823,0.01899556847982015,-0.6047832790768435,0.2605587466264807,-52.492431640625,5356.25390625,True
1599560731.6833534,0.0,10,0.5,0.5,-5.10918860168457,-0.1005,-0.001,-0.37525,-0.0032667390152474676,10,1,100,0.011885487404883103,-10,-1,-100,15032.979901227169,0.0014906142929258697,0.0025817303493312314,0.9999955563588436,20.421208144578767,0.0189616491865496,0.25683208327230284,-0.11091340421930651,-49.727783203125,5356.25390625,True
1599560731.714273,0.0,10,0.5,0.5,-5.25875221710205,-0.1005,-0.001,-0.37525,-0.008277308658820016,10,1,100,0.01479325624590865,-10,-1,-100,15032.933999432833,0.0011965880734467968,0.002237470877267944,0.9999967809453468,20.436776914442916,0.01899061368437171,1.1179207169782253,-0.48239968809596023,-47.239044189453125,5356.25390625,True
1599560731.747185,0.0,10,0.5,0.5,-4.870658210754395,-0.1005,-0.001,-0.37525,0.006892648872720085,10,1,100,0.0016166739946831595,-10,-1,-100,15032.940833890345,0.0010514256857799887,0.0020647971656865007,0.9999973155547427,20.44160617259739,0.01900314895220779,1.548755469658777,-0.6681472326436406,-46.09808349609375,5356.25390625,True
1599560731.7820926,0.0,10,0.5,0.5,-5.877312799072265,-0.1005,-0.001,-0.37525,-0.03264460950189422,10,1,100,0.03484042710576552,-10,-1,-100,15032.89981479582,0.0006199047895466835,0.0015509291587704039,0.9999986051674252,20.418759851480377,0.01900872273886068,2.8373851028564494,-1.225406420449313,-43.0887451171875,5356.25390625,True
1599560731.8110204,0.0,10,0.5,0.5,-5.162662098693848,-0.1005,-0.001,-0.37525,-0.0003796497296693242,10,1,100,0.007646794885950187,-10,-1,-100,15032.848056192044,0.00047742619751586465,0.0013798718415931456,0.9999989340083952,20.40344811482292,0.019004556907429714,3.2650865173169112,-1.4111645900425103,-42.223480224609375,5356.25390625,True
1599560731.8439348,0.0,10,0.5,0.5,-5.219006088256836,-0.1005,-0.001,-0.37525,-0.002794646860116325,10,1,100,0.009246869564803768,-10,-1,-100,15032.849032403668,0.00033551299979945,0.0012048134733636036,0.9999992179274548,20.38637557565444,0.018999683712385862,3.6918403222437606,-1.596925213379028,-41.427215576171875,5356.25390625,True
1599560731.8778446,0.0,10,0.5,0.5,-5.581882135009766,-0.1005,-0.001,-0.37525,-0.02255171606017619,10,1,100,0.026426488692490493,-10,-1,-100,15032.738679638831,5.261058665011636e-05,0.0008686217293338954,0.999999621364137,20.359195884798353,0.018999707735593736,4.5447941581076545,-1.968452981870933,-40.041229248046875,5356.25390625,True
1599560731.920248,0.0,10,0.5,0.5,-5.591848707580566,-0.1005,-0.001,-0.37525,-0.026779469605769435,10,1,100,0.029203800497665883,-10,-1,-100,15032.62930420367,-0.00022769306415786498,0.0005270130567772086,0.9999998352065398,20.34431904562123,0.019016565272490054,5.398790626771507,-2.339988752549736,-38.9310302734375,5356.25390625,True
1599560731.9601388,0.0,10,0.5,0.5,-5.723392013549805,-0.1005,-0.001,-0.37525,-0.04665267999044608,10,1,100,0.04765858309575609,-10,-1,-100,15032.513092949986,-0.000648180197546284,3.826243327533367e-05,0.9999997891991866,20.342616555010725,0.01907349468148564,6.684341905987767,-2.897305216996464,-37.7823486328125,5356.25390625,True
1599560732.001138,0.0,10,0.5,0.5,-5.410583325195313,-0.1005,-0.001,-0.37525,-0.015421926600540635,10,1,100,0.02132145289650463,-10,-1,-100,15032.457429325907,-0.0007886639436878386,-0.00011938458878613243,0.9999996818782013,20.349789257736216,0.019103396467205925,7.115555711702592,-3.083080533252468,-37.5372314453125,5356.25390625,True
1599560732.0450194,0.0,10,0.5,0.5,-5.403944331359863,-0.1005,-0.001,-0.37525,-0.01705409327885441,10,1,100,0.022998387230438618,-10,-1,-100,15032.340242038597,-0.0009292794194659069,-0.00027478149733753605,0.9999995304673344,20.36163767194117,0.019139630072980515,7.548825171244581,-3.2688572316036417,-37.360992431640625,5356.25390625,True
1599560732.083917,0.0,10,0.5,0.5,-5.394044299316406,-0.1005,-0.001,-0.37525,-0.04985447092662954,10,1,100,0.05593678213811194,-10,-1,-100,15032.165439268225,-0.0013543517205044612,-0.0007116398365943417,0.999998829649395,20.43850077829571,0.01929899616937693,8.86968631326761,-3.826194900340658,-37.245391845703125,5356.25390625,True
1599560732.1253247,0.0,10,0.5,0.5,-5.111742402648926,-0.1005,-0.001,-0.37525,-0.05176922558454904,10,1,100,0.060671033807574756,-10,-1,-100,15031.869543392444,-0.0017815007004492167,-0.001123509632159922,0.9999977819882206,20.571346566293894,0.019527410694213362,10.228303876398032,-4.383541419423555,-37.74969482421875,5356.25390625,True
1599560732.1662145,0.0,10,0.5,0.5,-4.978194268798829,-0.1005,-0.001,-0.37525,-0.03710757403182075,10,1,100,0.049965240916993614,-10,-1,-100,15031.68497562129,-0.0020699171774062304,-0.0013617505169239684,0.9999969305344932,20.685665187880325,0.019711086487462618,11.157396167478518,-4.755109465187438,-38.429931640625,5356.25390625,True
1599560732.203627,0.0,10,0.5,0.5,-5.23391901550293,-0.1005,-0.001,-0.37525,-0.013574753522985554,10,1,100,0.02139257541798754,-10,-1,-100,15031.68497562129,-0.0020699171774062304,-0.0013617505169239684,0.9999969305344932,20.685665187880325,0.019711086487462618,11.157396167478518,-4.755109465187438,-38.429931640625,5356.25390625,True
1599560732.2485065,0.0,10,0.5,0.5,-4.193958213806153,-0.1005,-0.001,-0.37525,-0.06027833695109995,10,1,100,0.08517178188768204,-10,-1,-100,15031.320722713834,-0.0026474123786080694,-0.0017838361641263564,0.9999949045551368,20.965115033260073,0.020132046627824213,13.076510968975,-5.498249964726272,-40.616668701171875,5356.25390625,True
1599560732.2854078,0.0,10,0.5,0.5,-4.672608963012696,-0.1005,-0.001,-0.37525,-0.029205829594474476,10,1,100,0.04365722747098251,-10,-1,-100,15031.198654348147,-0.002792291225568466,-0.001882356095034214,0.9999943299065466,21.041850341683567,0.020242009594045304,13.568156297144302,-5.684035206008251,-41.335540771484375,5356.25390625,True
1599560732.3248172,0.0,10,0.5,0.5,-4.160111871337891,-0.1005,-0.001,-0.37525,-0.03748575120221885,10,1,100,0.061132121298583975,-10,-1,-100,15030.953540250892,-0.0030802756650450047,-0.002044690794271426,0.9999931655473365,21.19712374586869,0.02045672836530649,14.562482012179276,-6.05560467792271,-42.979522705078125,5356.25390625,True
1599560732.3617182,0.0,10,0.5,0.5,-4.336490225219727,-0.1005,-0.001,-0.37525,-0.028820454535913566,10,1,100,0.04829635133492524,-10,-1,-100,15030.832448027679,-0.0032227976261714267,-0.002111154456746981,0.9999925782736193,21.27400261328666,0.020558398082331297,15.064065372303903,-6.241388725170024,-43.904632568359375,5356.25390625,True
1599560732.3986206,0.0,10,0.5,0.5,-3.704346395874024,-0.1005,-0.001,-0.37525,-0.03771591244404399,10,1,100,0.06573959065904446,-10,-1,-100,15030.58342757693,-0.003508597387025053,-0.002250489751898651,0.9999913124823897,21.419973561972792,0.020740316621325132,16.071211165473393,-6.612954679008199,-45.961761474609375,5356.25390625,True
1599560732.4305353,0.0,10,0.5,0.5,-3.365890585327148,-0.1005,-0.001,-0.37525,-0.03517292807868494,10,1,100,0.068106526844961,-10,-1,-100,15030.276790384087,-0.003787460286360921,-0.0023521027940213482,0.9999900613291242,21.54664650225168,0.020878515155285944,17.075506733655313,-6.984517016384387,-48.293975830078125,5356.25390625,True
1599560732.4664373,0.0,10,0.5,0.5,-2.9993926544189455,-0.1005,-0.001,-0.37525,-0.034647375603772956,10,1,100,0.07086149386736028,-10,-1,-100,15029.967223518062,-0.004063418821536344,-0.0024378120631821606,0.9999887727868876,21.642177887021365,0.020953103571734997,18.064629210524966,-7.356075068064689,-50.901580810546875,5356.25390625,True
1599560732.5013473,0.0,10,0.5,0.5,-2.605061795043946,-0.1005,-0.001,-0.37525,-0.03221792563644295,10,1,100,0.07266658534760913,-10,-1,-100,15029.653750105877,-0.004328237351424417,-0.0024920744243284556,0.9999875278854699,21.692875951038317,0.020942898930775142,19.02263538359045,-7.727628527625789,-53.784332275390625,5356.25390625,True
1599560732.5382473,0.0,10,0.5,0.5,-2.182768275451661,-0.1005,-0.001,-0.37525,-0.03047064458323831,10,1,100,0.07452948699296467,-10,-1,-100,15029.340276867733,-0.004583601723870465,-0.0025242753205303465,0.9999863092209527,21.683906626267824,0.020827665924259685,19.930221990810768,-8.099178008207646,-56.9423828125,5356.25390625,True
1599560732.5691636,0.0,10,0.5,0.5,-1.7325884552001956,-0.1005,-0.001,-0.37525,-0.028252787603266334,10,1,100,0.07585294095860198,-10,-1,-100,15029.027780147968,-0.004825497385284971,-0.002532329685619951,0.9999851508304253,21.599567494953643,0.020590342951919027,20.76474692233944,-8.470724929145463,-60.37567138671875,5356.25390625,True
1599560732.6040704,0.0,10,0.5,0.5,-1.2544038833618167,-0.1005,-0.001,-0.37525,-0.025818374424448773,10,1,100,0.07680576795090577,-10,-1,-100,15028.653759217821,-0.005051559522675576,-0.002516456643922435,0.9999840744693628,21.424328316312323,0.020220244327488455,21.50108874369967,-8.842271315014283,-64.08419799804688,5356.25390625,True
1599560732.6429675,0.0,10,0.5,0.5,-2.6436817413330083,-0.1005,-0.001,-0.37525,-0.02747894064217995,10,1,100,0.054439968926252025,-10,-1,-100,15028.653759217821,-0.005051559522675576,-0.002516456643922435,0.9999840744693628,21.424328316312323,0.020220244327488455,21.50108874369967,-8.842271315014283,-64.08419799804688,5356.25390625,True
1599560732.6788714,0.0,10,0.5,0.5,-0.746116325378418,-0.1005,-0.001,-0.37525,-0.02340175879023109,10,1,100,0.07746530921589206,-10,-1,-100,15028.337355704163,-0.005258826917765843,-0.00247881489931482,0.9999830999652664,21.14223949635832,0.01971395955849595,22.11106375435436,-9.213820076818475,-68.0679931640625,5356.25390625,True
1599560732.7088253,0.0,10,0.5,0.5,-0.2122915679931643,-0.1005,-0.001,-0.37525,-0.020855454739293566,10,1,100,0.07749275377228423,-10,-1,-100,15027.95942827058,-0.005445520817221722,-0.0024210522545675163,0.999982242246836,20.73846026347925,0.019074751604191188,22.56499483011103,-9.58537423398719,-72.3270263671875,5356.25390625,True
1599560732.7427008,0.0,10,0.5,0.5,-0.7454171249389651,-0.1005,-0.001,-0.37525,-0.0228583557143986,10,1,100,0.06894504179312605,-10,-1,-100,15027.714312373544,-0.0055355154140155835,-0.002386467224754722,0.9999818312565916,20.486252141647622,0.018708548918220515,22.72343043133576,-9.771154333974865,-74.55978393554688,5356.25390625,True
1599560732.7756126,0.0,10,0.5,0.5,0.6372795227050778,-0.1005,-0.001,-0.37525,-0.0171293802417727,10,1,100,0.07745198973597282,-10,-1,-100,15027.331501627923,-0.005692821921465891,-0.002302821077471168,0.9999811442190576,19.871489085896762,0.017894781065770582,22.881430815915927,-10.142722449759553,-79.22122192382812,5356.25390625,True
1599560732.80653,0.0,10,0.5,0.5,1.1773606887817383,-0.1005,-0.001,-0.37525,-0.01501356386884064,10,1,100,0.07644072258271381,-10,-1,-100,15026.895956153632,-0.005824902352631903,-0.0022075892326563276,0.9999805983429688,19.16968104522834,0.01705831404739683,22.883774189915993,-10.514302200465742,-84.02667236328125,5356.25390625,True
1599560732.839442,0.0,10,0.5,0.5,0.5444005081176757,-0.1005,-0.001,-0.37525,-0.01867772567930663,10,1,100,0.06994298822762776,-10,-1,-100,15026.703573980369,-0.005884303810890135,-0.0021545346836748234,0.9999803662817376,18.787047652505116,0.01664355968873823,22.824227566381786,-10.70009657805782,-86.47958374023438,5356.25390625,True
1599560732.8683648,0.0,10,0.5,0.5,3.165968632507324,-0.1005,-0.001,-0.37525,-0.005349835330578961,10,1,100,0.07906546807907094,-10,-1,-100,15026.065880073933,-0.006019822165720315,-0.001985447490285617,0.9999799096678674,18.11753142734868,0.015992409106943332,23.16033651939934,-11.257490814807882,-93.9178466796875,5356.25390625,True
1599560732.902274,0.0,10,0.5,0.5,0.37845801086425784,-0.1005,-0.001,-0.37525,-0.02220467188647515,10,1,100,0.0656572546402379,-10,-1,-100,15026.065880073933,-0.006019822165720315,-0.001985447490285617,0.9999799096678674,18.11753142734868,0.015992409106943332,23.16033651939934,-11.257490814807882,-93.9178466796875,5356.25390625,True
1599560732.9381776,0.0,10,0.5,0.5,2.6320205833435057,-0.1005,-0.001,-0.37525,-0.008872979312643848,10,1,100,0.07222722072404597,-10,-1,-100,15025.563927365118,-0.006078463380318175,-0.0018647474507010907,0.9999797872956628,19.144780066943028,0.017005856103146068,25.283528054250418,-11.629074691120238,-98.64765930175781,5356.25390625,True
1599560732.9690957,0.0,10,0.5,0.5,3.0008581779479977,-0.1005,-0.001,-0.37525,-0.007943835976661418,10,1,100,0.06975553775195467,-10,-1,-100,15025.11861456337,-0.006108370181244814,-0.0017471658472909735,0.999979817408947,20.11998390907571,0.01807415381110094,27.422881637180108,-12.00063861407105,-103.14633178710938,5356.25390625,True
1599560733.0030053,0.0,10,0.5,0.5,2.3513299087524415,-0.1005,-0.001,-0.37525,-0.012630035984242005,10,1,100,0.06767239142253224,-10,-1,-100,15024.860801607138,-0.006115659751221038,-0.0016835746540749008,0.9999798819387276,20.555211973074975,0.01859216476120516,28.45107875643119,-12.186412384753249,-105.32119750976562,5356.25390625,True
1599560733.0359147,0.0,10,0.5,0.5,3.551694894790649,-0.1005,-0.001,-0.37525,-0.0056768373435477516,10,1,100,0.06624730538879817,-10,-1,-100,15024.357871334534,-0.0061085523664987,-0.0015632765273678323,0.9999801206796486,21.337330610730813,0.019593339606682685,30.436842457506987,-12.557942630592768,-109.5519027709961,5356.25390625,True
1599560733.0709317,0.0,10,0.5,0.5,3.863081338119507,-0.1005,-0.001,-0.37525,-0.005006807260774342,10,1,100,0.06358835613320579,-10,-1,-100,15023.849081541877,-0.006077316085746392,-0.0014486032075427388,0.9999804836985274,21.992236540423132,0.020514966718892344,32.30212297527815,-12.929449360045474,-113.53558349609375,5356.25390625,True
1599560733.1038406,0.0,10,0.5,0.5,3.2715312728881836,-0.1005,-0.001,-0.37525,-0.010191714869165244,10,1,100,0.06406158100506981,-10,-1,-100,15023.595174545073,-0.00605272896510512,-0.0013923428623391274,0.9999807127407151,22.319024779838013,0.020980978869199075,33.254624238362574,-13.115193879612711,-115.42613220214844,5356.25390625,True
1599560733.1357567,0.0,10,0.5,0.5,4.266658828735351,-0.1005,-0.001,-0.37525,-0.004021522566756582,10,1,100,0.05925434149781476,-10,-1,-100,15023.02486093156,-0.005986347671689246,-0.0012859321441458856,0.9999812548343466,22.896803994390627,0.021838239377826293,35.08510880575208,-13.4866655793182,-119.00140380859375,5356.25390625,True
1599560733.1687953,0.0,10,0.5,0.5,4.498475786590577,-0.1005,-0.001,-0.37525,-0.003925776547115414,10,1,100,0.056397511411610424,-10,-1,-100,15022.509234216064,-0.005899883090237451,-0.0011891625793266647,0.999981888471927,23.374196047802705,0.02257754969286523,36.80661579939517,-13.858115600369871,-122.30133056640625,5356.25390625,True
1599560733.2047,0.0,10,0.5,0.5,3.999570076751709,-0.1005,-0.001,-0.37525,-0.008485423805691695,10,1,100,0.05933234678700158,-10,-1,-100,15022.19477973017,-0.005847945083894514,-0.0011435191973911101,0.9999822467934824,23.579526900686584,0.022901401185689167,37.62935327721091,-14.043833086396031,-123.84796142578125,5356.25390625,True
1599560733.2376118,0.0,10,0.5,0.5,4.795473709869386,-0.1005,-0.001,-0.37525,-0.003927214916785394,10,1,100,0.05165838898945533,-10,-1,-100,15021.62055907643,-0.005731121713679447,-0.0010613523405440892,0.9999830137432897,23.932051254549904,0.023457989728718296,39.20582088399188,-14.415254483350118,-126.73452758789062,5356.25390625,True
1599560733.2696164,0.0,10,0.5,0.5,5.529644156646729,-0.1005,-0.001,-0.37525,-0.000819812050652324,10,1,100,0.0404268650437975,-10,-1,-100,15020.728954311577,-0.005523076341661624,-0.0009592461674908073,0.9999842876138177,24.340085849065094,0.024075478407232155,41.42142179860346,-14.972356198081574,-130.547607421875,5356.25390625,True
1599560733.3024998,0.0,10,0.5,0.5,4.101975943756104,-0.1005,-0.001,-0.37525,-0.010939879227659486,10,1,100,0.06117586354171408,-10,-1,-100,15020.728954311577,-0.005523076341661624,-0.0009592461674908073,0.9999842876138177,24.340085849065094,0.024075478407232155,41.42142179860346,-14.972356198081574,-130.547607421875,5356.25390625,True
1599560733.3384364,0.0,10,0.5,0.5,5.150224898529052,-0.1005,-0.001,-0.37525,-0.005005881725601021,10,1,100,0.04364079405354081,-10,-1,-100,15020.14789705933,-0.005364198704350579,-0.0009060170262719123,0.9999852021432158,24.549831155987288,0.024356042965824515,42.818968589974276,-15.343740041053604,-132.74520874023438,5356.25390625,True
1599560733.368358,0.0,10,0.5,0.5,5.65074211807251,-0.1005,-0.001,-0.37525,-0.003756459695176238,10,1,100,0.030522472595714306,-10,-1,-100,15019.194768303656,-0.005101190167221089,-0.000846975386367058,0.99998663015641,24.799062303885517,0.024613018790434964,44.83089403502894,-15.900793419854379,-135.52487182617188,5356.25390625,True
1599560733.4022646,0.0,10,0.5,0.5,4.610270841979981,-0.1005,-0.001,-0.37525,-0.009588993571561599,10,1,100,0.0567225900887356,-10,-1,-100,15019.194768303656,-0.005101190167221089,-0.000846975386367058,0.99998663015641,24.799062303885517,0.024613018790434964,44.83089403502894,-15.900793419854379,-135.52487182617188,5356.25390625,True
1599560733.4361427,0.0,10,0.5,0.5,5.3302180923461915,-0.1005,-0.001,-0.37525,-0.006876481337678212,10,1,100,0.03540594400401986,-10,-1,-100,15018.556093784748,-0.004908289862740514,-0.0008228631186237323,0.9999876157167704,24.935973434769174,0.024696881702052333,46.13601970923957,-16.272149049730213,-137.03353881835938,5356.25390625,True
1599560733.4722245,0.0,10,0.5,0.5,5.352866625976563,-0.1005,-0.001,-0.37525,-0.007316013677377707,10,1,100,0.03270105847611576,-10,-1,-100,15017.913513285457,-0.0047093764803248315,-0.0008054563326213548,0.9999885864414967,25.058999606560388,0.024728083662536714,47.426762162075605,-16.643494776262457,-138.26657104492188,5356.25390625,True
1599560733.5031424,0.0,10,0.5,0.5,5.13626667251587,-0.1005,-0.001,-0.37525,-0.008906887875465345,10,1,100,0.040460759555453835,-10,-1,-100,15017.532652686117,-0.004600249752660343,-0.0008045312706122851,0.999989095156366,25.11752750411912,0.024728443321092343,48.07044349378555,-16.82916407061602,-138.77980041503906,5356.25390625,True
1599560733.535057,0.0,10,0.5,0.5,5.335320273590089,-0.1005,-0.001,-0.37525,-0.009219669228066914,10,1,100,0.02696407098063601,-10,-1,-100,15016.888118511066,-0.004379527952592079,-0.000806883436817431,0.9999900842878552,25.23224345940468,0.024706765734227306,49.360901278900336,-17.20049538639082,-139.59954833984375,5356.25390625,True
1599560733.5691278,0.0,10,0.5,0.5,5.288175896453858,-0.1005,-0.001,-0.37525,-0.009983199720586717,10,1,100,0.023768230418677108,-10,-1,-100,15016.185967976227,-0.004151153599358852,-0.0008162689885364469,0.9999910507743219,25.347607259298954,0.024664520968980242,50.66269205818402,-17.57181702673872,-140.1437225341797,5356.25390625,True
1599560733.6050277,0.0,10,0.5,0.5,5.165611328887939,-0.1005,-0.001,-0.37525,-0.010108374668822495,10,1,100,0.033286714775479315,-10,-1,-100,15015.803153806366,-0.00403150856158532,-0.0008261620654031573,0.9999915321616277,25.406608580613597,0.024638833001703934,51.320039286656446,-17.757474045973144,-140.3125,5356.25390625,True
1599560733.6359491,0.0,10,0.5,0.5,5.165495903015137,-0.1005,-0.001,-0.37525,-0.011619952963760732,10,1,100,0.018279717840830392,-10,-1,-100,15015.09904970508,-0.00378766907127628,-0.0008490183780560485,0.9999924663370222,25.53207344841479,0.024587199902843963,52.657870727022576,-18.12878055601376,-140.44332885742188,5356.25390625,True
1599560733.6689587,0.0,10,0.5,0.5,5.048529573059082,-0.1005,-0.001,-0.37525,-0.01244069137643574,10,1,100,0.014885069927037475,-10,-1,-100,15014.38908676221,-0.0035367140147521126,-0.0008773583094824813,0.9999933609261487,25.677863207303645,0.024550702694760562,54.04945103847049,-18.500076091012595,-140.298583984375,5356.25390625,True
1599560733.7028708,0.0,10,0.5,0.5,4.754504633331299,-0.1005,-0.001,-0.37525,-0.015691257102724863,10,1,100,-0.0034776701896106973,-10,-1,-100,15013.232833432616,-0.0031433004029329755,-0.0009326985343971299,0.9999946248535644,25.9032906233567,0.02450931694238158,56.1752615720918,-19.056998590897702,-139.56480407714844,5356.25390625,True
1599560733.7389321,0.0,10,0.5,0.5,5.030259536743165,-0.1005,-0.001,-0.37525,-0.01016580692606301,10,1,100,0.03566790201587419,-10,-1,-100,15013.232833432616,-0.0031433004029329755,-0.0009326985343971299,0.9999946248535644,25.9032906233567,0.02450931694238158,56.1752615720918,-19.056998590897702,-139.56480407714844,5356.25390625,True
1599560733.768865,0.0,10,0.5,0.5,4.634026132202148,-0.1005,-0.001,-0.37525,-0.014442459149712837,10,1,100,0.005864251633879755,-10,-1,-100,15012.464276640327,-0.0028741380265187425,-0.0009714992608411919,0.9999953977493049,26.055612548213983,0.024499153176790116,57.6133383141426,-19.428265799287985,-138.73109436035156,5356.25390625,True
1599560733.8027742,0.0,10,0.5,0.5,4.699551795196534,-0.1005,-0.001,-0.37525,-0.012494932315427743,10,1,100,0.017741041053084043,-10,-1,-100,15012.075603666133,-0.002739264998895135,-0.0009889327353493679,0.9999957592106633,26.131282591900288,0.024501212805320676,58.336258382300606,-19.613894979819744,-138.21087646484375,5356.25390625,True
1599560733.8367367,0.0,10,0.5,0.5,4.301464289855958,-0.1005,-0.001,-0.37525,-0.015428184922537082,10,1,100,0.00031239401695764765,-10,-1,-100,15011.241617279476,-0.0024600019202556424,-0.001031280484600769,0.999996442419229,26.279289658052313,0.024522674063887792,59.78441564183466,-19.985144614838568,-136.96380615234375,5356.25390625,True
1599560733.8721037,0.0,10,0.5,0.5,4.044804365539551,-0.1005,-0.001,-0.37525,-0.015159643139146051,10,1,100,-0.0027700714557412215,-10,-1,-100,15010.473061637138,-0.002180049660679209,-0.0010671310138766804,0.9999970543030995,26.418314741753566,0.024570918047559252,61.224681864913826,-20.35638269365865,-135.44107055664062,5356.25390625,True
1599560733.9030387,0.0,10,0.5,0.5,3.760292944335938,-0.1005,-0.001,-0.37525,-0.016006431588988793,10,1,100,-0.0067307530168686375,-10,-1,-100,15009.63516911876,-0.0018915409362284868,-0.0011071838922378436,0.9999975981054733,26.542037103246056,0.024649767271994916,62.64100629983706,-20.727609490927925,-133.64285278320312,5356.25390625,True
1599560733.9359295,0.0,10,0.5,0.5,3.9574835403442385,-0.1005,-0.001,-0.37525,-0.013797133450405681,10,1,100,0.006089935050467864,-10,-1,-100,15009.185950132902,-0.0017478661806700987,-0.0011232466032120533,0.9999978416381122,26.595877914132352,0.02470156931591023,63.33415134666898,-20.913218895363286,-132.64035034179688,5356.25390625,True
1599560733.970859,0.0,10,0.5,0.5,3.2807106605529786,-0.1005,-0.001,-0.37525,-0.015618343703216459,10,1,100,-0.011686156332521694,-10,-1,-100,15008.349034957355,-0.0014577279742997637,-0.0011541354477252429,0.9999982714987669,26.68215413706195,0.024830567725535144,64.67571051329288,-21.284430509451827,-130.42869567871094,5356.25390625,True
1599560734.0057771,0.0,10,0.5,0.5,3.534371180725098,-0.1005,-0.001,-0.37525,-0.014081016691895229,10,1,100,0.0010603789012215356,-10,-1,-100,15007.96036254696,-0.0013119616898125581,-0.0011679631362073411,0.9999984573081285,26.712280743030355,0.024907548059045895,65.31757298189153,-21.470032876817502,-129.2195281982422,5356.25390625,True
1599560734.0366871,0.0,10,0.5,0.5,2.064577301025391,-0.1005,-0.001,-0.37525,-0.016362742282123664,10,1,100,-0.03299087474208999,-10,-1,-100,15006.611728700227,-0.0008719125365440297,-0.0012010125358052118,0.9999988986681022,26.73566863960495,0.02518283199417949,67.08339143795973,-22.026829632067226,-125.17869567871094,5356.25390625,True
1599560734.068737,0.0,10,0.5,0.5,2.87308094329834,-0.1005,-0.001,-0.37525,-0.013822162196254805,10,1,100,-0.0052328931592669475,-10,-1,-100,15006.162509256043,-0.000726278036931385,-0.0012077173401122791,0.9999990069690268,26.716424888650266,0.025285670511683022,67.6044604268613,-22.212425840614554,-123.69392395019531,5356.25390625,True
1599560734.1026125,0.0,10,0.5,0.5,2.689530913162232,-0.1005,-0.001,-0.37525,-0.013925007587664368,10,1,100,-0.007183567711145871,-10,-1,-100,15005.709384299,-0.0005783469253264466,-0.0012144975577626862,0.9999990952548489,26.681326236757887,0.025391411951591305,68.08437109237768,-22.398021388783345,-122.14032745361328,5356.25390625,True
1599560734.1396956,0.0,10,0.5,0.5,1.6942474067687994,-0.1005,-0.001,-0.37525,-0.013662901218304015,10,1,100,-0.024370270486578374,-10,-1,-100,15004.808016864816,-0.0002897084269100183,-0.00121805769927167,0.999999216201927,26.556971477784245,0.025600924256658997,68.89957620020837,-22.769211391169996,-118.82637786865234,5356.25390625,True
1599560734.1696324,0.0,10,0.5,0.5,1.2282145259857178,-0.1005,-0.001,-0.37525,-0.013280579694986566,10,1,100,-0.027864144844593944,-10,-1,-100,15003.905673083733,2.2258325668897998e-06,-0.0012176102459188398,0.9999992587098926,26.349995797694135,0.025785375818795718,69.48684263139242,-23.140402858344284,-115.23698425292969,5356.25390625,True
1599560734.2026641,0.0,10,0.5,0.5,1.669968901062012,-0.1005,-0.001,-0.37525,-0.012892312859138437,10,1,100,-0.014760396616267614,-10,-1,-100,15003.454500754131,0.0001462572411494555,-0.0012135043809437221,0.9999992530076895,26.211358452792116,0.025857216877378488,69.68063042392299,-23.326000309545265,-113.33894348144531,5356.25390625,True
1599560734.2367342,0.0,10,0.5,0.5,0.4757063201904299,-0.1005,-0.001,-0.37525,-0.01157923062950719,10,1,100,-0.031591156757998,-10,-1,-100,15002.489657439175,0.0004280869712385836,-0.0011977015985450883,0.9999991911258858,25.860833880645583,0.02593758861055371,69.85306222048604,-23.697200835476497,-109.33622741699219,5356.25390625,True
1599560734.272799,0.0,10,0.5,0.5,-0.06005432319641102,-0.1005,-0.001,-0.37525,-0.01053028756377517,10,1,100,-0.033726213313570605,-10,-1,-100,15001.522861157893,0.0007015966691816627,-0.0011737172978521235,0.9999990650744721,25.490254721482138,0.025981085036869845,69.94117148666655,-24.068409627947027,-105.05803680419922,5356.25390625,True
1599560734.3037138,0.0,10,0.5,0.5,0.47576339797973644,-0.1005,-0.001,-0.37525,-0.01133156738258637,10,1,100,-0.021671230900070473,-10,-1,-100,15001.069736452657,0.0008384243155073228,-0.0011591518676707664,0.9999989767052839,25.258889970435924,0.025937329636277567,69.8461890241544,-24.25401791039637,-102.8156509399414,5356.25390625,True
1599560734.336592,0.0,10,0.5,0.5,-0.9071381633758544,-0.1005,-0.001,-0.37525,-0.00881775273893316,10,1,100,-0.03707760238227602,-10,-1,-100,15000.04044006695,0.0011007835962872396,-0.0011230531467272802,0.9999987635127874,24.695358191408655,0.025679615977420342,69.3439856400998,-24.625243835227383,-98.14598083496094,5356.25390625,True
1599560734.3694937,0.0,10,0.5,0.5,-1.419448484802246,-0.1005,-0.001,-0.37525,-0.007591414185211421,10,1,100,-0.03843378281325321,-10,-1,-100,14999.067785003572,0.0013494275415632294,-0.0010791284226443498,0.9999985072624645,24.01589720264682,0.025174159638529352,68.46369171207908,-24.996482841548577,-93.39244079589844,5356.25390625,True
1599560734.4063947,0.0,10,0.5,0.5,-0.7806764553070068,-0.1005,-0.001,-0.37525,-0.009370362908642425,10,1,100,-0.027296000462391994,-10,-1,-100,14998.554112739977,0.0014721955249171117,-0.0010554799201575684,0.9999983592998913,23.679726254103556,0.024866126600110127,68.01215995817789,-25.182106443059965,-90.9924087524414,5356.25390625,True
1599560734.4393034,0.0,10,0.5,0.5,-2.1811607677459715,-0.1005,-0.001,-0.37525,-0.00595160682371655,10,1,100,-0.04071548514720492,-10,-1,-100,14997.52384027571,0.001703799485499078,-0.0010030400784156726,0.9999980454870472,23.436829361708877,0.024567396317310686,68.3180754373508,-25.553355025444255,-86.16250610351562,5356.25390625,True
1599560734.470224,0.0,10,0.5,0.5,-3.6398375961303713,-0.1005,-0.001,-0.37525,-0.0018294366309409282,10,1,100,-0.05292110798152398,-10,-1,-100,14995.972084030975,0.0020232340696030157,-0.0009180854546063043,0.999997531818453,25.063074576409,0.025885169841301715,74.66899974033483,-26.110167826786846,-79.29440307617188,5356.25390625,True
1599560734.5041335,0.0,10,0.5,0.5,-1.066535132598877,-0.1005,-0.001,-0.37525,-0.010294901787411215,10,1,100,-0.021208943820781517,-10,-1,-100,14995.972084030975,0.0020232340696030157,-0.0009180854546063043,0.999997531818453,25.063074576409,0.025885169841301715,74.66899974033483,-26.110167826786846,-79.29440307617188,5356.25390625,True
1599560734.5390399,0.0,10,0.5,0.5,-4.08257873916626,-0.1005,-0.001,-0.37525,-0.0007318676054961868,10,1,100,-0.05244339083644223,-10,-1,-100,14994.42032760894,0.0023053463077117166,-0.0008314210754900882,0.9999969970541895,26.388350967689433,0.026602770187475932,80.31348742281192,-26.666898198003622,-72.96240234375,5356.25390625,True
1599560734.569899,0.0,10,0.5,0.5,-2.6509988777160642,-0.1005,-0.001,-0.37525,-0.0063585337977370635,10,1,100,-0.03374125817075453,-10,-1,-100,14993.842203061795,0.002389829782607409,-0.0008041341355915848,0.999996821035898,26.767142297560312,0.026738338768584544,82.03995425030175,-26.85245727600482,-70.985595703125,5356.25390625,True
1599560734.6038082,0.0,10,0.5,0.5,-2.82086488571167,-0.1005,-0.001,-0.37525,-0.005607615129736216,10,1,100,-0.03497929444727367,-10,-1,-100,14993.322672372684,0.0024761044142887862,-0.0007728590818501681,0.9999966357922255,27.11621221665039,0.02683321247386654,83.69097398842784,-27.038008028080693,-69.077392578125,5356.25390625,True
1599560734.6367207,0.0,10,0.5,0.5,-3.8256715148925777,-0.1005,-0.001,-0.37525,-0.0026904682726433572,10,1,100,-0.043240302063752414,-10,-1,-100,14992.22794659622,0.0026280227780170204,-0.000718272114489856,0.9999962887838373,27.731919509290464,0.026928071869853378,86.78010400292828,-27.409085782361277,-65.46780395507812,5356.25390625,True
1599560734.6726243,0.0,10,0.5,0.5,-4.060877010345459,-0.1005,-0.001,-0.37525,-0.0021800494621267473,10,1,100,-0.04352749893026974,-10,-1,-100,14991.122478812118,0.0027671143543178366,-0.0006644082274786766,0.9999959508117308,28.24884452084572,0.026936900520927395,89.60890630391556,-27.78013455077016,-62.134185791015625,5356.25390625,True
1599560734.7035418,0.0,10,0.5,0.5,-3.5572603172302246,-0.1005,-0.001,-0.37525,-0.004760317382477785,10,1,100,-0.03675494614183053,-10,-1,-100,14990.546307494398,0.002830477734007285,-0.0006393149884892036,0.9999957898272088,28.474538576721763,0.026922359474959825,90.93538088360654,-27.9656490963155,-60.5709228515625,5356.25390625,True
1599560734.7374508,0.0,10,0.5,0.5,-5.008061290740967,-0.1005,-0.001,-0.37525,9.335409797212469e-05,10,1,100,-0.04873336047470821,-10,-1,-100,14988.861738139763,0.0029956290729398136,-0.0005727784972530063,0.9999953490548096,29.039893737339884,0.026852136417413557,94.60934246597739,-28.522157049221388,-56.2952880859375,5356.25390625,True
1599560734.770363,0.0,10,0.5,0.5,-4.019455860900879,-0.1005,-0.001,-0.37525,-0.0044014407114091395,10,1,100,-0.03759882486490371,-10,-1,-100,14988.280683878576,0.0030431586632002324,-0.0005535913684171153,0.9999952163495321,29.196517339505277,0.02683060411491949,95.74596039030281,-28.70764897339582,-55.008148193359375,5356.25390625,True
