Timestamp,Input Throttle,horizon,dT,dt,Input Roll,Roll P,Roll I,Roll D,Input Pitch,Pitch P,Pitch I,Pitch D,Input Yaw,Yaw P,Yaw I,Yaw D,Altitude,Direction X,Direction Y,Direction Z,Drag X,Drag Y,Drag Z,Vertical Velocity,Roll,Mass,Has Fuel
1599563435.5585406,0.0,10,0.5,0.5,-11.641820632934571,-0.2,-0.00825,-0.12575,-0.0003166716725092003,10,1,100,0.1749597195986437,-10,-1,-100,14994.000766645186,-0.016810986346149772,-7.442082016621716e-05,0.9998586826145038,28.644552476524467,0.02727515330044845,-87.50378752310922,27.008978368540223,-31.7916259765625,5356.25390625,True
1599563435.6014268,0.0,10,0.5,0.5,-11.690303120422364,-0.2,-0.00825,-0.12575,9.717816505854177e-05,10,1,100,0.18192294099472037,-10,-1,-100,14995.574014664162,-0.016921277063409842,-6.670419790496866e-05,0.9998568227166794,28.426630740364576,0.027763807731627777,-85.04908075870719,26.451087706116375,-31.789764404296875,5356.25390625,True
1599563435.6453538,0.0,10,0.5,0.5,-11.69301951980591,-0.2,-0.00825,-0.12575,0.0071308831511892766,10,1,100,0.1767544996089579,-10,-1,-100,14996.66483762348,-0.016959172541899874,4.314326022722997e-06,0.9998561828823588,28.285033692282795,0.028084879577567744,-83.43871435583809,26.079180019467127,-31.928131103515625,5356.25390625,True
1599563435.688238,0.0,10,0.5,0.5,-11.705382119750979,-0.2,-0.00825,-0.12575,0.004364937199594614,10,1,100,0.17658042226782364,-10,-1,-100,14997.148236156558,-0.016976623026024228,4.372773519156146e-05,0.9998558857948067,28.220517159630322,0.0282477260550831,-82.65638170485859,25.893231803347806,-32.090667724609375,5356.25390625,True
1599563435.7321274,0.0,10,0.5,0.5,-11.698829277801513,-0.2,-0.00825,-0.12575,0.005858405415302073,10,1,100,0.17787663787515934,-10,-1,-100,14997.694135888829,-0.016988837587089398,9.309533845585372e-05,0.9998556749504887,28.160945075707946,0.028411929979016495,-81.89112836791149,25.70728722181081,-32.3201904296875,5356.25390625,True
1599563435.7749696,0.0,10,0.5,0.5,-11.253618321990967,-0.2,-0.00825,-0.12575,0.03599212831078902,10,1,100,0.17536945636618673,-10,-1,-100,14999.686322570778,-0.016961704776533356,0.0004118332810746772,0.9998560551221474,27.971904697743387,0.029066261684207145,-78.9940876395857,24.96354215648621,-33.921600341796875,5356.25390625,True
1599563435.8168566,0.0,10,0.5,0.5,-11.106280470275879,-0.2,-0.00825,-0.12575,0.030192418256450658,10,1,100,0.1728168004572947,-10,-1,-100,15000.653117074398,-0.016898412890695633,0.0006484960163422819,0.9998570013230353,27.901372400261355,0.029373486373182434,-77.624117830584,24.59168807028123,-35.134124755859375,5356.25390625,True
1599563435.8617368,0.0,10,0.5,0.5,-10.819470613861085,-0.2,-0.00825,-0.12575,0.037174254622044454,10,1,100,0.16896573770842574,-10,-1,-100,15001.617956751958,-0.01679050295777099,0.0009265256553488278,0.9998586002833777,27.84060912507016,0.029649369944261823,-76.28676790725405,24.219845469252295,-36.621612548828125,5356.25390625,True
1599563435.9036248,0.0,10,0.5,0.5,-10.476490609741212,-0.2,-0.00825,-0.12575,0.04524005246225067,10,1,100,0.165552573748099,-10,-1,-100,15002.581818744657,-0.016646110161874915,0.0012517630114881543,0.9998606603451511,27.78350246936587,0.02987720661360162,-74.96431321078319,23.8480139630381,-38.3839111328125,5356.25390625,True
1599563435.945513,0.0,10,0.5,0.5,-10.740682929992676,-0.2,-0.00825,-0.12575,0.012841493149466834,10,1,100,0.18165646435389396,-10,-1,-100,15002.581818744657,-0.016646110161874915,0.0012517630114881543,0.9998606603451511,27.78350246936587,0.02987720661360162,-74.96431321078319,23.8480139630381,-38.3839111328125,5356.25390625,True
1599563435.9883995,0.0,10,0.5,0.5,-10.119638059997559,-0.2,-0.00825,-0.12575,0.05289479126962385,10,1,100,0.16240373694217353,-10,-1,-100,15003.546655815328,-0.016455952539803025,0.0016147459371155016,0.9998632877656657,27.722402135680092,0.030037436603372915,-73.63597614629192,23.47619383191674,-40.421142578125,5356.25390625,True
1599563436.0322826,0.0,10,0.5,0.5,-8.772795960998534,-0.2,-0.00825,-0.12575,0.1095653273885826,10,1,100,0.12420767599930094,-10,-1,-100,15005.415778591065,-0.015936167814626416,0.0024583815008060953,0.999869989006461,27.55154231611809,0.03006808766367843,-70.86936570838786,22.732589749573364,-45.3203125,5356.25390625,True
1599563436.0751667,0.0,10,0.5,0.5,-8.445347888946532,-0.2,-0.00825,-0.12575,0.07598456900136227,10,1,100,0.13881598660629568,-10,-1,-100,15006.25756478298,-0.015597334623846527,0.002917747768187622,0.9998740970245169,27.420164644575625,0.02989350996927171,-69.38051667731729,22.36080837769278,-48.1824951171875,5356.25390625,True
1599563436.117057,0.0,10,0.5,0.5,-8.791857502746582,-0.2,-0.00825,-0.12575,0.030339285607426096,10,1,100,0.1725631218924792,-10,-1,-100,15006.25756478298,-0.015597334623846527,0.002917747768187622,0.9998740970245169,27.420164644575625,0.02989350996927171,-69.38051667731729,22.36080837769278,-48.1824951171875,5356.25390625,True
1599563436.1599402,0.0,10,0.5,0.5,-7.756507320404053,-0.2,-0.00825,-0.12575,0.08136934650279229,10,1,100,0.12924999251316832,-10,-1,-100,15007.15696735226,-0.015204832800763863,0.0033790446672064094,0.9998786902002853,27.24185431728537,0.029565083907696212,-67.7859236349973,21.98904350888089,-51.320098876953125,5356.25390625,True
1599563436.2038229,0.0,10,0.5,0.5,-5.822489492797852,-0.2,-0.00825,-0.12575,0.1456890525373084,10,1,100,0.06413238786910276,-10,-1,-100,15008.898151290254,-0.014257656560093868,0.0043801428581474984,0.9998887606018765,26.68932623592804,0.02839268798547168,-64.17077597365139,21.245574592332122,-58.420318603515625,5356.25390625,True
1599563436.2467103,0.0,10,0.5,0.5,-6.695130680847168,-0.2,-0.00825,-0.12575,0.0459760644009068,10,1,100,0.15857960711445834,-10,-1,-100,15008.898151290254,-0.014257656560093868,0.0043801428581474984,0.9998887606018765,26.68932623592804,0.02839268798547168,-64.17077597365139,21.245574592332122,-58.420318603515625,5356.25390625,True
1599563436.2885962,0.0,10,0.5,0.5,-5.384858833312989,-0.2,-0.00825,-0.12575,0.09994290215265572,10,1,100,0.09720399712962907,-10,-1,-100,15009.737980942824,-0.013702097156895967,0.004867358067852666,0.9998942750905929,26.28512008171393,0.027540367994143878,-62.09589019159334,20.873877383609194,-62.3836669921875,5356.25390625,True
1599563436.330484,0.0,10,0.5,0.5,-4.48105796585083,-0.2,-0.00825,-0.12575,0.10162094724226897,10,1,100,0.08673504772922103,-10,-1,-100,15010.578786180704,-0.013104678528349506,0.005321953366206117,0.999899967103228,25.77415254702303,0.026520184041233803,-59.80734714405241,20.5022106343575,-66.6229248046875,5356.25390625,True
1599563436.3753636,0.0,10,0.5,0.5,-2.7514156105041505,-0.2,-0.00825,-0.12575,0.13437175553675795,10,1,100,0.0347161975809053,-10,-1,-100,15011.774074723013,-0.012091891529807604,0.006029256267063955,0.9999087129473857,24.77142850202337,0.024728353213038907,-55.92187344219183,19.944776807334677,-73.49761962890625,5356.25390625,True
1599563436.4222383,0.0,10,0.5,0.5,-2.795498795318604,-0.2,-0.00825,-0.12575,0.08752237932712384,10,1,100,0.09636602626657081,-10,-1,-100,15012.130513333133,-0.011735769263395623,0.006242012308432975,0.9999116505982604,24.365877555559358,0.024079389625297903,-54.4953619018079,19.7589848667388,-75.92721557617188,5356.25390625,True
1599563436.7952414,0.0,10,0.5,0.5,-1.4215051971435546,-0.2,-0.00825,-0.12575,0.11170931941229813,10,1,100,0.04954355410174088,-10,-1,-100,15012.910771612893,-0.010990653986319375,0.006651101559205198,0.9999174807817904,23.43539741012707,0.022736979846840883,-51.4314985470369,19.38743191321369,-80.99313354492188,5356.25390625,True
1599563436.8371298,0.0,10,0.5,0.5,1.5410134422302246,-0.2,-0.00825,-0.12575,0.14740455249367693,10,1,100,-0.05041208111049153,-10,-1,-100,15014.46152305312,-0.009409084790528224,0.007343691433321209,0.9999287671227071,21.17597727617015,0.02015516488015241,-44.697098940790184,18.644445393885835,-91.95285034179688,5356.25390625,True
1599563436.8760276,0.0,10,0.5,0.5,0.1989395980834961,-0.2,-0.00825,-0.12575,0.0785881594485892,10,1,100,0.10712601348529169,-10,-1,-100,15014.46152305312,-0.009409084790528224,0.007343691433321209,0.9999287671227071,21.17597727617015,0.02015516488015241,-44.697098940790184,18.644445393885835,-91.95285034179688,5356.25390625,True
1599563436.920905,0.0,10,0.5,0.5,2.1549998443603515,-0.2,-0.00825,-0.12575,0.10910841991519925,10,1,100,0.016596266483706906,-10,-1,-100,15015.175376291969,-0.00859171277218047,0.007617124761503906,0.9999340787681995,22.157295605454166,0.021177747400374845,-45.83926662632658,18.27297443242296,-97.84678649902344,5356.25390625,True
1599563436.9847353,0.0,10,0.5,0.5,4.313240955734253,-0.2,-0.00825,-0.12575,0.11766164964180581,10,1,100,-0.03734792621563948,-10,-1,-100,15016.24762179819,-0.0073642574764417115,0.007939604348189784,0.9999413634781865,23.525606871448943,0.02291814746915377,-47.18984304678903,17.715743255219355,-106.62965393066406,5356.25390625,True
1599563437.0296147,0.0,10,0.5,0.5,5.105888844299317,-0.2,-0.00825,-0.12575,0.1026371120611547,10,1,100,-0.00694563949323132,-10,-1,-100,15016.959523977246,-0.0065310401769589615,0.008092945029452805,0.99994592341534,24.190567046786533,0.023947031810704403,-47.508622105084136,17.344236746381714,-112.33132934570312,5356.25390625,True
1599563437.0725,0.0,10,0.5,0.5,6.213776271057129,-0.2,-0.00825,-0.12575,0.10000226273747598,10,1,100,-0.01278207577259552,-10,-1,-100,15017.611856509,-0.005727535589783273,0.008205017198411832,0.9999499352611816,24.69398197327786,0.024818490916449238,-47.4608140460817,16.97271742554269,-117.79685974121094,5356.25390625,True
1599563437.1133914,0.0,10,0.5,0.5,6.429701204299927,-0.2,-0.00825,-0.12575,0.09373766700567931,10,1,100,0.02319075879666064,-10,-1,-100,15017.966344858636,-0.005331352244405079,0.008246915882512288,0.9999517813683182,24.922072071672886,0.02521180004374611,-47.376067244165306,16.786954068007518,-120.42924499511719,5356.25390625,True
1599563437.1542811,0.0,10,0.5,0.5,8.581705565643311,-0.2,-0.00825,-0.12575,0.09691248636714117,10,1,100,-0.06695130372565784,-10,-1,-100,15018.974143289728,-0.004158778931389229,0.008311208532692986,0.9999568132527155,25.348857076036335,0.025985757470136605,-46.59079988943389,16.22965766036349,-127.91546630859375,5356.25390625,True
1599563437.1967533,0.0,10,0.5,0.5,8.453277310180665,-0.2,-0.00825,-0.12575,0.09129192580770588,10,1,100,0.00823095381338882,-10,-1,-100,15019.271015426144,-0.0037834901813647154,0.008316485889348182,0.9999582597611262,25.41351844755708,0.02610480503684467,-46.17601792052221,16.043892762065113,-130.2733154296875,5356.25390625,True
1599563437.240638,0.0,10,0.5,0.5,11.049589656829834,-0.2,-0.00825,-0.12575,0.08574887328264896,10,1,100,-0.11213758769764966,-10,-1,-100,15020.508307361626,-0.0023552884667711995,0.008269006214642466,0.9999630373931131,25.352988310413803,0.02593269711133722,-43.93639113693224,15.300856547736231,-139.01614379882812,5356.25390625,True
1599563437.2805283,0.0,10,0.5,0.5,11.287478369903566,-0.2,-0.00825,-0.12575,0.08257971487820652,10,1,100,-0.04504051462832148,-10,-1,-100,15021.157716265996,-0.0016747469955160305,0.008195561520637395,0.9999650133848996,25.16515511705945,0.025508766135664628,-42.55389821138132,14.929361849108066,-142.9744873046875,5356.25390625,True
1599563437.3221846,0.0,10,0.5,0.5,10.831809524536133,-0.2,-0.00825,-0.12575,0.09000937128744524,10,1,100,0.022240198717694195,-10,-1,-100,15021.157716265996,-0.0016747469955160305,0.008195561520637395,0.9999650133848996,25.16515511705945,0.025508766135664628,-42.55389821138132,14.929361849108066,-142.9744873046875,5356.25390625,True
1599563437.3620453,0.0,10,0.5,0.5,13.18305115585327,-0.2,-0.00825,-0.12575,0.07654771337897842,10,1,100,-0.1117874247475542,-10,-1,-100,15022.27196776704,-0.0004633452711001471,0.0080724083850265,0.9999673102327022,24.5964320123192,0.02421883224962513,-39.52603594139692,14.186437156125368,-150.06320190429688,5356.25390625,True
1599563437.404974,0.0,10,0.5,0.5,12.334723837661743,-0.2,-0.00825,-0.12575,0.08890855530242016,10,1,100,0.008539910943926109,-10,-1,-100,15022.27196776704,-0.0004633452711001471,0.0080724083850265,0.9999673102327022,24.5964320123192,0.02421883224962513,-39.52603594139692,14.186437156125368,-150.06320190429688,5356.25390625,True
1599563437.4448657,0.0,10,0.5,0.5,14.320443843841552,-0.2,-0.00825,-0.12575,0.0719441056521653,10,1,100,-0.11006060633232094,-10,-1,-100,15023.38426950213,0.0006085676930426973,0.00791806538453615,0.9999684664457822,23.92203380311099,0.022653716181429653,-36.43282712776765,13.443606020294748,-156.04904174804688,5356.25390625,True
1599563437.4862652,0.0,10,0.5,0.5,13.603791596221924,-0.2,-0.00825,-0.12575,0.08736091773670866,10,1,100,-0.003583270705036658,-10,-1,-100,15023.38426950213,0.0006085676930426973,0.00791806538453615,0.9999684664457822,23.92203380311099,0.022653716181429653,-36.43282712776765,13.443606020294748,-156.04904174804688,5356.25390625,True
1599563437.5271575,0.0,10,0.5,0.5,15.22589599494934,-0.2,-0.00825,-0.12575,0.06958716089366736,10,1,100,-0.10693021756583693,-10,-1,-100,15024.432120332727,0.0015423252978837671,0.007756746642157479,0.9999687265680887,23.194349333881114,0.02102831855457091,-33.37621164139292,12.70086676019998,-160.9317626953125,5356.25390625,True
1599563437.5720365,0.0,10,0.5,0.5,14.986849851989746,-0.2,-0.00825,-0.12575,0.08005106735339569,10,1,100,-0.037660949518326756,-10,-1,-100,15024.662588286912,0.001755226431359839,0.007705665270756541,0.9999687704638128,23.01159590024334,0.02063318896905064,-32.62996111178653,12.515195095208616,-161.98023986816406,5356.25390625,True
1599563437.6149223,0.0,10,0.5,0.5,15.77262209815979,-0.2,-0.00825,-0.12575,0.07594572392010766,10,1,100,-0.08057804016814966,-10,-1,-100,15025.41942605353,0.002333551917370341,0.007622456850327557,0.9999682258387083,22.477595031128203,0.019505472878780745,-30.456511168474687,11.958207455866562,-164.71090698242188,5356.25390625,True
1599563437.655813,0.0,10,0.5,0.5,15.457651721572876,-0.2,-0.00825,-0.12575,0.08419716305910398,10,1,100,-0.023357195776972987,-10,-1,-100,15025.41942605353,0.002333551917370341,0.007622456850327557,0.9999682258387083,22.477595031128203,0.019505472878780745,-30.456511168474687,11.958207455866562,-164.71090698242188,5356.25390625,True
1599563437.699246,0.0,10,0.5,0.5,16.350346467971804,-0.2,-0.00825,-0.12575,0.07463869482107446,10,1,100,-0.09561362106170833,-10,-1,-100,15026.343257228844,0.0029861659287005334,0.007536149456676666,0.9999671440924511,21.838769374524333,0.018181432251471938,-27.756020691252264,11.21561111006413,-167.38626098632812,5356.25390625,True
1599563437.7431295,0.0,10,0.5,0.5,16.034060415267945,-0.2,-0.00825,-0.12575,0.08320349297976751,10,1,100,-0.030818311221110724,-10,-1,-100,15026.343257228844,0.0029861659287005334,0.007536149456676666,0.9999671440924511,21.838769374524333,0.018181432251471938,-27.756020691252264,11.21561111006413,-167.38626098632812,5356.25390625,True
1599563437.7850258,0.0,10,0.5,0.5,16.56609724617004,-0.2,-0.00825,-0.12575,0.08010819588666443,10,1,100,-0.08811123603677143,-10,-1,-100,15027.20458943909,0.0035027735061845247,0.007508609857706602,0.999965675088785,21.330769319649434,0.017087098067908202,-25.31782039101288,10.47306015170151,-168.95770263671875,5356.25390625,True
1599563437.826952,0.0,10,0.5,0.5,16.50527335548401,-0.2,-0.00825,-0.12575,0.08193040997800818,10,1,100,-0.059822285433645934,-10,-1,-100,15027.603029234218,0.0037116389177076626,0.007500651985407233,0.9999649813650168,21.13671770200949,0.016622445841816588,-24.19922858914178,10.101796231416694,-169.3297576904297,5356.25390625,True
1599563437.8698356,0.0,10,0.5,0.5,16.47438234100342,-0.2,-0.00825,-0.12575,0.0826690215679832,10,1,100,-0.03935324270021292,-10,-1,-100,15027.603029234218,0.0037116389177076626,0.007500651985407233,0.9999649813650168,21.13671770200949,0.016622445841816588,-24.19922858914178,10.101796231416694,-169.3297576904297,5356.25390625,True
1599563437.9122365,0.0,10,0.5,0.5,16.51648937187195,-0.2,-0.00825,-0.12575,0.08656428463280273,10,1,100,-0.058522788749128335,-10,-1,-100,15028.001468659495,0.0038830865443117437,0.007536442934541164,0.9999640611875927,20.985613682086157,0.01620698718296292,-23.144210537192567,9.730537357172434,-169.42538452148438,5356.25390625,True
1599563437.9541602,0.0,10,0.5,0.5,16.456832372665406,-0.2,-0.00825,-0.12575,0.08695623484879313,10,1,100,-0.057092156726032774,-10,-1,-100,15028.337408385705,0.004022965442058886,0.007572890274308282,0.9999632328650615,20.878610710244782,0.015835397907935728,-22.148573524805187,9.359281570692605,-169.2452850341797,5356.25390625,True
1599563437.9950495,0.0,10,0.5,0.5,16.22980842590332,-0.2,-0.00825,-0.12575,0.09225575659032341,10,1,100,-0.05932983453773014,-10,-1,-100,15028.904793780763,0.004168215474531559,0.007654368832081255,0.9999620175874384,20.823149105491886,0.015364563745018949,-20.776593560334685,8.802398969049289,-168.45777893066406,5356.25390625,True
1599563438.0378969,0.0,10,0.5,0.5,15.875409414672854,-0.2,-0.00825,-0.12575,0.09674686111295275,10,1,100,-0.05225035096190071,-10,-1,-100,15029.407727237209,0.004233708390596293,0.007769315104297566,0.9999608559619089,20.879660499114987,0.014973374431563435,-19.51602697195213,8.245512107492702,-167.04942321777344,5356.25390625,True
1599563438.0837767,0.0,10,0.5,0.5,15.636262034225464,-0.2,-0.00825,-0.12575,0.09534758469550994,10,1,100,-0.04553083757652191,-10,-1,-100,15029.744643060723,0.0042304335049033115,0.007860957513195668,0.9999601535958003,20.96764153173861,0.014743818209561345,-18.71646072222373,7.8742493086453,-165.76568603515625,5356.25390625,True
1599563438.1266596,0.0,10,0.5,0.5,15.79856217765808,-0.2,-0.00825,-0.12575,0.08620719387198651,10,1,100,-0.046048014304573386,-10,-1,-100,15029.744643060723,0.0042304335049033115,0.007860957513195668,0.9999601535958003,20.96764153173861,0.014743818209561345,-18.71646072222373,7.8742493086453,-165.76568603515625,5356.25390625,True
1599563438.169316,0.0,10,0.5,0.5,14.691332384872437,-0.2,-0.00825,-0.12575,0.10898408619990399,10,1,100,-0.03297533940795012,-10,-1,-100,15030.290544555639,0.004110459853501097,0.00806772489067081,0.9999590071272327,21.24005109999081,0.01434371720433139,-17.172794398340976,7.131706642705156,-162.3707733154297,5356.25390625,True
1599563438.2112024,0.0,10,0.5,0.5,14.426404362487794,-0.2,-0.00825,-0.12575,0.10095869329330102,10,1,100,-0.0325361403577374,-10,-1,-100,15030.566913105547,0.003996378093656423,0.008182253866102735,0.9999585389823936,21.41015162023331,0.014169394672678335,-16.409603775027414,6.760425371630348,-160.2596435546875,5356.25390625,True
1599563438.2530906,0.0,10,0.5,0.5,14.684703031158449,-0.2,-0.00825,-0.12575,0.0895731601509481,10,1,100,-0.04399367680095203,-10,-1,-100,15030.566913105547,0.003996378093656423,0.008182253866102735,0.9999585389823936,21.41015162023331,0.014169394672678335,-16.409603775027414,6.760425371630348,-160.2596435546875,5356.25390625,True
1599563438.294978,0.0,10,0.5,0.5,13.89974655418396,-0.2,-0.00825,-0.12575,0.10168897634263277,10,1,100,-0.02648634250227049,-10,-1,-100,15030.836445267545,0.0038369616553266374,0.008291778011590145,0.9999582612002672,21.59108403911477,0.014011261771599568,-15.639854192871667,6.389137009506373,-157.8729248046875,5356.25390625,True
1599563438.3378642,0.0,10,0.5,0.5,13.323157921600343,-0.2,-0.00825,-0.12575,0.10298777041807575,10,1,100,-0.02114434955172164,-10,-1,-100,15031.109883434605,0.0036433601184421892,0.008402433429968015,0.9999580616403382,21.7719513522333,0.01386851804018341,-14.854747964140781,6.01784177157898,-155.21055603027344,5356.25390625,True
1599563438.3797517,0.0,10,0.5,0.5,11.642380906295777,-0.2,-0.00825,-0.12575,0.11491093956236362,10,1,100,0.014713900881379777,-10,-1,-100,15031.528829038609,0.0031415925595425593,0.00861063444753649,0.999957992802998,22.083735697814024,0.013630980784719145,-13.208761195383998,5.2752336030156926,-149.05908203125,5356.25390625,True
1599563438.4226375,0.0,10,0.5,0.5,11.262768704986573,-0.2,-0.00825,-0.12575,0.10366552748036437,10,1,100,-0.0017026788589172663,-10,-1,-100,15031.73976586468,0.0028354831153478838,0.008696733677150357,0.9999581625542397,22.183613876500395,0.013534423389747665,-12.334837864558526,4.903922663563312,-145.5701904296875,5356.25390625,True
1599563438.4645255,0.0,10,0.5,0.5,11.080755451583864,-0.2,-0.00825,-0.12575,0.09844143684557909,10,1,100,-0.014105794092276452,-10,-1,-100,15031.845233706292,0.0026711689703461565,0.008726566366623943,0.9999583550807406,22.211865582813747,0.013489650059277804,-11.883097318420404,4.718265631824232,-143.7225799560547,5356.25390625,True
1599563438.8780022,0.0,10,0.5,0.5,10.022848227310181,-0.2,-0.00825,-0.12575,0.10112210808306109,10,1,100,0.008486002542616305,-10,-1,-100,15031.9926933815,0.0023178329958639704,0.00877718650352038,0.999958793474654,22.212024259319804,0.013399567493150103,-10.948231187614407,4.346948492291771,-139.82081604003906,5356.25390625,True
1599563438.9184027,0.0,10,0.5,0.5,8.417477168273926,-0.2,-0.00825,-0.12575,0.0999612685966369,10,1,100,0.03807765420567178,-10,-1,-100,15032.24562140298,0.0017293421862242418,0.008811818788103897,0.999959679799765,22.030789874403702,0.013230516623039095,-9.46780060528538,3.789961906864302,-133.45208740234375,5356.25390625,True
1599563438.960293,0.0,10,0.5,0.5,7.696609091186524,-0.2,-0.00825,-0.12575,0.094487046568961,10,1,100,0.025709495522443497,-10,-1,-100,15032.390150737949,0.0013090620666889993,0.008792672609041943,0.9999604868518034,21.760648574777445,0.013069075312170804,-8.435594243940022,3.418626596203057,-128.86244201660156,5356.25390625,True
1599563439.0056837,0.0,10,0.5,0.5,6.661441467285156,-0.2,-0.00825,-0.12575,0.09035468719044182,10,1,100,0.03154724266180848,-10,-1,-100,15032.538585566916,0.0008764655274689264,0.008737041044891473,0.999961447217821,21.3497079535642,0.012845222682331575,-7.377406344647039,3.0472782981454216,-123.99775695800781,5356.25390625,True
1599563439.0505624,0.0,10,0.5,0.5,5.568976828765869,-0.2,-0.00825,-0.12575,0.08651824044728154,10,1,100,0.038176028369679045,-10,-1,-100,15032.621590842842,0.00042577054225748,0.008651085755108872,0.999962488013777,20.790822759691892,0.012544986822355709,-6.308849937163721,2.675912819972788,-118.85797882080078,5356.25390625,True
1599563439.0924616,0.0,10,0.5,0.5,4.417295507240295,-0.2,-0.00825,-0.12575,0.08132511085896074,10,1,100,0.04343044693130593,-10,-1,-100,15032.706548621878,-2.8473606175534898e-05,0.008525308102786313,0.9999636584951507,20.04951551737705,0.0121335372535381,-5.239603159465853,2.3045259990598264,-113.4432373046875,5356.25390625,True
1599563439.1393342,0.0,10,0.5,0.5,4.146028998374939,-0.2,-0.00825,-0.12575,0.08539466569093264,10,1,100,0.023351114996080093,-10,-1,-100,15032.748538468848,-0.00025536941873849334,0.008447748435428098,0.9999642845286183,19.628041334857986,0.01189297476547295,-4.716150325511994,2.118823652998178,-110.63275146484375,5356.25390625,True
1599563439.181224,0.0,10,0.5,0.5,1.5817373273849487,-0.2,-0.00825,-0.12575,0.06170303781137875,10,1,100,0.07532842492722479,-10,-1,-100,15032.874510343536,-0.0009306150390450612,0.008161820016192449,0.9999662587556003,18.242295580278054,0.01105575685783972,-3.23067838145347,1.561673396564831,-101.78874969482422,5356.25390625,True
1599563439.2236493,0.0,10,0.5,0.5,0.6222702651977539,-0.2,-0.00825,-0.12575,0.06415374867592885,10,1,100,0.05744434829933575,-10,-1,-100,15032.895990995108,-0.0013781901721624157,0.007924572292411718,0.999967650349666,17.12559001927498,0.010359370697709222,-2.31151531316344,1.1902062858799467,-95.54898834228516,5356.25390625,True
1599563439.2695282,0.0,10,0.5,0.5,-0.7565859201431275,-0.2,-0.00825,-0.12575,0.05885841617142458,10,1,100,0.05842716373144008,-10,-1,-100,15032.978018450201,-0.0017901807304814043,0.007661455122010777,0.9999690482001758,15.88288204870843,0.009597660288263147,-1.474695331393146,0.8187272097330065,-89.0340576171875,5356.25390625,True
1599563439.3124125,0.0,10,0.5,0.5,-2.1769892389297487,-0.2,-0.00825,-0.12575,0.05266140912957043,10,1,100,0.06199219746633228,-10,-1,-100,15032.999499149038,-0.002193071226815116,0.007366889549669986,0.9999704592521507,16.271573439923205,0.009828043401957273,-0.8253092822566757,0.44724795024558617,-82.29718017578125,5356.25390625,True
1599563439.3562949,0.0,10,0.5,0.5,-1.3772839002609254,-0.2,-0.00825,-0.12575,0.08197693666826442,10,1,100,0.022154238255229,-10,-1,-100,15032.999499149038,-0.002193071226815116,0.007366889549669986,0.9999704592521507,16.271573439923205,0.009828043401957273,-0.8253092822566757,0.44724795024558617,-82.29718017578125,5356.25390625,True
1599563439.3991802,0.0,10,0.5,0.5,-5.729987888908386,-0.2,-0.00825,-0.12575,0.010343713756986228,10,1,100,0.10177560163643491,-10,-1,-100,15032.980937181856,-0.002913335972632407,0.00671699200432967,0.9999731968867588,18.531436331253257,0.011244583890696656,0.6214639518683602,-0.29570275378839495,-69.06463623046875,5356.25390625,True
1599563439.4420664,0.0,10,0.5,0.5,-6.149417132759094,-0.2,-0.00825,-0.12575,0.03458775795924132,10,1,100,0.06606086331405606,-10,-1,-100,15032.938941427507,-0.0032396041222271165,0.006348463438226894,0.9999746006659892,19.37077825660366,0.01176239797800435,1.4657254295048976,-0.6671853975931656,-62.8203125,5356.25390625,True
1599563439.4859493,0.0,10,0.5,0.5,-7.35963129940033,-0.2,-0.00825,-0.12575,0.03395445339503188,10,1,100,0.0648485397686997,-10,-1,-100,15032.895969331032,-0.003521448526310253,0.006009851589010344,0.9999757402478096,19.95299038476439,0.012113003946990901,2.350484275882074,-1.0386806033359515,-56.849578857421875,5356.25390625,True
1599563439.5278397,0.0,10,0.5,0.5,-8.515077345275879,-0.2,-0.00825,-0.12575,0.027282876637072198,10,1,100,0.0659887154814694,-10,-1,-100,15032.854950940819,-0.0037844475646214037,0.005643773059346663,0.9999769126246292,20.310461145780323,0.012329480337585508,3.248431216537414,-1.410189424629285,-51.154693603515625,5356.25390625,True
1599563439.5717194,0.0,10,0.5,0.5,-7.8503335731506345,-0.2,-0.00825,-0.12575,0.0636025760990963,10,1,100,0.040064409046198915,-10,-1,-100,15032.854950940819,-0.0037844475646214037,0.005643773059346663,0.9999769126246292,20.310461145780323,0.012329480337585508,3.248431216537414,-1.410189424629285,-51.154693603515625,5356.25390625,True
1599563439.613117,0.0,10,0.5,0.5,-11.340336167907715,-0.2,-0.00825,-0.12575,-0.014427915717598723,10,1,100,0.08829031500439263,-10,-1,-100,15032.709437587648,-0.00421965663865418,0.004936954020445874,0.9999789102690376,20.483142771307254,0.012455596112552363,5.002493304357968,-2.1532424270255537,-40.591583251953125,5356.25390625,True
1599563439.6560028,0.0,10,0.5,0.5,-11.648237618064881,-0.2,-0.00825,-0.12575,0.016423752443879842,10,1,100,0.06410734522864503,-10,-1,-100,15032.602989607607,-0.0043924660338139,0.004577792664727458,0.9999798748257189,20.367259026826876,0.01241334667215825,5.832634677455573,-2.5247813311142173,-35.723663330078125,5356.25390625,True
1599563439.699885,0.0,10,0.5,0.5,-12.581588292694093,-0.2,-0.00825,-0.12575,0.017413197953527845,10,1,100,0.0651417912284332,-10,-1,-100,15032.498495684471,-0.004556229287719309,0.004263319827459956,0.9999805322498667,20.128582017215567,0.01231350455946257,6.6127309482283465,-2.8963239007670203,-31.130767822265625,5356.25390625,True
1599563439.741773,0.0,10,0.5,0.5,-12.766159478759766,-0.2,-0.00825,-0.12575,0.030446048165529038,10,1,100,0.05674035719282594,-10,-1,-100,15032.415485954029,-0.004626213710439398,0.004099005100320921,0.9999808979695027,19.97099299063747,0.012247722797071842,6.981884197582047,-3.082095768593883,-28.93780517578125,5356.25390625,True
1599563439.7866535,0.0,10,0.5,0.5,-14.54293585357666,-0.2,-0.00825,-0.12575,-0.003722797897560401,10,1,100,0.07028613163079588,-10,-1,-100,15032.22603113798,-0.004810767369181366,0.0036419730063931206,0.9999817961092793,19.381380129345548,0.01200707979536389,8.001337513082794,-3.639411627280545,-22.77197265625,5356.25390625,True
1599563439.8295388,0.0,10,0.5,0.5,-13.81669071044922,-0.2,-0.00825,-0.12575,0.04160791984089196,10,1,100,0.05209253537083573,-10,-1,-100,15032.22603113798,-0.004810767369181366,0.0036419730063931206,0.9999817961092793,19.381380129345548,0.01200707979536389,8.001337513082794,-3.639411627280545,-22.77197265625,5356.25390625,True
1599563439.87043,0.0,10,0.5,0.5,-15.081733323669434,-0.2,-0.00825,-0.12575,0.009898086684782884,10,1,100,0.06323949559359401,-10,-1,-100,15032.06099099957,-0.004910378433573215,0.003356497267699344,0.9999823108984134,19.013626301173645,0.011880073752280305,8.651146625604724,-4.010956549354017,-19.0057373046875,5356.25390625,True
1599563439.9123178,0.0,10,0.5,0.5,-16.828833213806153,-0.2,-0.00825,-0.12575,-0.017747641907665666,10,1,100,0.07141107038141614,-10,-1,-100,15031.725051223999,-0.005073702104444782,0.002848369032746858,0.9999830720271263,18.275082911674687,0.011640094815010646,9.856319968479875,-4.754056359142335,-12.29949951171875,5356.25390625,True
1599563439.9535012,0.0,10,0.5,0.5,-16.022277626800538,-0.2,-0.00825,-0.12575,0.03274903333195658,10,1,100,0.055233928652072856,-10,-1,-100,15031.725051223999,-0.005073702104444782,0.002848369032746858,0.9999830720271263,18.275082911674687,0.011640094815010646,9.856319968479875,-4.754056359142335,-12.29949951171875,5356.25390625,True
1599563439.9964259,0.0,10,0.5,0.5,-17.01204889831543,-0.2,-0.00825,-0.12575,0.008013772173836208,10,1,100,0.0629161109813232,-10,-1,-100,15031.49458175432,-0.005142368076038128,0.002626044298606309,0.9999833298320089,17.879047981636166,0.011495964289517182,10.39676080502525,-5.125616224249378,-9.359466552734375,5356.25390625,True
1599563440.0392733,0.0,10,0.5,0.5,-17.54482805633545,-0.2,-0.00825,-0.12575,0.00799004627687391,10,1,100,0.06356220052529099,-10,-1,-100,15031.326612445293,-0.005209430754694134,0.0024264586037431894,0.9999834869285874,17.54312042488201,0.01137350672757601,10.941383657095797,-5.497185103426926,-6.69482421875,5356.25390625,True
1599563440.082157,0.0,10,0.5,0.5,-18.704543454742435,-0.2,-0.00825,-0.12575,-0.010389130297502682,10,1,100,0.06701727480634893,-10,-1,-100,15030.803174198722,-0.005300906797740084,0.0020802159081157504,0.9999837864130084,16.968449329907845,0.011114377869191486,12.014747508709776,-6.240352942775528,-2.19189453125,5356.25390625,True
1599563440.1250775,0.0,10,0.5,0.5,-18.76481568450928,-0.2,-0.00825,-0.12575,0.00869891174358862,10,1,100,0.06262688450251533,-10,-1,-100,15030.571728650248,-0.0053433283425070735,0.0019412480004249192,0.9999838400686408,16.729141281273623,0.010969785094928679,12.551267133017584,-6.611951226683034,-0.353515625,5356.25390625,True
1599563440.1697834,0.0,10,0.5,0.5,-19.068174202728272,-0.2,-0.00825,-0.12575,0.00962748717808435,10,1,100,0.06364752793195014,-10,-1,-100,15030.278760013869,-0.0053904564152403005,0.0018254661081350658,0.9999838051954257,16.73159333462915,0.010951451437641542,13.259296758716324,-6.983557151598088,1.20947265625,5356.25390625,True
1599563440.2126677,0.0,10,0.5,0.5,-19.31592492599487,-0.2,-0.00825,-0.12575,0.010501037301444038,10,1,100,0.06327387768389481,-10,-1,-100,15029.984814920812,-0.005429208531192912,0.0017302180608040924,0.9999837648883041,17.15237180719707,0.01117681722978097,14.316829067162683,-7.355166382111352,2.497039794921875,5356.25390625,True
1599563440.2545545,0.0,10,0.5,0.5,-19.504586734008793,-0.2,-0.00825,-0.12575,0.011966864379317993,10,1,100,0.06401137848088223,-10,-1,-100,15029.691846337286,-0.005470580060975162,0.0016586925866162335,0.999983660612862,17.513811133759063,0.011336866505160465,15.35798688725082,-7.726777151957993,3.509246826171875,5356.25390625,True
1599563440.297442,0.0,10,0.5,0.5,-19.639001650238036,-0.2,-0.00825,-0.12575,0.013433290462954833,10,1,100,0.06438284144804324,-10,-1,-100,15029.397901577991,-0.005510967648940676,0.001608803556678312,0.999983520357555,17.8190753161756,0.011438467051741013,16.378175140816083,-8.098388743053645,4.246063232421875,5356.25390625,True
1599563440.343318,0.0,10,0.5,0.5,-19.565529722595215,-0.2,-0.00825,-0.12575,0.01824742408564488,10,1,100,0.060404141573028564,-10,-1,-100,15029.397901577991,-0.005510967648940676,0.001608803556678312,0.999983520357555,17.8190753161756,0.011438467051741013,16.378175140816083,-8.098388743053645,4.246063232421875,5356.25390625,True
1599563440.3842087,0.0,10,0.5,0.5,-19.729499201202394,-0.2,-0.00825,-0.12575,0.015153371316074252,10,1,100,0.06472216707252886,-10,-1,-100,15029.040480209165,-0.0055498249120775,0.0015818026819331868,0.9999833485332246,18.070554772863666,0.011488318315458428,17.37258661449611,-8.470000234514941,4.70751953125,5356.25390625,True
1599563440.427095,0.0,10,0.5,0.5,-19.717025093841553,-0.2,-0.00825,-0.12575,0.019038109310552713,10,1,100,0.06871663170481199,-10,-1,-100,15028.329543847474,-0.005621030172670249,0.0015937236560699805,0.9999829318866928,18.418001202402102,0.01145864840386997,19.262973704423256,-9.213221993260962,4.804290771484375,5356.25390625,True
1599563440.4699807,0.0,10,0.5,0.5,-19.59775499343872,-0.2,-0.00825,-0.12575,0.022194648901836686,10,1,100,0.0652724546675877,-10,-1,-100,15027.972122263163,-0.005654016380055588,0.001634195193062862,0.9999826806024418,18.514778533233624,0.011391620335661688,20.146710862913565,-9.584831797006625,4.43963623046875,5356.25390625,True
1599563440.5128653,0.0,10,0.5,0.5,-19.44433134231567,-0.2,-0.00825,-0.12575,0.025198472788087303,10,1,100,0.06511244187538572,-10,-1,-100,15027.554154491983,-0.005682145010817368,0.0016990152287592877,0.9999824131330154,18.559136937780995,0.011298082577856259,20.979549203738618,-9.956440713327176,3.7996826171875,5356.25390625,True
1599563440.5547526,0.0,10,0.5,0.5,-19.391865488433837,-0.2,-0.00825,-0.12575,0.023074488945203853,10,1,100,0.06364639799340271,-10,-1,-100,15027.344193107914,-0.00569404224147998,0.0017389801359837854,0.9999822767584629,18.561125460258374,0.01124341355335849,21.37419184670319,-10.142244871109837,3.37640380859375,5356.25390625,True
1599563440.9232895,0.0,10,0.5,0.5,-19.105162230682375,-0.2,-0.00825,-0.12575,0.0299087954644962,10,1,100,0.06476627236754395,-10,-1,-100,15026.925248599146,-0.005714719751030026,0.0018376258089672966,0.9999819823924596,18.52296588082265,0.011122415156180435,22.113563971911073,-10.5138527207497,2.32342529296875,5356.25390625,True
1599563440.9616005,0.0,10,0.5,0.5,-19.03336861038208,-0.2,-0.00825,-0.12575,0.026415092363917064,10,1,100,0.06359725229288349,-10,-1,-100,15026.716265076306,-0.00572259524690971,0.0018955317019462854,0.9999818292665157,18.48207676749724,0.011057902429721388,22.455612160016283,-10.699656396401096,1.6937255859375,5356.25390625,True
1599563441.0014486,0.0,10,0.5,0.5,-18.067140538024905,-0.2,-0.00825,-0.12575,0.05243027556407141,10,1,100,0.06424467328841432,-10,-1,-100,15025.813923433772,-0.005735373718836324,0.0021845248031639127,0.9999811664924944,18.358407599172246,0.010911655054526346,23.85882481412838,-11.442868096589434,-1.51348876953125,5356.25390625,True
1599563441.0493236,0.0,10,0.5,0.5,-17.80939602737427,-0.2,-0.00825,-0.12575,0.04307605449773393,10,1,100,0.0622985242260885,-10,-1,-100,15025.332478725584,-0.005729057525786774,0.0023617294016527353,0.9999807998827276,18.84297011265719,0.011232082760027339,25.286102933623173,-11.814465572736607,-3.53009033203125,5356.25390625,True
1599563441.0892138,0.0,10,0.5,0.5,-18.05656834716797,-0.2,-0.00825,-0.12575,0.025430887233349117,10,1,100,0.06295195251872816,-10,-1,-100,15025.332478725584,-0.005729057525786774,0.0023617294016527353,0.9999807998827276,18.84297011265719,0.011232082760027339,25.286102933623173,-11.814465572736607,-3.53009033203125,5356.25390625,True
1599563441.1301062,0.0,10,0.5,0.5,-17.303586270904542,-0.2,-0.00825,-0.12575,0.04740165331149729,10,1,100,0.0598610435516458,-10,-1,-100,15024.850057767006,-0.005700760089834347,0.0025607791606859238,0.9999804716815667,19.360269854637014,0.011628424901339654,26.799919145681795,-12.186052817259771,-5.821929931640625,5356.25390625,True
1599563441.1709983,0.0,10,0.5,0.5,-16.746823059082033,-0.2,-0.00825,-0.12575,0.05174221013726653,10,1,100,0.05852625019935882,-10,-1,-100,15024.368613435072,-0.0056627634492406615,0.0027803031159696766,0.9999801013143716,19.90239725938454,0.012102852967627599,28.393158660401955,-12.557627487711246,-8.38916015625,5356.25390625,True
1599563441.2138813,0.0,10,0.5,0.5,-15.117191094207765,-0.2,-0.00825,-0.12575,0.08460288339960628,10,1,100,0.048416967495956684,-10,-1,-100,15023.342248845147,-0.0055362805393276825,0.0032775250327399044,0.9999793034995523,21.083029837611786,0.013314209464394298,31.863642336227148,-13.300728805765788,-14.3494873046875,5356.25390625,True
1599563441.2577822,0.0,10,0.5,0.5,-15.851201206207275,-0.2,-0.00825,-0.12575,0.0350450247065512,10,1,100,0.06105348490318179,-10,-1,-100,15023.342248845147,-0.0055362805393276825,0.0032775250327399044,0.9999793034995523,21.083029837611786,0.013314209464394298,31.863642336227148,-13.300728805765788,-14.3494873046875,5356.25390625,True
1599563441.2973058,0.0,10,0.5,0.5,-13.535797705841066,-0.2,-0.00825,-0.12575,0.09589654035031098,10,1,100,0.03626242292262351,-10,-1,-100,15022.250454097288,-0.005311039852660325,0.0038292856205886473,0.999978564483919,22.32043235292265,0.014808186500363692,35.62552958765772,-14.0437458949318,-21.41143798828125,5356.25390625,True
1599563441.3396733,0.0,10,0.5,0.5,-14.403388034820557,-0.2,-0.00825,-0.12575,0.04092951211389718,10,1,100,0.058748191350477284,-10,-1,-100,15022.250454097288,-0.005311039852660325,0.0038292856205886473,0.999978564483919,22.32043235292265,0.014808186500363692,35.62552958765772,-14.0437458949318,-21.41143798828125,5356.25390625,True
1599563441.3815637,0.0,10,0.5,0.5,-13.099078516387939,-0.2,-0.00825,-0.12575,0.07430624838390576,10,1,100,0.043345844584151735,-10,-1,-100,15021.643033337547,-0.005171385500146793,0.004130899895941797,0.9999780959791362,22.921231211784242,0.015602424376050207,37.556038245969845,-14.415217277155591,-25.3553466796875,5356.25390625,True
1599563441.421862,0.0,10,0.5,0.5,-12.198123680877687,-0.2,-0.00825,-0.12575,0.07591666160954468,10,1,100,0.03651598758539491,-10,-1,-100,15021.099088841467,-0.00498283848855194,0.004417702659046836,0.9999778273660939,23.50786513926913,0.016394211311508967,39.51381503395147,-14.78666193391478,-29.575103759765625,5356.25390625,True
1599563441.4637496,0.0,10,0.5,0.5,-11.241402406311035,-0.2,-0.00825,-0.12575,0.08177320268671501,10,1,100,0.033291663938762414,-10,-1,-100,15020.491668072995,-0.004782804204160219,0.004729643564520345,0.999977377371957,24.020355430531463,0.017108738379814747,41.39370053983791,-15.158079803494068,-34.069976806640625,5356.25390625,True
1599563441.5054562,0.0,10,0.5,0.5,-8.583633597564697,-0.2,-0.00825,-0.12575,0.11560088345164407,10,1,100,-0.0025780459174867404,-10,-1,-100,15019.215302981203,-0.004275726813585141,0.005318597927211192,0.9999767150670581,24.729083617588152,0.018091904938867795,44.71250750035909,-15.900845033272093,-43.88671875,5356.25390625,True
1599563441.5463502,0.0,10,0.5,0.5,-8.051225708770753,-0.2,-0.00825,-0.12575,0.08794128773007451,10,1,100,0.015287751923795053,-10,-1,-100,15018.542451946414,-0.003978484921357815,0.005599872051710822,0.9999764062670354,24.87673671296248,0.018261605327369704,46.03477700161994,-16.2722014815735,-49.20849609375,5356.25390625,True
1599563441.5872722,0.0,10,0.5,0.5,-6.861169004821778,-0.2,-0.00825,-0.12575,0.08701719814470832,10,1,100,0.009437635327665804,-10,-1,-100,15017.933077804046,-0.0036566478458849583,0.0058444121751244065,0.9999762356040559,24.852924380420212,0.018169467880011215,47.04528260880437,-16.643549812268983,-54.8062744140625,5356.25390625,True
1599563441.6285207,0.0,10,0.5,0.5,-5.613561019897461,-0.2,-0.00825,-0.12575,0.08869858085080176,10,1,100,0.003273766236429901,-10,-1,-100,15017.198703150614,-0.003309857254265086,0.006079221121865647,0.9999760436708012,24.642082939149624,0.01781023305666054,47.69215153125722,-17.014898088782736,-60.679595947265625,5356.25390625,True
1599563441.6714063,0.0,10,0.5,0.5,-4.310806819915772,-0.2,-0.00825,-0.12575,0.08742009511126965,10,1,100,-0.0026156223794926783,-10,-1,-100,15016.528781716712,-0.0029430772047250534,0.00627851420664455,0.9999759589889768,24.288384066041857,0.01724474297606796,48.03900092873363,-17.386253539135176,-66.82879638671875,5356.25390625,True
1599563441.713294,0.0,10,0.5,0.5,-5.040773345184327,-0.2,-0.00825,-0.12575,0.06779088555076979,10,1,100,0.0338030622410503,-10,-1,-100,15016.528781716712,-0.0029430772047250534,0.00627851420664455,0.9999759589889768,24.288384066041857,0.01724474297606796,48.03900092873363,-17.386253539135176,-66.82879638671875,5356.25390625,True
1599563441.755182,0.0,10,0.5,0.5,-0.7275469825744629,-0.2,-0.00825,-0.12575,0.10095641019052402,10,1,100,-0.051273370252920766,-10,-1,-100,15015.12448444753,-0.002171807784459803,0.0065777924046549925,0.9999760076611982,22.964072518944036,0.015609708450301218,47.371484945604635,-18.129012218804164,-79.95468139648438,5356.25390625,True
1599563441.7980685,0.0,10,0.5,0.5,-0.0572434356689453,-0.2,-0.00825,-0.12575,0.08318421742259073,10,1,100,-0.01973139338904358,-10,-1,-100,15014.39108587976,-0.0017602528575886413,0.0066857994624250315,0.9999761005121199,21.932984964392823,0.014673425054472347,46.17732310123722,-18.50042366946376,-86.93115234375,5356.25390625,True
1599563441.8429508,0.0,10,0.5,0.5,1.466272088623047,-0.2,-0.00825,-0.12575,0.07923867896614602,10,1,100,-0.020560938469090784,-10,-1,-100,15013.595186850522,-0.001381671725744027,0.006745796529369676,0.9999762923251865,20.644145858548566,0.013766052899012126,44.34222521900405,-18.87185525192127,-94.14529418945312,5356.25390625,True
1599563441.8848367,0.0,10,0.5,0.5,2.998906896591187,-0.2,-0.00825,-0.12575,0.07752008393854189,10,1,100,-0.02607152135152551,-10,-1,-100,15012.861788164708,-0.0009906846403747965,0.006782599277368112,0.9999765071695365,22.12998922962412,0.014942182962237014,48.475613475984645,-19.24326423418998,-101.47159576416016,5356.25390625,True
1599563441.9267538,0.0,10,0.5,0.5,4.481579836845398,-0.2,-0.00825,-0.12575,0.07435520764996746,10,1,100,-0.028308718304148384,-10,-1,-100,15012.065888491925,-0.0006183510628005476,0.0067854183950043345,0.9999767876001762,23.50251530573097,0.0162308190948013,52.48256877876441,-19.614628626230957,-108.68064880371094,5356.25390625,True
1599563441.9706075,0.0,10,0.5,0.5,3.628496409416199,-0.2,-0.00825,-0.12575,0.07421997793312456,10,1,100,0.008558901878198053,-10,-1,-100,15012.065888491925,-0.0006183510628005476,0.0067854183950043345,0.9999767876001762,23.50251530573097,0.0162308190948013,52.48256877876441,-19.614628626230957,-108.68064880371094,5356.25390625,True
1599563442.0145936,0.0,10,0.5,0.5,5.944432698631287,-0.2,-0.00825,-0.12575,0.0717049942559336,10,1,100,-0.030563998983884316,-10,-1,-100,15011.26803625375,-0.0002657429948348508,0.006761477137626877,0.9999771056417132,24.569869122987914,0.017406924611997537,55.911960123966786,-19.985947715462363,-115.63957977294922,5356.25390625,True
1599563442.056448,0.0,10,0.5,0.5,9.386874020767213,-0.2,-0.00825,-0.12575,0.060305100099447506,10,1,100,-0.06744865554644754,-10,-1,-100,15009.673307852005,0.0003870422131108573,0.006635243261349767,0.999977911628646,26.02875812494372,0.019183656539155724,61.448103774036014,-20.72847183014149,-128.7396240234375,5356.25390625,True
1599563442.0979905,0.0,10,0.5,0.5,9.794793729400634,-0.2,-0.00825,-0.12575,0.0633642643915559,10,1,100,-0.033822707945683816,-10,-1,-100,15008.815884774784,0.000671432060811489,0.006547790301808395,0.9999783375759452,26.47754773982842,0.019677223746883153,63.63510487884809,-21.09969304781126,-134.8765411376953,5356.25390625,True
1599563442.140875,0.0,10,0.5,0.5,10.988448987960817,-0.2,-0.00825,-0.12575,0.062144409206819726,10,1,100,-0.03391508738202625,-10,-1,-100,15007.952602129895,0.0009275221815374158,0.006456953222277578,0.9999787235024994,26.722180526622402,0.019847457304542477,65.36131410142654,-21.470899283396733,-140.73757934570312,5356.25390625,True
1599563442.1847568,0.0,10,0.5,0.5,11.233351723861693,-0.2,-0.00825,-0.12575,0.06517305472460917,10,1,100,-0.022154705539277106,-10,-1,-100,15007.493616425898,0.0010499000932757548,0.006401744982851619,0.9999789574640902,26.77123976913521,0.019813908558646655,66.05165434741906,-21.656499452421926,-143.56475830078125,5356.25390625,True
1599563442.2296398,0.0,10,0.5,0.5,13.55833182258606,-0.2,-0.00825,-0.12575,0.05252150859048678,10,1,100,-0.045039910084767716,-10,-1,-100,15006.174280024832,0.0013662712290171272,0.006236701661628546,0.9999796182199479,26.667865032521604,0.019311790645729576,67.50183698518258,-22.21329951818796,-151.63235473632812,5356.25390625,True
1599563442.2775092,0.0,10,0.5,0.5,14.23689030342102,-0.2,-0.00825,-0.12575,0.05612690303453917,10,1,100,-0.03300711847734931,-10,-1,-100,15005.312950251508,0.001541650043181293,0.006119846862554226,0.9999800851964619,26.424549869908752,0.018724786604435596,68.01318099406612,-22.58450625088561,-156.66590881347656,5356.25390625,True
1599563442.3253815,0.0,10,0.5,0.5,15.205223602294923,-0.2,-0.00825,-0.12575,0.05609575696774968,10,1,100,-0.03217651727348282,-10,-1,-100,15004.390097321593,0.0016908768435054528,0.0060139011261220445,0.9999804867739898,26.073351724445033,0.018021391431701447,68.2221626890322,-22.95572282999497,-161.42330932617188,5356.25390625,True
1599563442.3822296,0.0,10,0.5,0.5,16.11629134426117,-0.2,-0.00825,-0.12575,0.054451222226789525,10,1,100,-0.030946724628183646,-10,-1,-100,15003.467245202395,0.0018129198547666234,0.005903335320948829,0.9999809317950462,25.63958289388877,0.01727332013955757,68.18227065719746,-23.32695088326563,-165.90481567382812,5356.25390625,True
1599563442.429104,0.0,10,0.5,0.5,16.969875351142882,-0.2,-0.00825,-0.12575,0.0540474315534705,10,1,100,-0.029624848674318027,-10,-1,-100,15002.48189199518,0.0019096407464074846,0.005799952022010329,0.9999813567405955,25.14633218184442,0.01654354817627679,67.94526710360007,-23.69819065395147,-170.11026000976562,5356.25390625,True
1599563442.4729872,0.0,10,0.5,0.5,16.49172015514374,-0.2,-0.00825,-0.12575,0.06428721481002111,10,1,100,-0.020205558691152713,-10,-1,-100,15002.48189199518,0.0019096407464074846,0.005799952022010329,0.9999813567405955,25.14633218184442,0.01654354817627679,67.94526710360007,-23.69819065395147,-170.11026000976562,5356.25390625,True
1599563442.5158732,0.0,10,0.5,0.5,17.816654758453375,-0.2,-0.00825,-0.12575,0.05356308622759107,10,1,100,-0.028329825080389344,-10,-1,-100,15001.560015919502,0.0019815200919994155,0.005703334057729707,0.9999817726132565,24.61462875473394,0.015882041681659863,67.5611761909526,-24.069441324780804,-174.03964233398438,5356.25390625,True
1599563442.5617497,0.0,10,0.5,0.5,19.111310751342774,-0.2,-0.00825,-0.12575,0.04860587987911514,10,1,100,-0.02801156203754525,-10,-1,-100,15000.05122440157,0.0020425221258945077,0.005571281222673561,0.9999823943094713,23.785601349464752,0.015092831660677708,66.81238602827761,-24.62633346880941,-179.41616821289062,5356.25390625,True
1599563442.6055107,0.0,10,0.5,0.5,-98.25920468406679,-0.2,-0.00825,-0.12575,0.0573174425711647,10,1,100,-0.02284111141613692,-10,-1,-100,14999.588334353175,0.002049727978272622,0.005531316950804001,0.9999826014226473,23.509195662720604,0.014894468515837518,66.53919938768455,-24.811967155051526,178.9296875,5356.25390625,True
1599563442.9786031,0.0,10,0.5,0.5,-51.53039687690735,-0.2,-0.00825,-0.12575,0.04676768729466408,10,1,100,-0.02010012981838324,-10,-1,-100,14997.554152224213,0.0020303405515488425,0.005399920415928463,0.9999833591499142,24.351094696006424,0.015646948452304573,71.00809295473252,-25.554466028401805,173.00323486328125,5356.25390625,True
1599563443.0175378,0.0,10,0.5,0.5,-51.61478970680237,-0.2,-0.00825,-0.12575,0.05426374245217727,10,1,100,-0.017116139942852507,-10,-1,-100,14996.507276503951,0.0019846971279694242,0.00534952572617075,0.9999837216434152,24.936345431203726,0.016290782597269796,73.78335144369179,-25.925679336070313,170.17276000976562,5356.25390625,True
1599563443.0594287,0.0,10,0.5,0.5,-52.23621113929749,-0.2,-0.00825,-0.12575,0.05921449383440272,10,1,100,-0.021742324890689557,-10,-1,-100,14996.507276503951,0.0019846971279694242,0.00534952572617075,0.9999837216434152,24.936345431203726,0.016290782597269796,73.78335144369179,-25.925679336070313,170.17276000976562,5356.25390625,True
1599563443.0993235,0.0,10,0.5,0.5,-51.508243666076666,-0.2,-0.00825,-0.12575,0.054806949497310645,10,1,100,-0.015018212671707887,-10,-1,-100,14995.45942391036,0.0019231660649925107,0.005310157433230262,0.9999840517029863,25.527131964581606,0.017038958206579167,76.62573699866483,-26.296867350756227,167.11026000976562,5356.25390625,True
1599563443.142208,0.0,10,0.5,0.5,-49.905049371337896,-0.2,-0.00825,-0.12575,0.05445116473363664,10,1,100,-0.000265127032239805,-10,-1,-100,14993.36176621425,0.001732898602635164,0.005271773436062683,0.9999846026150961,26.8144824987724,0.018881213142371327,82.78994980427804,-27.03915612253353,160.1744384765625,5356.25390625,True
1599563443.1821022,0.0,10,0.5,0.5,-50.42548219833374,-0.2,-0.00825,-0.12575,0.05798383971387271,10,1,100,-0.01275722602350652,-10,-1,-100,14992.774851204362,0.001673565465187393,0.005269568267444199,0.9999847152976432,27.12444144409135,0.019378771710945278,84.32872965668822,-27.224709029595285,158.268798828125,5356.25390625,True
1599563443.2233303,0.0,10,0.5,0.5,-50.292854779815684,-0.2,-0.00825,-0.12575,0.058344835968520005,10,1,100,-0.011605039771871644,-10,-1,-100,14992.251414126018,0.0016093664427483934,0.005271327519882886,0.9999848114075689,27.425745898364156,0.01988156650534034,85.85376296592375,-27.41025404023158,156.2943572998047,5356.25390625,True
1599563443.2642217,0.0,10,0.5,0.5,-49.456849259567264,-0.2,-0.00825,-0.12575,0.059266807602328546,10,1,100,-0.0019893967086751056,-10,-1,-100,14991.14301565336,0.0014638617347781152,0.005281788968318249,0.9999849797942544,28.053702266662306,0.020922458900245088,89.02317704419582,-27.78131956608271,152.13909912109375,5356.25390625,True
1599563443.304152,0.0,10,0.5,0.5,-48.05010528678894,-0.2,-0.00825,-0.12575,0.06369590603497584,10,1,100,0.011062797675060295,-10,-1,-100,14989.440866076155,0.0012133990134595598,0.005331947130001202,0.9999850488895506,28.906835040558892,0.022376503217253617,93.59114492827176,-28.337856992933588,145.39047241210938,5356.25390625,True
1599563443.3450432,0.0,10,0.5,0.5,-46.76674486427307,-0.2,-0.00825,-0.12575,0.0678869824583377,10,1,100,0.018299057469844858,-10,-1,-100,14987.743601727649,0.0009206751987741362,0.005415863730009605,0.9999849102747683,29.55927526727361,0.02347454972570335,97.60673381706522,-28.89433012597411,138.02296447753906,5356.25390625,True
1599563443.3869321,0.0,10,0.5,0.5,-46.814676112365724,-0.2,-0.00825,-0.12575,0.06336847160192301,10,1,100,0.0011053546905245154,-10,-1,-100,14987.156687371433,0.0008118954404898437,0.00545117913425056,0.9999848126205918,29.718736361428398,0.023721514147726178,98.77126115193795,-29.079809610916584,135.4296112060547,5356.25390625,True
1599563443.4268236,0.0,10,0.5,0.5,-46.24262482948304,-0.2,-0.00825,-0.12575,0.06427430456591039,10,1,100,0.002714473570728579,-10,-1,-100,14986.56782102515,0.0006994840750577763,0.005491472293489202,0.9999846771096438,29.844496546111593,0.023896738335599237,99.83000968990805,-29.26528468400175,132.76754760742188,5356.25390625,True
1599563443.4677153,0.0,10,0.5,0.5,-42.85402229652405,-0.2,-0.00825,-0.12575,0.08320776311987026,10,1,100,0.046066033819547846,-10,-1,-100,14984.157667129766,0.0002043552069965505,0.005700095746408223,0.9999837334414151,29.94901822603477,0.02379010275923667,102.75321320370523,-30.00715960509505,121.43217468261719,5356.25390625,True
1599563443.5086052,0.0,10,0.5,0.5,-42.25871859741211,-0.2,-0.00825,-0.12575,0.0771884593021296,10,1,100,0.026564999057297627,-10,-1,-100,14982.98286458361,-6.68613189286775e-05,0.00583471378706402,0.9999829756773796,29.721339343554856,0.023246559370966566,103.25029416123031,-30.378097412240635,115.35231018066406,5356.25390625,True
1599563443.5504942,0.0,10,0.5,0.5,-40.91059039039612,-0.2,-0.00825,-0.12575,0.08123147963619357,10,1,100,0.03308799700033828,-10,-1,-100,14981.74751557794,-0.00037091266253932596,0.0059933716849209315,0.9999819707972954,29.278053913925085,0.022429527719551128,102.97057177665272,-30.749047825116687,108.99783325195312,5356.25390625,True
1599563443.5914216,0.0,10,0.5,0.5,-41.667445164871225,-0.2,-0.00825,-0.12575,0.06543784967538822,10,1,100,0.0028932437657908836,-10,-1,-100,14981.74751557794,-0.00037091266253932596,0.0059933716849209315,0.9999819707972954,29.278053913925085,0.022429527719551128,102.97057177665272,-30.749047825116687,108.99783325195312,5356.25390625,True
1599563443.6332743,0.0,10,0.5,0.5,-39.46739064292908,-0.2,-0.00825,-0.12575,0.08585729309198109,10,1,100,0.03707791203958803,-10,-1,-100,14980.509237743332,-0.0006798237576395485,0.006178344985601342,0.9999806827598707,28.601001364021812,0.02142634024753322,101.82163269239976,-31.120019448130353,102.36880493164062,5356.25390625,True
1599563443.6760776,0.0,10,0.5,0.5,-35.66942981033325,-0.2,-0.00825,-0.12575,0.11712111857109758,10,1,100,0.07930266650515727,-10,-1,-100,14977.973114116001,-0.001342432348144573,0.006629894565606667,0.9999771209249937,26.49037887400651,0.01931479491174546,96.59344661130339,-31.862049111663328,88.2872314453125,5356.25390625,True
1599563443.7189622,0.0,10,0.5,0.5,-37.387509885406494,-0.2,-0.00825,-0.12575,0.07210097113029394,10,1,100,0.013322436862947089,-10,-1,-100,14977.973114116001,-0.001342432348144573,0.006629894565606667,0.9999771209249937,26.49037887400651,0.01931479491174546,96.59344661130339,-31.862049111663328,88.2872314453125,5356.25390625,True
1599563443.7608502,0.0,10,0.5,0.5,-34.91281762313843,-0.2,-0.00825,-0.12575,0.1028312022553903,10,1,100,0.05247099024021955,-10,-1,-100,14976.672339215409,-0.0016960048048819552,0.0069080803508933565,0.9999747006767559,26.785631281388977,0.01967772834765683,98.82682831826571,-32.23308497750228,80.83494567871094,5356.25390625,True
1599563443.802739,0.0,10,0.5,0.5,-33.285914237213134,-0.2,-0.00825,-0.12575,0.11133903137079368,10,1,100,0.057820595017981626,-10,-1,-100,14975.372541915625,-0.0020636882817104524,0.007236963859820483,0.999971683371468,28.32894585557961,0.021255738199287267,105.74466749621693,-32.604061973141526,73.10862731933594,5356.25390625,True
1599563443.8476198,0.0,10,0.5,0.5,-28.904335698699953,-0.2,-0.00825,-0.12575,0.16091392353585965,10,1,100,0.09988957840167825,-10,-1,-100,14972.77002278925,-0.0027777771243861463,0.00798500626514068,0.9999642611759646,30.697572180782686,0.024311637654333213,117.23786159940501,-33.34583778010951,56.83311462402344,5356.25390625,True
1599563443.8924985,0.0,10,0.5,0.5,-28.103614397811892,-0.2,-0.00825,-0.12575,0.1355263657549188,10,1,100,0.06737814854233266,-10,-1,-100,14971.408706733026,-0.003128229199734141,0.008431981986539895,0.9999595571131128,31.550070074728097,0.025463274611390314,121.85613985260221,-33.71664967479398,48.28446960449219,5356.25390625,True
1599563443.9343867,0.0,10,0.5,0.5,-29.118259652328494,-0.2,-0.00825,-0.12575,0.09110198223901045,10,1,100,0.03266619944820628,-10,-1,-100,14971.408706733026,-0.003128229199734141,0.008431981986539895,0.9999595571131128,31.550070074728097,0.025463274611390314,121.85613985260221,-33.71664967479398,48.28446960449219,5356.25390625,True
1599563443.9782686,0.0,10,0.5,0.5,-24.718737102127076,-0.2,-0.00825,-0.12575,0.17790291982130504,10,1,100,0.0866612846265709,-10,-1,-100,14969.332556770765,-0.0036163105487367233,0.009218720266197595,0.9999509675452435,32.16876610912776,0.02609640896372153,126.33026972270022,-34.27281219552766,34.94850158691406,5356.25390625,True
1599563444.0201573,0.0,10,0.5,0.5,-21.78970717544556,-0.2,-0.00825,-0.12575,0.19501610602912953,10,1,100,0.08607094382188282,-10,-1,-100,14967.255435922183,-0.004051703769709,0.010086579169065475,0.9999409205634244,31.803900766237806,0.0252216942984822,126.96094520886545,-34.82897430107317,20.99627685546875,5356.25390625,True
1599563444.065037,0.0,10,0.5,0.5,-23.471598151397707,-0.2,-0.00825,-0.12575,0.10863953649075596,10,1,100,0.04289970083537213,-10,-1,-100,14967.255435922183,-0.004051703769709,0.010086579169065475,0.9999409205634244,31.803900766237806,0.0252216942984822,126.96094520886545,-34.82897430107317,20.99627685546875,5356.25390625,True
1599563444.107924,0.0,10,0.5,0.5,-18.65909115905762,-0.2,-0.00825,-0.12575,0.2184400810402838,10,1,100,0.07712204887287272,-10,-1,-100,14965.179294373607,-0.004359750679129851,0.011081212997530761,0.9999290971326513,30.361462182630078,0.023330998387133314,123.1767213465875,-35.385206562402104,6.428741455078125,5356.25390625,True
1599563444.1498108,0.0,10,0.5,0.5,-18.79702158126831,-0.2,-0.00825,-0.12575,0.15736037863898855,10,1,100,0.054780092165296675,-10,-1,-100,14964.468368711998,-0.0044339416100517655,0.011426108893912951,0.9999248892778613,29.635314851311335,0.02263079299507283,120.87387391271477,-35.5706413278591,1.435943603515625,5356.25390625,True
1599563444.190701,0.0,10,0.5,0.5,-14.340144972229004,-0.2,-0.00825,-0.12575,0.23980509765875388,10,1,100,0.06442470806433398,-10,-1,-100,14962.2672317978,-0.004586255774279384,0.012484787868687076,0.9999115442527138,29.414329690430925,0.022757424115274726,121.8890215008199,-36.126975181357345,-13.953369140625,5356.25390625,True
1599563444.235581,0.0,10,0.5,0.5,-10.983241998672487,-0.2,-0.00825,-0.12575,0.2532619217989952,10,1,100,0.048106340170604944,-10,-1,-100,14960.1276215018,-0.0045737468963893205,0.013564488331104116,0.9998975374985395,31.948048477726175,0.025902215544071516,134.4696712599467,-36.683149784709286,-29.959228515625,5356.25390625,True
1599563444.2794664,0.0,10,0.5,0.5,-9.323274044036866,-0.2,-0.00825,-0.12575,0.22201623487435942,10,1,100,0.0359858552088078,-10,-1,-100,14958.63838833815,-0.004449907090823217,0.014256230211739933,0.9998884728943689,32.96613398399955,0.02750157693174501,140.1855989224748,-37.05384543190473,-40.972808837890625,5356.25390625,True
1599563444.319364,0.0,10,0.5,0.5,-6.950418065261841,-0.2,-0.00825,-0.12575,0.22480835650249148,10,1,100,0.027754668829167405,-10,-1,-100,14957.151107205078,-0.004260976364160541,0.014904768278076786,0.9998798387621388,33.54569971568498,0.028408022791507493,144.1058667331349,-37.424496337264735,-52.260986328125,5356.25390625,True
1599563444.361255,0.0,10,0.5,0.5,-8.286956383514404,-0.2,-0.00825,-0.12575,0.16060182849795987,10,1,100,0.046761016211877705,-10,-1,-100,14957.151107205078,-0.004260976364160541,0.014904768278076786,0.9998798387621388,33.54569971568498,0.028408022791507493,144.1058667331349,-37.424496337264735,-52.260986328125,5356.25390625,True
1599563444.406133,0.0,10,0.5,0.5,-4.437452419662476,-0.2,-0.00825,-0.12575,0.22757819522014544,10,1,100,0.01960413087319043,-10,-1,-100,14955.601324020769,-0.004013065818204814,0.01550775998801344,0.9998716941102458,33.463292783834646,0.0282900926949371,145.20482681268342,-37.795135692212334,-63.823699951171875,5356.25390625,True
1599563444.4500153,0.0,10,0.5,0.5,-1.9538731903076174,-0.2,-0.00825,-0.12575,0.22616095377069675,10,1,100,0.01106569979070609,-10,-1,-100,14954.110132334288,-0.0037097098072502344,0.016037332947759213,0.9998645118240114,32.652348236212376,0.027227431272449035,143.10559505212285,-38.16580121894354,-75.66131591796875,5356.25390625,True
1599563444.4929297,0.0,10,0.5,0.5,4.617928014755249,-0.2,-0.00825,-0.12575,0.2678957196960175,10,1,100,-0.03521511126095356,-10,-1,-100,14951.007623815909,-0.0030135078731514,0.016892760097959474,0.9998527658743417,29.017842831035427,0.023957075107373303,129.7057330736887,-38.907315418653006,-100.16059112548828,5356.25390625,True
1599563444.5377812,0.0,10,0.5,0.5,5.761698688316345,-0.2,-0.00825,-0.12575,0.21692899288501966,10,1,100,-0.0038534787531106472,-10,-1,-100,14949.455877292203,-0.002666646588493357,0.01720089982628801,0.999848497544072,31.492028947959934,0.02666866090699227,142.13840912839342,-39.27804475877039,-112.82244873046875,5356.25390625,True
