Timestamp,Input Throttle,horizon,dT,dt,Input Roll,Roll P,Roll I,Roll D,Input Pitch,Pitch P,Pitch I,Pitch D,Input Yaw,Yaw P,Yaw I,Yaw D,Altitude,Direction X,Direction Y,Direction Z,Drag X,Drag Y,Drag Z,Vertical Velocity,Roll,Mass,Has Fuel
1599562597.6749363,0.0,10,0.5,0.5,-8.745886741638182,-0.15025,-0.02275,-0.12575,-0.0002821172183447195,10,1,100,0.17491790922693073,-10,-1,-100,14994.494908782537,-0.016810252664884975,-7.439070877082899e-05,0.9998586949521241,28.57647566891118,0.027199439406626714,-86.69255683456592,26.823330208123878,-31.792022705078125,5356.25390625,True
1599562597.9726598,0.0,10,0.5,0.5,-8.878331771087648,-0.15025,-0.02275,-0.12575,-0.0004809751873483866,10,1,100,0.17373326783143922,-10,-1,-100,14995.04080874985,-0.016846159173213165,-7.193279085049275e-05,0.9998580908042823,28.503901755043767,0.027363128026049757,-85.87447083506288,26.637366829685067,-31.79144287109375,5356.25390625,True
1599562598.0116398,0.0,10,0.5,0.5,-9.010851781463622,-0.15025,-0.02275,-0.12575,-0.000465219306887842,10,1,100,0.17584030335386855,-10,-1,-100,14995.583779109525,-0.016882641631739775,-6.948969129068168e-05,0.999857475634761,28.43135665440939,0.027525308882886793,-85.05951544796021,26.45140706945065,-31.79083251953125,5356.25390625,True
1599562598.0455494,0.0,10,0.5,0.5,-9.132251178741456,-0.15025,-0.02275,-0.12575,0.003507426558370078,10,1,100,0.18004130207454758,-10,-1,-100,14996.609172506607,-0.016938650544559467,-3.10905568327899e-05,0.9998565302837736,28.286450930926186,0.027845213758831647,-83.43927842638492,26.079499313515004,-31.83050537109375,5356.25390625,True
1599562598.0794544,0.0,10,0.5,0.5,-9.197627642059325,-0.15025,-0.02275,-0.12575,0.007686276173266283,10,1,100,0.18031000479821402,-10,-1,-100,14997.635542036383,-0.016976611716842917,4.183555331601611e-05,0.9998558860677882,28.15291208577447,0.028167632783434027,-81.8642446545477,25.707607056937572,-32.0911865234375,5356.25390625,True
1599562598.1147008,0.0,10,0.5,0.5,-9.115639250946046,-0.15025,-0.02275,-0.12575,0.020414945028892295,10,1,100,0.18004405940191515,-10,-1,-100,14999.142378811608,-0.01699327090466439,0.0002238091561812435,0.9998555788979838,27.98977135397731,0.02865956474945077,-79.62838879684136,25.1497950231529,-32.984344482421875,5356.25390625,True
1599562598.1496081,0.0,10,0.5,0.5,-9.237714651489258,-0.15025,-0.02275,-0.12575,0.011720749761679645,10,1,100,0.17900507427959061,-10,-1,-100,14999.623823689879,-0.01698352187347672,0.00030999810257844316,0.999855721534837,27.945009481504034,0.028822287620442363,-78.91480623535196,24.96386423346728,-33.4189453125,5356.25390625,True
1599562598.1835158,0.0,10,0.5,0.5,-9.12432527618408,-0.15025,-0.02275,-0.12575,0.026325098764187788,10,1,100,0.1767142082913274,-10,-1,-100,15000.647259615012,-0.016938393498073284,0.0005208366828690819,0.9998563994668705,27.86765699317106,0.029138158460464664,-77.52709243500931,24.592011823396923,-34.494171142578125,5356.25390625,True
1599562598.2203863,0.0,10,0.5,0.5,-9.208989762115477,-0.15025,-0.02275,-0.12575,0.018819547232523312,10,1,100,0.1787927340963975,-10,-1,-100,15001.129680238082,-0.016900864851845276,0.0006438023449519228,0.999856962913096,27.833949539505344,0.029288042558722825,-76.84936447649052,24.40609004226212,-35.13482666015625,5356.25390625,True
1599562598.256289,0.0,10,0.5,0.5,-8.517454691314697,-0.15025,-0.02275,-0.12575,0.07413996938573472,10,1,100,0.15762355639333633,-10,-1,-100,15003.054475975456,-0.01665893640810849,0.0012579169642882892,0.9998604390026948,27.71611044120725,0.029789209701138648,-74.19790614471461,23.662431036613064,-38.384521484375,5356.25390625,True
1599562598.289234,0.0,10,0.5,0.5,-9.043529029083253,-0.15025,-0.02275,-0.12575,0.012854299148526913,10,1,100,0.18348229440782576,-10,-1,-100,15003.054475975456,-0.01665893640810849,0.0012579169642882892,0.9998604390026948,27.71611044120725,0.029789209701138648,-74.19790614471461,23.662431036613064,-38.384521484375,5356.25390625,True
1599562598.3251386,0.0,10,0.5,0.5,-8.156681729125976,-0.15025,-0.02275,-0.12575,0.07557200412970216,10,1,100,0.15088572003019074,-10,-1,-100,15004.436301408568,-0.016362741473999787,0.0018268667298689195,0.9998644524381324,27.62001465793877,0.02999574692371267,-72.20194262348683,23.10471656073584,-41.54339599609375,5356.25390625,True
1599562598.3610473,0.0,10,0.5,0.5,-8.531724505615234,-0.15025,-0.02275,-0.12575,0.018866907523711066,10,1,100,0.18045687167113972,-10,-1,-100,15004.436301408568,-0.016362741473999787,0.0018268667298689195,0.9998644524381324,27.62001465793877,0.02999574692371267,-72.20194262348683,23.10471656073584,-41.54339599609375,5356.25390625,True
1599562598.398869,0.0,10,0.5,0.5,-7.833519357299805,-0.15025,-0.02275,-0.12575,0.06766724514577271,10,1,100,0.1529132748460638,-10,-1,-100,15005.334730545525,-0.016112817775733406,0.0022687822024138804,0.9998676061012498,27.53570172866542,0.030012940518004013,-70.82586969295174,22.732921741668733,-43.99273681640625,5356.25390625,True
1599562598.4357703,0.0,10,0.5,0.5,-6.957414215087891,-0.15025,-0.02275,-0.12575,0.10000918210135211,10,1,100,0.12491898612745042,-10,-1,-100,15006.71655122994,-0.015631871636930052,0.002962450356360706,0.9998734262280463,27.35199071620054,0.029801986686787733,-68.6313470156276,22.175255391232906,-48.1827392578125,5356.25390625,True
1599562598.468718,0.0,10,0.5,0.5,-7.024307260131836,-0.15025,-0.02275,-0.12575,0.058879554372431794,10,1,100,0.15256899021996145,-10,-1,-100,15007.133538071765,-0.01544723403893157,0.0032164969580466855,0.9998755108051529,27.26939886817883,0.029658065324542453,-67.85184354675432,21.989374423309936,-49.716766357421875,5356.25390625,True
1599562598.5085764,0.0,10,0.5,0.5,-5.794874522399903,-0.15025,-0.02275,-0.12575,0.11616725568388567,10,1,100,0.10019739773495968,-10,-1,-100,15008.451879303902,-0.014804681778947237,0.0039655250735000066,0.9998825411058618,26.934320499201327,0.02897654519650968,-65.32245279111278,21.43175932013967,-54.73223876953125,5356.25390625,True
1599562598.546476,0.0,10,0.5,0.5,-5.359349281311035,-0.15025,-0.02275,-0.12575,0.09984388635750496,10,1,100,0.10959062200928024,-10,-1,-100,15009.287803532556,-0.014307917072450329,0.004494742250971454,0.9998875340762807,26.619961769779902,0.028302274088069363,-63.44290349561034,21.06004324255777,-58.419677734375,5356.25390625,True
1599562598.588363,0.0,10,0.5,0.5,-5.768614203643798,-0.15025,-0.02275,-0.12575,0.04731955916717045,10,1,100,0.15900404501640875,-10,-1,-100,15009.287803532556,-0.014307917072450329,0.004494742250971454,0.9998875340762807,26.619961769779902,0.028302274088069363,-63.44290349561034,21.06004324255777,-58.419677734375,5356.25390625,True
1599562598.627261,0.0,10,0.5,0.5,-3.451915581512451,-0.15025,-0.02275,-0.12575,0.15707281405728282,10,1,100,0.03243637977040091,-10,-1,-100,15010.899103499483,-0.013159659159104253,0.0054889982591488215,0.9998983419672859,25.703558905066142,0.026432102656841167,-59.10183828642239,20.316693845960643,-66.62158203125,5356.25390625,True
1599562598.6641603,0.0,10,0.5,0.5,-3.8056547233581535,-0.15025,-0.02275,-0.12575,0.08610619280927413,10,1,100,0.111055816858025,-10,-1,-100,15011.319018011796,-0.012833691645267134,0.005743869817696476,0.999901147273205,25.402604475510614,0.025866475054369866,-57.876994668056454,20.130876846781906,-68.84408569335938,5356.25390625,True
1599562598.7010627,0.0,10,0.5,0.5,-3.3834092407226564,-0.15025,-0.02275,-0.12575,0.08834403187853608,10,1,100,0.10597652310059821,-10,-1,-100,15011.735026227776,-0.012494659639223003,0.005991837087139081,0.9999039860750737,25.068722906619804,0.02526836837871138,-56.59049205310014,19.94506900155385,-71.135498046875,5356.25390625,True
1599562598.7379627,0.0,10,0.5,0.5,-0.8839460571289062,-0.15025,-0.02275,-0.12575,0.15808605028606437,10,1,100,-0.017572277257928176,-10,-1,-100,15013.282848026603,-0.011066794250318803,0.006847493890012371,0.9999153153604796,23.36262908835138,0.02265339972361055,-50.779517965386155,19.20193639920978,-80.99160766601562,5356.25390625,True
1599562598.7708743,0.0,10,0.5,0.5,-1.3059738594055177,-0.15025,-0.02275,-0.12575,0.094700369401538,10,1,100,0.08219532553664279,-10,-1,-100,15013.637332787388,-0.010680527510559886,0.007044566041710445,0.9999181468607219,22.837658674489745,0.021976466833851977,-49.15966488228956,19.016178775893195,-83.62796020507812,5356.25390625,True
1599562598.8077762,0.0,10,0.5,0.5,-0.8006476898193359,-0.15025,-0.02275,-0.12575,0.09609573751436183,10,1,100,0.07679719908062199,-10,-1,-100,15014.055294184596,-0.010285240497783567,0.007232066086244097,0.999920952399752,22.289672614071797,0.021320694496559735,-47.51278372032874,18.830431056906853,-86.33331298828125,5356.25390625,True
1599562598.8457046,0.0,10,0.5,0.5,0.49329407348632814,-0.15025,-0.02275,-0.12575,0.11402519696178244,10,1,100,0.02909546778563392,-10,-1,-100,15014.769146876642,-0.009497097139068064,0.007561634289224073,0.9999263107013472,21.117973037640358,0.020088589816406776,-44.129716612563925,18.45896278566546,-91.93964385986328,5356.25390625,True
1599562598.884571,0.0,10,0.5,0.5,2.3387718523025516,-0.15025,-0.02275,-0.12575,0.12825030314583757,10,1,100,-0.030886253881935916,-10,-1,-100,15015.895103013492,-0.008240724013166847,0.007986610768759846,0.9999341500899782,22.600113952757614,0.021697468282275537,-45.80529487089689,17.90176160501857,-100.83245849609375,5356.25390625,True
1599562598.9228404,0.0,10,0.5,0.5,1.3253784116744995,-0.15025,-0.02275,-0.12575,0.08615476376178627,10,1,100,0.09409466293160769,-10,-1,-100,15015.895103013492,-0.008240724013166847,0.007986610768759846,0.9999341500899782,22.600113952757614,0.021697468282275537,-45.80529487089689,17.90176160501857,-100.83245849609375,5356.25390625,True
1599562598.962738,0.0,10,0.5,0.5,4.701923823356628,-0.15025,-0.02275,-0.12575,0.13000439687732385,10,1,100,-0.08866825311590083,-10,-1,-100,15017.25543047837,-0.006584758588243391,0.008382069371157652,0.9999431893199693,24.173242353519168,0.023912490278930037,-46.965330799249166,17.158775125079792,-112.71672058105469,5356.25390625,True
1599562599.0006313,0.0,10,0.5,0.5,4.112221015357971,-0.15025,-0.02275,-0.12575,0.09826727077155661,10,1,100,0.02815883910214373,-10,-1,-100,15017.609917187481,-0.00614842100255357,0.008449523929539423,0.9999453997416756,24.432511574706826,0.024356737306227665,-46.95634228327506,16.973019257179445,-115.5472183227539,5356.25390625,True
1599562599.0415227,0.0,10,0.5,0.5,5.373875560379028,-0.15025,-0.02275,-0.12575,0.10363090973942346,10,1,100,-0.018467993730682183,-10,-1,-100,15018.25834414782,-0.005334244024497633,0.008556915222621286,0.9999491612289897,24.909463017804455,0.025168704492467366,-46.82733596702857,16.60149927265222,-121.00476837158203,5356.25390625,True
1599562599.0814168,0.0,10,0.5,0.5,6.236818678474426,-0.15025,-0.02275,-0.12575,0.1007646072277496,10,1,100,-0.025314648269579042,-10,-1,-100,15018.905796439154,-0.0045386585010211465,0.008625929061312376,0.9999524958350974,25.226980153272542,0.025729704682080034,-46.36503127226156,16.22997320608488,-126.18797302246094,5356.25390625,True
1599562599.1173198,0.0,10,0.5,0.5,7.06489702243805,-0.15025,-0.02275,-0.12575,0.09725469213929581,10,1,100,-0.03213731237853749,-10,-1,-100,15019.555202724994,-0.0037606074433594473,0.008654365966614539,0.9999554788996223,25.37991111976913,0.026001055198150366,-45.580313632447954,15.858447823019414,-131.0960235595703,5356.25390625,True
1599562599.1557257,0.0,10,0.5,0.5,7.840281869316101,-0.15025,-0.02275,-0.12575,0.09483649109991212,10,1,100,-0.03641255567323612,-10,-1,-100,15020.200703779003,-0.0030210644399033325,0.008656591441916106,0.9999579674137598,25.389447307570265,0.025992494165422528,-44.531142967696354,15.486929592162525,-135.72857666015625,5356.25390625,True
1599562599.1976166,0.0,10,0.5,0.5,8.578814582633973,-0.15025,-0.02275,-0.12575,0.09232673563148334,10,1,100,-0.04125043279419302,-10,-1,-100,15020.784682775266,-0.002311735065726035,0.008634333164840718,0.9999600512879425,25.27618976281533,0.025728458586704535,-43.27090834058464,15.115424727328998,-140.08563232421875,5356.25390625,True
1599562599.2380886,0.0,10,0.5,0.5,9.279681950187681,-0.15025,-0.02275,-0.12575,0.09009212313117695,10,1,100,-0.045229596354550525,-10,-1,-100,15021.370615857304,-0.0016379646072271121,0.008592508920152493,0.9999617421993716,25.059766559525674,0.02524685892212825,-41.84789975654106,14.74393841870592,-144.16708374023438,5356.25390625,True
1599562599.281971,0.0,10,0.5,0.5,9.935662255859375,-0.15025,-0.02275,-0.12575,0.08833610246777696,10,1,100,-0.04870265742664257,-10,-1,-100,15021.954596587224,-0.001001017392056201,0.008537585896558716,0.9999630531130835,24.75937935695521,0.024593244203265523,-40.30639746099347,14.372474471977824,-147.972900390625,5356.25390625,True
1599562599.3208706,0.0,10,0.5,0.5,9.564325317382814,-0.15025,-0.02275,-0.12575,0.09388350233993448,10,1,100,0.01426809342833748,-10,-1,-100,15021.954596587224,-0.001001017392056201,0.008537585896558716,0.9999630531130835,24.75937935695521,0.024593244203265523,-40.30639746099347,14.372474471977824,-147.972900390625,5356.25390625,True
1599562599.3647566,0.0,10,0.5,0.5,11.544058164978027,-0.15025,-0.02275,-0.12575,0.07933768082235196,10,1,100,-0.11396492051128693,-10,-1,-100,15023.06006123533,0.0001581557286484658,0.008404850269009967,0.9999646661151188,24.090786665207283,0.023062079327072466,-37.194438969504624,13.629618579203058,-154.7572784423828,5356.25390625,True
1599562599.4077828,0.0,10,0.5,0.5,10.786564894104004,-0.15025,-0.02275,-0.12575,0.0926135216670121,10,1,100,0.0012781001274905631,-10,-1,-100,15023.06006123533,0.0001581557286484658,0.008404850269009967,0.9999646661151188,24.090786665207283,0.023062079327072466,-37.194438969504624,13.629618579203058,-154.7572784423828,5356.25390625,True
1599562599.4456813,0.0,10,0.5,0.5,12.443803730583191,-0.15025,-0.02275,-0.12575,0.07668672236416285,10,1,100,-0.11061431124190194,-10,-1,-100,15024.10302833689,0.001169626216796396,0.008260101796857273,0.9999652007409151,23.311712626208127,0.0213743893080004,-34.03353058103864,12.886860414284206,-160.43856811523438,5356.25390625,True
1599562599.4845443,0.0,10,0.5,0.5,11.819093448638915,-0.15025,-0.02275,-0.12575,0.09113188823685582,10,1,100,-0.010117649451238345,-10,-1,-100,15024.10302833689,0.001169626216796396,0.008260101796857273,0.9999652007409151,23.311712626208127,0.0213743893080004,-34.03353058103864,12.886860414284206,-160.43856811523438,5356.25390625,True
1599562599.5265996,0.0,10,0.5,0.5,13.160542361068726,-0.15025,-0.02275,-0.12575,0.07574980541160821,10,1,100,-0.1060435630344985,-10,-1,-100,15025.14599760971,0.002036490626900745,0.008120597250504527,0.9999649536889889,22.504882128626598,0.019751385608838445,-30.965214626855456,12.144190513678936,-165.01657104492188,5356.25390625,True
1599562599.5694451,0.0,10,0.5,0.5,12.930371366119385,-0.15025,-0.02275,-0.12575,0.08500491006547836,10,1,100,-0.041360113472335557,-10,-1,-100,15025.375490114791,0.0022312477327302536,0.00807839749496095,0.9999648798970235,22.307266216436272,0.01937277392549633,-30.224828311573685,11.958534948840187,-165.98883056640625,5356.25390625,True
1599562599.6083705,0.0,10,0.5,0.5,13.56751192855835,-0.15025,-0.02275,-0.12575,0.08297438951014086,10,1,100,-0.08020627381209586,-10,-1,-100,15026.064945510007,0.0027566717300525063,0.008022100433915498,0.9999640226856169,21.74323808053852,0.018325018296046873,-28.090602997050247,11.401592239432196,-168.49085998535156,5356.25390625,True
1599562599.6472716,0.0,10,0.5,0.5,13.682747945785522,-0.15025,-0.02275,-0.12575,0.08418601194904235,10,1,100,-0.06199282407509203,-10,-1,-100,15026.52197837201,0.0030641454511038117,0.007982492612165033,0.9999634447440323,21.401410713010762,0.017706679065018598,-26.749911761957826,11.030314095516605,-169.814208984375,5356.25390625,True
1599562599.687203,0.0,10,0.5,0.5,13.863655210494993,-0.15025,-0.02275,-0.12575,0.08800374729176993,10,1,100,-0.06147168490436529,-10,-1,-100,15026.917488171603,0.0033346547413635455,0.007981746746696668,0.9999625851983801,21.094261286230445,0.017153805653597337,-25.47974070143665,10.6590469753875,-170.8612060546875,5356.25390625,True
1599562599.725089,0.0,10,0.5,0.5,13.900015198898313,-0.15025,-0.02275,-0.12575,0.08808492846035422,10,1,100,-0.04832247847848527,-10,-1,-100,15027.1469817881,0.0034570925176067397,0.007982312006121522,0.999962164887433,20.95541981366902,0.016901492921707714,-24.87178536724658,10.47341680187738,-171.28131103515625,5356.25390625,True
1599562599.7649777,0.0,10,0.5,0.5,14.133762459945677,-0.15025,-0.02275,-0.12575,0.09139191292365925,10,1,100,-0.07107874222202015,-10,-1,-100,15027.771008711774,0.003771221884669358,0.008013394167892741,0.9999607809306357,20.603777923744012,0.01623547634417628,-23.15569506424282,9.916536608688986,-172.12750244140625,5356.25390625,True
1599562599.8048759,0.0,10,0.5,0.5,14.106643855285645,-0.15025,-0.02275,-0.12575,0.09009011597320833,10,1,100,-0.04968769030564139,-10,-1,-100,15027.937026001979,0.003859045322617367,0.008030172030045312,0.9999603112655852,20.509387752842354,0.01604164864060569,-22.618637131745437,9.730912489856843,-172.2716064453125,5356.25390625,True
1599562599.843917,0.0,10,0.5,0.5,14.13338789253235,-0.15025,-0.02275,-0.12575,0.09762919235898637,10,1,100,-0.06400185002941033,-10,-1,-100,15028.499529718654,0.004065649091337121,0.0081143023066356,0.9999588134496052,20.29768340339165,0.015534077122244245,-21.105421287456746,9.174044175550113,-172.289794921875,5356.25390625,True
1599562599.8818436,0.0,10,0.5,0.5,14.066236304855346,-0.15025,-0.02275,-0.12575,0.09682999992292053,10,1,100,-0.054027787123162925,-10,-1,-100,15028.894063821062,0.004160164652048702,0.008183651535471827,0.9999578595508981,20.216525095540728,0.01524882532744209,-20.17115470285763,8.802799551431587,-171.95709228515625,5356.25390625,True
1599562599.9232914,0.0,10,0.5,0.5,14.059786604690553,-0.15025,-0.02275,-0.12575,0.09473917510208457,10,1,100,-0.04833081235583431,-10,-1,-100,15029.059103962849,0.0041915785380514685,0.008227758290825693,0.9999573664226227,20.193669389699288,0.015119531672953606,-19.723852072755783,8.617176867945872,-171.68719482421875,5356.25390625,True
1599562599.9651425,0.0,10,0.5,0.5,14.015370324325563,-0.15025,-0.02275,-0.12575,0.09559745335867159,10,1,100,-0.04786502693884191,-10,-1,-100,15029.227073954185,0.004213943032525733,0.008275560451625162,0.99995687796191,20.182336394445663,0.014997982641365915,-19.288496508895825,8.431553610848617,-171.3483123779297,5356.25390625,True
1599562600.00607,0.0,10,0.5,0.5,13.50571600418091,-0.15025,-0.02275,-0.12575,0.11469267341397515,10,1,100,-0.045624576537901765,-10,-1,-100,15029.82766465249,0.0042121042099485225,0.008492430631985017,0.999955067390573,20.30134881481666,0.014613943960032984,-17.694822309589515,7.68904962120345,-169.30316162109375,5356.25390625,True
1599562600.043495,0.0,10,0.5,0.5,13.368294920730591,-0.15025,-0.02275,-0.12575,0.10694261036802792,10,1,100,-0.03949771565743585,-10,-1,-100,15030.16067444079,0.004153410697346917,0.00861870264989621,0.999954232524775,20.427479315885147,0.014455027394874385,-16.94559218770395,7.317788907791514,-167.86676025390625,5356.25390625,True
1599562600.0813978,0.0,10,0.5,0.5,13.544491946792602,-0.15025,-0.02275,-0.12575,0.09437902958068169,10,1,100,-0.04547599344222072,-10,-1,-100,15030.16067444079,0.004153410697346917,0.00861870264989621,0.999954232524775,20.427479315885147,0.014455027394874385,-16.94559218770395,7.317788907791514,-167.86676025390625,5356.25390625,True
1599562600.1152956,0.0,10,0.5,0.5,13.065123918533326,-0.15025,-0.02275,-0.12575,0.10905707054474889,10,1,100,-0.034069845004805865,-10,-1,-100,15030.429231500602,0.004048974115228615,0.008751560335112095,0.9999535069193543,20.588676906854747,0.014311325830757601,-16.213266125011327,6.946520417780837,-166.15460205078125,5356.25390625,True
1599562600.1541991,0.0,10,0.5,0.5,12.720099998855591,-0.15025,-0.02275,-0.12575,0.11098713861029932,10,1,100,-0.02905096800842563,-10,-1,-100,15030.69876427052,0.003907867539156137,0.008889186805605184,0.9999528543532598,20.77779632664511,0.014180569302284,-15.488094356587432,6.575243288357925,-164.16668701171875,5356.25390625,True
1599562600.1939933,0.0,10,0.5,0.5,12.649092140579222,-0.15025,-0.02275,-0.12575,0.10528810257252388,10,1,100,-0.03392464376502036,-10,-1,-100,15030.802280582488,0.003823770753555212,0.008961696185130295,0.9999525322627618,20.88034063198005,0.01411977013658275,-15.125290320834228,6.389601455943668,-163.06930541992188,5356.25390625,True
1599562600.2368782,0.0,10,0.5,0.5,12.10335002861023,-0.15025,-0.02275,-0.12575,0.11346261004743205,10,1,100,-0.019694633804228957,-10,-1,-100,15031.069860478397,0.0036179874711554146,0.009101080667056756,0.9999520390985512,21.095604386735097,0.014007257362226529,-14.393615090922719,6.018311131603233,-160.6678466796875,5356.25390625,True
1599562600.274778,0.0,10,0.5,0.5,10.8250964138031,-0.15025,-0.02275,-0.12575,0.12958282808653282,10,1,100,0.01824789401851115,-10,-1,-100,15031.484901017742,0.0030863866538763086,0.0093734441979268,0.9999513051950534,21.527824613132662,0.013817122441266988,-12.87668575082555,5.275705409178223,-155.03814697265625,5356.25390625,True
1599562600.3189917,0.0,10,0.5,0.5,11.494540551376343,-0.15025,-0.02275,-0.12575,0.10246545426577394,10,1,100,-0.03480480990958221,-10,-1,-100,15031.484901017742,0.0030863866538763086,0.0093734441979268,0.9999513051950534,21.527824613132662,0.013817122441266988,-12.87668575082555,5.275705409178223,-155.03814697265625,5356.25390625,True
1599562600.357888,0.0,10,0.5,0.5,10.091774563217163,-0.15025,-0.02275,-0.12575,0.12091205219812574,10,1,100,0.020868060886235083,-10,-1,-100,15031.791542544379,0.0025812743665363106,0.009540099010123542,0.9999511605741161,21.80128027134439,0.01370297047789753,-11.663926311919214,4.718733204128599,-150.0928955078125,5356.25390625,True
1599562600.397781,0.0,10,0.5,0.5,9.129355821990966,-0.15025,-0.02275,-0.12575,0.11965632301512066,10,1,100,0.03566414724909649,-10,-1,-100,15032.038612700417,0.001989055746261199,0.009679038084494627,0.9999511787477413,21.967901724998086,0.01360417742703757,-10.36609040562806,4.161749345984062,-144.52793884277344,5356.25390625,True
1599562600.4356802,0.0,10,0.5,0.5,8.65396127204895,-0.15025,-0.02275,-0.12575,0.11065105078237289,10,1,100,0.024380701457608445,-10,-1,-100,15032.241736975615,0.0015552729154461593,0.009722401488668353,0.9999515268429024,21.986029969836043,0.013531923635658477,-9.449156999134862,3.790420470554844,-140.47422790527344,5356.25390625,True
1599562600.475576,0.0,10,0.5,0.5,7.906632762908936,-0.15025,-0.02275,-0.12575,0.10810872134888601,10,1,100,0.031992171531780425,-10,-1,-100,15032.325720223133,0.001094091648378106,0.009737707316850247,0.9999519888573033,21.903990125399556,0.013434566433743807,-8.491804830664897,3.4190848977313126,-136.14537048339844,5356.25390625,True
1599562600.7987103,0.0,10,0.5,0.5,8.378820421981812,-0.15025,-0.02275,-0.12575,0.10669003899739193,10,1,100,-0.013820023270128035,-10,-1,-100,15032.325720223133,0.001094091648378106,0.009737707316850247,0.9999519888573033,21.903990125399556,0.013434566433743807,-8.491804830664897,3.4190848977313126,-136.14537048339844,5356.25390625,True
1599562600.8336155,0.0,10,0.5,0.5,5.69328306274414,-0.15025,-0.02275,-0.12575,0.09847521313439475,10,1,100,0.0955395854660173,-10,-1,-100,15032.610872893129,0.00010259964392846685,0.009662130584475966,0.9999533152632086,21.370841235380055,0.01309470376418586,-6.485619813519493,2.67638200034246,-126.66252136230469,5356.25390625,True
1599562600.8685222,0.0,10,0.5,0.5,5.377931865310669,-0.15025,-0.02275,-0.12575,0.09628622920385552,10,1,100,0.05564568132505441,-10,-1,-100,15032.690948977252,-0.0004326255334758808,0.009572821934059107,0.9999540859036313,20.888119763322003,0.012816344492708714,-5.459592808870624,2.3050074235441325,-121.508544921875,5356.25390625,True
1599562600.9276998,0.0,10,0.5,0.5,5.931493672561645,-0.15025,-0.02275,-0.12575,0.1052782068204343,10,1,100,0.0025488032133227576,-10,-1,-100,15032.690948977252,-0.0004326255334758808,0.009572821934059107,0.9999540859036313,20.888119763322003,0.012816344492708714,-5.459592808870624,2.3050074235441325,-121.508544921875,5356.25390625,True
1599562600.964636,0.0,10,0.5,0.5,3.56647806892395,-0.15025,-0.02275,-0.12575,0.07944054447496593,10,1,100,0.08774889839002956,-10,-1,-100,15032.810085765901,-0.0012034894778053687,0.009337505238857574,0.9999556803223787,19.821228726350917,0.012189049218804133,-3.9286792586933834,1.7479058346713572,-113.2624282836914,5356.25390625,True
1599562601.0015042,0.0,10,0.5,0.5,2.8962221014022824,-0.15025,-0.02275,-0.12575,0.0808123317289495,10,1,100,0.0710170170994669,-10,-1,-100,15032.887231109198,-0.001748266982616441,0.009136084435491548,0.9999567368260214,18.958172878989053,0.01166003436002407,-2.9591606032489164,1.376474922953399,-107.42124938964844,5356.25390625,True
1599562601.037764,0.0,10,0.5,0.5,3.5224219053268433,-0.15025,-0.02275,-0.12575,0.10093067608930852,10,1,100,0.017022731982008932,-10,-1,-100,15032.887231109198,-0.001748266982616441,0.009136084435491548,0.9999567368260214,18.958172878989053,0.01166003436002407,-2.9591606032489164,1.376474922953399,-107.42124938964844,5356.25390625,True
1599562601.0746658,0.0,10,0.5,0.5,-0.026627036857605146,-0.15025,-0.02275,-0.12575,0.04259046381299148,10,1,100,0.12693631035623087,-10,-1,-100,15032.926287391456,-0.002743545384791956,0.00860608615532015,0.9999592032877185,16.853266065926785,0.010308022451281118,-1.2108067110593244,0.6335430992473685,-94.91410827636719,5356.25390625,True
1599562601.1135628,0.0,10,0.5,0.5,0.5228632081985474,-0.15025,-0.02275,-0.12575,0.07793162576966747,10,1,100,0.05553082312756864,-10,-1,-100,15032.96437152091,-0.0029949007745718103,0.008446528238342455,0.9999598425587247,16.230066312475746,0.009919030582160392,-0.8241854850743013,0.44780347385828634,-91.61551666259766,5356.25390625,True
1599562601.151461,0.0,10,0.5,0.5,-1.0395689109802246,-0.15025,-0.02275,-0.12575,0.05702542352477835,10,1,100,0.08107380916977433,-10,-1,-100,15032.980969536817,-0.0034514781168553496,0.008112579087273128,0.9999611359244727,15.59787636600993,0.009526124289840728,-0.13500759047483907,0.07632559074617973,-84.8543701171875,5356.25390625,True
1599562601.1893592,0.0,10,0.5,0.5,-1.2453160507202148,-0.15025,-0.02275,-0.12575,0.07138112399935972,10,1,100,0.059075331314635174,-10,-1,-100,15032.958506770548,-0.0036624299295525443,0.007940972707187731,0.9999617630487052,16.29874111987467,0.009955679252818263,0.20222975495463344,-0.10941213868959077,-81.45120239257812,5356.25390625,True
1599562601.2232685,0.0,10,0.5,0.5,-3.790017889022827,-0.15025,-0.02275,-0.12575,0.024914862672203414,10,1,100,0.10663364619693522,-10,-1,-100,15032.89014235267,-0.004282228511318239,0.007364179744690188,0.9999637150295329,18.20932945728159,0.01115438390067938,1.376609730453501,-0.6666243711510216,-71.13156127929688,5356.25390625,True
1599562601.261167,0.0,10,0.5,0.5,-4.46628424911499,-0.15025,-0.02275,-0.12575,0.037890025042520134,10,1,100,0.0849956423676119,-10,-1,-100,15032.903810653137,-0.004644986434333889,0.006959867573822379,0.9999649915593944,19.172985156469906,0.011753038574251952,2.2572346409012463,-1.0381099215231975,-64.437255859375,5356.25390625,True
1599562601.298069,0.0,10,0.5,0.5,-5.529386377716064,-0.15025,-0.02275,-0.12575,0.034636988368167546,10,1,100,0.08439099811193668,-10,-1,-100,15032.860838965978,-0.004965440179386653,0.006565113407230472,0.9999661212710035,19.858276076792613,0.01216239448562192,3.1746315214778313,-1.4096110889014404,-58.005828857421875,5356.25390625,True
1599562601.3347962,0.0,10,0.5,0.5,-5.724326622009277,-0.15025,-0.02275,-0.12575,0.05122653858893479,10,1,100,0.06925685040357728,-10,-1,-100,15032.775876625325,-0.005115057864225979,0.006359794356451011,0.9999666940447512,20.104738964887513,0.012308754393729865,3.637612258570174,-1.5953674665341555,-54.8927001953125,5356.25390625,True
1599562601.3726618,0.0,10,0.5,0.5,-7.127158791923523,-0.15025,-0.02275,-0.12575,0.026923305508194086,10,1,100,0.08441092315740081,-10,-1,-100,15032.728022162337,-0.005385282267854289,0.005954909201265138,0.9999677683762115,20.420655528132688,0.012497982621563543,4.555303425738554,-1.966890612560913,-48.872711181640625,5356.25390625,True
1599562601.410559,0.0,10,0.5,0.5,-8.853032306861877,-0.15025,-0.02275,-0.12575,0.0011633002470415738,10,1,100,0.09502483271005838,-10,-1,-100,15032.59715850919,-0.005724124525917605,0.005355541898934981,0.9999692758127023,20.538067696977176,0.012586477333758301,5.879860004216967,-2.524196043483393,-40.359344482421875,5356.25390625,True
1599562601.442474,0.0,10,0.5,0.5,-8.680270915794372,-0.15025,-0.02275,-0.12575,0.039834696049669445,10,1,100,0.07230337411976125,-10,-1,-100,15032.511219793465,-0.005821989811933099,0.005165657533691962,0.9999697097496876,20.491907319767666,0.012571832698676386,6.298497036983114,-2.7099681286230815,-37.65924072265625,5356.25390625,True
1599562601.4793758,0.0,10,0.5,0.5,-9.197197530555723,-0.15025,-0.02275,-0.12575,0.037778601189968,10,1,100,0.07279205922331189,-10,-1,-100,15032.487781163887,-0.005912602259772972,0.004977471274402502,0.9999701325110817,20.40463674033694,0.012537181649768773,6.701703623033189,-2.8957412921099244,-35.028045654296875,5356.25390625,True
1599562601.5182712,0.0,10,0.5,0.5,-11.059636930847168,-0.15025,-0.02275,-0.12575,-0.00371862733637901,10,1,100,0.08934446957342601,-10,-1,-100,15032.292465606239,-0.0061428012141873465,0.004432299012957966,0.9999713099477917,19.932944811836492,0.012340116724798912,7.807144543482343,-3.4530626724093856,-27.547698974609375,5356.25390625,True
1599562601.5558805,0.0,10,0.5,0.5,-11.530715998077394,-0.15025,-0.02275,-0.12575,0.012793008495101107,10,1,100,0.07984026731148625,-10,-1,-100,15032.120588599704,-0.0062632244948215695,0.004090139355634857,0.9999720209980774,19.480378277642984,0.012151190144300408,8.451129690821997,-3.824610143705645,-22.90509033203125,5356.25390625,True
1599562601.5977669,0.0,10,0.5,0.5,-12.285503076171874,-0.15025,-0.02275,-0.12575,0.012479367955419908,10,1,100,0.08029613198838158,-10,-1,-100,15031.94871209655,-0.006374480070128758,0.0037797346016636133,0.9999725394280468,19.080117994629482,0.012009109554404157,9.081919147553126,-4.196157807844179,-18.537689208984375,5356.25390625,True
1599562601.6351755,0.0,10,0.5,0.5,-12.98531464996338,-0.15025,-0.02275,-0.12575,0.010693611873242248,10,1,100,0.07892277306201659,-10,-1,-100,15031.776835829602,-0.006461234374205783,0.003484572901981801,0.9999730547380027,18.64490289071515,0.011851023243658778,9.660919366066107,-4.567707749430733,-14.44580078125,5356.25390625,True
1599562601.6750689,0.0,10,0.5,0.5,-13.637885748291016,-0.15025,-0.02275,-0.12575,0.010577682430325953,10,1,100,0.07879761506641586,-10,-1,-100,15031.604959774413,-0.006537312988915916,0.0032183495388553147,0.9999734525301812,18.154259783004857,0.011653774781774607,10.172243811864282,-4.939263015903981,-10.629150390625,5356.25390625,True
1599562601.7169583,0.0,10,0.5,0.5,-13.265723905181884,-0.15025,-0.02275,-0.12575,0.03686534235613706,10,1,100,0.0713469408763555,-10,-1,-100,15031.604959774413,-0.006537312988915916,0.0032183495388553147,0.9999734525301812,18.154259783004857,0.011653774781774607,10.172243811864282,-4.939263015903981,-10.629150390625,5356.25390625,True
1599562601.7618372,0.0,10,0.5,0.5,-14.804027362823485,-0.15025,-0.02275,-0.12575,-0.001941984129094472,10,1,100,0.08214234740120069,-10,-1,-100,15031.285622538184,-0.006634160089028427,0.002868411520641933,0.9999738797264962,17.413457283912134,0.011317090972822373,10.858802434238628,-5.496612392069855,-5.420440673828125,5356.25390625,True
1599562601.8017554,0.0,10,0.5,0.5,-15.51450602645874,-0.15025,-0.02275,-0.12575,0.0005573272969543776,10,1,100,0.08017951753904817,-10,-1,-100,15030.900856165332,-0.006703223656000983,0.0025758129694853243,0.9999742156576658,16.75582890630158,0.010952383991150895,11.50899155240318,-6.053986220713638,-0.83123779296875,5356.25390625,True
1599562601.8416476,0.0,10,0.5,0.5,-15.02734020690918,-0.15025,-0.02275,-0.12575,0.0295392095196703,10,1,100,0.0733710707548009,-10,-1,-100,15030.900856165332,-0.006703223656000983,0.0025758129694853243,0.9999742156576658,16.75582890630158,0.010952383991150895,11.50899155240318,-6.053986220713638,-0.83123779296875,5356.25390625,True
1599562601.8805423,0.0,10,0.5,0.5,-15.860555554199218,-0.15025,-0.02275,-0.12575,0.011902224202992234,10,1,100,0.07898953576911996,-10,-1,-100,15030.666480566491,-0.0067534994890001854,0.0024178311434829842,0.9999742718376378,16.581072689533684,0.010822482735224405,12.08857736598603,-6.425581665623267,1.88409423828125,5356.25390625,True
1599562601.9197376,0.0,10,0.5,0.5,-16.27651834335327,-0.15025,-0.02275,-0.12575,0.012830014145734666,10,1,100,0.07873551660201875,-10,-1,-100,15030.366675647674,-0.006796131074544697,0.0022849727012611695,0.9999742954207234,17.2348668185304,0.01118411024784814,13.292558864041988,-6.797181371593094,4.3240966796875,5356.25390625,True
1599562601.9586346,0.0,10,0.5,0.5,-16.63964607849121,-0.15025,-0.02275,-0.12575,0.014174827085210444,10,1,100,0.07801134101990635,-10,-1,-100,15030.132301196572,-0.006827709710783816,0.0021783699862472057,0.999974318212377,17.82630191245871,0.011458952873964664,14.501123407034157,-7.1687826923934,6.48876953125,5356.25390625,True
1599562601.9936883,0.0,10,0.5,0.5,-17.188003102111814,-0.15025,-0.02275,-0.12575,0.012960232576990617,10,1,100,0.08128292000278,-10,-1,-100,15029.685035558883,-0.006885646020649173,0.002072154631041047,0.9999741466928349,18.57744841529016,0.011708567309852114,16.288590372870242,-7.726183755936857,9.21954345703125,5356.25390625,True
1599562602.0319107,0.0,10,0.5,0.5,-17.120988895416257,-0.15025,-0.02275,-0.12575,0.020998219215884448,10,1,100,0.0775061729920047,-10,-1,-100,15029.474098385544,-0.006903516633201067,0.002050220168453231,0.9999740686914615,18.794876673747254,0.011753491226875233,16.876034577487324,-7.911983277646588,9.99212646484375,5356.25390625,True
1599562602.0718057,0.0,10,0.5,0.5,-17.273680669403078,-0.15025,-0.02275,-0.12575,0.021369758134807352,10,1,100,0.0777583378347362,-10,-1,-100,15029.325660808012,-0.006921652977492171,0.002034961331484996,0.9999739744875557,18.99709143172041,0.011781238271168934,17.458714211036803,-8.09778207710514,10.6959228515625,5356.25390625,True
1599562602.111738,0.0,10,0.5,0.5,-17.820689763641354,-0.15025,-0.02275,-0.12575,0.023941066586970296,10,1,100,0.08414217044572868,-10,-1,-100,15028.66648283007,-0.006995826005139855,0.0020455410003584187,0.9999734367374573,19.6664091485583,0.011741173063816328,19.735184857521432,-8.840969170632,12.822723388671875,5356.25390625,True
1599562602.1565802,0.0,10,0.5,0.5,-17.786130690002437,-0.15025,-0.02275,-0.12575,0.027984777098160954,10,1,100,0.08094861210401716,-10,-1,-100,15028.30515582906,-0.00703380685169835,0.0020929860753800787,0.9999730721226754,19.924957864616587,0.011643376819308719,20.836478955934417,-9.212556962913816,13.47320556640625,5356.25390625,True
1599562602.1994667,0.0,10,0.5,0.5,-17.850874561309812,-0.15025,-0.02275,-0.12575,0.031781230509484254,10,1,100,0.08133423932552017,-10,-1,-100,15027.880352173466,-0.0070714772807991275,0.002171336106816583,0.9999726393799875,20.137066867889473,0.011502168331832036,21.90926574305716,-9.584140587736211,13.848419189453125,5356.25390625,True
1599562602.2443442,0.0,10,0.5,0.5,-17.864664083862305,-0.15025,-0.02275,-0.12575,0.035510757707953026,10,1,100,0.08158101708606644,-10,-1,-100,15027.52000211575,-0.0071076317836004385,0.0022768359070746385,0.9999721484064849,20.30456496054814,0.011322775820334972,22.949736068240394,-9.955719848475944,13.948333740234375,5356.25390625,True
1599562602.2912185,0.0,10,0.5,0.5,-17.8857233543396,-0.15025,-0.02275,-0.12575,0.02493087997590642,10,1,100,0.07800600761869528,-10,-1,-100,15027.52000211575,-0.0071076317836004385,0.0022768359070746385,0.9999721484064849,20.30456496054814,0.011322775820334972,22.949736068240394,-9.955719848475944,13.948333740234375,5356.25390625,True
1599562602.3396006,0.0,10,0.5,0.5,-17.86477179412842,-0.15025,-0.02275,-0.12575,0.03991474242052951,10,1,100,0.08174353899395306,-10,-1,-100,15027.097152073635,-0.007141287403107691,0.002413181015877038,0.9999715888822095,20.428132193657717,0.011109785345872756,23.95304235649357,-10.327295049277437,13.772979736328125,5356.25390625,True
1599562602.381487,0.0,10,0.5,0.5,-17.783963788604737,-0.15025,-0.02275,-0.12575,0.04463812974832094,10,1,100,0.0817300124059198,-10,-1,-100,15026.673325017677,-0.007171446673378924,0.0025799544465731268,0.9999709566720748,20.50740966989857,0.010867493134712658,24.91318891511955,-10.698866755687368,13.322418212890625,5356.25390625,True
1599562602.424897,0.0,10,0.5,0.5,-17.655839349365234,-0.15025,-0.02275,-0.12575,0.049371805536235866,10,1,100,0.08215207569000091,-10,-1,-100,15026.247545986553,-0.007202388642605697,0.0027742349957685015,0.9999702141654164,20.561835307422857,0.010610980083204442,25.849004532892653,-11.070435387913344,12.596588134765625,5356.25390625,True
1599562602.4697773,0.0,10,0.5,0.5,-17.126273651885985,-0.15025,-0.02275,-0.12575,0.08318051052341355,10,1,100,0.08286258547322424,-10,-1,-100,15025.336417685845,-0.007236688937548468,0.003257567285497978,0.9999685087984528,20.54022333450117,0.010048950794373828,27.560057917804038,-11.813565562388371,10.3193359375,5356.25390625,True
1599562602.5226378,0.0,10,0.5,0.5,-17.413382517242432,-0.15025,-0.02275,-0.12575,0.03496801626217038,10,1,100,0.07946587320938181,-10,-1,-100,15025.336417685845,-0.007236688937548468,0.003257567285497978,0.9999685087984528,20.54022333450117,0.010048950794373828,27.560057917804038,-11.813565562388371,10.3193359375,5356.25390625,True
1599562602.5685117,0.0,10,0.5,0.5,-16.984333277130126,-0.15025,-0.02275,-0.12575,0.06672861672203184,10,1,100,0.07987572299173117,-10,-1,-100,15024.849115760298,-0.007240128448333411,0.0035451885569930705,0.9999675055611293,20.45332745513505,0.00975335375271204,28.30924615852,-12.185128683366468,8.767913818359375,5356.25390625,True
1599562602.6133945,0.0,10,0.5,0.5,-16.66606698226929,-0.15025,-0.02275,-0.12575,0.07331167009160841,10,1,100,0.07708411242091558,-10,-1,-100,15024.362790409941,-0.007217654905273042,0.0038651450639332736,0.99996648249394,20.309019517359854,0.009458016359184494,28.969426831542673,-12.556691498525915,6.94134521484375,5356.25390625,True
1599562602.6632605,0.0,10,0.5,0.5,-15.982280814361571,-0.15025,-0.02275,-0.12575,0.10011805625470858,10,1,100,0.07459579398409716,-10,-1,-100,15023.538576313178,-0.007174436200289289,0.004398097981735684,0.9999645914727937,19.971612218438956,0.009036682178134001,29.757046164258856,-13.114036503384362,3.68548583984375,5356.25390625,True
1599562602.7101352,0.0,10,0.5,0.5,-15.299092880249022,-0.15025,-0.02275,-0.12575,0.1128659926298589,10,1,100,0.06785900808748918,-10,-1,-100,15022.775886674644,-0.007073809361317177,0.004996466635989316,0.9999624975679214,19.46865856056425,0.008675433836449357,30.245164235335004,-13.671382780182876,-0.189483642578125,5356.25390625,True
1599562602.7560122,0.0,10,0.5,0.5,-15.754206758117675,-0.15025,-0.02275,-0.12575,0.05330109027738721,10,1,100,0.07791830974247202,-10,-1,-100,15022.775886674644,-0.007073809361317177,0.004996466635989316,0.9999624975679214,19.46865856056425,0.008675433836449357,30.245164235335004,-13.671382780182876,-0.189483642578125,5356.25390625,True
1599562602.8008907,0.0,10,0.5,0.5,-14.91409803314209,-0.15025,-0.02275,-0.12575,0.10098960595135366,10,1,100,0.06605059447275649,-10,-1,-100,15022.227062645485,-0.006965951788340021,0.005427526205089997,0.9999610079772989,19.521584505507803,0.008706513390316351,31.15493093121646,-14.042944165901973,-3.1168212890625,5356.25390625,True
1599562602.845772,0.0,10,0.5,0.5,-13.889459296417236,-0.15025,-0.02275,-0.12575,0.13397804015954262,10,1,100,0.05288666169852524,-10,-1,-100,15021.338397148647,-0.0067483867291539285,0.006116553083265777,0.9999585226672822,20.54809959480251,0.009346910092322181,34.100198932767576,-14.600256900859904,-8.0238037109375,5356.25390625,True
1599562602.8936439,0.0,10,0.5,0.5,-13.968523045349121,-0.15025,-0.02275,-0.12575,0.09212044291243796,10,1,100,0.06531193242618638,-10,-1,-100,15021.063985557412,-0.006663941918276423,0.006359202453327633,0.9999575753112068,20.89076954395381,0.009608779844034004,35.11192113602442,-14.78601811159658,-9.797088623046875,5356.25390625,True
1599562602.9385245,0.0,10,0.5,0.5,-13.10471730041504,-0.15025,-0.02275,-0.12575,0.12211815532587295,10,1,100,0.049918376207724185,-10,-1,-100,15020.449732474051,-0.0064477219852420616,0.00684924020490822,0.9999557564161609,21.622172126759125,0.010225427574976069,37.25849231337327,-15.157523171159157,-13.5501708984375,5356.25390625,True
1599562602.9844012,0.0,10,0.5,0.5,-11.826060923767088,-0.15025,-0.02275,-0.12575,0.15646865956667672,10,1,100,0.027515980805355868,-10,-1,-100,15019.498568723677,-0.006048217512418663,0.007603741224062052,0.9999527999782389,22.71456783774795,0.011305936838391662,40.58662650755768,-15.714730448221333,-19.696197509765625,5356.25390625,True
1599562603.0332708,0.0,10,0.5,0.5,-10.663283817291259,-0.15025,-0.02275,-0.12575,0.16559076924963884,10,1,100,0.012408550672704279,-10,-1,-100,15018.548382224515,-0.005548771782668859,0.00836862844410286,0.9999495873241152,23.698851027824738,0.012452183138189335,43.85409312456417,-16.271871321829984,-26.46197509765625,5356.25390625,True
1599562603.079145,0.0,10,0.5,0.5,-11.43393235168457,-0.15025,-0.02275,-0.12575,0.08958439123426902,10,1,100,0.062183987981118245,-10,-1,-100,15018.548382224515,-0.005548771782668859,0.00836862844410286,0.9999495873241152,23.698851027824738,0.012452183138189335,43.85409312456417,-16.271871321829984,-26.46197509765625,5356.25390625,True
1599562603.126022,0.0,10,0.5,0.5,-9.319340188598634,-0.15025,-0.02275,-0.12575,0.16988440278472258,10,1,100,-0.006012686692135463,-10,-1,-100,15017.533742296626,-0.004930319179387101,0.009094534473306829,0.9999464892660522,24.60054500094768,0.01355313309389289,47.08907863838618,-16.828943490874206,-33.84820556640625,5356.25390625,True
1599562603.1719005,0.0,10,0.5,0.5,-7.953051260375977,-0.15025,-0.02275,-0.12575,0.17558801103594812,10,1,100,-0.023532346981792657,-10,-1,-100,15016.521055871272,-0.004210860007425804,0.009802030541692878,0.9999430928084145,25.227509522774383,0.014349572680130126,49.89583785997233,-17.385954254410013,-41.85443115234375,5356.25390625,True
1599562603.2167773,0.0,10,0.5,0.5,-8.090329331207275,-0.15025,-0.02275,-0.12575,0.12761662918138902,10,1,100,0.018818708835209665,-10,-1,-100,15016.183167839888,-0.003944418494300911,0.010004736619815381,0.9999421717319007,25.359843715177057,0.014513318937701027,50.696025277170264,-17.571613802100675,-44.661376953125,5356.25390625,True
1599562603.2636552,0.0,10,0.5,0.5,-7.548384945678711,-0.15025,-0.02275,-0.12575,0.12963744292081847,10,1,100,0.014878419943299442,-10,-1,-100,15015.781803175458,-0.003669223029594566,0.010202832933936265,0.9999412177735656,25.448222608700345,0.014616645110956486,51.41308827404597,-17.757269470540464,-47.537261962890625,5356.25390625,True
1599562603.3185048,0.0,10,0.5,0.5,-5.313532750701905,-0.15025,-0.02275,-0.12575,0.17007064217164164,10,1,100,-0.05430467272083667,-10,-1,-100,15014.70368572569,-0.002793105154513693,0.01074615384293651,0.9999383574706893,25.429697183456938,0.014536680450741423,52.99611138343465,-18.314224188248016,-56.578704833984375,5356.25390625,True
1599562603.3698783,0.0,10,0.5,0.5,-3.6731969528198247,-0.15025,-0.02275,-0.12575,0.16498087736813574,10,1,100,-0.07187849591491849,-10,-1,-100,15013.566974336049,-0.001840468040470919,0.011189602624941524,0.9999357006680419,25.009437474252906,0.013914868270301492,53.71489630651783,-18.87118298754754,-66.24114990234375,5356.25390625,True
1599562603.415758,0.0,10,0.5,0.5,-2.886596993255615,-0.15025,-0.02275,-0.12575,0.14372962797850153,10,1,100,-0.0478770709568096,-10,-1,-100,15012.825767225935,-0.0011970140490310287,0.01139515343215703,0.9999343566632882,24.42372852774224,0.013232982586185707,53.495772277206804,-19.242505959776402,-73.02825927734375,5356.25390625,True
1599562603.4597487,0.0,10,0.5,0.5,-1.6553364662170407,-0.15025,-0.02275,-0.12575,0.1404246234561088,10,1,100,-0.055085442129940106,-10,-1,-100,15012.024012344657,-0.0005512985988174067,0.011547839658306422,0.9999331695013827,23.57796245521057,0.012432332647654466,52.64674387051568,-19.613850807850618,-80.09140014648438,5356.25390625,True
1599562603.5036316,0.0,10,0.5,0.5,-0.3804989265441894,-0.15025,-0.02275,-0.12575,0.1361037838858966,10,1,100,-0.06222159175179113,-10,-1,-100,15011.223233542638,9.559233529034887e-05,0.0116437794146819,0.9999322043333978,22.499681808230022,0.011633254259410225,51.19721200521474,-19.98522026776438,-87.43063354492188,5356.25390625,True
1599562603.5460317,0.0,10,0.5,0.5,-0.12329824981689452,-0.15025,-0.02275,-0.12575,0.12943286672061272,10,1,100,-0.03274425586795328,-10,-1,-100,15010.822843990987,0.0004105679817916378,0.011667375263547409,0.9999318495719556,21.854720677255013,0.01125533197190355,50.195142585555125,-20.17091390610617,-91.20384216308594,5356.25390625,True
1599562603.8722398,0.0,10,0.5,0.5,0.6099602657318115,-0.15025,-0.02275,-0.12575,0.12832972148650923,10,1,100,-0.03588813662981866,-10,-1,-100,15010.420500644832,0.0007200726312057126,0.011675798581461071,0.9999315762705421,21.139184079287155,0.010903954105560446,49.00208826394513,-20.356612478263088,-95.04605865478516,5356.25390625,True
1599562603.9081423,0.0,10,0.5,0.5,2.420017227745056,-0.15025,-0.02275,-0.12575,0.12536524272303035,10,1,100,-0.07121336594542,-10,-1,-100,15009.617767352029,0.001317442222805254,0.011654159732525362,0.9999312200881211,22.721170847688036,0.01194553818302539,53.637558958769084,-20.727978825488883,-102.85037231445312,5356.25390625,True
1599562603.9500387,0.0,10,0.5,0.5,2.664039476966858,-0.15025,-0.02275,-0.12575,0.12438763512290152,10,1,100,-0.044359489338525744,-10,-1,-100,15009.21835362399,0.00161135360762377,0.011623916956045517,0.9999311416763407,23.47042282759278,0.012526007886979587,55.906475420825046,-20.91364384924235,-106.78750610351562,5356.25390625,True
1599562603.9897888,0.0,10,0.5,0.5,5.511990922737122,-0.15025,-0.02275,-0.12575,0.11074221275637082,10,1,100,-0.10469788543492621,-10,-1,-100,15007.890227935743,0.0024220259473334027,0.011470902246516987,0.9999312737343309,25.23559362573808,0.014173428734907508,61.724467832670506,-21.47056497443197,-118.38790130615234,5356.25390625,True
1599562604.0387032,0.0,10,0.5,0.5,6.2628386619567875,-0.15025,-0.02275,-0.12575,0.10940792905863175,10,1,100,-0.07907038168247452,-10,-1,-100,15007.024992459454,0.0029204859957044824,0.011318515323045623,0.9999316786523121,26.0465284854558,0.01505077036552974,64.81810744884359,-21.841792286146372,-125.80968475341797,5356.25390625,True
1599562604.0975466,0.0,10,0.5,0.5,7.460037574195862,-0.15025,-0.02275,-0.12575,0.10700960485962221,10,1,100,-0.07771548037101125,-10,-1,-100,15006.160733132623,0.003356120035801054,0.01115765848037147,0.9999321192538726,26.68704331792353,0.015699004931501243,67.54964356204368,-22.21298676137229,-132.95819091796875,5356.25390625,True
1599562604.139941,0.0,10,0.5,0.5,6.712894192314148,-0.15025,-0.02275,-0.12575,0.12309209471258056,10,1,100,-0.03467173516898127,-10,-1,-100,15006.160733132623,0.003356120035801054,0.01115765848037147,0.9999321192538726,26.68704331792353,0.015699004931501243,67.54964356204368,-22.21298676137229,-132.95819091796875,5356.25390625,True
1599562604.178837,0.0,10,0.5,0.5,9.66624064617157,-0.15025,-0.02275,-0.12575,0.0917629173965851,10,1,100,-0.09833283572407023,-10,-1,-100,15004.831628673128,0.0039307181007701975,0.010873063682000406,0.9999331607369462,27.112540782241986,0.01599334957051488,70.3608329785404,-22.76974359431501,-143.16473388671875,5356.25390625,True
1599562604.2177322,0.0,10,0.5,0.5,9.427188962364196,-0.15025,-0.02275,-0.12575,0.10940552351632189,10,1,100,-0.05940807643628354,-10,-1,-100,15004.36580739799,0.004095143969308096,0.01077534189909369,0.9999335586941905,27.12609089524788,0.015916039261100925,70.97459063138153,-22.95532586962446,-146.42897033691406,5356.25390625,True
1599562604.255632,0.0,10,0.5,0.5,10.895747203254698,-0.15025,-0.02275,-0.12575,0.09534989033688268,10,1,100,-0.07572580082076474,-10,-1,-100,15003.439047035296,0.004389329024534181,0.010559514919834125,0.9999346130799613,26.98540156875913,0.015542002836280518,71.75814357857641,-23.32649301442654,-152.75076293945312,5356.25390625,True
1599562604.2945273,0.0,10,0.5,0.5,11.909300539970399,-0.15025,-0.02275,-0.12575,0.09636575510627743,10,1,100,-0.07351942765296392,-10,-1,-100,15002.447833557613,0.004633094990448121,0.01037355085508694,0.9999354598540179,26.649203000933458,0.014949153981318674,72.00217626811924,-23.697669905729082,-158.79605102539062,5356.25390625,True
1599562604.3414016,0.0,10,0.5,0.5,13.654101883697509,-0.15025,-0.02275,-0.12575,0.08248577025295303,10,1,100,-0.08001943372685257,-10,-1,-100,15001.056227185065,0.00491023408526047,0.010079494795492343,0.9999371447175545,25.853050639319335,0.01386686634555709,71.50858024231124,-24.25446422486234,-167.34664916992188,5356.25390625,True
1599562604.3802974,0.0,10,0.5,0.5,14.913967952728273,-0.15025,-0.02275,-0.12575,0.08392469648276482,10,1,100,-0.07235733172737419,-10,-1,-100,14999.537668051198,0.005089257069765115,0.009826683766074666,0.9999387659995184,24.801640427219738,0.012829048248607635,70.19212751161011,-24.811297909766658,-175.27554321289062,5356.25390625,True
1599562604.4181962,0.0,10,0.5,0.5,-83.92372159500121,-0.15025,-0.02275,-0.12575,0.09364149906514771,10,1,100,-0.06289926776654323,-10,-1,-100,14998.547431092826,0.005162861107432565,0.009686823974798415,0.9999397533384031,24.00725068995493,0.012277775877422665,68.97180932947857,-25.182539993868232,179.78402709960938,5356.25390625,True
1599562604.4560957,0.0,10,0.5,0.5,-39.95332176532745,-0.15025,-0.02275,-0.12575,0.10744907036560106,10,1,100,-0.05581294751580818,-10,-1,-100,14998.547431092826,0.005162861107432565,0.009686823974798415,0.9999397533384031,24.00725068995493,0.012277775877422665,68.97180932947857,-25.182539993868232,179.78402709960938,5356.25390625,True
1599562604.4959884,0.0,10,0.5,0.5,-39.36125357551574,-0.15025,-0.02275,-0.12575,0.09435985120492192,10,1,100,-0.06001189366913105,-10,-1,-100,14997.55621768313,0.005198994822361202,0.009569314429108829,0.9999406975787084,23.6096612252691,0.012111027278008989,68.84092462781229,-25.55378953989537,175.1199188232422,5356.25390625,True
1599562604.534891,0.0,10,0.5,0.5,-38.00743878936767,-0.15025,-0.02275,-0.12575,0.08890218531726399,10,1,100,-0.052540424318878745,-10,-1,-100,14995.448791381903,0.005162245864760796,0.009414316374095281,0.9999423592711932,25.46770542082895,0.013663895167476441,76.44161135164269,-26.296202268735772,165.5503387451172,5356.25390625,True
1599562604.568799,0.0,10,0.5,0.5,-39.186077432632445,-0.15025,-0.02275,-0.12575,0.10201149334115436,10,1,100,-0.053408971043581374,-10,-1,-100,14994.921446569846,0.005135091668231397,0.009394169435305856,0.9999426885647894,25.926698850143993,0.014146681931742159,78.37502441792208,-26.48178246471752,163.00018310546875,5356.25390625,True
1599562604.6086917,0.0,10,0.5,0.5,-40.20328469047546,-0.15025,-0.02275,-0.12575,0.10387829779542741,10,1,100,-0.056244828053267415,-10,-1,-100,14994.921446569846,0.005135091668231397,0.009394169435305856,0.9999426885647894,25.926698850143993,0.014146681931742159,78.37502441792208,-26.48178246471752,163.00018310546875,5356.25390625,True
1599562604.6475875,0.0,10,0.5,0.5,-39.44303276748657,-0.15025,-0.02275,-0.12575,0.10178331003757049,10,1,100,-0.047853558434991665,-10,-1,-100,14993.866757510346,0.005057861991975323,0.009376379703383328,0.9999432491575351,26.78447183419799,0.015162895950264895,82.11637692366254,-26.85291338439193,157.69509887695312,5356.25390625,True
1599562604.6854885,0.0,10,0.5,0.5,-39.27651203079223,-0.15025,-0.02275,-0.12575,0.1052962090384909,10,1,100,-0.04363875772532633,-10,-1,-100,14992.750545919407,0.004948729068047898,0.009393218242749806,0.9999436371774436,27.539865535805816,0.016183121467537073,85.61309485509608,-27.224005152672397,152.11575317382812,5356.25390625,True
1599562604.7243826,0.0,10,0.5,0.5,-37.37829067001343,-0.15025,-0.02275,-0.12575,0.11906815924051736,10,1,100,-0.023118287192670017,-10,-1,-100,14990.517147416715,0.004662680646837363,0.009534616764567152,0.9999436736598408,28.834768194866584,0.017988871517633526,92.11144176011928,-27.966077924065903,140.13333129882812,5356.25390625,True
1599562604.7642777,0.0,10,0.5,0.5,-39.584597176361086,-0.15025,-0.02275,-0.12575,0.10487381925569028,10,1,100,-0.051698373969881195,-10,-1,-100,14990.517147416715,0.004662680646837363,0.009534616764567152,0.9999436736598408,28.834768194866584,0.017988871517633526,92.11144176011928,-27.966077924065903,140.13333129882812,5356.25390625,True
1599562604.8031747,0.0,10,0.5,0.5,-36.691958152008056,-0.15025,-0.02275,-0.12575,0.13737870603081437,10,1,100,-0.010605868734946372,-10,-1,-100,14988.28179871582,0.004289500214176981,0.009830381250706014,0.999942480241928,29.419099505939275,0.018725027333975935,96.5020171978825,-28.708044620989188,127.05291748046875,5356.25390625,True
1599562604.8410711,0.0,10,0.5,0.5,-36.298181866455074,-0.15025,-0.02275,-0.12575,0.13103060892202922,10,1,100,-0.02616490166340219,-10,-1,-100,14987.10211449943,0.004092484993738282,0.010041417575956108,0.9999412090216312,29.362330205459404,0.018539799064284723,97.57620415142249,-29.079014126771156,120.1011962890625,5356.25390625,True
1599562604.8799667,0.0,10,0.5,0.5,-35.04222378463745,-0.15025,-0.02275,-0.12575,0.13838050016558542,10,1,100,-0.020551008445870746,-10,-1,-100,14985.922431128449,0.003863317924192538,0.010299763616032924,0.9999394929914863,29.037920008672607,0.018001823659461,97.74551347032362,-29.449990752364926,112.87525939941406,5356.25390625,True
1599562604.9198604,0.0,10,0.5,0.5,-34.783720764923096,-0.15025,-0.02275,-0.12575,0.1287510740783796,10,1,100,-0.031102981774949114,-10,-1,-100,14985.333566885558,0.003752125506595454,0.010446419370594592,0.9999383950406727,28.768673918485256,0.01762504188660676,97.45750924318804,-29.635485582620454,109.15946960449219,5356.25390625,True
1599562604.957759,0.0,10,0.5,0.5,-31.932566555023193,-0.15025,-0.02275,-0.12575,0.1707726300452546,10,1,100,-0.00426836675666379,-10,-1,-100,14983.561116997735,0.003408372372575662,0.010960818653534517,0.9999341195559905,27.50814113468355,0.01625289169366084,94.96268382609826,-30.192010434497945,97.60104370117188,5356.25390625,True
1599562604.9973977,0.0,10,0.5,0.5,-32.13606037979126,-0.15025,-0.02275,-0.12575,0.14094099274675786,10,1,100,-0.026196179010502526,-10,-1,-100,14982.910730973119,0.0032967830160431626,0.011155833436022453,0.9999323370119065,26.932644544469426,0.015776739692795888,93.55594031577216,-30.37753512298655,93.6112060546875,5356.25390625,True
1599562605.0382884,0.0,10,0.5,0.5,-31.35981383743286,-0.15025,-0.02275,-0.12575,0.14445004621718655,10,1,100,-0.02506666344460664,-10,-1,-100,14982.318938930519,0.0031867410128256445,0.011363418575287458,0.9999303562748758,26.278461512723844,0.015321022000552804,91.84961597906688,-30.563068878171958,89.55284118652344,5356.25390625,True
1599562605.078182,0.0,10,0.5,0.5,-27.045795476913447,-0.15025,-0.02275,-0.12575,0.2316423051747639,10,1,100,0.009442770563112692,-10,-1,-100,14979.833614896634,0.0027746817198114975,0.012342982838895527,0.9999199727558162,27.467059650355935,0.016551453282117316,98.37224217142267,-31.30517660628569,72.63496398925781,5356.25390625,True
1599562605.1160812,0.0,10,0.5,0.5,-28.992399739074706,-0.15025,-0.02275,-0.12575,0.13398085527357165,10,1,100,-0.03154575400347837,-10,-1,-100,14979.833614896634,0.0027746817198114975,0.012342982838895527,0.9999199727558162,27.467059650355935,0.016551453282117316,98.37224217142267,-31.30517660628569,72.63496398925781,5356.25390625,True
1599562605.1549754,0.0,10,0.5,0.5,-26.390760203933716,-0.15025,-0.02275,-0.12575,0.19620398539215816,10,1,100,-0.012896824306839656,-10,-1,-100,14978.590468504699,0.0026068623579575327,0.012906094598087833,0.9999133147382687,28.89580809067903,0.018037522029269407,104.73498297984492,-31.676140507221696,63.765106201171875,5356.25390625,True
1599562605.1878884,0.0,10,0.5,0.5,-23.518678898239134,-0.15025,-0.02275,-0.12575,0.2462025119067226,10,1,100,-0.010395787273191799,-10,-1,-100,14976.631516391295,0.0024334315271379294,0.013869481458546405,0.9999008530324763,30.414115375468626,0.01987848838198034,112.20454841836117,-32.232481173277094,49.94725036621094,5356.25390625,True
1599562605.228779,0.0,10,0.5,0.5,-23.771770864105225,-0.15025,-0.02275,-0.12575,0.1867834643815652,10,1,100,-0.0233212284215617,-10,-1,-100,14976.040708479122,0.0023949584810935066,0.014201442626727458,0.999896286222323,30.794358345482145,0.020314803246200563,114.27098334110026,-32.417906023749474,45.20417785644531,5356.25390625,True
1599562605.2676768,0.0,10,0.5,0.5,-22.869908429336547,-0.15025,-0.02275,-0.12575,0.19328417857361108,10,1,100,-0.02501155238637039,-10,-1,-100,14975.38837794133,0.002376892772108333,0.014558541067682677,0.9998911937119611,31.06176976097606,0.020597703269989276,115.93277425978302,-32.60332371654322,40.39289855957031,5356.25390625,True
1599562605.3115578,0.0,10,0.5,0.5,-20.597538524246215,-0.15025,-0.02275,-0.12575,0.23994138416441385,10,1,100,-0.029622654056524853,-10,-1,-100,14974.019266215037,0.0024037398019887465,0.01530346081260231,0.9998800058617642,31.234068193343727,0.02066119999378497,117.92284818458974,-32.97415043947867,30.565032958984375,5356.25390625,True
1599562605.350454,0.0,10,0.5,0.5,-17.44397309265137,-0.15025,-0.02275,-0.12575,0.29119066147400463,10,1,100,-0.04313566156937711,-10,-1,-100,14972.059354975121,0.00255221752081924,0.01644214760948734,0.9998615614012343,30.519053098221523,0.019629578330469445,117.20017694175694,-33.53041632686486,15.309173583984375,5356.25390625,True
1599562605.3913438,0.0,10,0.5,0.5,-17.733831353759765,-0.15025,-0.02275,-0.12575,0.22054860826589945,10,1,100,-0.03815189006406652,-10,-1,-100,14971.345505395322,0.002642668574118462,0.016830133914803726,0.9998548709163833,30.01084722942521,0.019088669887967036,115.89739835393061,-33.71585605607267,10.086883544921875,5356.25390625,True
1599562605.428246,0.0,10,0.5,0.5,-15.261033948516845,-0.15025,-0.02275,-0.12575,0.267297303115269,10,1,100,-0.057439364812016086,-10,-1,-100,14970.03792517446,0.002900832133409955,0.017602678417832182,0.9998408527788071,28.588195630988007,0.017931774681198116,111.64072035706299,-34.08677284358891,-0.56341552734375,5356.25390625,True
1599562605.466144,0.0,10,0.5,0.5,-13.38001478767395,-0.15025,-0.02275,-0.12575,0.27252552941725694,10,1,100,-0.07117553063357619,-10,-1,-100,14968.60729982506,0.0032606604301249637,0.018346848878019264,0.9998263655404407,27.632385408895136,0.01750553034443625,109.10519009194246,-34.45772691394848,-11.48834228515625,5356.25390625,True
1599562605.5040429,0.0,10,0.5,0.5,-11.471375202178955,-0.15025,-0.02275,-0.12575,0.27763692651301575,10,1,100,-0.08140511061358917,-10,-1,-100,14967.238199209096,0.0036803314463111684,0.01906437666447885,0.9998114845823888,29.6385317453224,0.019416587612090662,118.31036388728259,-34.8286171658988,-22.6878662109375,5356.25390625,True
1599562605.5434458,0.0,10,0.5,0.5,-6.252872132492064,-0.15025,-0.02275,-0.12575,0.3404351749910211,10,1,100,-0.16099743604624223,-10,-1,-100,14964.437495161663,0.00478459382884411,0.020281457462127995,0.9997828614979878,31.94736206546928,0.0224676927580823,130.29275420970487,-35.570178832588745,-45.912445068359375,5356.25390625,True
1599562605.5923154,0.0,10,0.5,0.5,-5.604863950729371,-0.15025,-0.02275,-0.12575,0.2717448669710931,10,1,100,-0.12039940681556613,-10,-1,-100,14963.005889591761,0.005417415973167104,0.02075673232993329,0.9997698783555931,32.29837541013144,0.023002733801243885,133.12228002145326,-35.94089633871977,-57.937744140625,5356.25390625,True
