Timestamp,Input Throttle,horizon,dT,dt,Input Roll,Roll P,Roll I,Roll D,Input Pitch,Pitch P,Pitch I,Pitch D,Input Yaw,Yaw P,Yaw I,Yaw D,Altitude,Direction X,Direction Y,Direction Z,Drag X,Drag Y,Drag Z,Vertical Velocity,Roll,Mass,Has Fuel
1599564117.0101812,0.0,10,0.5,0.5,-11.641957656860352,-0.2,-0.02275,-0.2505,-0.00029463704329998273,10,1,100,0.17494903226368724,-10,-1,-100,14994.000767033314,-0.0168100376297252,-7.504647153883155e-05,0.9998586985184029,28.64458758820856,0.0272752511268508,-87.5038943757061,27.008977416823715,-31.7916259765625,5356.25390625,True
1599564117.0729792,0.0,10,0.5,0.5,-11.774373818969728,-0.2,-0.02275,-0.2505,-0.0004728481328617362,10,1,100,0.17368968870131934,-10,-1,-100,14994.5476444565,-0.016845567708280607,-7.245446035991826e-05,0.9998581007317673,28.571856134160694,0.027439588870226905,-86.68233415077576,26.823009863523,-31.791015625,5356.25390625,True
1599564117.1218858,0.0,10,0.5,0.5,-11.907210040283204,-0.2,-0.02275,-0.2505,-0.00016741957399326191,10,1,100,0.18001031813531293,-10,-1,-100,14995.574014597456,-0.0169200138948143,-6.72555956072292e-05,0.99985684405643,28.42668156692022,0.027763932135309834,-85.04923303489161,26.451086927527125,-31.789764404296875,5356.25390625,True
1599564117.5656972,0.0,10,0.5,0.5,-11.97699069747925,-0.2,-0.02275,-0.2505,0.0070803343846604005,10,1,100,0.17839816975534467,-10,-1,-100,14996.664837651886,-0.01695765452103175,3.420458878982529e-06,0.9998562086327443,28.28508346675737,0.028085011327689716,-83.43886143713044,26.079179241952957,-31.928131103515625,5356.25390625,True
1599564117.6105711,0.0,10,0.5,0.5,-11.967114834594726,-0.2,-0.02275,-0.2505,0.00948226964921555,10,1,100,0.17986175484382189,-10,-1,-100,14997.694136015023,-0.016989762541560108,8.950408312705911e-05,0.9998556595618192,28.160969281462958,0.028412059691037623,-81.8911989076746,25.70728644132892,-32.32025146484375,5356.25390625,True
1599564117.6634007,0.0,10,0.5,0.5,-11.47515474395752,-0.2,-0.02275,-0.2505,0.036016159564131234,10,1,100,0.17564973868517336,-10,-1,-100,14999.686322891153,-0.01696521535646948,0.00040889773704897396,0.999855996766809,27.971708034955284,0.029066231767491887,-78.99353254404895,24.963541496982934,-33.921600341796875,5356.25390625,True
1599564117.7152627,0.0,10,0.5,0.5,-11.45761500015259,-0.2,-0.02275,-0.2505,0.03010469307899838,10,1,100,0.17295173012671128,-10,-1,-100,15000.653117813054,-0.01690294946007701,0.000645143274624917,0.9998569268098839,27.901100317755485,0.029373389902450794,-77.62336103520538,24.591687410708023,-35.1341552734375,5356.25390625,True
1599564117.7621372,0.0,10,0.5,0.5,-11.566603620147706,-0.2,-0.02275,-0.2505,0.0211527503858627,10,1,100,0.17552163287374678,-10,-1,-100,15001.13358383358,-0.01685434053427502,0.0007779441540521546,0.9998576528726716,27.86988241499515,0.029516280391802357,-76.95175425354375,24.405764809224895,-35.843536376953125,5356.25390625,True
1599564117.806057,0.0,10,0.5,0.5,-11.135502033996582,-0.2,-0.02275,-0.2505,0.04120224732879757,10,1,100,0.16842418859222147,-10,-1,-100,15002.101352346828,-0.016730306253228182,0.0010802331583271857,0.9998594550980636,27.811788841831344,0.029770411701672845,-75.62422438519225,24.033927752117968,-37.468414306640625,5356.25390625,True
1599564117.8598742,0.0,10,0.5,0.5,-10.33188047103882,-0.2,-0.02275,-0.2505,0.0702580195635827,10,1,100,0.15352786366933008,-10,-1,-100,15003.546656563762,-0.01646691731092911,0.0016182026978404176,0.9998631016565737,27.72203346526234,0.03003730808789068,-73.63499637385493,23.476193190297096,-40.421051025390625,5356.25390625,True
1599564117.9077477,0.0,10,0.5,0.5,-10.142678057861328,-0.2,-0.02275,-0.2505,0.060750556618126596,10,1,100,0.15551619964056634,-10,-1,-100,15004.449968392611,-0.01623057867465853,0.002019363340895718,0.9998662362974277,27.647988557471834,0.03010829990976806,-72.27790498193224,23.104384794525636,-42.73321533203125,5356.25390625,True
1599564117.9566495,0.0,10,0.5,0.5,-9.531427085876464,-0.2,-0.02275,-0.2505,0.0675598915613998,10,1,100,0.1474355879189207,-10,-1,-100,15005.415779161616,-0.01594279204326583,0.002444053870600807,0.9998699185306771,27.55095090606979,0.0300675749139936,-70.86784318812785,22.732589006579058,-45.320465087890625,5356.25390625,True
1599564118.009097,0.0,10,0.5,0.5,-8.859299138641358,-0.2,-0.02275,-0.2505,0.07541627559349952,10,1,100,0.13899782612475428,-10,-1,-100,15006.257565159583,-0.01560528161265733,0.0028992701085054666,0.9998740267746872,27.419646930162873,0.029893130657536265,-69.37920540529221,22.360807754830628,-48.1827392578125,5356.25390625,True
1599564118.0579329,0.0,10,0.5,0.5,-9.53900480041504,-0.2,-0.02275,-0.2505,0.030191304373444836,10,1,100,0.17261739595738854,-10,-1,-100,15006.257565159583,-0.01560528161265733,0.0028992701085054666,0.9998740267746872,27.419646930162873,0.029893130657536265,-69.37920540529221,22.360807754830628,-48.1827392578125,5356.25390625,True
1599564118.1148088,0.0,10,0.5,0.5,-7.335369133758546,-0.2,-0.02275,-0.2505,0.10816807176005641,10,1,100,0.10557777778972045,-10,-1,-100,15007.575905514183,-0.014997059968322506,0.003605517221429548,0.9998810371428556,27.130778006336996,0.029338485021088077,-66.94016652901475,21.80316739843489,-52.9921875,5356.25390625,True
1599564118.170665,0.0,10,0.5,0.5,-6.047582971954347,-0.2,-0.02275,-0.2505,0.12029268598683138,10,1,100,0.08544863388694125,-10,-1,-100,15008.898151576519,-0.014262950531241252,0.00435458744147821,0.9998887967220944,26.689313338818447,0.02839354923016296,-64.1707427013012,21.245573793648667,-58.420654296875,5356.25390625,True
1599564118.2225375,0.0,10,0.5,0.5,-7.351678556823732,-0.2,-0.02275,-0.2505,0.04578023295240809,10,1,100,0.15858935111254374,-10,-1,-100,15008.898151576519,-0.014262950531241252,0.00435458744147821,0.9998887967220944,26.689313338818447,0.02839354923016296,-64.1707427013012,21.245573793648667,-58.420654296875,5356.25390625,True
1599564118.2735784,0.0,10,0.5,0.5,-5.513089588928223,-0.2,-0.02275,-0.2505,0.09790002390815769,10,1,100,0.09752935385039307,-10,-1,-100,15009.737980736303,-0.013710259646066097,0.004825031500924249,0.9998943683467032,26.28519225857765,0.027541569168818395,-62.096058701380834,20.873876781659888,-62.38427734375,5356.25390625,True
1599564118.3244421,0.0,10,0.5,0.5,-3.53461467666626,-0.2,-0.02275,-0.2505,0.12933482374887664,10,1,100,0.05035854455026523,-10,-1,-100,15010.935223023058,-0.012781846103076802,0.005534799655930027,0.9999029904960611,25.47385644374973,0.02595578126105083,-58.57617422276998,20.316389478900568,-68.845947265625,5356.25390625,True
1599564118.3733122,0.0,10,0.5,0.5,-1.8914927673339845,-0.2,-0.02275,-0.2505,0.13183403637590457,10,1,100,0.028388709065974127,-10,-1,-100,15012.130513358745,-0.011741697523365843,0.006198713942092259,0.9999118503571872,24.36653034576361,0.024081864383066143,-54.496819287351386,19.75898428126355,-75.92782592773438,5356.25390625,True
1599564118.423182,0.0,10,0.5,0.5,-3.584725459289551,-0.2,-0.02275,-0.2505,0.0659006588841066,10,1,100,0.1319310450583137,-10,-1,-100,15012.130513358745,-0.011741697523365843,0.006198713942092259,0.9999118503571872,24.36653034576361,0.024081864383066143,-54.496819287351386,19.75898428126355,-75.92782592773438,5356.25390625,True
1599564118.4840171,0.0,10,0.5,0.5,1.1797152839660643,-0.2,-0.02275,-0.2505,0.14831765840495287,10,1,100,-0.03243889163899924,-10,-1,-100,15013.685169906472,-0.010251506172618718,0.006944159982644319,0.9999233396932627,22.355356578236005,0.02139761407097282,-48.12383171365609,19.015919207464442,-86.33609008789062,5356.25390625,True
1599564118.53887,0.0,10,0.5,0.5,1.1965392204284668,-0.2,-0.02275,-0.2505,0.11079184276874347,10,1,100,0.025360611664049876,-10,-1,-100,15014.461522465339,-0.009427410689122367,0.007276603417260613,0.9999290849707326,21.173574317395204,0.020154839484966113,-44.692023410438146,18.644444511421213,-91.95381164550781,5356.25390625,True
1599564118.5967145,0.0,10,0.5,0.5,-0.11112084007263179,-0.2,-0.02275,-0.2505,0.07798523263798965,10,1,100,0.10715237292133148,-10,-1,-100,15014.461522465339,-0.009427410689122367,0.007276603417260613,0.9999290849707326,21.173574317395204,0.020154839484966113,-44.692023410438146,18.644444511421213,-91.95381164550781,5356.25390625,True
1599564118.656555,0.0,10,0.5,0.5,3.743832563781739,-0.2,-0.02275,-0.2505,0.1192688376428663,10,1,100,-0.02329489158572924,-10,-1,-100,15015.5318139015,-0.00824714271262503,0.007647929523387896,0.9999367449049379,22.6056317256375,0.021714060027093224,-46.292746851114046,18.087234767618693,-100.28982543945312,5356.25390625,True
1599564118.7065833,0.0,10,0.5,0.5,5.334205762481689,-0.2,-0.02275,-0.2505,0.11324554817459284,10,1,100,-0.04398031760921839,-10,-1,-100,15016.602107725339,-0.0069922587858281815,0.007927066613517523,0.9999441334054504,23.728507700518353,0.023285656280801075,-47.099084141743106,17.529998105037155,-108.21644592285156,5356.25390625,True
1599564118.7634332,0.0,10,0.5,0.5,5.7687467655181885,-0.2,-0.02275,-0.2505,0.09966301499612876,10,1,100,-0.006027238624180364,-10,-1,-100,15017.316939852433,-0.006203092926554496,0.008054102321856566,0.9999483252018245,24.27800132120957,0.024211889454714315,-47.17096051495901,17.158491702738477,-113.33714294433594,5356.25390625,True
1599564118.8317628,0.0,10,0.5,0.5,4.610947173309326,-0.2,-0.02275,-0.2505,0.08732939565026229,10,1,100,0.07208336154271953,-10,-1,-100,15017.316939852433,-0.006203092926554496,0.008054102321856566,0.9999483252018245,24.27800132120957,0.024211889454714315,-47.17096051495901,17.158491702738477,-113.33714294433594,5356.25390625,True
1599564118.8856199,0.0,10,0.5,0.5,6.918869562149048,-0.2,-0.02275,-0.2505,0.09782064082390957,10,1,100,-0.01530260672854998,-10,-1,-100,15017.9663437485,-0.005415499730197056,0.008146541759052512,0.999952151965303,24.73291536910644,0.025034531895779314,-47.016654682620704,16.786975280000863,-118.2028579711914,5356.25390625,True
1599564118.9359987,0.0,10,0.5,0.5,9.82750608997345,-0.2,-0.02275,-0.2505,0.09434841457730178,10,1,100,-0.10861744643068123,-10,-1,-100,15019.271013556398,-0.003857885869282627,0.008196637606895008,0.9999589650823482,25.28732602123389,0.026113687877664347,-45.94701970707481,16.04392838737692,-127.11564636230469,5356.25390625,True
1599564118.9908545,0.0,10,0.5,0.5,8.63760839443207,-0.2,-0.02275,-0.2505,0.08911594383611271,10,1,100,0.006355511796290278,-10,-1,-100,15019.625501323026,-0.003494249081109326,0.008192795076682101,0.9999603333793748,25.346364994344157,0.026239722151654633,-45.522065225324546,15.858167501256649,-129.17181396484375,5356.25390625,True
1599564119.039721,0.0,10,0.5,0.5,10.836360049247741,-0.2,-0.02275,-0.2505,0.08558944821272381,10,1,100,-0.07323253538028843,-10,-1,-100,15020.506352127879,-0.002447640161566752,0.008155430015244478,0.999963748352362,25.36776214160828,0.026292158493869854,-43.96230885045555,15.300895982607173,-134.9269561767578,5356.25390625,True
1599564119.0945756,0.0,10,0.5,0.5,10.30750867023468,-0.2,-0.02275,-0.2505,0.08526094540403577,10,1,100,-0.007836683251518609,-10,-1,-100,15020.801270689117,-0.00209777967770873,0.008117374233828929,0.9999648531603357,25.330333659987687,0.026209550610244572,-43.36546826134794,15.11514446037145,-136.70779418945312,5356.25390625,True
1599564119.1434474,0.0,10,0.5,0.5,11.474491529655458,-0.2,-0.02275,-0.2505,0.08159957453011801,10,1,100,-0.04522717304396583,-10,-1,-100,15021.454586096806,-0.0014464744497350206,0.008048728542036842,0.9999665622812209,25.20119030662859,0.02591485191298475,-42.08581629885703,14.743652572566072,-140.06243896484375,5356.25390625,True
1599564119.1963022,0.0,10,0.5,0.5,11.452620709419252,-0.2,-0.02275,-0.2505,0.08498294199974342,10,1,100,-0.014701209416808542,-10,-1,-100,15021.683100724593,-0.001139142944768885,0.008016379321836289,0.9999672194706785,25.1133298788557,0.025710678808012463,-41.411646128874175,14.557912899486244,-141.63629150390625,5356.25390625,True
1599564119.2476742,0.0,10,0.5,0.5,12.477503003883363,-0.2,-0.02275,-0.2505,0.07743350025444998,10,1,100,-0.05141252903523445,-10,-1,-100,15022.271965408465,-0.0005324732162393045,0.007918004696879984,0.9999685103411478,24.900793677814864,0.025210316146997126,-40.01520386389126,14.186447380478016,-144.57762145996094,5356.25390625,True
1599564119.3015301,0.0,10,0.5,0.5,14.100860702705383,-0.2,-0.02275,-0.2505,0.06442421805924232,10,1,100,-0.11191288856563984,-10,-1,-100,15023.384265678818,0.0005631754549098278,0.007710315255978398,0.9999701164895181,24.443678517793085,0.024020709255406742,-37.22704299432004,13.44357418208145,-149.6329803466797,5356.25390625,True
1599564119.3503995,0.0,10,0.5,0.5,12.917066331672668,-0.2,-0.02275,-0.2505,0.0851587834428131,10,1,100,-0.003024648288873041,-10,-1,-100,15023.384265678818,0.0005631754549098278,0.007710315255978398,0.9999701164895181,24.443678517793085,0.024020709255406742,-37.22704299432004,13.44357418208145,-149.6329803466797,5356.25390625,True
1599564119.4042554,0.0,10,0.5,0.5,14.779972247505189,-0.2,-0.02275,-0.2505,0.06372088704457557,10,1,100,-0.10837708382344942,-10,-1,-100,15024.432115493808,0.0015147737157864636,0.007515737822417946,0.999970609140876,23.95459094322912,0.022689242885867694,-34.469591765569916,12.700777083537883,-153.5848846435547,5356.25390625,True
1599564119.4690843,0.0,10,0.5,0.5,14.574537441253662,-0.2,-0.02275,-0.2505,0.06915025135700205,10,1,100,-0.061465795353060175,-10,-1,-100,15024.895982654765,0.0019470965364471544,0.007388780561963807,0.999970806942325,23.710830650948598,0.022012275843941005,-33.12272130129069,12.32940506916918,-155.14764404296875,5356.25390625,True
1599564119.5189493,0.0,10,0.5,0.5,14.552048357009888,-0.2,-0.02275,-0.2505,0.07796245533869783,10,1,100,-0.04043808518728145,-10,-1,-100,15025.186997686513,0.002143679024262767,0.007354210231425399,0.9999706596856294,23.5930140009934,0.02167829801421141,-32.462538069619974,12.143725116413298,-155.82513427734375,5356.25390625,True
1599564119.5738022,0.0,10,0.5,0.5,15.172409956741333,-0.2,-0.02275,-0.2505,0.06788820990173575,10,1,100,-0.08147955517139281,-10,-1,-100,15025.882312121103,0.0026903692602185435,0.00723196095864106,0.9999702298838383,23.265255529386017,0.020710628352700388,-30.54532319260057,11.586706771468084,-157.44430541992188,5356.25390625,True
1599564119.6266615,0.0,10,0.5,0.5,14.81803455505371,-0.2,-0.02275,-0.2505,0.0800207902745093,10,1,100,-0.027324332517993696,-10,-1,-100,15025.882312121103,0.0026903692602185435,0.00723196095864106,0.9999702298838383,23.265255529386017,0.020710628352700388,-30.54532319260057,11.586706771468084,-157.44430541992188,5356.25390625,True
1599564119.6745338,0.0,10,0.5,0.5,15.402777272033692,-0.2,-0.02275,-0.2505,0.06555044017703224,10,1,100,-0.09477966700349129,-10,-1,-100,15026.741689286195,0.003299246711052224,0.00710121724255053,0.9999693433724924,22.91353618270124,0.019534715913343395,-28.157850443484616,10.844057867737193,-158.6375732421875,5356.25390625,True
1599564119.7263951,0.0,10,0.5,0.5,15.228597378540039,-0.2,-0.02275,-0.2505,0.07110801153541371,10,1,100,-0.06263289317889886,-10,-1,-100,15027.204581127851,0.0035562139759858324,0.0070337440687257766,0.9999689394108863,22.78230329333957,0.01900427063167242,-27.039116502587813,10.472746930395783,-158.82064819335938,5356.25390625,True
1599564119.7792537,0.0,10,0.5,0.5,15.216345995330812,-0.2,-0.02275,-0.2505,0.07626879899131805,10,1,100,-0.04982606178374368,-10,-1,-100,15027.372549636173,0.0036691263342233794,0.007020214374168868,0.9999686265588958,22.728791782628445,0.018753979668535585,-26.497962689437887,10.287094094833535,-158.8084716796875,5356.25390625,True
1599564119.835615,0.0,10,0.5,0.5,15.049027148818972,-0.2,-0.02275,-0.2505,0.07243746487930007,10,1,100,-0.07126526155794469,-10,-1,-100,15028.003412503633,0.003962856112795283,0.006973900514755798,0.9999678297240565,22.61623986564542,0.018061195980978464,-24.9407627551021,9.730143772085937,-158.35842895507812,5356.25390625,True
1599564119.8904681,0.0,10,0.5,0.5,15.181613246917726,-0.2,-0.02275,-0.2505,0.07699520934648484,10,1,100,-0.042232251766542835,-10,-1,-100,15028.003412503633,0.003962856112795283,0.006973900514755798,0.9999678297240565,22.61623986564542,0.018061195980978464,-24.9407627551021,9.730143772085937,-158.35842895507812,5356.25390625,True
1599564119.9378538,0.0,10,0.5,0.5,14.910992329025268,-0.2,-0.02275,-0.2505,0.07443335659669377,10,1,100,-0.059454661055233365,-10,-1,-100,15028.337397890165,0.004116332851185301,0.006951280412249718,0.9999673672197952,22.58027674440053,0.01764643267196905,-23.951832907026517,9.358848289748718,-157.71365356445312,5356.25390625,True
1599564119.9867237,0.0,10,0.5,0.5,14.128101670837403,-0.2,-0.02275,-0.2505,0.07551443386660235,10,1,100,-0.06702720046329289,-10,-1,-100,15029.071775130811,0.004322333372399133,0.006941057800979876,0.9999665690165953,22.590109010112123,0.016922468880731255,-22.062585396788457,8.61626212862546,-155.59645080566406,5356.25390625,True
1599564120.043574,0.0,10,0.5,0.5,14.659481997299196,-0.2,-0.02275,-0.2505,0.07649192271748814,10,1,100,-0.04666467202550496,-10,-1,-100,15029.071775130811,0.004322333372399133,0.006941057800979876,0.9999665690165953,22.590109010112123,0.016922468880731255,-22.062585396788457,8.61626212862546,-155.59645080566406,5356.25390625,True
1599564120.11084,0.0,10,0.5,0.5,13.61742795944214,-0.2,-0.02275,-0.2505,0.07817499687673898,10,1,100,-0.053921290570914965,-10,-1,-100,15029.5766578787,0.004386322037040918,0.00695673406827347,0.9999661814431979,22.650905076776095,0.016465296944804822,-20.693100807042832,8.059322051902093,-153.2845001220703,5356.25390625,True
1599564120.1597104,0.0,10,0.5,0.5,13.777818185043335,-0.2,-0.02275,-0.2505,0.07750427673401253,10,1,100,-0.048083007530991886,-10,-1,-100,15029.745604182477,0.004389876474737038,0.006965137970779559,0.9999661073444363,22.677083233241216,0.016328296128131612,-20.240129326992147,7.873674753978358,-152.3759765625,5356.25390625,True
1599564120.2105033,0.0,10,0.5,0.5,12.57970873451233,-0.2,-0.02275,-0.2505,0.07927295349774134,10,1,100,-0.04389422488082091,-10,-1,-100,15030.185056769289,0.004353482932900576,0.0069890993281715936,0.999966099263837,22.759856769286024,0.015963916502246957,-18.87798408713459,7.316730646695997,-149.23687744140625,5356.25390625,True
1599564120.2663553,0.0,10,0.5,0.5,12.811168785476685,-0.2,-0.02275,-0.2505,0.07807529943762519,10,1,100,-0.04435497866915543,-10,-1,-100,15030.291502628243,0.004323628169105153,0.007000096541540005,0.9999661518710844,22.784734457966277,0.01585790754407804,-18.4193764901021,7.131081949198963,-148.05264282226562,5356.25390625,True
1599564120.3212056,0.0,10,0.5,0.5,11.923203731155397,-0.2,-0.02275,-0.2505,0.07910652040159391,10,1,100,-0.038212612589826875,-10,-1,-100,15030.566892612842,0.004239950133848946,0.007019499332935717,0.9999663741606402,22.822347764090946,0.0156685989118473,-17.489653909527455,6.759783532227705,-145.4774627685547,5356.25390625,True
1599564120.3680832,0.0,10,0.5,0.5,11.253679961395264,-0.2,-0.02275,-0.2505,0.07893981640209799,10,1,100,-0.033731943325933704,-10,-1,-100,15030.838375917403,0.004122626905035524,0.0070356233933375235,0.9999667514227006,22.832843817616176,0.01550704564264279,-16.537047604375683,6.38848406546545,-142.62667846679688,5356.25390625,True
1599564120.4227514,0.0,10,0.5,0.5,8.99106526260376,-0.2,-0.02275,-0.2505,0.07902381268645706,10,1,100,-0.009067057942326297,-10,-1,-100,15031.317865428864,0.003791597947361218,0.007050989120943719,0.9999679531552107,22.71308004548927,0.015239941490188114,-14.538865602402296,5.645881974888832,-136.09849548339844,5356.25390625,True
1599564120.4725795,0.0,10,0.5,0.5,10.575733751296998,-0.2,-0.02275,-0.2505,0.0774949487864563,10,1,100,-0.04215282789321347,-10,-1,-100,15031.317865428864,0.003791597947361218,0.007050989120943719,0.9999679531552107,22.71308004548927,0.015239941490188114,-14.538865602402296,5.645881974888832,-136.09849548339844,5356.25390625,True
1599564120.5265057,0.0,10,0.5,0.5,7.089317681884766,-0.2,-0.02275,-0.2505,0.07350751910610363,10,1,100,0.006470111479172445,-10,-1,-100,15031.739735630807,0.003349866439343004,0.007014649115932609,0.9999697860898693,22.292701923164365,0.014958187479044854,-12.393432524943576,4.903270534392701,-128.46865844726562,5356.25390625,True
1599564120.589377,0.0,10,0.5,0.5,8.93887613182068,-0.2,-0.02275,-0.2505,0.07714887873870988,10,1,100,-0.03760579262934331,-10,-1,-100,15031.739735630807,0.003349866439343004,0.007014649115932609,0.9999697860898693,22.292701923164365,0.014958187479044854,-12.393432524943576,4.903270534392701,-128.46865844726562,5356.25390625,True
1599564120.6418147,0.0,10,0.5,0.5,6.972416900634766,-0.2,-0.02275,-0.2505,0.0731537356653971,10,1,100,-0.008145644602604349,-10,-1,-100,15031.948716699146,0.0030829309726754283,0.006978262732252536,0.9999708992695024,21.924326412263625,0.014765488047244148,-11.265857444680776,4.531956393370486,-124.24059295654297,5356.25390625,True
1599564120.6956365,0.0,10,0.5,0.5,5.936799481773377,-0.2,-0.02275,-0.2505,0.06936625814459285,10,1,100,-0.004903625052537955,-10,-1,-100,15032.095198230003,0.002811974362580997,0.0069107330162960865,0.99997216689734,21.421912946239594,0.01450573604394835,-10.105979170642787,4.160632625180615,-119.73743438720703,5356.25390625,True
1599564120.7435412,0.0,10,0.5,0.5,4.837851607894898,-0.2,-0.02275,-0.2505,0.06725049672593637,10,1,100,0.0021007021621132285,-10,-1,-100,15032.245584913995,0.0025034089261002815,0.006830157629761058,0.9999735405952006,20.771685277189654,0.014155671129234843,-8.924804390854984,3.789295439719825,-114.9588851928711,5356.25390625,True
1599564120.7944038,0.0,10,0.5,0.5,2.495378334617614,-0.2,-0.02275,-0.2505,0.056196315275668984,10,1,100,0.023336563322036305,-10,-1,-100,15032.433078147937,0.002031523495124694,0.006656559212179884,0.9999757812725985,19.644465745280442,0.01350872896138507,-7.199862912448488,3.2322538475737894,-107.27516174316406,5356.25390625,True
1599564121.2422082,0.0,10,0.5,0.5,3.1115457834243774,-0.2,-0.02275,-0.2505,0.06584387581508289,10,1,100,-0.00555259395741229,-10,-1,-100,15032.538545837742,0.0018672491737545844,0.00658675987140018,0.99997656371283,19.233073965324273,0.013258422801458954,-6.644161390267436,3.046561680286377,-104.57630157470703,5356.25390625,True
1599564121.2880862,0.0,10,0.5,0.5,-0.13888995170593255,-0.2,-0.02275,-0.2505,0.04548936648575184,10,1,100,0.032471770073656675,-10,-1,-100,15032.66549153917,0.0013743898458266706,0.006338658330844289,0.9999789660103439,17.66692873606963,0.01223116261323765,-4.987138091186896,2.4894376144125223,-96.06697845458984,5356.25390625,True
1599564121.3329332,0.0,10,0.5,0.5,-2.225590433692932,-0.2,-0.02275,-0.2505,0.03649716166137618,10,1,100,0.038165756071835116,-10,-1,-100,15032.791462735971,0.000877070799598953,0.006031997763810513,0.9999814227023369,15.882317862471334,0.010997676248843086,-3.479952850188736,1.9322540722657204,-86.93853759765625,5356.25390625,True
1599564121.3808384,0.0,10,0.5,0.5,-2.8752062276840213,-0.2,-0.02275,-0.2505,0.04213087156541524,10,1,100,0.02293188703146542,-10,-1,-100,15032.874466040521,0.0005661018644387182,0.005805357330504829,0.999982988532777,17.04498258515359,0.01178800499843195,-3.0167517004259747,1.5607860029781486,-80.6689453125,5356.25390625,True
1599564121.4327023,0.0,10,0.5,0.5,-4.194377515602112,-0.2,-0.02275,-0.2505,0.037852651726099196,10,1,100,0.0254109970355259,-10,-1,-100,15032.895946586388,0.00026379773796788436,0.005561560057860824,0.9999844996101072,18.125248860734196,0.01253843755453049,-2.444488418266589,1.1893213248745447,-74.534423828125,5356.25390625,True
1599564121.4865224,0.0,10,0.5,0.5,-4.12020807209015,-0.2,-0.02275,-0.2505,0.04770252913786974,10,1,100,0.011835366518897189,-10,-1,-100,15032.93695954862,0.00011519614469227385,0.005430791503798799,0.9999852465079124,18.58266374200838,0.012862940728668244,-2.114816704755529,1.0035918331392675,-71.56033325195312,5356.25390625,True
1599564121.5314362,0.0,10,0.5,0.5,-6.093128827095032,-0.2,-0.02275,-0.2505,0.031043613887689784,10,1,100,0.028357276911964043,-10,-1,-100,15032.959416539525,-0.00016715478886375186,0.005161906186569989,0.9999866633029652,19.328629408505986,0.013392876467071593,-1.385560111974657,0.6321359762996144,-65.8145751953125,5356.25390625,True
1599564121.5803056,0.0,10,0.5,0.5,-6.034656919479371,-0.2,-0.02275,-0.2505,0.042494059794842956,10,1,100,0.01524259473069858,-10,-1,-100,15033.001407685806,-0.0003016584488472354,0.0050232111851049015,0.9999873380956231,19.611224220683944,0.013590269026029594,-0.9927803687789856,0.4464073986197832,-63.04449462890625,5356.25390625,True
1599564121.6391556,0.0,10,0.5,0.5,-9.027245616340638,-0.2,-0.02275,-0.2505,0.008136834131256314,10,1,100,0.044168793504231516,-10,-1,-100,15033.001402392285,-0.0006840693714903124,0.004586502333950572,0.9999892479649147,20.126598346655523,0.013953317812840111,0.25288105322502874,-0.11079450482718078,-55.147674560546875,5356.25390625,True
1599564121.6910102,0.0,10,0.5,0.5,-9.40153250541687,-0.2,-0.02275,-0.2505,0.01836993500958277,10,1,100,0.03206798787443975,-10,-1,-100,15032.959406730137,-0.0009188106333517385,0.004284562163882159,0.9999903991109536,20.345430655671706,0.014113905970689419,1.1127585892740581,-0.4822793401929315,-50.227874755859375,5356.25390625,True
1599564121.7378874,0.0,10,0.5,0.5,-10.39106033782959,-0.2,-0.02275,-0.2505,0.015073937976453056,10,1,100,0.03298714548038347,-10,-1,-100,15032.919364969479,-0.001137885636799363,0.0039822638517445115,0.9999914233586669,20.444852431623502,0.014195504568556273,1.9795749512191387,-0.8537766312202841,-45.58380126953125,5356.25390625,True
1599564121.7907124,0.0,10,0.5,0.5,-12.26727341823578,-0.2,-0.02275,-0.2505,-0.004934266509321043,10,1,100,0.04450489826514004,-10,-1,-100,15032.856862290064,-0.0014390196336035777,0.0035279221599483906,0.9999927414675206,20.37529770659877,0.014173897725336506,3.2606311682800113,-1.411043587269333,-39.1346435546875,5356.25390625,True
1599564121.8422163,0.0,10,0.5,0.5,-11.687614762115478,-0.2,-0.02275,-0.2505,0.02370469300976678,10,1,100,0.02494515801826777,-10,-1,-100,15032.836352479877,-0.0015324043471090884,0.003377793650462621,0.9999931210998262,20.306793277631694,0.014137702791862971,3.677520351635113,-1.596804014162645,-37.122802734375,5356.25390625,True
1599564121.8930764,0.0,10,0.5,0.5,-13.829845842742921,-0.2,-0.02275,-0.2505,-0.009143041564253121,10,1,100,0.04499838242394534,-10,-1,-100,15032.709397841478,-0.0017974111493050688,0.002945110331269329,0.9999940478014342,20.01803572319604,0.01398237042465562,4.890619283836162,-2.1540947635783967,-31.500457763671875,5356.25390625,True
1599564121.9399514,0.0,10,0.5,0.5,-12.533306736755373,-0.2,-0.02275,-0.2505,0.0338392656551525,10,1,100,0.018734053505721687,-10,-1,-100,15032.709397841478,-0.0017974111493050688,0.002945110331269329,0.9999940478014342,20.01803572319604,0.01398237042465562,4.890619283836162,-2.1540947635783967,-31.500457763671875,5356.25390625,True
1599564121.9928124,0.0,10,0.5,0.5,-15.573770853424072,-0.2,-0.02275,-0.2505,-0.02753382378601068,10,1,100,0.05355782517313899,-10,-1,-100,15032.5004109008,-0.002112117065474978,0.00238955174519202,0.999994914489048,19.46108398956193,0.013696220488422188,6.394990897371663,-2.8971601329728296,-24.96868896484375,5356.25390625,True
1599564122.040682,0.0,10,0.5,0.5,-14.043558760070802,-0.2,-0.02275,-0.2505,0.02771791084585958,10,1,100,0.022309964877164797,-10,-1,-100,15032.5004109008,-0.002112117065474978,0.00238955174519202,0.999994914489048,19.46108398956193,0.013696220488422188,6.394990897371663,-2.8971601329728296,-24.96868896484375,5356.25390625,True
1599564122.0938962,0.0,10,0.5,0.5,-16.017507626342773,-0.2,-0.02275,-0.2505,-0.016182986878804824,10,1,100,0.04561949664996661,-10,-1,-100,15032.310955890687,-0.0023222537522489843,0.0019929729971872325,0.9999953175871088,19.013362431497757,0.013496231518644831,7.450044299647463,-3.454464517430587,-20.79327392578125,5356.25390625,True
1599564122.1397357,0.0,10,0.5,0.5,-16.669376864624024,-0.2,-0.02275,-0.2505,-0.017943963475252303,10,1,100,0.04598015819289106,-10,-1,-100,15032.060956051573,-0.002514728940339756,0.0016191927464769193,0.9999955271666,18.642287461559974,0.0133749157158358,8.483508960659343,-4.011776282705943,-17.2379150390625,5356.25390625,True
1599564122.1955888,0.0,10,0.5,0.5,-15.865004166412355,-0.2,-0.02275,-0.2505,0.019137330637031647,10,1,100,0.02691570534069882,-10,-1,-100,15032.060956051573,-0.002514728940339756,0.0016191927464769193,0.9999955271666,18.642287461559974,0.0133749157158358,8.483508960659343,-4.011776282705943,-17.2379150390625,5356.25390625,True
1599564122.263407,0.0,10,0.5,0.5,-17.64133723907471,-0.2,-0.02275,-0.2505,-0.029273655847573667,10,1,100,0.05573906006077179,-10,-1,-100,15031.725018663448,-0.0027753086029704303,0.0011815159324508758,0.9999954508307822,18.25772242071488,0.013316446426756496,9.848175654262299,-4.754877566614964,-13.46148681640625,5356.25390625,True
1599564122.3212516,0.0,10,0.5,0.5,-17.432814247131347,-0.2,-0.02275,-0.2505,-0.008861700903204069,10,1,100,0.042424251826318995,-10,-1,-100,15031.495526880724,-0.0028896669278067715,0.0009717372809390086,0.9999953527650531,18.103376633853543,0.013319241350848898,10.528385821757269,-5.126438791737485,-11.9866943359375,5356.25390625,True
1599564122.3781073,0.0,10,0.5,0.5,-17.410799769592284,-0.2,-0.02275,-0.2505,0.0011734395314155453,10,1,100,0.038591186430380495,-10,-1,-100,15031.412518571946,-0.0029574642219729105,0.0008745817697693161,0.9999952442447433,18.05420690797934,0.013341284857359352,10.880522977884576,-5.3122221983161495,-11.35260009765625,5356.25390625,True
1599564122.4399428,0.0,10,0.5,0.5,-17.78888517150879,-0.2,-0.02275,-0.2505,-0.008955498575953345,10,1,100,0.04580621040803839,-10,-1,-100,15031.1791205575,-0.003083393743852778,0.0006964529694395997,0.99999500380566,17.993529915185583,0.013412847537871656,11.60294267314916,-5.683794971221736,-10.2908935546875,5356.25390625,True
1599564122.4983053,0.0,10,0.5,0.5,-18.055829892730713,-0.2,-0.02275,-0.2505,-0.018734413281422176,10,1,100,0.05363948099851408,-10,-1,-100,15030.80412258429,-0.003267917603116484,0.0004476627057827134,0.9999945601415245,17.975624848226495,0.013573615837202183,12.728959162348279,-6.241168138202379,-9.215087890625,5356.25390625,True
1599564122.561655,0.0,10,0.5,0.5,-18.005042414855957,-0.2,-0.02275,-0.2505,-0.009919461923190938,10,1,100,0.04937650603931455,-10,-1,-100,15030.573654692853,-0.003395575424223665,0.000303896067192634,0.9999941888404745,18.016962500550356,0.013721601706731824,13.518502417461585,-6.612758303469002,-8.8421630859375,5356.25390625,True
1599564122.6324644,0.0,10,0.5,0.5,-17.99222424926758,-0.2,-0.02275,-0.2505,-0.009500419718357921,10,1,100,0.051155702218462606,-10,-1,-100,15030.279710362083,-0.0035266357192599495,0.00017890464822558868,0.9999937653973803,18.10282028758229,0.013906497928631974,14.346946430886334,-6.984353756834882,-8.74468994140625,5356.25390625,True
1599564122.711253,0.0,10,0.5,0.5,-17.924523754882813,-0.2,-0.02275,-0.2505,-0.009315879191761415,10,1,100,0.05242313091366506,-10,-1,-100,15029.98674310313,-0.003656017595018608,6.896340585821249e-05,0.9999933143673481,18.233811856268503,0.01413220154596545,15.220446632379888,-7.355953024752796,-8.922698974609375,5356.25390625,True
1599564122.771092,0.0,10,0.5,0.5,-17.909493363189696,-0.2,-0.02275,-0.2505,-0.0038151254945171516,10,1,100,0.046890894569044834,-10,-1,-100,15029.83928212279,-0.003722131911809232,2.077277330948108e-05,0.9999930726272672,18.316089018550024,0.014261508913955582,15.675758289552867,-7.541753732873836,-9.114990234375,5356.25390625,True
1599564122.8468897,0.0,10,0.5,0.5,-17.709853693389896,-0.2,-0.02275,-0.2505,-0.008040045083094813,10,1,100,0.05508038686043567,-10,-1,-100,15029.544361354667,-0.0038555881270211072,-5.999214347355582e-05,0.9999925653929319,18.51341396589816,0.014555216291100126,16.626339945771846,-7.913356056166992,-9.706085205078125,5356.25390625,True
1599564122.9077265,0.0,10,0.5,0.5,-17.24295833282471,-0.2,-0.02275,-0.2505,-0.00991386728312588,10,1,100,0.0639849427147837,-10,-1,-100,15029.043387465063,-0.00405664350390172,-0.00014892301064937136,0.9999917606987664,18.88669309765613,0.015088803330263557,18.15804675922872,-8.470759006644212,-11.10919189453125,5356.25390625,True
1599564122.9675665,0.0,10,0.5,0.5,-17.327065602111816,-0.2,-0.02275,-0.2505,-0.0032388367700994574,10,1,100,0.05142167045553162,-10,-1,-100,15028.833427033504,-0.004124044703344594,-0.00016787766801523596,0.9999914819999085,19.03000742878107,0.015292503202165651,18.697761119439765,-8.656559058796809,-11.714569091796875,5356.25390625,True
1599564123.0363827,0.0,10,0.5,0.5,-16.475069178009033,-0.2,-0.02275,-0.2505,-0.004237363537837056,10,1,100,0.06694214489568276,-10,-1,-100,15028.329523715773,-0.004325291581589,-0.0001931506771918599,0.9999906272288507,19.525032085058204,0.015995929187295057,20.421539414765892,-9.213953635696555,-13.94378662109375,5356.25390625,True
1599564123.0972195,0.0,10,0.5,0.5,-17.02759321975708,-0.2,-0.02275,-0.2505,-0.0018168358648707784,10,1,100,0.046954239807203715,-10,-1,-100,15028.329523715773,-0.004325291581589,-0.0001931506771918599,0.9999906272288507,19.525032085058204,0.015995929187295057,20.421539414765892,-9.213953635696555,-13.94378662109375,5356.25390625,True
1599564123.159055,0.0,10,0.5,0.5,-15.735891316986086,-0.2,-0.02275,-0.2505,2.1739343645453242e-05,10,1,100,0.06860813450131592,-10,-1,-100,15027.763118810835,-0.004521016171682987,-0.00017562762652659284,0.9999897647314756,20.136881630505204,0.016862623484464996,22.33802916951592,-9.77133343083334,-16.7926025390625,5356.25390625,True
1599564123.2288673,0.0,10,0.5,0.5,-15.942488591766358,-0.2,-0.02275,-0.2505,0.0002690961818432676,10,1,100,0.056166804900338485,-10,-1,-100,15027.554136421299,-0.004584705440333575,-0.00015688225436336146,0.9999894778766343,20.35218163799571,0.017176719779115838,23.007011793859895,-9.957122199135155,-17.87982177734375,5356.25390625,True
1599564123.2907047,0.0,10,0.5,0.5,-14.538735581207275,-0.2,-0.02275,-0.2505,0.00696368044077293,10,1,100,0.07018094596347461,-10,-1,-100,15026.925231490168,-0.004768925030575247,-7.856226065964873e-05,0.9999886255263226,21.03923315511065,0.018197988608711427,25.11794316206686,-10.514470564716186,-21.554718017578125,5356.25390625,True
1599564123.376474,0.0,10,0.5,0.5,-13.495566934204103,-0.2,-0.02275,-0.2505,0.013372833507624922,10,1,100,0.0703876067318013,-10,-1,-100,15026.295351546723,-0.00493714676567854,5.1136822323185714e-05,0.9999878109091328,21.772403596245088,0.01931060591226091,27.374377217605893,-11.071786851651677,-25.849029541015625,5356.25390625,True
1599564123.4363139,0.0,10,0.5,0.5,-13.088030738830568,-0.2,-0.02275,-0.2505,0.012983077966978705,10,1,100,0.06431931487965796,-10,-1,-100,15025.813907585805,-0.005033744663325086,0.0001655180533776469,0.9999873169287891,22.244546849857937,0.020049178093035774,28.908923466527945,-11.443309925502872,-29.0560302734375,5356.25390625,True
1599564123.4996703,0.0,10,0.5,0.5,-12.277242494201662,-0.2,-0.02275,-0.2505,0.016188638914470203,10,1,100,0.06393471196123038,-10,-1,-100,15025.333439884475,-0.005116872168516681,0.00029851086724065417,0.9999868641689615,22.6854379689723,0.020750275812333015,30.441631728929817,-11.814814647872387,-32.538330078125,5356.25390625,True
1599564123.5605044,0.0,10,0.5,0.5,-11.40480319595337,-0.2,-0.02275,-0.2505,0.019532850788793715,10,1,100,0.06334774236343518,-10,-1,-100,15024.849066335591,-0.005185959918673179,0.0004494894396002252,0.9999864517977057,23.077522608630602,0.021376657089378148,31.94424127664821,-12.18630050905856,-36.29595947265625,5356.25390625,True
1599564123.6173522,0.0,10,0.5,0.5,-11.39585963821411,-0.2,-0.02275,-0.2505,0.013475629223350796,10,1,100,0.05954081423657302,-10,-1,-100,15024.640081463964,-0.00521313187546691,0.0005311330252864909,0.9999862704826296,23.24927349895306,0.02164852911881985,32.67390877278462,-12.37203642981158,-38.278045654296875,5356.25390625,True
1599564123.6781921,0.0,10,0.5,0.5,-9.953060556793213,-0.2,-0.02275,-0.2505,0.02459915062285062,10,1,100,0.06136524385835361,-10,-1,-100,15024.09516037628,-0.005253429298957287,0.0007058419243664566,0.9999859515352095,23.53189657425254,0.022082300230054492,34.06703822923325,-12.743495262057781,-42.448699951171875,5356.25390625,True
1599564123.7340393,0.0,10,0.5,0.5,-8.930031291198729,-0.2,-0.02275,-0.2505,0.027917925655092983,10,1,100,0.05985544744937463,-10,-1,-100,15023.613715944812,-0.005275494136851123,0.000894021612367212,0.9999856848410225,23.71560298577611,0.022333817431897437,35.33688363559473,-13.114939245624894,-46.89471435546875,5356.25390625,True
1599564123.7978723,0.0,10,0.5,0.5,-8.920826612854004,-0.2,-0.02275,-0.2505,0.02007119800484866,10,1,100,0.058149157641987165,-10,-1,-100,15023.340279571246,-0.005279177534364485,0.0009927718298297149,0.999985572240247,23.7636119618896,0.022379352943861456,35.911457555764905,-13.300656881328347,-49.220947265625,5356.25390625,True
1599564123.8497615,0.0,10,0.5,0.5,-4.927674336242676,-0.2,-0.02275,-0.2505,0.055176891530375485,10,1,100,0.05276634123914595,-10,-1,-100,15022.25043625047,-0.00523290214538473,0.0014006252418855465,0.9999853273843915,23.648462688284273,0.022001910600750556,37.7404742214844,-14.043514038838246,-59.214508056640625,5356.25390625,True
1599564123.9045844,0.0,10,0.5,0.5,-7.33702490310669,-0.2,-0.02275,-0.2505,0.014547301074417212,10,1,100,0.05745869980762662,-10,-1,-100,15022.25043625047,-0.00523290214538473,0.0014006252418855465,0.9999853273843915,23.648462688284273,0.022001910600750556,37.7404742214844,-14.043514038838246,-59.214508056640625,5356.25390625,True
1599564123.9619265,0.0,10,0.5,0.5,-2.2528858528137206,-0.2,-0.02275,-0.2505,0.05952780628317096,10,1,100,0.04203589421337672,-10,-1,-100,15021.037545757368,-0.00509227302442354,0.001808194209690085,0.9999853994879849,22.924798045506417,0.020720323486437448,38.528578152862586,-14.786386522865293,-70.30987548828125,5356.25390625,True
1599564124.0147817,0.0,10,0.5,0.5,-2.2458346115112304,-0.2,-0.02275,-0.2505,0.04193057684546306,10,1,100,0.044757443675950276,-10,-1,-100,15020.491646778653,-0.004989028703883359,0.002017139315181078,0.9999855202659561,22.3271447626067,0.019833458155524064,38.47088055793313,-15.157842390622967,-76.27056884765625,5356.25390625,True
1599564124.0796094,0.0,10,0.5,0.5,-0.8220131652832032,-0.2,-0.02275,-0.2505,0.04080400677895415,10,1,100,0.04133575157469047,-10,-1,-100,15019.820748040336,-0.004864104589707598,0.002195164572966624,0.9999857607681409,21.51375027783339,0.018817457338520305,37.982022421539696,-15.52931637196264,-82.50711059570312,5356.25390625,True
1599564124.1424408,0.0,10,0.5,0.5,-0.8192899391174316,-0.2,-0.02275,-0.2505,0.03310186287766395,10,1,100,0.046140549260334604,-10,-1,-100,15019.546332855127,-0.004794446980852588,0.0022852619957547315,0.9999858953284084,21.023502384819544,0.018282509494216875,37.56258162402525,-15.715060437356811,-85.7286376953125,5356.25390625,True
1599564124.1973243,0.0,10,0.5,0.5,3.015036812591553,-0.2,-0.02275,-0.2505,0.05097907643275029,10,1,100,0.027309083514260046,-10,-1,-100,15018.542425694293,-0.00456028265959992,0.002528019982830019,0.9999864063761221,20.117354680210138,0.017442457121942184,37.224613068195424,-16.27230974880067,-95.78160095214844,5356.25390625,True
1599564124.2501514,0.0,10,0.5,0.5,3.777714929580689,-0.2,-0.02275,-0.2505,0.042492860274194896,10,1,100,0.031213687846994843,-10,-1,-100,15017.93109689746,-0.00438349590622769,0.0026697462905865554,0.9999868286224494,21.592583784817904,0.018931462019846586,40.87128552053898,-16.64378073508017,-102.77410888671875,5356.25390625,True
1599564124.3089952,0.0,10,0.5,0.5,2.1633319972991947,-0.2,-0.02275,-0.2505,0.028516619935163266,10,1,100,0.04880536984494488,-10,-1,-100,15017.93109689746,-0.00438349590622769,0.0026697462905865554,0.9999868286224494,21.592583784817904,0.018931462019846586,40.87128552053898,-16.64378073508017,-102.77410888671875,5356.25390625,True
1599564124.3618546,0.0,10,0.5,0.5,5.42739795036316,-0.2,-0.02275,-0.2505,0.041652057779331245,10,1,100,0.029126526679998765,-10,-1,-100,15017.198673573672,-0.0042054082394832925,0.002787545066735156,0.9999872719860188,22.88130114190719,0.02041066459929594,44.2824126737196,-17.015210230015285,-109.73735046386719,5356.25390625,True
1599564124.424688,0.0,10,0.5,0.5,8.32138821258545,-0.2,-0.02275,-0.2505,0.046127666704793846,10,1,100,0.014820892144845284,-10,-1,-100,15016.192811299348,-0.0039144352914823365,0.002933690605068175,0.9999880352563137,24.2703093388037,0.022245093008253048,48.516868627410425,-17.572276921645706,-119.72760009765625,5356.25390625,True
1599564124.4749928,0.0,10,0.5,0.5,7.3957319038391125,-0.2,-0.02275,-0.2505,0.03589626844806214,10,1,100,0.03266018198384078,-10,-1,-100,15015.858827181393,-0.0038132883980667924,0.0029721437781613743,0.9999883125281792,24.66685245642852,0.022780209935807837,49.833454389275154,-17.75794719190943,-122.92234802246094,5356.25390625,True
1599564124.53184,0.0,10,0.5,0.5,9.525968135452272,-0.2,-0.02275,-0.2505,0.038978683777772735,10,1,100,0.02120615947763093,-10,-1,-100,15015.124450848787,-0.0036184997574028608,0.0030336945125741285,0.9999888515164108,25.27838142079626,0.02360559147398338,52.14274780763295,-18.129264984788215,-129.1056671142578,5356.25390625,True
1599564124.5817068,0.0,10,0.5,0.5,13.309635971069337,-0.2,-0.02275,-0.2505,0.040455351832937886,10,1,100,-0.002205861355403446,-10,-1,-100,15013.595150925685,-0.0032299224158326293,0.003101959889539148,0.999989972672742,25.821113054736905,0.0241856656837592,55.456773110205596,-18.871842811474586,-140.6457977294922,5356.25390625,True
1599564124.6325705,0.0,10,0.5,0.5,12.978441125869752,-0.2,-0.02275,-0.2505,0.034678326438758005,10,1,100,0.0162042020654833,-10,-1,-100,15012.86175076547,-0.0030456336875841626,0.003110514709947205,0.9999905243619462,25.86778185142845,0.024038134932504538,56.65679033459196,-19.243119883435327,-146.00241088867188,5356.25390625,True
1599564124.6824377,0.0,10,0.5,0.5,11.781061337661743,-0.2,-0.02275,-0.2505,0.033914379411650354,10,1,100,0.03445122780011762,-10,-1,-100,15012.86175076547,-0.0030456336875841626,0.003110514709947205,0.9999905243619462,25.86778185142845,0.024038134932504538,56.65679033459196,-19.243119883435327,-146.00241088867188,5356.25390625,True
1599564124.749259,0.0,10,0.5,0.5,15.30499747276306,-0.2,-0.02275,-0.2505,0.033052999599777276,10,1,100,0.0059876487221038055,-10,-1,-100,15011.66545948363,-0.0027884637080506447,0.0031019337546445477,0.9999913012007308,25.67047884284826,0.023345579132773676,57.86265232478367,-19.80003878936062,-153.5203094482422,5356.25390625,True
1599564125.2127695,0.0,10,0.5,0.5,14.619963607406616,-0.2,-0.02275,-0.2505,0.03274905174893348,10,1,100,0.022563099679295824,-10,-1,-100,15011.265068616252,-0.0027069694798596915,0.0030908479841146295,0.9999915594518657,25.544872286990724,0.02302048198445861,58.12313014657295,-19.98568172954758,-155.88844299316406,5356.25390625,True
1599564125.2606862,0.0,10,0.5,0.5,18.104407398223877,-0.2,-0.02275,-0.2505,0.025828922266836037,10,1,100,-0.002121566673875974,-10,-1,-100,15009.610769208171,-0.0024100018750448705,0.003017476923165156,0.9999925433341894,24.82670952910279,0.021483938536711336,58.60377569148149,-20.72827740326639,-164.671630859375,5356.25390625,True
1599564125.31155,0.0,10,0.5,0.5,17.83715076675415,-0.2,-0.02275,-0.2505,0.026949322391863074,10,1,100,0.012889391662361019,-10,-1,-100,15008.815845862031,-0.002278288668298263,0.0029606452955908092,0.9999930219657424,24.37845350248544,0.020686017251597508,58.58477704942873,-21.099590875453217,-168.64968872070312,5356.25390625,True
1599564125.3634124,0.0,10,0.5,0.5,18.64247009086609,-0.2,-0.02275,-0.2505,0.026673648941015433,10,1,100,0.012738328762895634,-10,-1,-100,15007.952563339612,-0.002158928017234557,0.002906316693489283,0.9999934461550705,23.897645098189603,0.019937451727479905,58.44848855926097,-21.47091370582419,-172.35179138183594,5356.25390625,True
1599564125.4232519,0.0,10,0.5,0.5,18.622143548583985,-0.2,-0.02275,-0.2505,0.028409249092112253,10,1,100,0.01841110255056221,-10,-1,-100,15007.49260132329,-0.0021035849209502006,0.00287273012378112,0.9999936611559676,23.65064283254121,0.019593602400646733,58.34887851411873,-21.656578151017452,-174.09947204589844,5356.25390625,True
1599564125.4721203,0.0,10,0.5,0.5,19.05704365081787,-0.2,-0.02275,-0.2505,0.02799130338431444,10,1,100,0.018094040209225455,-10,-1,-100,15007.09416385158,-0.0020519449062041937,0.002838487748206792,0.999993866235891,23.402083638890794,0.019274945679663556,58.234976390245414,-21.84224423613725,-175.7781982421875,5356.25390625,True
1599564125.5219884,0.0,10,0.5,0.5,20.16204996070862,-0.2,-0.02275,-0.2505,0.02356440455891024,10,1,100,0.012628127782587083,-10,-1,-100,15006.172287946334,-0.0019567334660576556,0.0027672912417849712,0.9999942566301698,22.907198542807983,0.018723057013325245,57.981338013315984,-22.213580124176964,-178.92880249023438,5356.25390625,True
1599564125.5708187,0.0,10,0.5,0.5,-140.82400384750366,-0.2,-0.02275,-0.2505,0.01742296231422984,10,1,100,0.00915679871829508,-10,-1,-100,15004.851972869132,-0.001839777518930671,0.0026470400961296344,0.9999948041852069,22.78483797684462,0.01861162579695044,59.131339826633884,-22.770583152803564,176.86236572265625,5356.25390625,True
1599564125.619688,0.0,10,0.5,0.5,-51.86291698150635,-0.2,-0.02275,-0.2505,0.024723720871365915,10,1,100,0.01712864198919643,-10,-1,-100,15004.390059456695,-0.0018070214659767457,0.0026045127457022177,0.9999949755807672,23.095821984698315,0.01891374808726588,60.43180699299181,-22.95624205208753,175.5972900390625,5356.25390625,True
1599564125.6753654,0.0,10,0.5,0.5,-51.35077936935425,-0.2,-0.02275,-0.2505,0.014327918446966818,10,1,100,0.011202727116909759,-10,-1,-100,15003.003338928567,-0.0017244972937447598,0.0024718042250593424,0.9999954581361642,23.918271988784376,0.019864071157962657,64.11725521807463,-23.513187207096816,172.13296508789062,5356.25390625,True
1599564125.7272263,0.0,10,0.5,0.5,-52.42433398933411,-0.2,-0.02275,-0.2505,0.02246106198465994,10,1,100,0.016912485373847982,-10,-1,-100,15002.481854812591,-0.0017023494544281255,0.00242567062893538,0.9999956090545272,24.171392018203942,0.02020439285825282,65.31252426595317,-23.698824942531598,170.94512939453125,5356.25390625,True
1599564125.7756774,0.0,10,0.5,0.5,-51.036777919006354,-0.2,-0.02275,-0.2505,0.005617476276046817,10,1,100,0.012825474071607147,-10,-1,-100,15000.572673549526,-0.001645973697779388,0.002231212196340003,0.9999961562239733,25.25334748907229,0.021827585600637547,70.39632349088114,-24.441318203963895,165.55410766601562,5356.25390625,True
1599564125.829535,0.0,10,0.5,0.5,-51.7400011756897,-0.2,-0.02275,-0.2505,0.013789536496653666,10,1,100,0.017406570198237596,-10,-1,-100,14999.588297988987,-0.001637063909411054,0.0021294380457377456,0.9999963927511768,25.8454931637215,0.02279943530084796,73.15291190851202,-24.81252562281159,162.44979858398438,5356.25390625,True
1599564125.8779166,0.0,10,0.5,0.5,-52.52511250991821,-0.2,-0.02275,-0.2505,0.018137088427055626,10,1,100,0.017731124578432875,-10,-1,-100,14999.063883171999,-0.0016324975277678777,0.0020771949329664867,0.9999965101004265,26.139058675576972,0.0233079018631385,74.54315554780126,-24.998118792691155,160.79437255859375,5356.25390625,True
1599564125.92878,0.0,10,0.5,0.5,-52.920905210495,-0.2,-0.02275,-0.2505,0.017502245912605074,10,1,100,0.01800706558508087,-10,-1,-100,14998.600992821157,-0.0016313333995067597,0.0020246836455526307,0.9999966196980243,26.42878496325495,0.023826383670334676,75.9349906960313,-25.183704686652412,159.070068359375,5356.25390625,True
1599564125.978648,0.0,10,0.5,0.5,-52.464144677734375,-0.2,-0.02275,-0.2505,0.010880037980591502,10,1,100,0.01914062778076353,-10,-1,-100,14997.554117389373,-0.0016410095315223525,0.001917515172592846,0.9999968151065685,27.015718797662007,0.024898750165850383,78.77784223688651,-25.554854161526944,155.41488647460938,5356.25390625,True
1599564126.0414803,0.0,10,0.5,0.5,-52.36246784744263,-0.2,-0.02275,-0.2505,0.009494974151800006,10,1,100,0.02036917836105009,-10,-1,-100,14996.506265421747,-0.0016613482344252073,0.0018083350465273134,0.9999969849186564,27.608664577957132,0.025989286962050787,81.68893288047194,-25.925972812344185,151.48422241210938,5356.25390625,True
1599564126.0943396,0.0,10,0.5,0.5,-50.18501508407593,-0.2,-0.02275,-0.2505,-0.004336895291994328,10,1,100,0.026242371020357855,-10,-1,-100,14994.408608800615,-0.0017334991569048117,0.001584207897156206,0.9999972426292043,28.616535218598365,0.02787804210552018,87.12206200078121,-26.66812178741184,142.79660034179688,5356.25390625,True
1599564126.1422095,0.0,10,0.5,0.5,-52.283764796447755,-0.2,-0.02275,-0.2505,0.017969536425219076,10,1,100,0.019016650936194826,-10,-1,-100,14994.408608800615,-0.0017334991569048117,0.001584207897156206,0.9999972426292043,28.616535218598365,0.02787804210552018,87.12206200078121,-26.66812178741184,142.79660034179688,5356.25390625,True
1599564126.1970634,0.0,10,0.5,0.5,-47.79909495620728,-0.2,-0.02275,-0.2505,-0.008330558680351138,10,1,100,0.03166280618638492,-10,-1,-100,14992.252358306083,-0.0018485310430966053,0.0013460436733315185,0.9999973855462885,29.245495726036893,0.02893675157213649,91.54289682430218,-27.41017362168199,133.0073699951172,5356.25390625,True
1599564126.2459338,0.0,10,0.5,0.5,-50.16228642921448,-0.2,-0.02275,-0.2505,0.015373287646944818,10,1,100,0.020172020942140753,-10,-1,-100,14992.252358306083,-0.0018485310430966053,0.0013460436733315185,0.9999973855462885,29.245495726036893,0.02893675157213649,91.54289682430218,-27.41017362168199,133.0073699951172,5356.25390625,True
1599564126.3077679,0.0,10,0.5,0.5,-45.1698820716858,-0.2,-0.02275,-0.2505,-0.011972789872081906,10,1,100,0.03808574053042031,-10,-1,-100,14990.025795777212,-0.002011250147000357,0.0010984244476636427,0.999997374164842,29.312978845649305,0.028732125592965747,94.2678311078238,-28.152174493351065,122.11703491210938,5356.25390625,True
1599564126.35664,0.0,10,0.5,0.5,-46.49509846725464,-0.2,-0.02275,-0.2505,0.006101737481165046,10,1,100,0.027206148487543762,-10,-1,-100,14989.438880815753,-0.0020599391533874167,0.0010386597527666155,0.9999973389147604,29.220443734705587,0.028463141156111687,94.59713577390252,-28.33767398711661,119.22248840332031,5356.25390625,True
1599564126.4075005,0.0,10,0.5,0.5,-44.420833721542365,-0.2,-0.02275,-0.2505,-0.0023342896940150605,10,1,100,0.034062220171326575,-10,-1,-100,14988.328529941733,-0.002166145378824609,0.000908628672443109,0.999997241100261,28.885067403783314,0.0276838419689449,94.75146949942533,-28.70867979308221,113.22691345214844,5356.25390625,True
1599564126.463351,0.0,10,0.5,0.5,-41.53064170074463,-0.2,-0.02275,-0.2505,-0.011113724293539124,10,1,100,0.043976961683183546,-10,-1,-100,14986.566812486271,-0.0023523453721925225,0.0007116678905719965,0.9999969799954715,27.969816064830248,0.026038741143323135,93.55223100718219,-29.265220840105457,103.7177734375,5356.25390625,True
1599564126.5152123,0.0,10,0.5,0.5,-42.29683136444092,-0.2,-0.02275,-0.2505,0.0009363501025385062,10,1,100,0.03312863800213862,-10,-1,-100,14985.979897908517,-0.0024223415036332303,0.0006433524158853096,0.9999968591747218,27.546411407184387,0.02541020002752865,92.72849515654106,-29.450746591900508,100.41050720214844,5356.25390625,True
1599564126.5630844,0.0,10,0.5,0.5,-38.34457602500916,-0.2,-0.02275,-0.2505,-0.014994891303064724,10,1,100,0.05237637842758609,-10,-1,-100,14984.15665798809,-0.002660243507017841,0.00043757630135257176,0.9999963658091282,25.900905463020138,0.02347379602433759,88.8618607963944,-30.00736838002057,90.07623291015625,5356.25390625,True
1599564126.6119542,0.0,10,0.5,0.5,-40.79360855903626,-0.2,-0.02275,-0.2505,0.005445644275691587,10,1,100,0.02868606761638429,-10,-1,-100,14984.15665798809,-0.002660243507017841,0.00043757630135257176,0.9999963658091282,25.900905463020138,0.02347379602433759,88.8618607963944,-30.00736838002057,90.07623291015625,5356.25390625,True
1599564126.663816,0.0,10,0.5,0.5,-34.03275419578552,-0.2,-0.02275,-0.2505,-0.024148006844188698,10,1,100,0.0708642730002992,-10,-1,-100,14981.746504124021,-0.0030428392429169646,0.00016958550171348156,0.9999953561742672,27.480456827394626,0.02531414284841876,96.649329269872,-30.749514100075494,75.33502197265625,5356.25390625,True
1599564126.7127066,0.0,10,0.5,0.5,-35.834341994094856,-0.2,-0.02275,-0.2505,-0.004368627854732738,10,1,100,0.04410656138847288,-10,-1,-100,14981.094160459004,-0.0031462113153668267,0.00010705605866885623,0.9999950449344033,28.175590059434967,0.026201261833703037,99.70127397046221,-30.935015181523212,71.47795104980469,5356.25390625,True
1599564126.7605796,0.0,10,0.5,0.5,-31.262065332412718,-0.2,-0.02275,-0.2505,-0.0184518298528658,10,1,100,0.07378764956663672,-10,-1,-100,14979.269945377135,-0.0035088342916933996,-7.669164625050128e-05,0.9999938410811864,29.87976764637657,0.028627541768530967,107.6630190331037,-31.491433920817723,59.49461364746094,5356.25390625,True
1599564126.8224394,0.0,10,0.5,0.5,-30.343014760208135,-0.2,-0.02275,-0.2505,-0.012204731592700854,10,1,100,0.06613894000350956,-10,-1,-100,14977.971120522008,-0.0037674484530085856,-0.0001856498162487977,0.9999928859078446,30.747885692211725,0.029880420058459947,112.11588593506039,-31.86231824752854,51.16246032714844,5356.25390625,True
1599564126.8748837,0.0,10,0.5,0.5,-28.39153202972412,-0.2,-0.02275,-0.2505,-0.011637816776503761,10,1,100,0.07308136658969032,-10,-1,-100,14976.672295242082,-0.004064068661073118,-0.0002783815867691732,0.9999917028903841,31.307074848596432,0.03056643964101372,115.5040001990209,-32.23316749067944,42.555877685546875,5356.25390625,True
1599564126.9277422,0.0,10,0.5,0.5,-30.37306444206238,-0.2,-0.02275,-0.2505,-0.0024963438584197895,10,1,100,0.04361975873400567,-10,-1,-100,14976.672295242082,-0.004064068661073118,-0.0002783815867691732,0.9999917028903841,31.307074848596432,0.03056643964101372,115.5040001990209,-32.23316749067944,42.555877685546875,5356.25390625,True
1599564126.9806387,0.0,10,0.5,0.5,-22.08706499633789,-0.2,-0.02275,-0.2505,-0.01669557169136611,10,1,100,0.11505635632763725,-10,-1,-100,14974.070740446099,-0.0047117668907586336,-0.00040638637592394677,0.9999888169889103,31.16484660907037,0.029723937089787836,117.66791845870988,-32.974843619562044,24.519866943359375,5356.25390625,True
1599564127.0351784,0.0,10,0.5,0.5,-24.316388149261478,-0.2,-0.02275,-0.2505,-0.006449320893396371,10,1,100,0.06927965113669324,-10,-1,-100,14973.422304395237,-0.004882286669174551,-0.0004285902185681106,0.999987989721529,30.84131936358941,0.02909867614175571,117.11249730846782,-33.160273959387645,19.839462280273438,5356.25390625,True
1599564127.092025,0.0,10,0.5,0.5,-18.795009371185305,-0.2,-0.02275,-0.2505,-0.00415627059558365,10,1,100,0.11267595899911945,-10,-1,-100,14971.407663859427,-0.0054295802254242225,-0.000426955124960459,0.999985168573963,29.141504428908007,0.026671207776950704,112.54863743002127,-33.71662817949491,5.3876953125,5356.25390625,True
1599564127.1408942,0.0,10,0.5,0.5,-17.727849196624756,-0.2,-0.02275,-0.2505,-0.0014004069019278682,10,1,100,0.09917262560493065,-10,-1,-100,14970.04731805704,-0.005801844666869111,-0.000399629432259984,0.9999830893044033,27.44037932159475,0.024970475033049416,107.16729250657977,-34.08759334407415,-4.58935546875,5356.25390625,True
1599564127.1968088,0.0,10,0.5,0.5,-15.393863736724855,-0.2,-0.02275,-0.2505,0.005145653530958123,10,1,100,0.10362828328668192,-10,-1,-100,14968.680136583163,-0.006177916864235065,-0.0003145171570209409,0.999980867028053,29.417969951460673,0.027105682954829347,116.16553467595094,-34.45851706916463,-14.83990478515625,5356.25390625,True
1599564127.2496378,0.0,10,0.5,0.5,-17.756478382110597,-0.2,-0.02275,-0.2505,-0.0034139842588196316,10,1,100,0.06633457131221832,-10,-1,-100,14968.680136583163,-0.006177916864235065,-0.0003145171570209409,0.999980867028053,29.417969951460673,0.027105682954829347,116.16553467595094,-34.45851706916463,-14.83990478515625,5356.25390625,True
1599564127.302496,0.0,10,0.5,0.5,-12.818884221267702,-0.2,-0.02275,-0.2505,0.009161539775493813,10,1,100,0.1075581842979024,-10,-1,-100,14967.255338375922,-0.006549920886333222,-0.0001998109628765552,0.9999785290754805,31.085906196318145,0.029283229231755657,124.0986849852439,-34.82936169108686,-25.3642578125,5356.25390625,True
1599564127.3533604,0.0,10,0.5,0.5,-10.397693600463867,-0.2,-0.02275,-0.2505,0.014767780552626838,10,1,100,0.10998217023820564,-10,-1,-100,14965.89206357894,-0.0069073779726119035,-4.445485266533524e-05,0.9999761427920717,32.21963088236517,0.030985195697089494,130.0199109384944,-35.200136768155524,-36.1622314453125,5356.25390625,True
1599564127.4186966,0.0,10,0.5,0.5,-7.916127872848509,-0.2,-0.02275,-0.2505,0.019137525296644392,10,1,100,0.11320890816252241,-10,-1,-100,14964.46726531745,-0.007258818459886672,0.00013637456795994845,0.9999736451309823,32.9027369674695,0.03196993885821786,134.20102244939818,-35.57086227071269,-47.233917236328125,5356.25390625,True
1599564127.4675653,0.0,10,0.5,0.5,-2.7725906017303474,-0.2,-0.02275,-0.2505,0.037480091690674504,10,1,100,0.12874553899703217,-10,-1,-100,14962.267078698613,-0.007716647592451266,0.00046713850287890814,0.9999701171192833,32.72348682223843,0.0314243336964985,135.59634652990962,-36.12692637516037,-64.35427856445312,5356.25390625,True
1599564127.5179415,0.0,10,0.5,0.5,1.1720715778350828,-0.2,-0.02275,-0.2505,0.04450642531612458,10,1,100,0.1259768854346307,-10,-1,-100,14960.125486872625,-0.008104365790641449,0.0008310310038641921,0.9999668137706381,30.89515949526509,0.028800005105295852,130.03212141820563,-36.68306952422129,-82.09033203125,5356.25390625,True
1599564127.5665088,0.0,10,0.5,0.5,-3.028271612930298,-0.2,-0.02275,-0.2505,0.008240916955574993,10,1,100,0.08754432550560075,-10,-1,-100,14960.125486872625,-0.008104365790641449,0.0008310310038641921,0.9999668137706381,30.89515949526509,0.028800005105295852,130.03212141820563,-36.68306952422129,-82.09033203125,5356.25390625,True
1599564127.6154754,0.0,10,0.5,0.5,5.433997815704346,-0.2,-0.02275,-0.2505,0.04774006782802422,10,1,100,0.12015281575240237,-10,-1,-100,14957.863774814643,-0.008397877448229221,0.0011889690834115195,0.999964030356534,29.38287832628612,0.02727456459362038,125.58450605741825,-37.239335882203335,-100.3597640991211,5356.25390625,True
1599564127.6723232,0.0,10,0.5,0.5,9.325352613258362,-0.2,-0.02275,-0.2505,0.05019965457533024,10,1,100,0.11529833396922813,-10,-1,-100,14955.597179882927,-0.008617876123259425,0.0015352581950588062,0.9999616868627511,32.554676918622306,0.031156416690961957,141.2653235901262,-37.7954505757327,-118.62229919433594,5356.25390625,True
1599564127.7217023,0.0,10,0.5,0.5,5.010012518882752,-0.2,-0.02275,-0.2505,0.01576423217333344,10,1,100,0.09358006961184673,-10,-1,-100,14955.597179882927,-0.008617876123259425,0.0015352581950588062,0.9999616868627511,32.554676918622306,0.031156416690961957,141.2653235901262,-37.7954505757327,-118.62229919433594,5356.25390625,True
1599564127.7737238,0.0,10,0.5,0.5,13.426601070594787,-0.2,-0.02275,-0.2505,0.0456237734819424,10,1,100,0.11098542665519695,-10,-1,-100,14953.334488983382,-0.008773888497054405,0.0018050269566351788,0.9999598795743392,34.120497126002604,0.03331732303659899,150.28470805715565,-38.35139642285115,-136.78097534179688,5356.25390625,True
1599564127.826527,0.0,10,0.5,0.5,17.07625554676056,-0.2,-0.02275,-0.2505,0.04246214013129945,10,1,100,0.10878611923601242,-10,-1,-100,14951.006367965252,-0.008893364249754692,0.0020196023056863487,0.9999584137747171,34.147653806578596,0.03288392230593392,152.6324042833411,-38.90728868874884,-154.36363220214844,5356.25390625,True
1599564127.8758996,0.0,10,0.5,0.5,12.965273579978943,-0.2,-0.02275,-0.2505,0.021226546553038742,10,1,100,0.09707288830232591,-10,-1,-100,14951.006367965252,-0.008893364249754692,0.0020196023056863487,0.9999584137747171,34.147653806578596,0.03288392230593392,152.6324042833411,-38.90728868874884,-154.36363220214844,5356.25390625,True
