Timestamp,Input Throttle,horizon,dT,dt,Input Roll,Roll P,Roll I,Roll D,Input Pitch,Pitch P,Pitch I,Pitch D,Input Yaw,Yaw P,Yaw I,Yaw D,Altitude,Direction X,Direction Y,Direction Z,Drag X,Drag Y,Drag Z,Vertical Velocity,Roll,Mass,Has Fuel
1599559328.8644755,0.0,10,0.5,0.5,-0.05865602874755859,-0.001,-0.03,-0.37525,-0.00026067858638650237,10,1,100,0.17549346092397372,-10,-1,-100,14995.007605276653,-0.016845321063864115,-7.246920460102698e-05,0.9998581048861233,28.503871856775643,0.027363381417227967,-85.87438241058364,26.63736681616659,-31.79058837890625,5356.25390625,True
1599559328.8973904,0.0,10,0.5,0.5,-0.23306729125976564,-0.001,-0.03,-0.37525,-0.00046729662958779495,10,1,100,0.17415187596289194,-10,-1,-100,14995.542763103498,-0.01688181318402652,-7.006336517482173e-05,0.9998574895827628,28.43132903778304,0.027525577069508513,-85.05943505781359,26.45140718042632,-31.78997802734375,5356.25390625,True
1599559328.9312613,0.0,10,0.5,0.5,-0.4077094497680664,-0.001,-0.03,-0.37525,-0.00044204099666505126,10,1,100,0.17633381917308594,-10,-1,-100,14996.077921182849,-0.016919476583190443,-6.758294779245127e-05,0.9998568531268345,28.358857348997226,0.02768629867035342,-84.2477415213662,26.265451402989957,-31.789337158203125,5356.25390625,True
1599559328.965197,0.0,10,0.5,0.5,-0.5774161987304688,-0.001,-0.03,-0.37525,0.007424047561918371,10,1,100,0.1828552762061293,-10,-1,-100,14997.626753763063,-0.01699762066765514,6.243312131182493e-06,0.999855529990538,28.142380904479257,0.0281599688957657,-81.83362783455026,25.70760754358997,-31.801788330078125,5356.25390625,True
1599559329.00097,0.0,10,0.5,0.5,-0.7470265731811524,-0.001,-0.03,-0.37525,0.004243948912463613,10,1,100,0.17885892036248402,-10,-1,-100,14998.106247262447,-0.017016877854346586,4.4442430419323405e-05,0.9998552014631722,28.071904144615907,0.02831607560981631,-81.03983159581821,25.521667309329363,-31.82745361328125,5356.25390625,True
1599559329.0398655,0.0,10,0.5,0.5,-0.8449894256591797,-0.001,-0.03,-0.37525,0.02059061272792116,10,1,100,0.18081650398547816,-10,-1,-100,14999.6433573002,-0.01703671071349844,0.00022773453406686617,0.999854838776633,27.871957790835214,0.02878251908981658,-78.70859323033821,24.963869326093242,-32.0565185546875,5356.25390625,True
1599559329.0687845,0.0,10,0.5,0.5,-1.1047764892578127,-0.001,-0.03,-0.37525,0.002284175816573569,10,1,100,0.18053688914164254,-10,-1,-100,14999.6433573002,-0.01703671071349844,0.00022773453406686617,0.999854838776633,27.871957790835214,0.02878251908981658,-78.70859323033821,24.963869326093242,-32.0565185546875,5356.25390625,True
1599559329.098706,0.0,10,0.5,0.5,-1.146033004760742,-0.001,-0.03,-0.37525,0.022878153344901567,10,1,100,0.17961561078288546,-10,-1,-100,15000.586716008023,-0.017012847536861105,0.00041474548020251447,0.9998551850167474,27.752950600912246,0.02909320567245382,-77.20814414262263,24.592022125651944,-32.40887451171875,5356.25390625,True
1599559329.134612,0.0,10,0.5,0.5,-1.097030532836914,-0.001,-0.03,-0.37525,0.04561515178723648,10,1,100,0.17249910632309523,-10,-1,-100,15002.068157358211,-0.01691099201979556,0.0007910783757286916,0.9998566860025041,27.603132824851887,0.029555730994676763,-75.05414441226918,24.0342769328492,-33.3497314453125,5356.25390625,True
1599559329.1645281,0.0,10,0.5,0.5,-1.620037902832031,-0.001,-0.03,-0.37525,0.008060970072191632,10,1,100,0.18437575723162924,-10,-1,-100,15002.068157358211,-0.01691099201979556,0.0007910783757286916,0.9998566860025041,27.603132824851887,0.029555730994676763,-75.05414441226918,24.0342769328492,-33.3497314453125,5356.25390625,True
1599559329.1976933,0.0,10,0.5,0.5,-1.2144874191284178,-0.001,-0.03,-0.37525,0.061520579096815416,10,1,100,0.16559185481223082,-10,-1,-100,15003.474400853273,-0.016724855641419397,0.0012763556592473363,0.9998593151638909,27.488132964578284,0.029996530486507553,-73.01136729498377,23.476560050806007,-34.879302978515625,5356.25390625,True
1599559329.2316024,0.0,10,0.5,0.5,-1.5358499069213867,-0.001,-0.03,-0.37525,0.033284362109535774,10,1,100,0.1750221979026444,-10,-1,-100,15003.940218170756,-0.016641480657737958,0.0014595977399582453,0.9998604556116596,27.45614075347512,0.030132709841465818,-72.3503365538671,23.290660240834118,-35.52606201171875,5356.25390625,True
1599559329.3024127,0.0,10,0.5,0.5,-1.4982057876586916,-0.001,-0.03,-0.37525,0.03731538186751952,10,1,100,0.17361369378451924,-10,-1,-100,15004.408964898787,-0.01655309911925032,0.0016614364828542575,0.9998616076929656,27.426332889076235,0.03026060887521863,-71.69634137827168,23.104763330750764,-36.241363525390625,5356.25390625,True
1599559329.3313322,0.0,10,0.5,0.5,-0.4180085372924802,-0.001,-0.03,-0.37525,0.11398772348962621,10,1,100,0.12871066993363017,-10,-1,-100,15006.2234020771,-0.016064876028766148,0.002540375700751014,0.9998677243763194,27.312372383543554,0.030645666199945815,-69.1060331650024,22.36120350555869,-39.79022216796875,5356.25390625,True
1599559329.3642468,0.0,10,0.5,0.5,-0.902969657897949,-0.001,-0.03,-0.37525,0.0811916202758412,10,1,100,0.1428668276535781,-10,-1,-100,15007.098392771324,-0.015750577148179054,0.0030389612038149113,0.9998713337396472,27.24482701266125,0.03072772055297081,-67.79166737917471,21.98944061846859,-41.977020263671875,5356.25390625,True
1599559329.4011486,0.0,10,0.5,0.5,-0.7758353347778322,-0.001,-0.03,-0.37525,0.08818290580828034,10,1,100,0.1335066510533462,-10,-1,-100,15007.95971030055,-0.015380909561012467,0.003553055603464814,0.9998753939451428,27.15783652347606,0.030707461972642264,-66.43535210438438,21.61768999618702,-44.41497802734375,5356.25390625,True
1599559329.4310663,0.0,10,0.5,0.5,-1.6536036071777345,-0.001,-0.03,-0.37525,0.03710599795022987,10,1,100,0.17030782965475627,-10,-1,-100,15007.95971030055,-0.015380909561012467,0.003553055603464814,0.9998753939451428,27.15783652347606,0.030707461972642264,-66.43535210438438,21.61768999618702,-44.41497802734375,5356.25390625,True
1599559329.4649782,0.0,10,0.5,0.5,-0.11736120605468736,-0.001,-0.03,-0.37525,0.1263442277322341,10,1,100,0.09829908385550815,-10,-1,-100,15009.242896228563,-0.014727789872976108,0.0043612892186926724,0.999882028722293,26.97098619603387,0.030446771658227328,-64.28018280774982,21.060089954890394,-48.39947509765625,5356.25390625,True
1599559329.4978902,0.0,10,0.5,0.5,-1.0252626571655274,-0.001,-0.03,-0.37525,0.07604975818618408,10,1,100,0.1363794097711074,-10,-1,-100,15009.693084994215,-0.014482306808233852,0.004635236833264371,0.9998843820007449,26.888830201985392,0.03029119412647975,-63.52007270157176,20.874231185194347,-49.832855224609375,5356.25390625,True
1599559329.543766,0.0,10,0.5,0.5,0.23641069030761708,-0.001,-0.03,-0.37525,0.14187830471511753,10,1,100,0.07051537217001752,-10,-1,-100,15010.909862987814,-0.01366258430319604,0.005479226761813004,0.9998916500622709,26.564335556666727,0.02959744497932835,-61.0810529343165,20.316682055428227,-54.484283447265625,5356.25390625,True
1599559329.5980346,0.0,10,0.5,0.5,-0.1823926315307618,-0.001,-0.03,-0.37525,0.12062565854993558,10,1,100,0.08442760947642536,-10,-1,-100,15011.712584140012,-0.013046810008416827,0.006049022505913668,0.9998965896908176,26.273023839968914,0.028942094751548967,-59.3085358607624,19.945008895639894,-57.84173583984375,5356.25390625,True
1599559329.630943,0.0,10,0.5,0.5,0.5675912628173827,-0.001,-0.03,-0.37525,0.15055287520004387,10,1,100,0.0344823807421574,-10,-1,-100,15012.898111562827,-0.012036311338881472,0.006834745454781923,0.9999042021433463,25.70602296001857,0.027683888133688963,-56.4104181719933,19.38754585479379,-63.00048828125,5356.25390625,True
1599559329.6678467,0.0,10,0.5,0.5,-1.2858073120117188,-0.001,-0.03,-0.37525,0.07251809508470076,10,1,100,0.1350717307638072,-10,-1,-100,15012.898111562827,-0.012036311338881472,0.006834745454781923,0.9999042021433463,25.70602296001857,0.027683888133688963,-56.4104181719933,19.38754585479379,-63.00048828125,5356.25390625,True
1599559329.6977644,0.0,10,0.5,0.5,0.7282513046264647,-0.001,-0.03,-0.37525,0.15396037610089147,10,1,100,0.012130620815877027,-10,-1,-100,15014.041646487196,-0.010922771055518806,0.007570426819500086,0.9999116869555227,25.000695310371228,0.02618937178418889,-53.2890754258335,18.83014661103774,-68.14010620117188,5356.25390625,True
1599559329.7316775,0.0,10,0.5,0.5,-1.1153406677246094,-0.001,-0.03,-0.37525,0.08089524474095007,10,1,100,0.12297043865481892,-10,-1,-100,15014.041646487196,-0.010922771055518806,0.007570426819500086,0.9999116869555227,25.000695310371228,0.02618937178418889,-53.2890754258335,18.83014661103774,-68.14010620117188,5356.25390625,True
1599559329.7815433,0.0,10,0.5,0.5,0.9610581359863279,-0.001,-0.03,-0.37525,0.15580571881999494,10,1,100,-0.011424497884371443,-10,-1,-100,15015.11584624392,-0.009705387819792221,0.008247311615113507,0.9999188903598084,24.142541126375352,0.024542063171469137,-49.940622670128704,18.272817232017623,-73.45016479492188,5356.25390625,True
1599559329.8094654,0.0,10,0.5,0.5,-0.28611311340332046,-0.001,-0.03,-0.37525,0.10989102994975299,10,1,100,0.06431336181121922,-10,-1,-100,15015.497676119208,-0.009292361349765441,0.008440987661385646,0.9999211977690271,23.820836080647656,0.023975671521728515,-48.77551772669943,18.08705723214518,-75.19985961914062,5356.25390625,True
1599559329.8373914,0.0,10,0.5,0.5,1.1156230239868163,-0.001,-0.03,-0.37525,0.1507571404026755,10,1,100,-0.037765625233389125,-10,-1,-100,15016.571877610288,-0.007994426993163972,0.008984123314788777,0.9999276847179077,22.841944455879887,0.022368417229421383,-45.333936192027814,17.529824865974796,-80.42498779296875,5356.25390625,True
1599559329.8663163,0.0,10,0.5,0.5,-0.11330415344238287,-0.001,-0.03,-0.37525,0.11504505176946014,10,1,100,0.041596379159432956,-10,-1,-100,15016.897067586193,-0.007542080675169939,0.009149025072038668,0.999929703708876,22.49618256088798,0.02185813242065612,-44.1759154274221,17.3440963123427,-82.1146240234375,5356.25390625,True
1599559329.8981848,0.0,10,0.5,0.5,0.6131829452514649,-0.001,-0.03,-0.37525,0.1293005826769464,10,1,100,-0.011979171267710004,-10,-1,-100,15017.573815635755,-0.006650115587776849,0.009424428052116832,0.9999334758465482,21.75984977148416,0.02087497439059382,-41.817278159505506,16.972661241086843,-85.47323608398438,5356.25390625,True
1599559329.9310966,0.0,10,0.5,0.5,0.6461379394531249,-0.001,-0.03,-0.37525,0.127114199741783,10,1,100,-0.02276601028798554,-10,-1,-100,15018.239822031348,-0.005747551034249189,0.009651331642513401,0.9999369067369377,20.997269573099416,0.01998416147628464,-39.471050847828224,16.601253563319435,-88.66342163085938,5356.25390625,True
1599559329.9679978,0.0,10,0.5,0.5,0.12610405731201169,-0.001,-0.03,-0.37525,0.11512070010070127,10,1,100,0.01742316688302166,-10,-1,-100,15018.566966385231,-0.005299029649846079,0.009745300992376266,0.999938472803871,20.60594420599926,0.019574450283170237,-38.303254639063404,16.415558961915394,-90.21722412109375,5356.25390625,True
1599559329.9984276,0.0,10,0.5,0.5,-0.3753101196289062,-0.001,-0.03,-0.37525,0.10601482066817418,10,1,100,0.06160157715442907,-10,-1,-100,15018.566966385231,-0.005299029649846079,0.009745300992376266,0.999938472803871,20.60594420599926,0.019574450283170237,-38.303254639063404,16.415558961915394,-90.21722412109375,5356.25390625,True
1599559330.04231,0.0,10,0.5,0.5,1.9183216228485107,-0.001,-0.03,-0.37525,0.13424552112624782,10,1,100,-0.13662374568440816,-10,-1,-100,15019.88042905822,-0.003503106061937591,0.009999297764233668,0.9999438695707581,21.477465330570304,0.02051152028719726,-38.121230988287735,15.672791238058231,-96.09624481201172,5356.25390625,True
1599559330.0672402,0.0,10,0.5,0.5,0.893086263656616,-0.001,-0.03,-0.37525,0.11535156608403022,10,1,100,-0.058365812502585,-10,-1,-100,15020.47514991113,-0.0025886291609406135,0.010056232628315934,0.999946084138736,21.852330590811725,0.02105444498490843,-37.86966187914767,15.301410713113816,-99.01185607910156,5356.25390625,True
1599559330.1016595,0.0,10,0.5,0.5,0.4312204551696778,-0.001,-0.03,-0.37525,0.11117630513467358,10,1,100,-0.013106958944334775,-10,-1,-100,15020.758350576623,-0.002176307139558889,0.010067774854479464,0.9999469503912265,22.034029495629103,0.021348460341077416,-37.722209854028776,15.115720637895684,-100.44601440429688,5356.25390625,True
1599559330.132577,0.0,10,0.5,0.5,-0.025959907531738276,-0.001,-0.03,-0.37525,0.11020412884225712,10,1,100,0.027372335125814353,-10,-1,-100,15020.758350576623,-0.002176307139558889,0.010067774854479464,0.9999469503912265,22.034029495629103,0.021348460341077416,-37.722209854028776,15.115720637895684,-100.44601440429688,5356.25390625,True
1599559330.1654902,0.0,10,0.5,0.5,1.0657701015472412,-0.001,-0.03,-0.37525,0.10981147677334147,10,1,100,-0.06645419750007434,-10,-1,-100,15021.339401024743,-0.001329807801332816,0.010062726392768328,0.9999484852474931,22.39413839353473,0.02197949362324947,-37.39882135494918,14.744339981967123,-103.14632415771484,5356.25390625,True
1599559330.198403,0.0,10,0.5,0.5,1.5516398468017576,-0.001,-0.03,-0.37525,0.09995061154715591,10,1,100,-0.12269286974766154,-10,-1,-100,15022.204630669672,-5.5061036323621615e-05,0.009967512104540171,0.9999503216013923,22.806997842847714,0.022882466535696616,-36.652177763811814,14.187268777924196,-106.94963836669922,5356.25390625,True
1599559330.2343054,0.0,10,0.5,0.5,0.6564380722045897,-0.001,-0.03,-0.37525,0.10443332455749363,10,1,100,-0.039147645290959786,-10,-1,-100,15022.529824823025,0.0003374912371339517,0.009920961518033553,0.9999507290973004,22.925509253432388,0.02317826629921007,-36.36135555321159,14.00157845628006,-108.1655502319336,5356.25390625,True
1599559330.2722058,0.0,10,0.5,0.5,0.7037108631134033,-0.001,-0.03,-0.37525,0.10297509153076889,10,1,100,-0.043539740071783295,-10,-1,-100,15022.798378739972,0.000727932704807495,0.009864934745088295,0.9999510753914177,23.029142816750863,0.023463069486778,-36.042234037846384,13.815888205807381,-109.32293701171875,5356.25390625,True
1599559330.2991316,0.0,10,0.5,0.5,1.1336612663269041,-0.001,-0.03,-0.37525,0.093719198477791,10,1,100,-0.08889635261911984,-10,-1,-100,15023.32376793027,0.0014893255315419059,0.009729662648199558,0.9999515566137258,23.246395141171842,0.024049179247960507,-35.40603260300763,13.444508350006036,-111.45524597167969,5356.25390625,True
1599559330.3330429,0.0,10,0.5,0.5,1.1250883808135985,-0.001,-0.03,-0.37525,0.08835559970127038,10,1,100,-0.09457522302106217,-10,-1,-100,15023.847204747028,0.0022269556911532207,0.009557942242463407,0.9999518420446253,23.40841661922919,0.024577990597402285,-34.669641602899596,13.07313027184118,-113.38976287841797,5356.25390625,True
1599559330.3689485,0.0,10,0.5,0.5,0.4686785278320313,-0.001,-0.03,-0.37525,0.10550890439989426,10,1,100,-0.021564805594030623,-10,-1,-100,15023.847204747028,0.0022269556911532207,0.009557942242463407,0.9999518420446253,23.40841661922919,0.024577990597402285,-34.669641602899596,13.07313027184118,-113.38976287841797,5356.25390625,True
1599559330.3998663,0.0,10,0.5,0.5,1.1709446620941162,-0.001,-0.03,-0.37525,0.08419548104454921,10,1,100,-0.0982406996206398,-10,-1,-100,15024.375524867792,0.00291880012616504,0.009364585080616425,0.999951891418828,23.5255699912864,0.025051236199926444,-33.85493990774283,12.701755151136789,-115.11836242675781,5356.25390625,True
1599559330.432778,0.0,10,0.5,0.5,1.1233679161071777,-0.001,-0.03,-0.37525,0.08022418916942886,10,1,100,-0.10111040612948666,-10,-1,-100,15024.884314279072,0.003568831099631569,0.009153331959661438,0.9999517388147382,23.59912450013306,0.02546467259774999,-32.9693625372177,12.330383898756933,-116.58749389648438,5356.25390625,True
1599559330.6172845,0.0,10,0.5,0.5,0.8668120155334472,-0.001,-0.03,-0.37525,0.08755168771886557,10,1,100,-0.0722091359648411,-10,-1,-100,15025.098181564943,0.00389180667561419,0.009028728602783436,0.9999516667822584,23.619864794142988,0.025648371160500748,-32.50214545056259,12.144700128858137,-117.24214172363281,5356.25390625,True
1599559330.6462076,0.0,10,0.5,0.5,1.4624805946350097,-0.001,-0.03,-0.37525,0.04405310819591882,10,1,100,-0.16715892461997767,-10,-1,-100,15026.06498040061,0.005043084265358566,0.008520955779278187,0.9999509791053259,23.63017560349283,0.02626276756464249,-30.53042928775628,11.401979526524993,-119.34429931640625,5356.25390625,True
1599559330.6821113,0.0,10,0.5,0.5,0.7222398834228515,-0.001,-0.03,-0.37525,0.09467621348509465,10,1,100,-0.05266845485220921,-10,-1,-100,15026.06498040061,0.005043084265358566,0.008520955779278187,0.9999509791053259,23.63017560349283,0.02626276756464249,-30.53042928775628,11.401979526524993,-119.34429931640625,5356.25390625,True
1599559330.7524376,0.0,10,0.5,0.5,1.1027916049957274,-0.001,-0.03,-0.37525,0.04949152697320721,10,1,100,-0.1357917143165867,-10,-1,-100,15026.720255499822,0.005794115582942286,0.008111500953102176,0.999950314654133,23.561721226829892,0.026600690871712254,-28.956612672283295,10.844956095800036,-120.25690460205078,5356.25390625,True
1599559330.7903337,0.0,10,0.5,0.5,0.905020092010498,-0.001,-0.03,-0.37525,0.059025724766334685,10,1,100,-0.11020950745985034,-10,-1,-100,15027.10502226546,0.006239345241733694,0.007827588782484171,0.9999498984573211,23.483974625303016,0.026775409890919172,-27.873969889789016,10.473616254683002,-120.54503631591797,5356.25390625,True
1599559330.8162637,0.0,10,0.5,0.5,0.8305649642944336,-0.001,-0.03,-0.37525,0.08721320723187476,10,1,100,-0.06623768283440216,-10,-1,-100,15027.10502226546,0.006239345241733694,0.007827588782484171,0.9999498984573211,23.483974625303016,0.026775409890919172,-27.873969889789016,10.473616254683002,-120.54503631591797,5356.25390625,True
1599559330.8421974,0.0,10,0.5,0.5,0.8712312374114991,-0.001,-0.03,-0.37525,0.057820212346072916,10,1,100,-0.10930908424584565,-10,-1,-100,15027.558148268028,0.006626585236646642,0.007562108896127532,0.9999494501609292,23.38324230592846,0.0269152991021991,-26.771460310646216,10.102283925329232,-120.58064270019531,5356.25390625,True
1599559330.8830853,0.0,10,0.5,0.5,0.7955992736816406,-0.001,-0.03,-0.37525,0.053900494747081446,10,1,100,-0.10920463424327602,-10,-1,-100,15027.945844608475,0.006973672386957332,0.0072869441424909705,0.9999491328755198,23.25863441383359,0.02702163555410258,-25.65100420052498,9.73095897209058,-120.35780334472656,5356.25390625,True
1599559330.9329543,0.0,10,0.5,0.5,0.7258866310119629,-0.001,-0.03,-0.37525,0.04925801148052643,10,1,100,-0.10894498650202847,-10,-1,-100,15028.327680925839,0.007282530528959523,0.006996654516852662,0.999949004487062,23.110516780296663,0.02709675542888258,-24.516003287556828,9.359641170259252,-119.89471435546875,5356.25390625,True
1599559330.9692183,0.0,10,0.5,0.5,0.486368293762207,-0.001,-0.03,-0.37525,0.032705410723643434,10,1,100,-0.1191120394355113,-10,-1,-100,15028.844282501726,0.007651771384354272,0.006584429332631412,0.9999490465443953,22.842897449785113,0.02715180342134493,-22.79136445259794,8.802677412535436,-118.7581787109375,5356.25390625,True
1599559330.9981115,0.0,10,0.5,0.5,0.919365348815918,-0.001,-0.03,-0.37525,0.07367103888306542,10,1,100,-0.0825962479245086,-10,-1,-100,15028.844282501726,0.007651771384354272,0.006584429332631412,0.9999490465443953,22.842897449785113,0.02715180342134493,-22.79136445259794,8.802677412535436,-118.7581787109375,5356.25390625,True
1599559331.0370386,0.0,10,0.5,0.5,0.5338560676574707,-0.001,-0.03,-0.37525,0.042627472463584046,10,1,100,-0.10445661181691374,-10,-1,-100,15029.171430112212,0.0078470838154591,0.006304437182699902,0.9999493373903511,22.630455836890093,0.027146038794198295,-21.627740162240986,8.431375864784176,-117.72148132324219,5356.25390625,True
1599559331.0659614,0.0,10,0.5,0.5,0.20982975006103521,-0.001,-0.03,-0.37525,0.024606383657257674,10,1,100,-0.10876365435290378,-10,-1,-100,15029.673381188535,0.008061246412654217,0.005888085801428814,0.9999501721345267,22.25913087321692,0.027068535668536835,-19.868650468532945,7.874433023732291,-115.83927917480469,5356.25390625,True
1599559331.1018915,0.0,10,0.5,0.5,0.6295722846984864,-0.001,-0.03,-0.37525,0.05013942158164027,10,1,100,-0.09335927232643229,-10,-1,-100,15029.805216279812,0.008113156062457041,0.005744096590474803,0.9999505898058492,22.119752041437444,0.02702114536141721,-19.279058411350253,7.688787213234461,-115.10562133789062,5356.25390625,True
1599559331.1321425,0.0,10,0.5,0.5,0.2927202949523926,-0.001,-0.03,-0.37525,0.03477948385818147,10,1,100,-0.09624241721200973,-10,-1,-100,15030.118689688272,0.008184448842619844,0.005475713696087557,0.9999515145029086,21.811273465557736,0.02688381302232124,-18.092747863988407,7.3174975269869265,-113.51969909667969,5356.25390625,True
1599559331.1651506,0.0,10,0.5,0.5,0.5560206470489503,-0.001,-0.03,-0.37525,0.046514236299405744,10,1,100,-0.09163915814447793,-10,-1,-100,15030.2485711677,0.008205644375244025,0.005340546882552459,0.9999520718311364,21.644802763711574,0.02679596358527864,-17.49940539914179,7.131853277503121,-112.69380950927734,5356.25390625,True
1599559331.1991792,0.0,10,0.5,0.5,0.5189474620819092,-0.001,-0.03,-0.37525,0.044177835210322904,10,1,100,-0.09103638193657992,-10,-1,-100,15030.420444566524,0.008217645712891016,0.005198688898437919,0.9999527208486784,21.471485814664153,0.026696247326171756,-16.907654550030557,6.946209082568218,-111.83418273925781,5356.25390625,True
1599559331.2350976,0.0,10,0.5,0.5,0.1281255779266357,-0.001,-0.03,-0.37525,0.02753491130563519,10,1,100,-0.08961208062532793,-10,-1,-100,15030.680206300458,0.008214161407489404,0.004920576350107257,0.9999541566895728,21.0962953071437,0.0264495466539335,-15.724680384935693,6.57492004846924,-110.00785064697266,5356.25390625,True
1599559331.2766023,0.0,10,0.5,0.5,0.04526146125793462,-0.001,-0.03,-0.37525,0.024087746980362243,10,1,100,-0.08559877158537713,-10,-1,-100,15030.927272271598,0.008173381512196994,0.0046385601466608865,0.9999558388221061,20.681535663471617,0.026134570270857877,-14.545367189141768,6.203628693194959,-108.04866027832031,5356.25390625,True
1599559331.299073,0.0,10,0.5,0.5,-0.046690408706664965,-0.001,-0.03,-0.37525,0.020604016850885865,10,1,100,-0.08139446756111934,-10,-1,-100,15031.171408124384,0.008097278069907697,0.004352655228141848,0.9999577433473494,20.251284987861045,0.025777711172967115,-13.390632696261175,5.832332423473403,-105.94474029541016,5356.25390625,True
1599559331.3320434,0.0,10,0.5,0.5,0.2944177494049073,-0.001,-0.03,-0.37525,0.03336785147636731,10,1,100,-0.08354851225144025,-10,-1,-100,15031.30226470565,0.00804727034075166,0.004210805411632998,0.9999587544283256,20.029050103936754,0.0255808623693129,-12.822262100448109,5.646681644792386,-104.85517883300781,5356.25390625,True
1599559331.3676698,0.0,10,0.5,0.5,-0.17088701057434075,-0.001,-0.03,-0.37525,0.015538969396595683,10,1,100,-0.07480697777458817,-10,-1,-100,15031.477063930244,0.0079219807290417,0.003921928126737028,0.9999609295873002,19.549657335266893,0.025122016589377707,-11.692628891232323,5.275372990688016,-102.6426773071289,5356.25390625,True
1599559331.399013,0.0,10,0.5,0.5,0.19620160102844236,-0.001,-0.03,-0.37525,0.028191609320266063,10,1,100,-0.07922671675309642,-10,-1,-100,15031.608896934194,0.007848192439188556,0.0037765023298249336,0.9999620712334994,19.294833922429667,0.02486229628600343,-11.134184505138075,5.089714526635144,-101.53193664550781,5356.25390625,True
1599559331.4320269,0.0,10,0.5,0.5,-0.268876251220703,-0.001,-0.03,-0.37525,0.009806515322886108,10,1,100,-0.06761482643865867,-10,-1,-100,15031.781741862651,0.0076757432218939586,0.00347907946308467,0.9999644888555198,18.774254337126685,0.024306107095529727,-10.043563859707676,4.718387974860974,-99.30213928222656,5356.25390625,True
1599559331.465068,0.0,10,0.5,0.5,-0.7374890346527098,-0.001,-0.03,-0.37525,-0.0100966269935725,10,1,100,-0.05081447795707928,-10,-1,-100,15032.016106867464,0.007366638413466842,0.003029816487832434,0.9999682759220592,17.988082580871602,0.023408505740698204,-8.48716324488638,4.161370240608546,-95.95879364013672,5356.25390625,True
1599559331.4890397,0.0,10,0.5,0.5,0.464418701171875,-0.001,-0.03,-0.37525,0.034585080810825584,10,1,100,-0.0816431777568756,-10,-1,-100,15032.016106867464,0.007366638413466842,0.003029816487832434,0.9999682759220592,17.988082580871602,0.023408505740698204,-8.48716324488638,4.161370240608546,-95.95879364013672,5356.25390625,True
1599559331.5089889,0.0,10,0.5,0.5,-0.4297136726379394,-0.001,-0.03,-0.37525,0.0006237383430489282,10,1,100,-0.05517009925002828,-10,-1,-100,15032.193834100384,0.007126736796097119,0.0027231776748478462,0.9999708965394896,17.421734579400578,0.02271785935617123,-7.486483335036361,3.79000297936683,-93.7157974243164,5356.25390625,True
1599559331.545924,0.0,10,0.5,0.5,-0.4420793704986572,-0.001,-0.03,-0.37525,-0.002089058313566896,10,1,100,-0.050814204769469365,-10,-1,-100,15032.312967863283,0.006870037111316647,0.002422003794550432,0.9999734678918778,16.877617744310403,0.022027930340685387,-6.542037065377863,3.4186139000556923,-91.59036254882812,5356.25390625,True
1599559331.5678651,0.0,10,0.5,0.5,0.3002376022338867,-0.001,-0.03,-0.37525,0.027778472460618868,10,1,100,-0.07634976081789928,-10,-1,-100,15032.312967863283,0.006870037111316647,0.002422003794550432,0.9999734678918778,16.877617744310403,0.022027930340685387,-6.542037065377863,3.4186139000556923,-91.59036254882812,5356.25390625,True
1599559331.5989747,0.0,10,0.5,0.5,-0.527081932067871,-0.001,-0.03,-0.37525,-0.007329435707123466,10,1,100,-0.04456858019009148,-10,-1,-100,15032.473117527668,0.00658230214597374,0.002104856044254693,0.9999761211546464,16.33970611443432,0.021323360257414298,-5.645490797803083,3.0472028201046566,-89.52273559570312,5356.25390625,True
1599559331.6348321,0.0,10,0.5,0.5,-0.1768013076782226,-0.001,-0.03,-0.37525,0.007148714837355814,10,1,100,-0.056970739381826695,-10,-1,-100,15032.533660757355,0.006434849057335903,0.0019502029118300937,0.9999773944576007,16.21541059316735,0.021152941120577893,-5.261120333529989,2.8614896161130714,-88.52252197265625,5356.25390625,True
1599559331.6658914,0.0,10,0.5,0.5,-0.9401565399169922,-0.001,-0.03,-0.37525,-0.030151467035227274,10,1,100,-0.018908924746887545,-10,-1,-100,15032.700642938144,0.005956250135786982,0.001472571685784069,0.999981177131325,16.656383103302634,0.021688935666693696,-4.351993211074315,2.304322884618351,-85.6263427734375,5356.25390625,True
1599559331.6989856,0.0,10,0.5,0.5,-0.5902599029541016,-0.001,-0.03,-0.37525,-0.017963787536202088,10,1,100,-0.02904053955550684,-10,-1,-100,15032.747511779657,0.005615052824087461,0.001151385254316051,0.99998357261196,16.9162136564096,0.022001413442952256,-3.70742510189163,1.932861794156993,-83.80349731445312,5356.25390625,True
1599559331.7318242,0.0,10,0.5,0.5,0.04057753753662109,-0.001,-0.03,-0.37525,0.013892343903048826,10,1,100,-0.06293695676394882,-10,-1,-100,15032.747511779657,0.005615052824087461,0.001151385254316051,0.99998357261196,16.9162136564096,0.022001413442952256,-3.70742510189163,1.932861794156993,-83.80349731445312,5356.25390625,True
1599559331.7757795,0.0,10,0.5,0.5,-0.656180534362793,-0.001,-0.03,-0.37525,-0.021444153422201892,10,1,100,-0.02377620187482858,-10,-1,-100,15032.78461511503,0.005260919316366192,0.0008322604551853797,0.9999858149346326,17.149904518841836,0.022287867606330555,-3.036315229403566,1.5613928839408144,-82.07522583007812,5356.25390625,True
1599559331.798718,0.0,10,0.5,0.5,-0.6352245254516601,-0.001,-0.03,-0.37525,-0.024934056747727373,10,1,100,-0.018437467672415844,-10,-1,-100,15032.889101625886,0.004892360106685923,0.0005124183857733077,0.9999879010467999,17.347738275186618,0.02253954155715319,-2.340659992373732,1.1899196256847158,-80.5179443359375,5356.25390625,True
1599559331.8325696,0.0,10,0.5,0.5,-0.3767237777709961,-0.001,-0.03,-0.37525,-0.011617204069926685,10,1,100,-0.03356944589219349,-10,-1,-100,15032.878356930683,0.004697119061980731,0.0003450037089260295,0.9999889089609737,17.43820853940972,0.02265926385670219,-1.98561392906725,1.004182176008988,-79.77496337890625,5356.25390625,True
1599559331.8654442,0.0,10,0.5,0.5,-0.6848160324096679,-0.001,-0.03,-0.37525,-0.03077945234523441,10,1,100,-0.009759878840530423,-10,-1,-100,15032.914484828245,0.004305385336991907,2.076826744018081e-05,0.9999907315699376,17.609026216879265,0.022895133624411212,-1.2633499056234434,0.6327066276712245,-78.32626342773438,5356.25390625,True
1599559331.9015253,0.0,10,0.5,0.5,-0.43387998199462885,-0.001,-0.03,-0.37525,-0.015975116284913354,10,1,100,-0.02692733012762675,-10,-1,-100,15032.904717160272,0.004107663009406874,-0.00013722341015575366,0.9999915541015019,17.684867046658802,0.023004833899589835,-0.8963295952671211,0.44696868762857767,-77.65411376953125,5356.25390625,True
1599559331.932447,0.0,10,0.5,0.5,-0.6860150756835937,-0.001,-0.03,-0.37525,-0.035857320126298095,10,1,100,-0.0013429959137595954,-10,-1,-100,15032.939869557158,0.0036978418315688787,-0.00045927294543309525,0.999993057492976,17.80719335220305,0.023191967249511464,-0.15243744893919187,0.07549204951080357,-76.42474365234375,5356.25390625,True
1599559331.966444,0.0,10,0.5,0.5,-0.6666585464477539,-0.001,-0.03,-0.37525,-0.03815439851138532,10,1,100,0.00348404924855316,-10,-1,-100,15032.905686417944,0.00328401713234459,-0.0007705967546499371,0.9999943106898741,17.94697569201231,0.023402856616683832,0.6023716097866265,-0.29598631614086957,-75.35452270507812,5356.25390625,True
1599559331.9895701,0.0,10,0.5,0.5,-0.4839606323242187,-0.001,-0.03,-0.37525,-0.02470111231700707,10,1,100,-0.014085112909565184,-10,-1,-100,15032.897872449947,0.003070396908964486,-0.000928842343383191,0.9999948549441253,18.045440756157475,0.023544006116056893,0.9857630026993218,-0.4817258343159112,-74.87771606445312,5356.25390625,True
1599559332.0398543,0.0,10,0.5,0.5,-0.7915221862792969,-0.001,-0.03,-0.37525,-0.05896076276484932,10,1,100,0.03555103487920752,-10,-1,-100,15032.852947262349,0.0024275825016544786,-0.0013819702335491084,0.9999960984931248,18.294899467144198,0.023900048512124523,2.155459260831929,-1.0389470915395356,-73.67044067382812,5356.25390625,True
1599559332.0658195,0.0,10,0.5,0.5,-0.48707794952392575,-0.001,-0.03,-0.37525,-0.030001773578228575,10,1,100,-0.004558041569783705,-10,-1,-100,15032.843180874246,0.002210731435747513,-0.0015283380906507855,0.9999963884180781,18.361903782044443,0.023993301052929718,2.5501396864437753,-1.2246891240164235,-73.3563232421875,5356.25390625,True
1599559332.0998132,0.0,10,0.5,0.5,-0.5950101013183594,-0.001,-0.03,-0.37525,-0.04780143710398034,10,1,100,0.02280765509021235,-10,-1,-100,15032.809000218986,0.0017679098801851615,-0.001820778789754629,0.9999967796244418,18.472848736661298,0.024140289833670354,3.343827000463377,-1.5961767937033429,-72.8394775390625,5356.25390625,True
1599559332.1327314,0.0,10,0.5,0.5,-0.5018324813842774,-0.001,-0.03,-0.37525,-0.03327027455871476,10,1,100,0.002497475902700868,-10,-1,-100,15032.727945222403,0.0015531582854114748,-0.0019521206392148541,0.9999968884573345,18.518924777212707,0.024196082589415146,3.742295880588192,-1.781922911627736,-72.64529418945312,5356.25390625,True
1599559332.165518,0.0,10,0.5,0.5,-0.544624755859375,-0.001,-0.03,-0.37525,-0.04958314258533204,10,1,100,0.029868269223309433,-10,-1,-100,15032.637124803965,0.0011121398070855677,-0.0022175806307615903,0.999996922735863,18.591334803159842,0.024269741326954353,4.540277063338418,-2.153420380006225,-72.40066528320312,5356.25390625,True
1599559332.2015429,0.0,10,0.5,0.5,-0.4979610595703125,-0.001,-0.03,-0.37525,-0.03701366284514005,10,1,100,0.010208091242531725,-10,-1,-100,15032.613687571837,0.0008932018804826268,-0.00234231027603898,0.9999968578815494,18.622768412960507,0.024293955739760304,4.940312122609387,-2.339171959411695,-72.33950805664062,5356.25390625,True
1599559332.2326431,0.0,10,0.5,0.5,-0.49425808715820313,-0.001,-0.03,-0.37525,-0.051350193446582856,10,1,100,0.03715946392637823,-10,-1,-100,15032.510172630311,0.00045225690776908446,-0.002583884705810197,0.9999965594958399,18.670274306338687,0.024309260909363608,5.739681338773192,-2.710681187431948,-72.33609008789062,5356.25390625,True
1599559332.2736995,0.0,10,0.5,0.5,-0.40633576202392574,-0.001,-0.03,-0.37525,-0.06333601660390464,10,1,100,0.06544071129711701,-10,-1,-100,15032.327557757264,-0.00020238131070299958,-0.002910235614945452,0.9999957447761819,18.711469206641954,0.02426126622925006,6.935229676227412,-3.26796059520682,-72.6087646484375,5356.25390625,True
1599559332.3006253,0.0,10,0.5,0.5,-0.3854181671142579,-0.001,-0.03,-0.37525,-0.05256771606139017,10,1,100,0.048170753731926724,-10,-1,-100,15032.166426663054,-0.0006369616922283716,-0.0031067964704369045,0.9999949710351018,18.73123097987183,0.024200110387166674,7.7320692702257405,-3.6394897456142425,-72.96673583984375,5356.25390625,True
1599559332.3235996,0.0,10,0.5,0.5,-0.5269102172851562,-0.001,-0.03,-0.37525,-0.033145250483823614,10,1,100,0.005104813461846814,-10,-1,-100,15032.166426663054,-0.0006369616922283716,-0.0031067964704369045,0.9999949710351018,18.73123097987183,0.024200110387166674,7.7320692702257405,-3.6394897456142425,-72.96673583984375,5356.25390625,True
1599559332.3664942,0.0,10,0.5,0.5,-0.3480202407836914,-0.001,-0.03,-0.37525,-0.051739414377495796,10,1,100,0.051481833649953415,-10,-1,-100,15032.005296376534,-0.00105520064066462,-0.003273854365718421,0.9999940841971016,18.73633698676002,0.02410635894563457,8.523985527809767,-4.011025492302912,-73.45742797851562,5356.25390625,True
1599559332.399362,0.0,10,0.5,0.5,-0.17429304504394538,-0.001,-0.03,-0.37525,-0.060099268445108635,10,1,100,0.07921162541560646,-10,-1,-100,15031.75139445439,-0.0016843407160741287,-0.003500003958287035,0.9999924564558695,18.715534763716718,0.02390452597067348,9.698077514352903,-4.568340980435888,-74.41024780273438,5356.25390625,True
1599559332.4332702,0.0,10,0.5,0.5,-0.5286769104003907,-0.001,-0.03,-0.37525,-0.037681475775010846,10,1,100,0.016687125089837745,-10,-1,-100,15031.75139445439,-0.0016843407160741287,-0.003500003958287035,0.9999924564558695,18.715534763716718,0.02390452597067348,9.698077514352903,-4.568340980435888,-74.41024780273438,5356.25390625,True
1599559332.4683425,0.0,10,0.5,0.5,-0.06333162689208982,-0.001,-0.03,-0.37525,-0.05663839771302822,10,1,100,0.0829408745159871,-10,-1,-100,15031.484797522891,-0.00228350911940616,-0.0036708130439339817,0.9999906553151875,18.65634541177088,0.023627134023602742,10.847426199809327,-5.1256702086367065,-75.634521484375,5356.25390625,True
1599559332.500246,0.0,10,0.5,0.5,-0.5137726440429687,-0.001,-0.03,-0.37525,-0.039729358388805466,10,1,100,0.02340770092326575,-10,-1,-100,15031.484797522891,-0.00228350911940616,-0.0036708130439339817,0.9999906553151875,18.65634541177088,0.023627134023602742,10.847426199809327,-5.1256702086367065,-75.634521484375,5356.25390625,True
1599559332.5351732,0.0,10,0.5,0.5,-0.15927092742919924,-0.001,-0.03,-0.37525,-0.05002945133808592,10,1,100,0.06696803075975946,-10,-1,-100,15031.255308907945,-0.002676425164350201,-0.0037631291321881927,0.9999893377468954,18.599878321441047,0.023408569536953094,11.599017766281243,-5.4972303782731,-76.55093383789062,5356.25390625,True
1599559332.566578,0.0,10,0.5,0.5,0.07280973052978518,-0.001,-0.03,-0.37525,-0.05088258025415804,10,1,100,0.08860129032647632,-10,-1,-100,15030.877383804298,-0.0032270424494105438,-0.0038535169126961773,0.9999873682224356,18.491074401957594,0.023037966049259884,12.701121701092662,-6.054581769036413,-78.04815673828125,5356.25390625,True
1599559332.6033995,0.0,10,0.5,0.5,-0.2653100051879883,-0.001,-0.03,-0.37525,-0.0444332685615926,10,1,100,0.054073592533496515,-10,-1,-100,15030.780706220889,-0.003410370638295421,-0.003875903304855672,0.9999866732840397,18.448321395800665,0.022904389347999893,13.060895879890658,-6.24036833581104,-78.59719848632812,5356.25390625,True
1599559332.6332352,0.0,10,0.5,0.5,0.19918597412109368,-0.001,-0.03,-0.37525,-0.04500071773132689,10,1,100,0.09078116579171086,-10,-1,-100,15030.399852313334,-0.0039078214856949015,-0.0039005353195528786,0.9999847572615578,18.29002985476323,0.022466850981373087,14.106416906037284,-6.79773680137712,-80.33157348632812,5356.25390625,True
1599559332.6662023,0.0,10,0.5,0.5,-0.4295437316894531,-0.001,-0.03,-0.37525,-0.042616890146517816,10,1,100,0.041363167031109475,-10,-1,-100,15030.399852313334,-0.0039078214856949015,-0.0039005353195528786,0.9999847572615578,18.29002985476323,0.022466850981373087,14.106416906037284,-6.79773680137712,-80.33157348632812,5356.25390625,True
1599559332.7001672,0.0,10,0.5,0.5,-0.18298293304443358,-0.001,-0.03,-0.37525,-0.04281354192539388,10,1,100,0.059694504026281056,-10,-1,-100,15030.252392677474,-0.004071496494929674,-0.003901601482225283,0.9999841000846793,18.232276295028278,0.022316494332631262,14.446580977849935,-6.9835290186763626,-80.92816162109375,5356.25390625,True
1599559332.7365794,0.0,10,0.5,0.5,0.5566783065795897,-0.001,-0.03,-0.37525,-0.037282036294809945,10,1,100,0.10957420832567716,-10,-1,-100,15029.637164827436,-0.004671001727997372,-0.003851713626998063,0.999981672854554,17.97064364028947,0.021698759717314914,15.756353029271498,-7.726710630092131,-83.42947387695312,5356.25390625,True
1599559332.768575,0.0,10,0.5,0.5,-0.3548814392089844,-0.001,-0.03,-0.37525,-0.04230599278440304,10,1,100,0.04992235112009966,-10,-1,-100,15029.637164827436,-0.004671001727997372,-0.003851713626998063,0.999981672854554,17.97064364028947,0.021698759717314914,15.756353029271498,-7.726710630092131,-83.42947387695312,5356.25390625,True
1599559332.805981,0.0,10,0.5,0.5,0.4316000289916992,-0.001,-0.03,-0.37525,-0.03298864381988925,10,1,100,0.092685657807503,-10,-1,-100,15029.173301639501,-0.0050570439151447445,-0.0037666907185309275,0.999980118976308,17.749481764201413,0.02124267943953381,16.686617192563332,-8.284109295289824,-85.4478759765625,5356.25390625,True
1599559332.8329093,0.0,10,0.5,0.5,-0.29636529541015627,-0.001,-0.03,-0.37525,-0.041500522434062485,10,1,100,0.054358792572339575,-10,-1,-100,15029.173301639501,-0.0050570439151447445,-0.0037666907185309275,0.999980118976308,17.749481764201413,0.02124267943953381,16.686617192563332,-8.284109295289824,-85.4478759765625,5356.25390625,True
1599559332.8688126,0.0,10,0.5,0.5,0.44678776550292965,-0.001,-0.03,-0.37525,-0.02815705758638334,10,1,100,0.0915892570242704,-10,-1,-100,15028.654750349931,-0.005392981287620717,-0.0036452993311205744,0.999978813548376,17.56114734458548,0.020871257074369726,17.622140385599216,-8.841516426628337,-87.34478759765625,5356.25390625,True
1599559332.8997853,0.0,10,0.5,0.5,0.21774405670166014,-0.001,-0.03,-0.37525,-0.02924291458668437,10,1,100,0.07943077309965416,-10,-1,-100,15028.270963169402,-0.005585377630444844,-0.003544922069660324,0.9999781183027185,17.44471481769384,0.020662762793284793,18.24229720073875,-9.213124548780474,-88.54183959960938,5356.25390625,True
1599559332.9337368,0.0,10,0.5,0.5,-0.1999686584472656,-0.001,-0.03,-0.37525,-0.03924978124840581,10,1,100,0.06042697233534491,-10,-1,-100,15028.270963169402,-0.005585377630444844,-0.003544922069660324,0.9999781183027185,17.44471481769384,0.020662762793284793,18.24229720073875,-9.213124548780474,-88.54183959960938,5356.25390625,True
1599559332.9667773,0.0,10,0.5,0.5,0.4605157470703125,-0.001,-0.03,-0.37525,-0.02046303385442374,10,1,100,0.08564472808505547,-10,-1,-100,15027.682098060963,-0.00581265267635844,-0.0033744343490197557,0.999977412875755,17.281363120582075,0.020409603193726207,19.166911820439932,-9.77054015502824,-90.21798706054688,5356.25390625,True
1599559333.003765,0.0,10,0.5,0.5,0.057096258163452124,-0.001,-0.03,-0.37525,-0.03053093182761061,10,1,100,0.07011779794506937,-10,-1,-100,15027.517059341539,-0.005876380779379415,-0.0033114501308941498,0.9999772509647238,17.407171042127917,0.020550455264363155,19.674330240643805,-9.956344872835881,-90.73863983154297,5356.25390625,True
1599559333.035706,0.0,10,0.5,0.5,0.08940935134887694,-0.001,-0.03,-0.37525,-0.02929976598861346,10,1,100,0.07057429977011986,-10,-1,-100,15027.296356495586,-0.005936675835722865,-0.0032435348660514963,0.9999771174189909,17.579291759115446,0.020751852655254567,20.240431331948162,-10.142148629208144,-91.26081085205078,5356.25390625,True
1599559333.0677757,0.0,10,0.5,0.5,0.6401362133026122,-0.001,-0.03,-0.37525,-0.004842874344014529,10,1,100,0.08210137808973919,-10,-1,-100,15026.422333334456,-0.0060945855268127284,-0.0029600565799856155,0.9999770467827247,18.236889936847735,0.021579738357892522,22.539862066562254,-10.88535118262519,-93.16293334960938,5356.25390625,True
1599559333.1016843,0.0,10,0.5,0.5,0.12487647628784178,-0.001,-0.03,-0.37525,-0.024637060398770262,10,1,100,0.06910753416398377,-10,-1,-100,15026.19870004931,-0.006118719770479541,-0.002883106790466242,0.999977124220152,18.392534017278614,0.02179059049545227,23.121204790480146,-11.07114832896909,-93.61293029785156,5356.25390625,True
1599559333.1385856,0.0,10,0.5,0.5,-0.013434509277343746,-0.001,-0.03,-0.37525,-0.03223517866705445,10,1,100,0.0668388816015507,-10,-1,-100,15026.19870004931,-0.006118719770479541,-0.002883106790466242,0.999977124220152,18.392534017278614,0.02179059049545227,23.121204790480146,-11.07114832896909,-93.61293029785156,5356.25390625,True
1599559333.1685073,0.0,10,0.5,0.5,0.48358922576904295,-0.001,-0.03,-0.37525,-0.006032801146811047,10,1,100,0.07042938774600652,-10,-1,-100,15025.538542909431,-0.006150395575560653,-0.0026457066165804515,0.999977586184192,18.843140221944914,0.02243757031059421,24.883456945261887,-11.628529777907708,-94.86882019042969,5356.25390625,True
1599559333.2014194,0.0,10,0.5,0.5,0.3293088817596435,-0.001,-0.03,-0.37525,-0.010905627829691348,10,1,100,0.06639122621870402,-10,-1,-100,15025.08541643282,-0.006141487246603991,-0.002475205777530418,0.9999780775050815,19.123908954130453,0.02287221716472173,26.06354729901144,-12.000108128716393,-95.6362075805664,5356.25390625,True
1599559333.2353313,0.0,10,0.5,0.5,0.344814582824707,-0.001,-0.03,-0.37525,-0.009024604397138931,10,1,100,0.06363171836585489,-10,-1,-100,15024.57564925903,-0.0061076218707456845,-0.002304168523146811,0.9999786936542703,19.397601104557516,0.023319210730234866,27.257659251659454,-12.37167853401543,-96.37665557861328,5356.25390625,True
1599559333.2751508,0.0,10,0.5,0.5,0.21770634841918945,-0.001,-0.03,-0.37525,-0.016482458825617913,10,1,100,0.06427807063188767,-10,-1,-100,15024.299281067098,-0.006082236327619976,-0.002217606744462899,0.9999790440912159,19.52981087641677,0.02354476210802181,27.8568682918493,-12.557460549844762,-96.71483612060547,5356.25390625,True
1599559333.3140457,0.0,10,0.5,0.5,0.34424735450744626,-0.001,-0.03,-0.37525,-0.005567196327372594,10,1,100,0.05938025717585857,-10,-1,-100,15023.777794747846,-0.006014181294544362,-0.0020408912096072916,0.9999798319898392,19.781213620362426,0.023994311889831386,29.05311795620923,-12.929017907003933,-97.32327270507812,5356.25390625,True
1599559333.341971,0.0,10,0.5,0.5,0.24045261573791504,-0.001,-0.03,-0.37525,-0.013199222235266879,10,1,100,0.0614835738551931,-10,-1,-100,15023.556113861036,-0.00597125093554395,-0.0019508350890279716,0.9999802690077041,19.90028307854585,0.024217660866346483,29.649427309620503,-13.114793360939775,-97.59757232666016,5356.25390625,True
1599559333.3708942,0.0,10,0.5,0.5,0.4251954479217529,-0.001,-0.03,-0.37525,0.007361442609707714,10,1,100,0.04821543809411041,-10,-1,-100,15022.746539819636,-0.0058115176748463095,-0.0016832876763123355,0.9999816962349429,20.23658044616911,0.024886312374109217,31.436459791831428,-13.672105657043472,-98.30746459960938,5356.25390625,True
1599559333.4048026,0.0,10,0.5,0.5,0.2535781898498535,-0.001,-0.03,-0.37525,-0.009209805439346708,10,1,100,0.05703717363254182,-10,-1,-100,15022.454546203255,-0.00574661699561681,-0.001592128871734742,0.9999822206013272,20.340981372072825,0.025107082680934516,32.02962648275422,-13.857871780756884,-98.50315856933594,5356.25390625,True
1599559333.4678755,0.0,10,0.5,0.5,0.26319514274597167,-0.001,-0.03,-0.37525,-0.008213045707214093,10,1,100,0.055840031997947105,-10,-1,-100,15022.16450567753,-0.005677049607394764,-0.001501439349743225,0.999982758245178,20.441932114957815,0.025326909638244736,32.62176876111368,-14.043635536097433,-98.68131256103516,5356.25390625,True
1599559333.5008442,0.0,10,0.5,0.5,0.31948104858398435,-0.001,-0.03,-0.37525,0.0023195226986169482,10,1,100,0.046217881028159394,-10,-1,-100,15021.585401271237,-0.005526733945797638,-0.0013244997691894938,0.999983850325721,20.633190272647337,0.02576244932914698,33.80162878579187,-14.415155956792814,-98.96817779541016,5356.25390625,True
1599559333.5736468,0.0,10,0.5,0.5,0.3074151153564453,-0.001,-0.03,-0.37525,0.004547144702017447,10,1,100,0.04221581595146141,-10,-1,-100,15021.005320109194,-0.005354239103489071,-0.0011448114114018034,0.9999850106528874,20.809925063770216,0.02619043831845418,34.97353586617294,-14.78666691953101,-99.17951202392578,5356.25390625,True
1599559333.602542,0.0,10,0.5,0.5,0.3155493984222412,-0.001,-0.03,-0.37525,0.025441190389152893,10,1,100,0.015930892598989062,-10,-1,-100,15019.776798039326,-0.004959195540433417,-0.0007928769391710159,0.9999873887833541,21.125441110535597,0.02702368316673875,37.296055821208064,-15.529659793050952,-99.37753295898438,5356.25390625,True
1599559333.635453,0.0,10,0.5,0.5,0.22446657943725587,-0.001,-0.03,-0.37525,0.01883811217603733,10,1,100,0.018057975945221745,-10,-1,-100,15018.838317147456,-0.004620476960536002,-0.00053449388347895,0.9999891826959659,21.325695007773838,0.02761703364394448,39.0072093248377,-16.086879363138497,-99.30311584472656,5356.25390625,True
1599559333.6713812,0.0,10,0.5,0.5,0.23559142494201657,-0.001,-0.03,-0.37525,0.0020413458679587352,10,1,100,0.03932127909383734,-10,-1,-100,15018.533627845929,-0.004507205684625958,-0.0004539068671411208,0.999989739480097,21.38523735457976,0.027806984837158006,39.57005385055461,-16.272614567784057,-99.2351303100586,5356.25390625,True
1599559333.7033215,0.0,10,0.5,0.5,0.26866387939453124,-0.001,-0.03,-0.37525,-0.005840985778092004,10,1,100,0.050490903620542406,-10,-1,-100,15018.533627845929,-0.004507205684625958,-0.0004539068671411208,0.999989739480097,21.38523735457976,0.027806984837158006,39.57005385055461,-16.272614567784057,-99.2351303100586,5356.25390625,True
1599559333.7353241,0.0,10,0.5,0.5,0.20015529632568363,-0.001,-0.03,-0.37525,0.01188453474169975,10,1,100,0.024227461473842523,-10,-1,-100,15017.829523128574,-0.004269817097483157,-0.00029420848454525593,0.9999908410097174,21.493562531899624,0.02817345442994826,40.68316402514858,-16.644078014927274,-99.03780364990234,5356.25390625,True
1599559333.7682552,0.0,10,0.5,0.5,0.17857567214965825,-0.001,-0.03,-0.37525,0.013630815149050027,10,1,100,0.019741569700309772,-10,-1,-100,15017.179129912169,-0.00401477521471946,-0.00013465888448626964,0.9999919316909314,21.589293205139413,0.028522499806835768,41.78137968497292,-17.015532692157496,-98.77216339111328,5356.25390625,True
1599559333.8061335,0.0,10,0.5,0.5,0.08093678092956538,-0.001,-0.03,-0.37525,0.023132737517707044,10,1,100,0.0012586095498086022,-10,-1,-100,15016.100024343701,-0.0036165254494389307,9.535947456257619e-05,0.9999934558037088,21.710435058028594,0.029010277245987454,43.39960214080648,-17.572698157150068,-98.2440185546875,5356.25390625,True
1599559333.8779418,0.0,10,0.5,0.5,0.2783457107543945,-0.001,-0.03,-0.37525,0.00029965044745219394,10,1,100,0.040870576923243744,-10,-1,-100,15016.100024343701,-0.0036165254494389307,9.535947456257619e-05,0.9999934558037088,21.710435058028594,0.029010277245987454,43.39960214080648,-17.572698157150068,-98.2440185546875,5356.25390625,True
1599559333.918831,0.0,10,0.5,0.5,-0.14667800521850582,-0.001,-0.03,-0.37525,0.039344205542872185,10,1,100,-0.034525027427340774,-10,-1,-100,15014.303143644938,-0.0029329840682135767,0.0004488583401352072,0.9999955980556345,21.858855271462044,0.029718532945829098,46.01984903666818,-18.501264734576004,-97.11787414550781,5356.25390625,True
1599559333.972687,0.0,10,0.5,0.5,0.07283643150329591,-0.001,-0.03,-0.37525,0.019329719105671224,10,1,100,0.0012198305153224495,-10,-1,-100,15013.584391971468,-0.0026388940210125425,0.0005866589247636588,0.9999963460281501,21.905120740967412,0.029967624992814676,47.049179527609404,-18.87267700835072,-96.59290313720703,5356.25390625,True
1599559334.003605,0.0,10,0.5,0.5,-0.06324281311035151,-0.001,-0.03,-0.37525,0.025929493067661492,10,1,100,-0.01524955153944614,-10,-1,-100,15012.435952214058,-0.0022242862731341392,0.0007703560646838304,0.9999972295472166,21.952417196718148,0.030286902698956952,48.55227212977379,-19.42978083901698,-95.72827911376953,5356.25390625,True
1599559334.0680645,0.0,10,0.5,0.5,0.04225596427917483,-0.001,-0.03,-0.37525,0.020478533267838377,10,1,100,-0.004836454060161751,-10,-1,-100,15011.645911617437,-0.0019445209423902664,0.0008863781637002718,0.9999977165834207,21.982500730750086,0.030479958212808668,49.55483258685395,-19.80117372675956,-95.17544555664062,5356.25390625,True
1599559334.1069622,0.0,10,0.5,0.5,-0.0669440994262695,-0.001,-0.03,-0.37525,0.0261655935109648,10,1,100,-0.02107924666755787,-10,-1,-100,15010.426183889853,-0.0015449597598450953,0.0010422616449734777,0.9999982633934942,22.02879236130472,0.03074373661677772,51.066802134773134,-20.35824820490062,-94.36676025390625,5356.25390625,True
1599559334.1358838,0.0,10,0.5,0.5,0.22190995025634763,-0.001,-0.03,-0.37525,0.010726862234855672,10,1,100,0.018580646994481156,-10,-1,-100,15010.426183889853,-0.0015449597598450953,0.0010422616449734777,0.9999982633934942,22.02879236130472,0.03074373661677772,51.066802134773134,-20.35824820490062,-94.36676025390625,5356.25390625,True
1599559334.1688232,0.0,10,0.5,0.5,0.006761798858642587,-0.001,-0.03,-0.37525,0.021345739093670477,10,1,100,-0.010559651604359527,-10,-1,-100,15009.58243314724,-0.001282740905241799,0.00113743673595169,0.9999985304056411,22.06047049199434,0.030901969381432054,52.08041997313078,-20.72962162847021,-93.83375549316406,5356.25390625,True
1599559334.2017355,0.0,10,0.5,0.5,0.09135607147216795,-0.001,-0.03,-0.37525,0.01675115579395656,10,1,100,0.0016588705781552908,-10,-1,-100,15009.152745269937,-0.0011581531265273382,0.0011808891111885773,0.9999986320901857,22.075450037957296,0.03097402566035555,52.58632249442927,-20.915305459690853,-93.56849670410156,5356.25390625,True
1599559334.2381644,0.0,10,0.5,0.5,-0.024507522583007785,-0.001,-0.03,-0.37525,0.021806874443305545,10,1,100,-0.014155552293162201,-10,-1,-100,15008.350010739523,-0.0009037209580369349,0.001265156396401943,0.9999987913331307,22.105821207373666,0.031106733099131322,53.60130168871255,-21.28666704955426,-93.03749084472656,5356.25390625,True
1599559334.2710419,0.0,10,0.5,0.5,-0.15149903297424314,-0.001,-0.03,-0.37525,0.02573707068480719,10,1,100,-0.029273329437985104,-10,-1,-100,15007.005283706007,-0.0005374508349030892,0.001376428624316982,0.9999989082948252,22.164805096082898,0.031292964609624156,55.16270128690471,-21.843694185536382,-92.2118911743164,5356.25390625,True
1599559334.3069797,0.0,10,0.5,0.5,0.03328538322448732,-0.001,-0.03,-0.37525,0.01850390584069197,10,1,100,-0.006357007924968804,-10,-1,-100,15006.575596342911,-0.00041560735000386483,0.001410664542793466,0.9999989186474547,22.185161662008465,0.03134703879580926,55.686767911435346,-22.02936582650935,-91.92770385742188,5356.25390625,True
1599559334.3349514,0.0,10,0.5,0.5,-0.19006772232055663,-0.001,-0.03,-0.37525,0.024932717786856684,10,1,100,-0.03218830010870125,-10,-1,-100,15005.218174444977,-7.229914089628374e-05,0.001499357480734805,0.9999988733493549,22.241915317234195,0.03147433139584054,57.25360978147026,-22.586368305947218,-91.09202575683594,5356.25390625,True
1599559334.37185,0.0,10,0.5,0.5,0.10701785278320312,-0.001,-0.03,-0.37525,0.0161546938483199,10,1,100,0.001885861314045228,-10,-1,-100,15005.218174444977,-7.229914089628374e-05,0.001499357480734805,0.9999988733493549,22.241915317234195,0.03147433139584054,57.25360978147026,-22.586368305947218,-91.09202575683594,5356.25390625,True
1599559334.401965,0.0,10,0.5,0.5,-0.005147294998168933,-0.001,-0.03,-0.37525,0.01909365006356252,10,1,100,-0.010523317011039415,-10,-1,-100,15004.78751030669,3.855521921154223e-05,0.0015254125359496916,0.9999988358143675,22.26247123309621,0.03150949662932082,57.78193894351749,-22.772031684795042,-90.83087921142578,5356.25390625,True
1599559334.4357767,0.0,10,0.5,0.5,-0.11142818069458006,-0.001,-0.03,-0.37525,0.02173381753354061,10,1,100,-0.02353732545316715,-10,-1,-100,15003.858799787704,0.00025583828136381635,0.0015725195318973444,0.9999987308637424,22.307013107199968,0.03157069944461212,58.85055482524687,-23.14335201502329,-90.32259368896484,5356.25390625,True
1599559334.4688191,0.0,10,0.5,0.5,-0.12314177513122558,-0.001,-0.03,-0.37525,0.021571109984770256,10,1,100,-0.02582847183796353,-10,-1,-100,15002.931065754383,0.0004725598522356609,0.0016133828615091856,0.9999985868404657,22.3927197202877,0.03167160873091662,60.03370740094579,-23.514663448307967,-89.8167724609375,5356.25390625,True
1599559334.5041654,0.0,10,0.5,0.5,-0.04365129089355469,-0.001,-0.03,-0.37525,0.019458471027316813,10,1,100,-0.015560622602347886,-10,-1,-100,15002.443761755247,0.0005744012694207585,0.001630806333164432,0.9999985052658256,22.521942330034918,0.03183701192345067,60.86156899133106,-23.700314549622338,-89.55984497070312,5356.25390625,True
1599559334.549052,0.0,10,0.5,0.5,-0.15203253173828124,-0.001,-0.03,-0.37525,0.020915923493123812,10,1,100,-0.02739238039517465,-10,-1,-100,15001.517003956833,0.0007728574993650336,0.0016594469029063445,0.9999983244622273,22.78007368513004,0.03215241461369724,62.533291481603236,-24.071607177329007,-89.04962158203125,5356.25390625,True
1599559334.6029081,0.0,10,0.5,0.5,-0.24396044158935548,-0.001,-0.03,-0.37525,0.021404692788300365,10,1,100,-0.03893914098411244,-10,-1,-100,15000.0170049062,0.001056487340462998,0.0016894920891808538,0.9999980147235195,23.157039759369557,0.03257421784260001,65.05426289534796,-24.628521206474502,-88.33245849609375,5356.25390625,True
1599559334.6378148,0.0,10,0.5,0.5,-0.3209345779418945,-0.001,-0.03,-0.37525,0.019904804141016672,10,1,100,-0.04874255793799369,-10,-1,-100,14998.034584444133,0.0014016726153159768,0.0017027847838253023,0.999997567915972,23.639024427371204,0.033042147205163734,68.4325079347996,-25.371027246244346,-87.45013427734375,5356.25390625,True
1599559334.6697886,0.0,10,0.5,0.5,-0.004127685546875,-0.001,-0.03,-0.37525,0.01860817029252265,10,1,100,-0.014417942797717704,-10,-1,-100,14998.034584444133,0.0014016726153159768,0.0017027847838253023,0.999997567915972,23.639024427371204,0.033042147205163734,68.4325079347996,-25.371027246244346,-87.45013427734375,5356.25390625,True
1599559334.7027004,0.0,10,0.5,0.5,-0.09092041778564453,-0.001,-0.03,-0.37525,0.018444398526320523,10,1,100,-0.023082933657448,-10,-1,-100,14997.535561131896,0.0014787931867995979,0.0017010303857316177,0.9999974598299425,23.755082013707018,0.03314176738060218,69.27728173251225,-25.55664565201775,-87.25515747070312,5356.25390625,True
1599559334.7366095,0.0,10,0.5,0.5,-0.2139577865600586,-0.001,-0.03,-0.37525,0.016862031049550592,10,1,100,-0.039340316642433364,-10,-1,-100,14995.966226235265,0.0016952871040775786,0.0016848669804894534,0.9999971436083669,24.082846587136533,0.03338881605796731,71.78124073609766,-26.113481095305488,-86.7642822265625,5356.25390625,True
1599559334.778509,0.0,10,0.5,0.5,-0.09854376220703125,-0.001,-0.03,-0.37525,0.017490930526760897,10,1,100,-0.025433271004331303,-10,-1,-100,14995.410562451812,0.0017640651719430206,0.0016757215986987117,0.9999970400112155,24.1863670431409,0.03345624806718312,72.60825859185069,-26.299086444079023,-86.615966796875,5356.25390625,True
1599559334.8164175,0.0,10,0.5,0.5,-0.20854544830322264,-0.001,-0.03,-0.37525,0.01415515310096219,10,1,100,-0.03830412955473617,-10,-1,-100,14993.84513336583,0.001942029847776438,0.001636945721324641,0.9999967744591859,24.490815786935528,0.03363053046943804,75.09786288971398,-26.85588328362854,-86.20928955078125,5356.25390625,True
1599559334.8702745,0.0,10,0.5,0.5,-0.11070659637451172,-0.001,-0.03,-0.37525,0.016240266848172907,10,1,100,-0.02675815804867978,-10,-1,-100,14993.275797683746,0.0019973196379641117,0.001620591933968831,0.9999966921925528,24.58865078319764,0.033677471733990896,75.92539646996742,-27.04147592365171,-86.09652709960938,5356.25390625,True
1599559334.906176,0.0,10,0.5,0.5,-0.1858213424682617,-0.001,-0.03,-0.37525,0.011277729052573886,10,1,100,-0.03720962984667405,-10,-1,-100,14991.649821368163,0.0021412103183112824,0.0015606043208922313,0.9999964898601026,24.868162080573583,0.033783426146172656,78.38976389337503,-27.598234896451572,-85.8140869140625,5356.25390625,True
1599559334.9362051,0.0,10,0.5,0.5,-0.11751653289794922,-0.001,-0.03,-0.37525,0.014756308356391388,10,1,100,-0.02736087646305893,-10,-1,-100,14991.079508939642,0.0021810615341859452,0.0015377573954139109,0.9999964391300485,24.957182174186613,0.03380838905738096,79.20627985251988,-27.783815002566747,-85.74380493164062,5356.25390625,True
1599559334.973105,0.0,10,0.5,0.5,-0.15850630950927733,-0.001,-0.03,-0.37525,0.008311222907773155,10,1,100,-0.035006848383479366,-10,-1,-100,14989.387127007707,0.0022855185624078055,0.001458506404089356,0.9999963245752307,25.210466432549634,0.033853340776115744,81.63487305670755,-28.340536759156045,-85.59112548828125,5356.25390625,True
1599559335.00402,0.0,10,0.5,0.5,-0.12717740631103513,-0.001,-0.03,-0.37525,0.009563351478888982,10,1,100,-0.030365756657739558,-10,-1,-100,14988.249431642937,0.0023371704530828212,0.0013980530223363513,0.9999962915341336,25.36893372012964,0.033861686351677724,83.23859358412086,-28.711669510030525,-85.54397583007812,5356.25390625,True
1599559335.0464275,0.0,10,0.5,0.5,-0.11520297241210936,-0.001,-0.03,-0.37525,0.015578216478040554,10,1,100,-0.025294117374014668,-10,-1,-100,14988.249431642937,0.0023371704530828212,0.0013980530223363513,0.9999962915341336,25.36893372012964,0.033861686351677724,83.23859358412086,-28.711669510030525,-85.54397583007812,5356.25390625,True
1599559335.0733557,0.0,10,0.5,0.5,-0.12308010864257812,-0.001,-0.03,-0.37525,0.008462280243777598,10,1,100,-0.029318570950311228,-10,-1,-100,14987.108806450036,0.002372905942105729,0.0013336397218080417,0.9999962953543788,25.519146561960813,0.03385469274667568,84.82899438259736,-29.0827901871789,-85.53823852539062,5356.25390625,True
1599559335.1042733,0.0,10,0.5,0.5,-0.11352785491943357,-0.001,-0.03,-0.37525,0.007161408125322074,10,1,100,-0.028410153973234913,-10,-1,-100,14985.915447157924,0.0023963215843755825,0.001263590057218095,0.9999963304847832,25.661328818915855,0.033834250584669004,86.40577897780734,-29.453899038253176,-85.57159423828125,5356.25390625,True
1599559335.137185,0.0,10,0.5,0.5,-0.08686279296875002,-0.001,-0.03,-0.37525,0.001374418232020674,10,1,100,-0.02728522666684437,-10,-1,-100,14984.136150333681,0.002406744615944355,0.0011476825239456502,0.9999964451962706,25.86170572355086,0.0337844034961466,88.75060789543376,-30.010540624665122,-85.68524169921875,5356.25390625,True
1599559335.1740868,0.0,10,0.5,0.5,-0.13230117797851562,-0.001,-0.03,-0.37525,0.012912367651789849,10,1,100,-0.02630719145436724,-10,-1,-100,14984.136150333681,0.002406744615944355,0.0011476825239456502,0.9999964451962706,25.86170572355086,0.0337844034961466,88.75060789543376,-30.010540624665122,-85.68524169921875,5356.25390625,True
1599559335.2050054,0.0,10,0.5,0.5,-0.09008006286621095,-0.001,-0.03,-0.37525,0.003906520788276951,10,1,100,-0.025269491150458408,-10,-1,-100,14982.929118295899,0.0023968885088468494,0.0010662559735476957,0.9999965590059172,25.98725629574791,0.03374111214618321,90.30094346735522,-30.38162066195053,-85.8016357421875,5356.25390625,True
1599559335.2375493,0.0,10,0.5,0.5,-0.1087032241821289,-0.001,-0.03,-0.37525,0.007426362483995719,10,1,100,-0.025214848776809323,-10,-1,-100,14982.304117997526,0.00238706841820605,0.0010247343394746541,0.9999966259062579,26.047721369372887,0.033717092477206716,91.07229135561913,-30.567156593400554,-85.87057495117188,5356.25390625,True
