Timestamp,Input Throttle,horizon,dT,dt,Input Roll,Roll P,Roll I,Roll D,Input Pitch,Pitch P,Pitch I,Pitch D,Input Yaw,Yaw P,Yaw I,Yaw D,Altitude,Direction X,Direction Y,Direction Z,Drag X,Drag Y,Drag Z,Vertical Velocity,Roll,Mass,Has Fuel
1599562918.743265,0.0,10,0.5,0.5,-8.746086463928222,-0.15025,-0.03,-0.2505,-0.00028314808127113006,10,1,100,0.17492469344820538,-10,-1,-100,14994.547641883488,-0.01680902620447879,-7.449497812329596e-05,0.9998587155636317,28.576548297222907,0.02719966661763144,-86.69277676726982,26.8233297188924,-31.791656494140625,5356.25390625,True
1599562918.7771418,0.0,10,0.5,0.5,-8.920917839050293,-0.15025,-0.03,-0.2505,-0.00022638654928871529,10,1,100,0.17768498853967368,-10,-1,-100,14995.57401229965,-0.01688097005788277,-6.971304421641802e-05,0.9998575038424207,28.431447129661926,0.027525569204509534,-85.05978605700469,26.45140670254754,-31.790435791015625,5356.25390625,True
1599562918.8139899,0.0,10,0.5,0.5,-9.07936631011963,-0.15025,-0.03,-0.2505,0.0035008807984104333,10,1,100,0.17833856524160807,-10,-1,-100,14996.664835580043,-0.016936968830942263,-3.14182074636127e-05,0.9998565587621637,28.286533386495005,0.027845482452248417,-83.4395218866027,26.079499147695575,-31.830047607421875,5356.25390625,True
1599562918.8502202,0.0,10,0.5,0.5,-9.263798927307128,-0.15025,-0.03,-0.2505,-0.0003317446976164597,10,1,100,0.174432384818753,-10,-1,-100,14996.664835580043,-0.016936968830942263,-3.14182074636127e-05,0.9998565587621637,28.286533386495005,0.027845482452248417,-83.4395218866027,26.079499147695575,-31.830047607421875,5356.25390625,True
1599562918.888119,0.0,10,0.5,0.5,-9.333840812683103,-0.15025,-0.03,-0.2505,0.007868900393624026,10,1,100,0.18019543535050053,-10,-1,-100,14997.694134651567,-0.01697396295502093,4.3161673554449536e-05,0.9998559309813946,28.153030723531927,0.02816796236004758,-81.86458960734572,25.70760674353717,-32.090728759765625,5356.25390625,True
1599562918.9260182,0.0,10,0.5,0.5,-9.361621856689453,-0.15025,-0.03,-0.2505,0.012387465330990102,10,1,100,0.18002156973898814,-10,-1,-100,14998.658979265136,-0.016990582505028676,0.0001520001905709664,0.9998556380808591,28.039312842473915,0.0284958582352982,-80.35753515804029,25.335728677058544,-32.61785888671875,5356.25390625,True
1599562918.9579322,0.0,10,0.5,0.5,-9.34498690032959,-0.15025,-0.03,-0.2505,0.019080525270728257,10,1,100,0.17888697469264173,-10,-1,-100,14999.686322776717,-0.01697993070233709,0.000311652114410355,0.9998557820137379,27.94526670601118,0.02882281802481526,-78.91553256195732,24.963863768292168,-33.418426513671875,5356.25390625,True
1599562918.9978259,0.0,10,0.5,0.5,-9.513602439880371,-0.15025,-0.03,-0.2505,0.014066462847210526,10,1,100,0.17950793451426322,-10,-1,-100,15000.169721122133,-0.016960456033993716,0.0004109245212192649,0.9998560766791174,27.90468094127212,0.028982817398275233,-78.21551438200561,24.777936139874498,-33.921661376953125,5356.25390625,True
1599562919.0397182,0.0,10,0.5,0.5,-9.037694152832032,-0.15025,-0.03,-0.2505,0.04507865491186773,10,1,100,0.17101717646079562,-10,-1,-100,15001.61795848026,-0.016850144484073678,0.0007827276147958674,0.9998577198623547,27.803068909516657,0.02943085195839405,-76.18077959758094,24.220170768866243,-35.84356689453125,5356.25390625,True
1599562919.078614,0.0,10,0.5,0.5,-9.369786758422851,-0.15025,-0.03,-0.2505,0.024297631122310245,10,1,100,0.17763294565961796,-10,-1,-100,15002.101355348015,-0.016794686300059234,0.0009311004584924417,0.9998585257745312,27.77350547135387,0.029563180314820785,-75.51705390093151,24.034254657896074,-36.62164306640625,5356.25390625,True
1599562919.1165137,0.0,10,0.5,0.5,-9.018637672424315,-0.15025,-0.03,-0.2505,0.04618680422414018,10,1,100,0.16955034788229356,-10,-1,-100,15003.065217594383,-0.016655523710888555,0.0012641308896346065,0.9998604880197086,27.716341765413425,0.02978971820627907,-74.19852612682837,23.66243076188188,-38.383819580078125,5356.25390625,True
1599562919.154411,0.0,10,0.5,0.5,-8.623878128051757,-0.15025,-0.03,-0.2505,0.05339158650272427,10,1,100,0.16262394545517772,-10,-1,-100,15004.030054564239,-0.01646618451911742,0.0016311669151439225,0.9998630926591286,27.655120217075407,0.029948750485150014,-72.87403487573518,23.290618103011944,-40.4210205078125,5356.25390625,True
1599562919.1923096,0.0,10,0.5,0.5,-8.181790969848633,-0.15025,-0.03,-0.2505,0.06270023982102246,10,1,100,0.15631364027860858,-10,-1,-100,15004.932390611735,-0.016237068648210094,0.0020479138958102295,0.9998660728569545,27.581027791505566,0.030018877692652258,-71.52124736483276,22.91881725746208,-42.73297119140625,5356.25390625,True
1599562919.232207,0.0,10,0.5,0.5,-6.544524810791016,-0.15025,-0.03,-0.2505,0.12190792130763412,10,1,100,0.1112465036490873,-10,-1,-100,15006.738035227754,-0.015619716523646632,0.0029631361352912746,0.9998736141532912,27.352394912515418,0.02980269760001262,-68.63236301618595,22.175255192257488,-48.1820068359375,5356.25390625,True
1599562919.271103,0.0,10,0.5,0.5,-6.603241104125976,-0.15025,-0.03,-0.2505,0.08486258623562376,10,1,100,0.13005886021731053,-10,-1,-100,15007.57591396512,-0.015230706244943056,0.0034556582574896263,0.9998780345688607,27.173970180795738,0.029474558714321728,-67.04414313381179,21.80349767631124,-51.31915283203125,5356.25390625,True
1599562919.3090017,0.0,10,0.5,0.5,-5.963739013671875,-0.15025,-0.03,-0.2505,0.08850718695279444,10,1,100,0.11989581551651265,-10,-1,-100,15008.47824544902,-0.014786254000396258,0.003933436105477011,0.9998829405350609,26.93503853677361,0.028977836571478205,-65.32419703808922,21.431759266334158,-54.73193359375,5356.25390625,True
1599562919.342424,0.0,10,0.5,0.5,-6.02713752746582,-0.15025,-0.03,-0.2505,0.06869951717433329,10,1,100,0.13751776665114568,-10,-1,-100,15008.89815981267,-0.014544409996127317,0.004184272209375072,0.999885469443347,26.788460412428876,0.028663399953840776,-64.40658571509994,21.24589814911966,-56.54144287109375,5356.25390625,True
1599562919.3823166,0.0,10,0.5,0.5,-4.8779200820922854,-0.15025,-0.03,-0.2505,0.09804713824366298,10,1,100,0.10364482642753632,-10,-1,-100,15009.737989368034,-0.014018830099946568,0.004675581022553612,0.9998907997100135,26.43123152299916,0.027900866626604397,-62.43853364470171,20.874194570520153,-60.367095947265625,5356.25390625,True
1599562919.4247134,0.0,10,0.5,0.5,-4.948964706420898,-0.15025,-0.03,-0.2505,0.0764197047235535,10,1,100,0.12463719927139,-10,-1,-100,15010.157904660911,-0.013734544152848235,0.004921735405713712,0.9998935637444165,26.216734756082534,0.027453931753252888,-61.38178565414171,20.688353110742636,-62.3831787109375,5356.25390625,True
1599562919.4656043,0.0,10,0.5,0.5,-3.675614334106445,-0.15025,-0.03,-0.2505,0.10437246357096375,10,1,100,0.08613496560151929,-10,-1,-100,15010.935233521392,-0.013128914440606586,0.005395865372843971,0.9998992530462704,25.705874597022852,0.02643657211065869,-59.10716616759025,20.31669360712904,-66.62213134765625,5356.25390625,True
1599562919.5047991,0.0,10,0.5,0.5,-3.756655403137207,-0.15025,-0.03,-0.2505,0.08259587595181428,10,1,100,0.11108281252814271,-10,-1,-100,15011.354170216364,-0.012808473103228439,0.005624864760138891,0.9999021471690088,25.40535890143318,0.02587169460334872,-57.883273556334366,20.130876576227575,-68.84500122070312,5356.25390625,True
1599562919.548134,0.0,10,0.5,0.5,-0.38272546386718753,-0.15025,-0.03,-0.2505,0.1561731440986702,10,1,100,-0.011770768192386705,-10,-1,-100,15012.910780341714,-0.011403809381432274,0.00649796597367796,0.9999138610749412,23.85314774870565,0.023337002805308687,-52.34581227135923,19.38770399555999,-78.42547607421875,5356.25390625,True
1599562919.5890248,0.0,10,0.5,0.5,-0.5832118759155271,-0.15025,-0.03,-0.2505,0.11324119231427289,10,1,100,0.04309497248691821,-10,-1,-100,15013.685178918764,-0.01063022398155461,0.006896979516074834,0.9999197117827296,22.842691263218157,0.02198502008401774,-49.170501772522556,19.0161785497286,-83.62924194335938,5356.25390625,True
1599562919.6279209,0.0,10,0.5,0.5,-0.6900104293823242,-0.15025,-0.03,-0.2505,0.09216790167860202,10,1,100,0.07858972704348383,-10,-1,-100,15014.104117671726,-0.01025474124551338,0.007063735489183835,0.9999224689559317,22.295210914324436,0.021329649954791332,-47.52459293007895,18.83043070460651,-86.30935668945312,5356.25390625,True
1599562919.6718035,0.0,10,0.5,0.5,0.9426812839508056,-0.15025,-0.03,-0.2505,0.11102683840527805,10,1,100,0.02894423417374395,-10,-1,-100,15014.817970481585,-0.009466947891458384,0.007383048890112806,0.9999279311463934,21.106849125626713,0.020079627803570577,-44.10647477845062,18.458962550050217,-91.77330780029297,5356.25390625,True
1599562919.7126963,0.0,10,0.5,0.5,3.1034753913879394,-0.15025,-0.03,-0.2505,0.12313428869831808,10,1,100,-0.02862009438294061,-10,-1,-100,15015.889237987692,-0.00823269981757806,0.007779831174864396,0.9999358463824589,22.51835840405309,0.021608678199226808,-45.63960790711054,17.901763684485648,-100.27774047851562,5356.25390625,True
1599562919.7516265,0.0,10,0.5,0.5,3.3832027244567873,-0.15025,-0.03,-0.2505,0.10568393833464516,10,1,100,0.004438370849290815,-10,-1,-100,15016.602115922724,-0.0074171453926915225,0.007978406071269371,0.9999406637349967,23.37446154526885,0.022736504128261316,-46.39424778081342,17.530281984058444,-105.95072937011719,5356.25390625,True
1599562920.0627584,0.0,10,0.5,0.5,2.110346866607666,-0.15025,-0.03,-0.2505,0.08620586208033705,10,1,100,0.08528108687760103,-10,-1,-100,15016.602115922724,-0.0074171453926915225,0.007978406071269371,0.9999406637349967,23.37446154526885,0.022736504128261316,-46.39424778081342,17.530281984058444,-105.95072937011719,5356.25390625,True
1599562920.0962143,0.0,10,0.5,0.5,4.427337734222412,-0.15025,-0.03,-0.2505,0.10375285037469764,10,1,100,-0.0033704773433547025,-10,-1,-100,15017.316947969259,-0.006617223613143975,0.008134921578446544,0.9999450161896732,24.031785435775767,0.023751780766277805,-46.690576581950765,17.15878583873188,-111.39112854003906,5356.25390625,True
1599562920.1330805,0.0,10,0.5,0.5,3.211541591644287,-0.15025,-0.03,-0.2505,0.08842261827425364,10,1,100,0.07590996855742962,-10,-1,-100,15017.316947969259,-0.006617223613143975,0.008134921578446544,0.9999450161896732,24.031785435775767,0.023751780766277805,-46.690576581950765,17.15878583873188,-111.39112854003906,5356.25390625,True
1599562920.175967,0.0,10,0.5,0.5,7.38132758140564,-0.15025,-0.03,-0.2505,0.10838150836025838,10,1,100,-0.10139453342700958,-10,-1,-100,15018.619661459,-0.005011284223128585,0.008313875982677858,0.9999528821382433,24.937311088855893,0.02535934964479219,-46.35638329952614,16.415760917621615,-121.46094512939453,5356.25390625,True
1599562920.225861,0.0,10,0.5,0.5,6.869308185577392,-0.15025,-0.03,-0.2505,0.092589062394103,10,1,100,-0.029976047560057978,-10,-1,-100,15019.269066804089,-0.00420768663906879,0.008330549558448058,0.9999564477101999,25.201311631520564,0.025864931091560055,-45.78897049876063,16.044240413158487,-126.08383178710938,5356.25390625,True
1599562920.2727077,0.0,10,0.5,0.5,7.596322673797607,-0.15025,-0.03,-0.2505,0.09292670586869901,10,1,100,-0.029616633255463425,-10,-1,-100,15019.919449800975,-0.0034869527133674387,0.008347110855658414,0.9999590826134528,25.3310240237311,0.026124370911576846,-44.96088181240506,15.672721885674155,-130.4308624267578,5356.25390625,True
1599562920.3255663,0.0,10,0.5,0.5,8.279597820281982,-0.15025,-0.03,-0.2505,0.0879820469512917,10,1,100,-0.03871690968169749,-10,-1,-100,15020.508310379577,-0.00275550415091698,0.008315896834473594,0.9999616257920665,25.344524127424744,0.026147919986994627,-43.92040382520167,15.30121030115285,-134.5027313232422,5356.25390625,True
1599562920.3734381,0.0,10,0.5,0.5,8.925509498596192,-0.15025,-0.03,-0.2505,0.08592489091235078,10,1,100,-0.04186465461601064,-10,-1,-100,15021.157719103503,-0.0020687525375542586,0.008267680704546759,0.9999636821998618,25.260912433233905,0.025957459698622384,-42.71451950776029,14.929710686319853,-138.2989501953125,5356.25390625,True
1599562920.4163241,0.0,10,0.5,0.5,8.833375160217285,-0.15025,-0.03,-0.2505,0.08772580996338461,10,1,100,-0.010151171294226623,-10,-1,-100,15021.453616092214,-0.0017394629150170066,0.008239415639791367,0.9999645425207245,25.188019478580422,0.025791105476699855,-42.06228476767705,14.74396664900953,-140.09368896484375,5356.25390625,True
1599562920.4602058,0.0,10,0.5,0.5,10.495268566131593,-0.15025,-0.03,-0.2505,0.07877730439129671,10,1,100,-0.08086462950103514,-10,-1,-100,15022.271968863555,-0.0008031620352872102,0.008131952271663006,0.9999666125841384,24.87085537546094,0.02506220255816282,-39.96567018620713,14.186762097868035,-145.06443786621094,5356.25390625,True
1599562920.508078,0.0,10,0.5,0.5,9.367437091827393,-0.15025,-0.03,-0.2505,0.08953899582417221,10,1,100,0.012104060136204076,-10,-1,-100,15022.271968863555,-0.0008031620352872102,0.008131952271663006,0.9999666125841384,24.87085537546094,0.02506220255816282,-39.96567018620713,14.186762097868035,-145.06443786621094,5356.25390625,True
1599562920.5549526,0.0,10,0.5,0.5,10.674767723083495,-0.15025,-0.03,-0.2505,0.07890353720937247,10,1,100,-0.052965802646553165,-10,-1,-100,15022.856927314191,-0.0002176305403143301,0.008035126696800832,0.9999676941661239,24.622015761884192,0.024456109065773026,-38.531598860887506,13.815317531428143,-148.03384399414062,5356.25390625,True
1599562920.5983832,0.0,10,0.5,0.5,12.089285530090333,-0.15025,-0.03,-0.2505,0.066500658075626,10,1,100,-0.11149925674306692,-10,-1,-100,15023.909658287768,0.0008409753168358408,0.007834440722875384,0.9999689566676938,24.088746590703543,0.02309337094473169,-35.673435927868965,13.072490256929076,-153.14532470703125,5356.25390625,True
1599562920.6402712,0.0,10,0.5,0.5,11.377126571655273,-0.15025,-0.03,-0.2505,0.08144809952408538,10,1,100,-0.032872887460475786,-10,-1,-100,15024.139150949777,0.0010817789217397315,0.007788157924161491,0.9999690866974403,23.944385308318793,0.022729775142181816,-34.95676007281698,12.88679610887399,-154.25076293945312,5356.25390625,True
1599562920.6848054,0.0,10,0.5,0.5,12.361746925354003,-0.15025,-0.03,-0.2505,0.07178643359656632,10,1,100,-0.08319506736693001,-10,-1,-100,15024.895985923591,0.0017526265043066084,0.007658727251497338,0.9999691356223069,23.508169164911433,0.02163300759631475,-32.83869078704514,12.329742537680634,-157.15322875976562,5356.25390625,True
1599562920.7286856,0.0,10,0.5,0.5,12.060418937683103,-0.15025,-0.03,-0.2505,0.07860740815786946,10,1,100,-0.0397570030734327,-10,-1,-100,15025.187002387363,0.0019621779829325434,0.00760368261082082,0.9999691664588052,23.365546665247845,0.02127292864027331,-32.14869034561175,12.144066853486455,-157.98300170898438,5356.25390625,True
1599562920.7755592,0.0,10,0.5,0.5,12.766753913879393,-0.15025,-0.03,-0.2505,0.07122287797319188,10,1,100,-0.08173133105592909,-10,-1,-100,15025.880361851072,0.0025293103718003604,0.007487185779658586,0.9999687718314727,22.96151135443734,0.02023426427819473,-30.145838859535733,11.5870636292863,-160.05795288085938,5356.25390625,True
1599562920.8174508,0.0,10,0.5,0.5,12.545580657958984,-0.15025,-0.03,-0.2505,0.07831151610394951,10,1,100,-0.04459026993211989,-10,-1,-100,15026.11473822256,0.002702434883715822,0.007446475108022366,0.9999686229348224,22.837484589242237,0.019905683647215414,-29.50326430354058,11.401403002572946,-160.61175537109375,5356.25390625,True
1599562920.8593357,0.0,10,0.5,0.5,12.973591667175292,-0.15025,-0.03,-0.2505,0.07313115576479426,10,1,100,-0.07876430931247363,-10,-1,-100,15026.741692324518,0.0031661564458046665,0.007363117772175777,0.9999678794591523,22.508254088193667,0.018984010104144668,-27.659342560696683,10.844438713981237,-161.85891723632812,5356.25390625,True
1599562920.9012241,0.0,10,0.5,0.5,12.726473304748534,-0.15025,-0.03,-0.2505,0.08137925956269162,10,1,100,-0.03288271503967135,-10,-1,-100,15026.741692324518,0.0031661564458046665,0.007363117772175777,0.9999678794591523,22.508254088193667,0.018984010104144668,-27.659342560696683,10.844438713981237,-161.85891723632812,5356.25390625,True
1599562920.9451084,0.0,10,0.5,0.5,13.056292057037352,-0.15025,-0.03,-0.2505,0.07280824236155448,10,1,100,-0.08824185507639902,-10,-1,-100,15027.603023492964,0.0036658128838830163,0.0072858983744377,0.9999667381972153,22.187093479526222,0.017912786868978334,-25.399899318160603,10.101850981637979,-162.5561981201172,5356.25390625,True
1599562920.9905946,0.0,10,0.5,0.5,12.934893421173093,-0.15025,-0.03,-0.2505,0.07840978398499285,10,1,100,-0.05023676776538607,-10,-1,-100,15027.770993910963,0.0037704825112003346,0.00726739116752273,0.9999664836819536,22.129869220877307,0.01767274869994333,-24.86933483802178,9.916208111263392,-162.5581817626953,5356.25390625,True
1599562921.031485,0.0,10,0.5,0.5,12.814327095031738,-0.15025,-0.03,-0.2505,0.07902319338225874,10,1,100,-0.06867275363345843,-10,-1,-100,15028.338378145942,0.004029611032060814,0.007256840824419972,0.9999655496546765,22.015425545034073,0.017015368476687404,-23.352625119942736,9.359285298141694,-162.14984130859375,5356.25390625,True
1599562921.072376,0.0,10,0.5,0.5,12.943629928588866,-0.15025,-0.03,-0.2505,0.08002046770268897,10,1,100,-0.04307876511893299,-10,-1,-100,15028.338378145942,0.004029611032060814,0.007256840824419972,0.9999655496546765,22.015425545034073,0.017015368476687404,-23.352625119942736,9.359285298141694,-162.14984130859375,5356.25390625,True
1599562921.1142695,0.0,10,0.5,0.5,12.554995429992676,-0.15025,-0.03,-0.2505,0.08053108943760756,10,1,100,-0.06352167395796968,-10,-1,-100,15028.90478747827,0.004212775810497219,0.007261965855737179,0.9999647575649258,21.983339098021858,0.016443877368170042,-21.93228002472312,8.802366806190586,-161.12094116210938,5356.25390625,True
1599562921.1551611,0.0,10,0.5,0.5,12.41152360534668,-0.15025,-0.03,-0.2505,0.08212291504133883,10,1,100,-0.05416698097274833,-10,-1,-100,15029.241703088628,0.004292010082568129,0.007281456809146524,0.9999642788800948,22.003616572259688,0.016105743400850327,-21.027319731892824,8.431087453474252,-160.090087890625,5356.25390625,True
1599562921.1955645,0.0,10,0.5,0.5,12.152437377929688,-0.15025,-0.03,-0.2505,0.08331154738154424,10,1,100,-0.051282324380456185,-10,-1,-100,15029.576664543827,0.004335699058975723,0.007310274538794772,0.9999638801475969,22.052597487592205,0.015798993696563547,-20.146772999804835,8.059806398475658,-158.783447265625,5356.25390625,True
1599562921.2374861,0.0,10,0.5,0.5,11.483218662261962,-0.15025,-0.03,-0.2505,0.08685719467719322,10,1,100,-0.047012791462367635,-10,-1,-100,15030.017094949726,0.004334960203102571,0.007368866460472592,0.9999634532957319,22.167335474382007,0.015393297657180501,-18.85313526049917,7.502879394501297,-156.3063201904297,5356.25390625,True
1599562921.277345,0.0,10,0.5,0.5,11.704669097900391,-0.15025,-0.03,-0.2505,0.08338002648693674,10,1,100,-0.04522720197339336,-10,-1,-100,15030.185064788326,0.004316571770300497,0.007390591777220597,0.9999633725098807,22.212954478729372,0.015271614104187195,-18.42477223398042,7.317235332345241,-155.34274291992188,5356.25390625,True
1599562921.325731,0.0,10,0.5,0.5,10.602296039581297,-0.15025,-0.03,-0.2505,0.08888799247679222,10,1,100,-0.03535510771147825,-10,-1,-100,15030.566899830708,0.004209062869622569,0.007460389506894701,0.9999633125160966,22.357597607461603,0.014945821200640237,-17.13399778498228,6.76029723715721,-152.03843688964844,5356.25390625,True
1599562921.3795877,0.0,10,0.5,0.5,11.400563259124755,-0.15025,-0.03,-0.2505,0.0819179466828537,10,1,100,-0.046210288421652854,-10,-1,-100,15030.566899830708,0.004209062869622569,0.007460389506894701,0.9999633125160966,22.357597607461603,0.014945821200640237,-17.13399778498228,6.76029723715721,-152.03843688964844,5356.25390625,True
1599562921.4269726,0.0,10,0.5,0.5,9.216794868469238,-0.15025,-0.03,-0.2505,0.09178018778081219,10,1,100,-0.017050659146417776,-10,-1,-100,15031.1098680289,0.003943481467133396,0.007549887615846636,0.999963723417458,22.518725626291847,0.01460291365127617,-15.362627738391549,6.0177010539230125,-146.66796875,5356.25390625,True
1599562921.4728494,0.0,10,0.5,0.5,9.272643283843992,-0.15025,-0.03,-0.2505,0.08744506202540317,10,1,100,-0.02328661895836333,-10,-1,-100,15031.319827407482,0.0037585771004737135,0.007591582483982564,0.9999641198430914,22.556484282599378,0.014466919896443203,-14.43925990880933,5.646398757358844,-143.56932067871094,5356.25390625,True
1599562921.5192428,0.0,10,0.5,0.5,9.993113063812256,-0.15025,-0.03,-0.2505,0.08330904937776666,10,1,100,-0.04174995223117285,-10,-1,-100,15031.319827407482,0.0037585771004737135,0.007591582483982564,0.9999641198430914,22.556484282599378,0.014466919896443203,-14.43925990880933,5.646398757358844,-143.56932067871094,5356.25390625,True
1599562921.5641193,0.0,10,0.5,0.5,8.585262184143065,-0.15025,-0.03,-0.2505,0.08564568556484287,10,1,100,-0.018109353042006955,-10,-1,-100,15031.529786933563,0.003543908956873648,0.0076125203205381995,0.9999647445003622,22.54475109306456,0.014346647353589535,-13.483046733040354,5.275094003097933,-140.19537353515625,5356.25390625,True
1599562921.6089997,0.0,10,0.5,0.5,7.905138210296632,-0.15025,-0.03,-0.2505,0.08507868538277724,10,1,100,-0.012370453571908586,-10,-1,-100,15031.739745778032,0.0032971923464668977,0.00762608148442018,0.9999654851062728,22.465193254011215,0.014230319257418272,-12.49004523490702,4.903786191847967,-136.54591369628906,5356.25390625,True
1599562921.6548798,0.0,10,0.5,0.5,6.347998882293701,-0.15025,-0.03,-0.2505,0.08295746781057507,10,1,100,0.010056432137418095,-10,-1,-100,15031.991696031531,0.002869928119408792,0.007618812723951712,0.9999668580534391,22.17855949030665,0.014027872419792092,-10.930519021695892,4.346815389613291,-130.55540466308594,5356.25390625,True
1599562921.6997955,0.0,10,0.5,0.5,5.115034557342529,-0.15025,-0.03,-0.2505,0.0775475327237047,10,1,100,0.020445569328766837,-10,-1,-100,15032.245597621193,0.0023883919121069504,0.007562743042567777,0.9999685497563142,21.634788903573984,0.013733851350476639,-9.296527920055182,3.7898257728732063,-123.94554138183594,5356.25390625,True
1599562921.7426453,0.0,10,0.5,0.5,5.7356208877563475,-0.15025,-0.03,-0.2505,0.07960316284221905,10,1,100,-0.009052807412986086,-10,-1,-100,15032.349112294614,0.0022205683924766623,0.007530281900039698,0.99996918149037,21.383500244918242,0.013602070002261449,-8.738465483795707,3.6041563626915742,-121.60467529296875,5356.25390625,True
1599562921.788522,0.0,10,0.5,0.5,5.255122259140015,-0.15025,-0.03,-0.2505,0.0786074005272004,10,1,100,-0.006632278799434364,-10,-1,-100,15032.391101862071,0.002047902208487588,0.007491592394765985,0.9999698406151735,21.093985265298794,0.013448808220557064,-8.176144275468378,3.418483141112164,-119.19501495361328,5356.25390625,True
1599562921.8314075,0.0,10,0.5,0.5,3.746158201217651,-0.15025,-0.03,-0.2505,0.07170571527152231,10,1,100,0.014885165765465301,-10,-1,-100,15032.538559497218,0.0016972845094176466,0.007393649157749289,0.9999712261747465,20.402815715261053,0.013071252641624884,-7.049257478875537,3.047122521072213,-114.16930389404297,5356.25390625,True
1599562921.873296,0.0,10,0.5,0.5,0.5325983200073243,-0.15025,-0.03,-0.2505,0.050485970168783346,10,1,100,0.06205827081391948,-10,-1,-100,15032.707496744115,0.0009519781719683026,0.007111763750753889,0.99997425794563,18.747369151152604,0.01209491216353879,-4.898463337426066,2.3043290428339662,-103.29246520996094,5356.25390625,True
1599562921.9151845,0.0,10,0.5,0.5,3.127119899749756,-0.15025,-0.03,-0.2505,0.07863069848181407,10,1,100,-0.012173212601498418,-10,-1,-100,15032.707496744115,0.0009519781719683026,0.007111763750753889,0.99997425794563,18.747369151152604,0.01209491216353879,-4.898463337426066,2.3043290428339662,-103.29246520996094,5356.25390625,True
1599562921.9590662,0.0,10,0.5,0.5,0.6614529953002928,-0.15025,-0.03,-0.2505,0.058194773794065444,10,1,100,0.028947677330391924,-10,-1,-100,15032.791476583225,0.0005807033534315771,0.006926418816077291,0.9999758434612307,17.675272620499612,0.011408715653098497,-3.8739344246008276,1.9328859705309478,-97.44134521484375,5356.25390625,True
1599562922.3274412,0.0,10,0.5,0.5,-0.4400139923095703,-0.15025,-0.03,-0.2505,0.053811347933560794,10,1,100,0.030868694395860305,-10,-1,-100,15032.874480193248,0.00022860597575487972,0.00671867878915571,0.9999774032920125,16.495706746588077,0.010643888028572647,-2.9206168974882183,1.561418518989241,-91.3807373046875,5356.25390625,True
1599562922.375314,0.0,10,0.5,0.5,-1.5860246734619141,-0.15025,-0.03,-0.2505,0.04736934421056806,10,1,100,0.03714946464535621,-10,-1,-100,15032.895960540976,-0.00014556654896379095,0.006472073132228323,0.9999790453203261,15.920262964201532,0.010264860616194225,-2.148149099110667,1.1899412334992916,-85.09814453125,5356.25390625,True
1599562922.4331596,0.0,10,0.5,0.5,-2.753915786743164,-0.15025,-0.03,-0.2505,0.0432281131503118,10,1,100,0.037372638279057895,-10,-1,-100,15032.977987313992,-0.0004846224600185698,0.006211287714793998,0.999980592334669,17.184444171056306,0.01108104331528621,-1.5948845958400637,0.8184649008017444,-78.64190673828125,5356.25390625,True
1599562922.4830263,0.0,10,0.5,0.5,-1.2923687133789061,-0.15025,-0.03,-0.2505,0.06916590239282856,10,1,100,0.003802502231522744,-10,-1,-100,15032.977987313992,-0.0004846224600185698,0.006211287714793998,0.999980592334669,17.184444171056306,0.01108104331528621,-1.5948845958400637,0.8184649008017444,-78.64190673828125,5356.25390625,True
1599562922.5462005,0.0,10,0.5,0.5,-5.1908387908935545,-0.15025,-0.03,-0.2505,0.021800939097101,10,1,100,0.057729824516844955,-10,-1,-100,15032.977982398705,-0.0009722590131832031,0.005781925735130814,0.9999828118758864,18.680156318748583,0.012086966273127558,-0.5534222528092488,0.26126026400857993,-69.25311279296875,5356.25390625,True
1599562922.6319726,0.0,10,0.5,0.5,-6.520920204162596,-0.15025,-0.03,-0.2505,0.011659114444875614,10,1,100,0.05904311178569968,-10,-1,-100,15032.98090580455,-0.0014246013754082218,0.005300987671475788,0.9999849349068356,19.63936885553749,0.012723225368205134,0.6591156366806583,-0.29595167024683877,-60.457305908203125,5356.25390625,True
1599562922.6798422,0.0,10,0.5,0.5,-5.613763038635253,-0.15025,-0.03,-0.2505,0.04258866541730167,10,1,100,0.029117474513524283,-10,-1,-100,15032.960397184012,-0.001560613635334921,0.005146940444923538,0.9999855366399745,19.89581228821057,0.012890754171468255,1.0868018044477477,-0.4816943369109754,-57.66259765625,5356.25390625,True
1599562922.7327008,0.0,10,0.5,0.5,-7.240309700012206,-0.15025,-0.03,-0.2505,0.02253869134147353,10,1,100,0.04475215737930745,-10,-1,-100,15032.918401498115,-0.0018234328993710829,0.0048266674825619875,0.9999866890981471,20.254104032352924,0.013127282522757888,1.9596724252122093,-0.8531887559861016,-52.279937744140625,5356.25390625,True
1599562922.7895494,0.0,10,0.5,0.5,-7.082088142395019,-0.15025,-0.03,-0.2505,0.03657683218409212,10,1,100,0.03240805231143388,-10,-1,-100,15032.895938262576,-0.0019476172650857073,0.004665207066500921,0.9999872212333594,20.36349426440522,0.013201317714395863,2.3992347910230207,-1.0389407393491787,-49.692047119140625,5356.25390625,True
1599562922.8414104,0.0,10,0.5,0.5,-10.466737586975096,-0.15025,-0.03,-0.2505,-0.020020872049113014,10,1,100,0.06926934361739924,-10,-1,-100,15032.81292549579,-0.0023929787953922746,0.004006124428583772,0.9999891122505022,20.42896880923803,0.01327194670402101,4.128548406074751,-1.7819771891711476,-40.029876708984375,5356.25390625,True
1599562922.8923018,0.0,10,0.5,0.5,-9.988928062438964,-0.15025,-0.03,-0.2505,0.009444531289932723,10,1,100,0.04618995335724156,-10,-1,-100,15032.709408033057,-0.0025853369277160625,0.003677480510275409,0.9999898960339884,20.30238965914879,0.013215889979596853,4.958532476158399,-2.153508545911889,-35.612335205078125,5356.25390625,True
1599562922.945162,0.0,10,0.5,0.5,-10.70967946624756,-0.15025,-0.03,-0.2505,0.009266610800182262,10,1,100,0.04766563518793927,-10,-1,-100,15032.602961314726,-0.002771065116559057,0.003379860578523603,0.9999904488246824,20.082618994208094,0.013111526650750795,5.751221561569351,-2.525044667146311,-31.470001220703125,5356.25390625,True
1599562922.9970224,0.0,10,0.5,0.5,-10.621457748413084,-0.15025,-0.03,-0.2505,0.021700380904323996,10,1,100,0.03860556687662753,-10,-1,-100,15032.583430000697,-0.00285515785034295,0.0032251423801993445,0.9999907232221092,19.943154399395137,0.013045850990327934,6.131547306667777,-2.710813655362368,-29.5023193359375,5356.25390625,True
1599562923.0478873,0.0,10,0.5,0.5,-12.47604909515381,-0.15025,-0.03,-0.2505,-0.010990483593758586,10,1,100,0.056392985217358325,-10,-1,-100,15032.393974384875,-0.003091154561071019,0.002790014472953445,0.9999913302537778,19.43765103298738,0.012816254053625444,7.205054016736899,-3.268122345840541,-24.012420654296875,5356.25390625,True
1599562923.1102366,0.0,10,0.5,0.5,-11.264717933654785,-0.15025,-0.03,-0.2505,0.03218017980664731,10,1,100,0.03305396735465664,-10,-1,-100,15032.393974384875,-0.003091154561071019,0.002790014472953445,0.9999913302537778,19.43765103298738,0.012816254053625444,7.205054016736899,-3.268122345840541,-24.012420654296875,5356.25390625,True
1599562923.1690793,0.0,10,0.5,0.5,-13.352115013122557,-0.15025,-0.03,-0.2505,-0.012560615064813707,10,1,100,0.05668098754832138,-10,-1,-100,15032.143974078703,-0.0033040193850608006,0.0023859998934512333,0.999991695195721,18.91831228047357,0.012608939207940326,8.208774101095315,-3.8254340667120066,-19.142364501953125,5356.25390625,True
1599562923.2279232,0.0,10,0.5,0.5,-12.851475479125975,-0.15025,-0.03,-0.2505,0.01379707706886351,10,1,100,0.04319400033963074,-10,-1,-100,15032.060965267592,-0.00337321532496373,0.002260979284008129,0.9999917546615317,18.779298128516107,0.012567319552587908,8.544301206185896,-4.011205937206381,-17.65673828125,5356.25390625,True
1599562923.2812948,0.0,10,0.5,0.5,-14.704724319458009,-0.15025,-0.03,-0.2505,-0.026474289691299984,10,1,100,0.06323112267570091,-10,-1,-100,15031.725027208799,-0.0036166285627582777,0.0017838444513864707,0.9999918689153489,18.197208129846732,0.012394500178867231,9.813962127820293,-4.754306342441151,-12.40313720703125,5356.25390625,True
1599562923.333157,0.0,10,0.5,0.5,-13.50832765197754,-0.15025,-0.03,-0.2505,0.020934911267748282,10,1,100,0.039069118462584866,-10,-1,-100,15031.725027208799,-0.0036166285627582777,0.0017838444513864707,0.9999918689153489,18.197208129846732,0.012394500178867231,9.813962127820293,-4.754306342441151,-12.40313720703125,5356.25390625,True
1599562923.3910031,0.0,10,0.5,0.5,-15.284013771057129,-0.15025,-0.03,-0.2505,-0.024337466140711847,10,1,100,0.06441813912187921,-10,-1,-100,15031.326590332319,-0.003845556922117615,0.001374896804596028,0.9999916606405952,17.71785464649461,0.012277517515708158,11.049885940029652,-5.497435960313157,-8.251373291015625,5356.25390625,True
1599562923.437877,0.0,10,0.5,0.5,-15.005606201171876,-0.15025,-0.03,-0.2505,-0.004171987867608144,10,1,100,0.05261363027339726,-10,-1,-100,15031.096122184535,-0.003945039370070153,0.001188840771472921,0.9999915116249681,17.54899475957128,0.012251152982365923,11.684833781820634,-5.869013860411405,-6.58880615234375,5356.25390625,True
1599562923.5037005,0.0,10,0.5,0.5,-14.967997367858887,-0.15025,-0.03,-0.2505,0.005533416350898325,10,1,100,0.049411079871505656,-10,-1,-100,15030.948662055773,-0.004005127771425852,0.0011101922703827029,0.9999913631750312,17.47785139260656,0.012241904965873601,12.00613524796234,-6.054806135906466,-5.860687255859375,5356.25390625,True
1599562923.5545664,0.0,10,0.5,0.5,-15.363185577392576,-0.15025,-0.03,-0.2505,-0.0031937758060670268,10,1,100,0.055908862610795584,-10,-1,-100,15030.718194398098,-0.004117702467874698,0.0009614188573356749,0.9999910600601223,17.365137654516868,0.01223295671307145,12.6613856692262,-6.4263970839182845,-4.61114501953125,5356.25390625,True
1599562923.6034348,0.0,10,0.5,0.5,-15.515203338623046,-0.15025,-0.03,-0.2505,-0.003199918305101572,10,1,100,0.05674703058030507,-10,-1,-100,15030.426202973933,-0.004226515041989616,0.0008281723895952115,0.9999907253075364,17.296156798058842,0.012240379547116738,13.340979924689996,-6.797995764835106,-3.6370849609375,5356.25390625,True
1599562923.6533015,0.0,10,0.5,0.5,-15.71091668701172,-0.15025,-0.03,-0.2505,-0.007813462138472992,10,1,100,0.06441967294399455,-10,-1,-100,15029.984797522542,-0.004394154712235883,0.0006668814223308303,0.9999901232879921,17.282518544862334,0.012292547283246297,14.424672960520107,-7.355405228804743,-2.6923828125,5356.25390625,True
1599562923.700587,0.0,10,0.5,0.5,-15.65265203857422,-0.15025,-0.03,-0.2505,-0.0010856717165046176,10,1,100,0.06011161631127173,-10,-1,-100,15029.691829910735,-0.004506205715661223,0.0005833451223362168,0.9999896768559745,17.336253254510325,0.012361927494447636,15.201433179004411,-7.7270173007600285,-2.4068603515625,5356.25390625,True
1599562923.7464643,0.0,10,0.5,0.5,-15.6353955078125,-0.15025,-0.03,-0.2505,0.0004229444904984576,10,1,100,0.06169806544991617,-10,-1,-100,15029.397885911167,-0.0046213996324622995,0.0005227565012876097,0.9999891846370528,17.441413510093113,0.012465176901989342,16.03013454315344,-8.09863212131873,-2.396728515625,5356.25390625,True
1599562923.7933395,0.0,10,0.5,0.5,-15.639293861389161,-0.15025,-0.03,-0.2505,0.0037345357808859702,10,1,100,0.05651138471783315,-10,-1,-100,15029.188903231407,-0.004677835018982979,0.0004993615145948721,0.9999889341875804,17.513336073795703,0.012531215614189808,16.466055876244642,-8.284440318888997,-2.494903564453125,5356.25390625,True
1599562923.8412101,0.0,10,0.5,0.5,-15.410011810302734,-0.15025,-0.03,-0.2505,0.0018837376204571508,10,1,100,0.06993138598342231,-10,-1,-100,15028.685974818189,-0.004850175194183294,0.00046243561881284095,0.9999881309065045,17.805155206891886,0.012794967260477057,17.868593995561753,-8.841865534041611,-3.20257568359375,5356.25390625,True
1599562923.8911126,0.0,10,0.5,0.5,-15.28786954498291,-0.15025,-0.03,-0.2505,0.00547689132536437,10,1,100,0.06537186638006487,-10,-1,-100,15028.329531264259,-0.004964276496488127,0.00046273293708521795,0.9999875708413057,18.06118291035363,0.013032221541344197,18.88866066701874,-9.21348135929098,-4.018585205078125,5356.25390625,True
1599562923.9349604,0.0,10,0.5,0.5,-15.06764860534668,-0.15025,-0.03,-0.2505,0.0083587830667907,10,1,100,0.06658210958420645,-10,-1,-100,15027.972110377741,-0.005077990146280743,0.0004900314821344462,0.9999869868579395,18.363828729004968,0.013324665848090405,19.98125319498754,-9.585094839081684,-5.10986328125,5356.25390625,True
1599562923.9778457,0.0,10,0.5,0.5,-15.345450592041015,-0.15025,-0.03,-0.2505,0.005559047632934025,10,1,100,0.0553240396825659,-10,-1,-100,15027.972110377741,-0.005077990146280743,0.0004900314821344462,0.9999869868579395,18.363828729004968,0.013324665848090405,19.98125319498754,-9.585094839081684,-5.10986328125,5356.25390625,True
1599562924.025717,0.0,10,0.5,0.5,-14.141991996765135,-0.15025,-0.03,-0.2505,0.018534520960092796,10,1,100,0.07920293761912393,-10,-1,-100,15027.135199634475,-0.005294095707181402,0.0006085541130979334,0.9999858010054615,19.093657218633584,0.014091125873347295,22.3897381916442,-10.328307151485067,-8.118499755859375,5356.25390625,True
1599562924.0695996,0.0,10,0.5,0.5,-14.116751991271972,-0.15025,-0.03,-0.2505,0.016494821297309687,10,1,100,0.06912128758172487,-10,-1,-100,15026.714302675915,-0.005397834495624459,0.0006980800213523824,0.999985187923822,19.51047305094096,0.014570032454839664,23.703586088034015,-10.699902110038948,-10.035858154296875,5356.25390625,True
1599562924.1134841,0.0,10,0.5,0.5,-13.699195388793946,-0.15025,-0.03,-0.2505,0.020861843791068257,10,1,100,0.06881540580794136,-10,-1,-100,15026.295358813019,-0.005488296905853174,0.0008192856809526348,0.9999846035654979,19.952912590985576,0.015112621253029814,25.08508282968887,-11.071486833561766,-12.2283935546875,5356.25390625,True
1599562924.1553705,0.0,10,0.5,0.5,-13.230808349609374,-0.15025,-0.03,-0.2505,0.024006913560714438,10,1,100,0.0691781571020122,-10,-1,-100,15025.813915021718,-0.0055728385249220885,0.0009579256382599914,0.9999840127968281,20.468433060961704,0.01575785602654692,26.59915893721702,-11.44305870921825,-14.6962890625,5356.25390625,True
1599562924.1982565,0.0,10,0.5,0.5,-12.712824890136718,-0.15025,-0.03,-0.2505,0.028063230547329673,10,1,100,0.06866046299121496,-10,-1,-100,15025.332471517031,-0.005644018565969072,0.0011204970443123416,0.9999834446333602,21.00061145566574,0.016462810501145335,28.179387290498862,-11.814615598246519,-17.439453125,5356.25390625,True
1599562924.2381496,0.0,10,0.5,0.5,-12.14518575286865,-0.15025,-0.03,-0.2505,0.03210578925866435,10,1,100,0.06789357864979421,-10,-1,-100,15024.849074519938,-0.005700826364786589,0.0013044963648784073,0.9999828992877791,21.53141848399482,0.01720839925871245,29.802931171162125,-12.18615517287595,-20.457977294921875,5356.25390625,True
1599562924.2790403,0.0,10,0.5,0.5,-12.847436836242675,-0.15025,-0.03,-0.2505,0.013786370687086137,10,1,100,0.06231509790262286,-10,-1,-100,15024.849074519938,-0.005700826364786589,0.0013044963648784073,0.9999828992877791,21.53141848399482,0.01720839925871245,29.802931171162125,-12.18615517287595,-20.457977294921875,5356.25390625,True
1599562924.3199315,0.0,10,0.5,0.5,-10.045345199584961,-0.15025,-0.03,-0.2505,0.06085287724849693,10,1,100,0.06896507677508373,-10,-1,-100,15023.885210141307,-0.005760507398926594,0.0017316081874857185,0.9999819088801517,22.632003109473676,0.01881153206201947,33.2425564178005,-12.929173105275016,-27.3209228515625,5356.25390625,True
1599562924.3616052,0.0,10,0.5,0.5,-10.153954177856445,-0.15025,-0.03,-0.2505,0.044856868326302424,10,1,100,0.06398381953611987,-10,-1,-100,15023.339313023025,-0.005768754881515619,0.0019733198766993237,0.9999814135651628,23.140680758382885,0.019582436609165556,34.96960763310859,-13.300648579808357,-31.16534423828125,5356.25390625,True
1599562924.4024968,0.0,10,0.5,0.5,-11.038815292358398,-0.15025,-0.03,-0.2505,0.020834028244398395,10,1,100,0.06322814775074083,-10,-1,-100,15023.339313023025,-0.005768754881515619,0.0019733198766993237,0.9999814135651628,23.140680758382885,0.019582436609165556,34.96960763310859,-13.300648579808357,-31.16534423828125,5356.25390625,True
1599562924.4433875,0.0,10,0.5,0.5,-7.548207809448243,-0.15025,-0.03,-0.2505,0.07729956324573031,10,1,100,0.05466298165867005,-10,-1,-100,15022.250447899336,-0.005690261767282944,0.0024852944781709185,0.9999807219303662,23.953900336336215,0.02083037965587661,38.227638892158616,-14.04353228970562,-39.68048095703125,5356.25390625,True
1599562924.4872708,0.0,10,0.5,0.5,-7.714835594177246,-0.15025,-0.03,-0.2505,0.05675136562242887,10,1,100,0.05498342208102333,-10,-1,-100,15021.643026566482,-0.005621457334492722,0.002762218009874107,0.9999803844921671,24.215227712472185,0.021210317996504382,39.67056431468485,-14.41494439375112,-44.351043701171875,5356.25390625,True
1599562924.833026,0.0,10,0.5,0.5,-8.781866004943847,-0.15025,-0.03,-0.2505,0.02926542625096219,10,1,100,0.061886227643932326,-10,-1,-100,15021.643026566482,-0.005621457334492722,0.002762218009874107,0.9999803844921671,24.215227712472185,0.021210317996504382,39.67056431468485,-14.41494439375112,-44.351043701171875,5356.25390625,True
1599562924.8699641,0.0,10,0.5,0.5,-6.7032849426269525,-0.15025,-0.03,-0.2505,0.05830515212650459,10,1,100,0.0497294231039663,-10,-1,-100,15021.099081997643,-0.005510819874648814,0.003024449215716382,0.999980241590428,24.34924970403755,0.021366691756893583,40.92188856504567,-14.786342536693734,-49.29730224609375,5356.25390625,True
1599562924.9068575,0.0,10,0.5,0.5,-3.5430662155151356,-0.15025,-0.03,-0.2505,0.0923304863104879,10,1,100,0.029077094930558604,-10,-1,-100,15019.819785588072,-0.005222548308350893,0.0035702837830842472,0.9999799888312142,24.14269924013127,0.02090054465638207,42.62160185402881,-15.529121888554329,-60.015838623046875,5356.25390625,True
1599562924.966704,0.0,10,0.5,0.5,-4.95741999053955,-0.15025,-0.03,-0.2505,0.052011922988926304,10,1,100,0.04789250944578778,-10,-1,-100,15019.546348839765,-0.005131915625725429,0.0036977375534601358,0.9999799948893959,23.99113832981135,0.02063007331728673,42.86275074283524,-15.714818339728026,-62.867767333984375,5356.25390625,True
1599562925.0051112,0.0,10,0.5,0.5,-4.374085403442383,-0.15025,-0.03,-0.2505,0.05342929157746963,10,1,100,0.04622912413548806,-10,-1,-100,15019.21236374951,-0.005034917784825974,0.003824314112617172,0.9999800119124722,23.821390366948112,0.020324510748189833,43.06469516757109,-15.900516993518353,-65.78857421875,5356.25390625,True
1599562925.044019,0.0,10,0.5,0.5,-2.545846855163574,-0.15025,-0.03,-0.2505,0.06628071841461006,10,1,100,0.03288549062110349,-10,-1,-100,15018.542441829923,-0.004826037541677483,0.004053924121508719,0.9999801373331688,23.359554507220817,0.01957602320341818,43.22095400436577,-16.271923686848567,-71.83700561523438,5356.25390625,True
1599562925.0779135,0.0,10,0.5,0.5,-0.08460653686523445,-0.15025,-0.03,-0.2505,0.080197081480097,10,1,100,0.014116390756063302,-10,-1,-100,15017.597129136091,-0.004466367749003262,0.004387061688429077,0.9999804024324039,22.242225138047203,0.0181447437595914,42.570116715971544,-16.82906714684512,-81.42608642578125,5356.25390625,True
1599562925.117808,0.0,10,0.5,0.5,-0.9996969757080078,-0.15025,-0.03,-0.2505,0.05787178829688322,10,1,100,0.035659344414141286,-10,-1,-100,15017.261190456105,-0.004336424231766054,0.004484762500498614,0.9999805409757714,21.751527712360694,0.01762301458191346,42.09293014646078,-17.014791830154337,-84.76031494140625,5356.25390625,True
1599562925.1567075,0.0,10,0.5,0.5,2.4486062240600583,-0.15025,-0.03,-0.2505,0.07561946013313889,10,1,100,0.0046802786246988096,-10,-1,-100,15016.192830602173,-0.003937968009509796,0.004732640762142517,0.9999810470800796,20.406353055331934,0.01644473216655543,40.790544649413604,-17.571989137440198,-95.04788208007812,5356.25390625,True
1599562925.1955419,0.0,10,0.5,0.5,0.03767285919189456,-0.15025,-0.03,-0.2505,0.051056368597145685,10,1,100,0.04435067147454727,-10,-1,-100,15016.192830602173,-0.003937968009509796,0.004732640762142517,0.9999810470800796,20.406353055331934,0.01644473216655543,40.790544649413604,-17.571989137440198,-95.04788208007812,5356.25390625,True
1599562925.2324078,0.0,10,0.5,0.5,5.836448648452759,-0.15025,-0.03,-0.2505,0.07830169093978806,10,1,100,-0.01756618664203722,-10,-1,-100,15014.724078700878,-0.003376617926018103,0.00497853421730084,0.9999819061605211,23.22270236142219,0.01928621061297343,48.394706988007044,-18.314826457510076,-109.13817596435547,5356.25390625,True
1599562925.2703063,0.0,10,0.5,0.5,2.501191427230835,-0.15025,-0.03,-0.2505,0.053933977044698427,10,1,100,0.03834433776628459,-10,-1,-100,15014.724078700878,-0.003376617926018103,0.00497853421730084,0.9999819061605211,23.22270236142219,0.01928621061297343,48.394706988007044,-18.314826457510076,-109.13817596435547,5356.25390625,True
1599562925.3092027,0.0,10,0.5,0.5,6.829072145462036,-0.15025,-0.03,-0.2505,0.06669972501145152,10,1,100,-0.00871632045759782,-10,-1,-100,15013.593216337264,-0.002950733943936109,0.005092810030633519,0.9999826780775675,24.680906034730995,0.021130148088959275,53.00759131868647,-18.871841534395685,-119.48966217041016,5356.25390625,True
1599562925.3481002,0.0,10,0.5,0.5,5.759991230010986,-0.15025,-0.03,-0.2505,0.05829700577332958,10,1,100,0.019275480456927074,-10,-1,-100,15013.256302729249,-0.002820102890688536,0.005118924662182528,0.9999829216691598,25.07552017377262,0.021653412700770782,54.388219101074085,-19.05749382145245,-122.84722900390625,5356.25390625,True
1599562925.3859985,0.0,10,0.5,0.5,10.213435890197754,-0.15025,-0.03,-0.2505,0.06055687700727379,10,1,100,-0.026145673368090948,-10,-1,-100,15011.665479175863,-0.002290529455449703,0.005161917531982281,0.9999840539139644,26.10088795601954,0.022952153088552085,58.83225144222289,-19.800032386161853,-135.6097412109375,5356.25390625,True
1599562925.4258912,0.0,10,0.5,0.5,9.618319152832031,-0.15025,-0.03,-0.2505,0.05487532592093172,10,1,100,-0.000728559320918927,-10,-1,-100,15010.866649177857,-0.002042658631415397,0.005148135491543161,0.9999846620057109,26.308004709931694,0.023087232767637064,60.41837069190383,-20.171277452274857,-141.57962036132812,5356.25390625,True
1599562925.4647865,0.0,10,0.5,0.5,10.613975097656251,-0.15025,-0.03,-0.2505,0.05457149422028999,10,1,100,-6.913395353987453e-05,-10,-1,-100,15010.0697728612,-0.0018258466391878941,0.005131849519892641,0.9999851650922404,26.32903534918204,0.022896583680526772,61.5872781335083,-20.54251774077031,-147.27365112304688,5356.25390625,True
1599562925.503683,0.0,10,0.5,0.5,11.556609741210938,-0.15025,-0.03,-0.2505,0.05202615549589952,10,1,100,-0.0013983118335074637,-10,-1,-100,15009.211373004015,-0.0016190618665357455,0.005093227568323652,0.9999857187338275,26.181116316064305,0.022428110900882366,62.35612611264473,-20.913760606743473,-152.69210815429688,5356.25390625,True
1599562925.5431666,0.0,10,0.5,0.5,10.403081634521484,-0.15025,-0.03,-0.2505,0.055949197159580966,10,1,100,0.019008429195184372,-10,-1,-100,15009.211373004015,-0.0016190618665357455,0.005093227568323652,0.9999857187338275,26.181116316064305,0.022428110900882366,62.35612611264473,-20.913760606743473,-152.69210815429688,5356.25390625,True
1599562925.5830631,0.0,10,0.5,0.5,13.625923851013184,-0.15025,-0.03,-0.2505,0.04791112526266815,10,1,100,-0.010645709205735192,-10,-1,-100,15007.95258103218,-0.0013515868866573622,0.005019826381255189,0.9999864871866969,25.705708052194222,0.021372421086666253,62.86689262930295,-21.470641518914206,-160.3026123046875,5356.25390625,True
1599562925.6409068,0.0,10,0.5,0.5,12.876650718688964,-0.15025,-0.03,-0.2505,0.05167397114070579,10,1,100,0.007052894269773251,-10,-1,-100,15007.49262019759,-0.0012716754648387746,0.004987044641339553,0.9999867560259272,25.49384429577398,0.020967434463986002,62.89224445689366,-21.656274366544668,-162.70159912109375,5356.25390625,True
1599562925.6867836,0.0,10,0.5,0.5,14.27623941040039,-0.15025,-0.03,-0.2505,0.04782288613860231,10,1,100,-0.0008863891426945901,-10,-1,-100,15006.632267360692,-0.0011287669980368775,0.004922225459193454,0.9999872487094987,25.00910854872201,0.02013537539775386,62.763223101345844,-22.027549729335608,-167.2926025390625,5356.25390625,True
1599562925.738645,0.0,10,0.5,0.5,14.17910698699951,-0.15025,-0.03,-0.2505,0.0506931546536649,10,1,100,0.006106181494496979,-10,-1,-100,15006.17132869258,-0.001064462534853241,0.004889443469886757,0.9999874800526588,24.74222389588585,0.019725096771413677,62.621388421188485,-22.213192316251867,-169.484619140625,5356.25390625,True
1599562925.7855191,0.0,10,0.5,0.5,15.45404753112793,-0.15025,-0.03,-0.2505,0.04532276151728609,10,1,100,-2.5396764308655007e-06,-10,-1,-100,15005.312928653439,-0.0009521848953224847,0.00481100478433245,0.9999879737161294,24.173788782940147,0.01895136990085958,62.2147700820507,-22.58448609914512,-173.66192626953125,5356.25390625,True
1599562925.8428922,0.0,10,0.5,0.5,16.863826110839845,-0.15025,-0.03,-0.2505,0.04016069859803777,10,1,100,-0.0033237612295958646,-10,-1,-100,15003.927185266744,-0.0008216194979888116,0.004693048970815232,0.9999886500519685,23.27120238695226,0.017983397772647,61.383087945512905,-23.141444603125073,-179.4105224609375,5356.25390625,True
1599562925.893755,0.0,10,0.5,0.5,-126.65980152893067,-0.15025,-0.03,-0.2505,0.038445791507403515,10,1,100,0.00021389919260615502,-10,-1,-100,15002.481870474876,-0.0007364196042122735,0.00457065259275851,0.9999892833530982,23.272436463257137,0.01802040620607953,62.87866075308716,-23.698405276316553,175.46160888671875,5356.25390625,True
1599562925.9476094,0.0,10,0.5,0.5,-38.715456314086914,-0.15025,-0.03,-0.2505,0.050627681023197216,10,1,100,0.008603264667539657,-10,-1,-100,15002.481870474876,-0.0007364196042122735,0.00457065259275851,0.9999892833530982,23.272436463257137,0.01802040620607953,62.87866075308716,-23.698405276316553,175.46160888671875,5356.25390625,True
1599562926.0009775,0.0,10,0.5,0.5,-37.21790242767334,-0.15025,-0.03,-0.2505,0.03296748925662299,10,1,100,0.0030000568624848224,-10,-1,-100,15000.572688699001,-0.000686471739652662,0.00441061557390523,0.9999900375637799,24.583576449856327,0.019506202651775544,68.52432606509835,-24.44094011522802,169.30874633789062,5356.25390625,True
1599562926.0608191,0.0,10,0.5,0.5,-39.07478548431396,-0.15025,-0.03,-0.2505,0.04456258004231908,10,1,100,0.008079175641317016,-10,-1,-100,15000.110774846515,-0.0006880862063395651,0.004371157847539866,0.9999902097102973,24.895331908270194,0.01993131406282969,69.92597531797315,-24.626557941761448,167.68576049804688,5356.25390625,True
1599562926.1151867,0.0,10,0.5,0.5,-39.06226948547363,-0.15025,-0.03,-0.2505,0.040122608719817376,10,1,100,0.009212676039832942,-10,-1,-100,14999.06585276639,-0.0007007047939143456,0.0042955802385675045,0.9999905284567477,25.572570547082407,0.020897881326020714,72.92271564206717,-24.997771608421758,164.24169921875,5356.25390625,True
1599562926.174033,0.0,10,0.5,0.5,-39.40915788269043,-0.15025,-0.03,-0.2505,0.03953370055738112,10,1,100,0.011258096332162338,-10,-1,-100,14998.077570795082,-0.0007313626780878161,0.004222178016336562,0.9999908191185714,26.234647481804902,0.021937480162530366,75.93379245676002,-25.36895484650523,160.52496337890625,5356.25390625,True
1599562926.2328796,0.0,10,0.5,0.5,-40.52383851623535,-0.15025,-0.03,-0.2505,0.042919298201969054,10,1,100,0.010699506868908797,-10,-1,-100,14997.554132012883,-0.0007546465892948034,0.004186922217100144,0.9999909500544858,26.554967705394112,0.022473350891412763,77.4294160838641,-25.554534759170686,158.56353759765625,5356.25390625,True
1599562926.2939076,0.0,10,0.5,0.5,-38.57276942443848,-0.15025,-0.03,-0.2505,0.03192096513779548,10,1,100,0.022986620696063338,-10,-1,-100,14995.459404344205,-0.0008878549255559623,0.004055555101976453,0.9999913820560885,27.814107417516038,0.02466714340916834,83.48305429535819,-26.296773727400794,150.02960205078125,5356.25390625,True
1599562926.3487587,0.0,10,0.5,0.5,-39.79360479736328,-0.15025,-0.03,-0.2505,0.03868667340084431,10,1,100,0.020017048673914933,-10,-1,-100,14994.409599415958,-0.000982117856145937,0.00399839497095346,0.999991524105166,28.37254131292817,0.025664422443898226,86.3744482818591,-26.66784506383882,145.3497314453125,5356.25390625,True
1599562926.3966308,0.0,10,0.5,0.5,-41.92294735717773,-0.15025,-0.03,-0.2505,0.04432142552180574,10,1,100,0.010593748910999814,-10,-1,-100,14994.409599415958,-0.000982117856145937,0.00399839497095346,0.999991524105166,28.37254131292817,0.025664422443898226,86.3744482818591,-26.66784506383882,145.3497314453125,5356.25390625,True
1599562926.4435658,0.0,10,0.5,0.5,-40.911431640625,-0.15025,-0.03,-0.2505,0.037965967292974766,10,1,100,0.022804464684321846,-10,-1,-100,14993.359794435091,-0.0010929784555778125,0.003941249581600325,0.9999916359399368,28.83377058236899,0.026480180706629348,89.01380174165435,-27.038888026122905,140.39453125,5356.25390625,True
1599562926.4915607,0.0,10,0.5,0.5,-39.951464969635005,-0.15025,-0.03,-0.2505,0.038414218677931045,10,1,100,0.026013681514481538,-10,-1,-100,14992.25237247767,-0.0012226113727433644,0.00389394642478904,0.9999916711666514,29.17389563422745,0.027041022307522814,91.31390307027947,-27.4099075509867,135.1642303466797,5356.25390625,True
1599562926.5432236,0.0,10,0.5,0.5,-37.78999765396118,-0.15025,-0.03,-0.2505,0.03692937143040363,10,1,100,0.0378565737471946,-10,-1,-100,14990.552178193117,-0.0014476801434016838,0.0038380601310448676,0.9999915867229249,29.40318447636258,0.027274977098511687,93.92226283889384,-27.966407995946366,126.80299377441406,5356.25390625,True
1599562926.5910203,0.0,10,0.5,0.5,-36.15820629501342,-0.15025,-0.03,-0.2505,0.03818223316924635,10,1,100,0.04462631803237285,-10,-1,-100,14988.852959067328,-0.0017131392389529137,0.0037991645665786085,0.9999913157135637,29.222121590453455,0.026698823662751493,95.22443006310081,-28.522898960878912,117.82292175292969,5356.25390625,True
1599562926.6358979,0.0,10,0.5,0.5,-35.721212482452394,-0.15025,-0.03,-0.2505,0.04033410722843624,10,1,100,0.0404388310893736,-10,-1,-100,14987.740655051894,-0.0019154657599425719,0.003783887447857337,0.9999910065529113,28.835346187618097,0.02589553168544744,95.20228779692852,-28.893903352365797,111.49250793457031,5356.25390625,True
1599562926.681778,0.0,10,0.5,0.5,-37.14873357009888,-0.15025,-0.03,-0.2505,0.04181064982149239,10,1,100,0.0203276550870106,-10,-1,-100,14987.740655051894,-0.0019154657599425719,0.003783887447857337,0.9999910065529113,28.835346187618097,0.02589553168544744,95.20228779692852,-28.893903352365797,111.49250793457031,5356.25390625,True
1599562926.7251706,0.0,10,0.5,0.5,-34.35458632659912,-0.15025,-0.03,-0.2505,0.04131744863339356,10,1,100,0.04492446570755119,-10,-1,-100,14986.566828573938,-0.002137996671873073,0.0037798022466641466,0.9999905709881504,28.21232336868813,0.02483755737241566,94.35784714905716,-29.264926559890696,104.88726806640625,5356.25390625,True
1599562926.7710483,0.0,10,0.5,0.5,-31.671126731872555,-0.15025,-0.03,-0.2505,0.04391581723514077,10,1,100,0.0628473252188853,-10,-1,-100,14984.806089552585,-0.002501974996383313,0.0038000800692047994,0.9999896497027282,26.801061717747558,0.023007652635987204,91.36756574014932,-29.82151183072523,94.46420288085938,5356.25390625,True
1599562926.812972,0.0,10,0.5,0.5,-32.668015743255616,-0.15025,-0.03,-0.2505,0.04339581396249052,10,1,100,0.04067446079665289,-10,-1,-100,14984.15667574678,-0.002629825505671575,0.0038140194008838193,0.9999892685793279,26.197992388922223,0.022391174070765338,89.87572504735714,-30.007055668178907,90.85249328613281,5356.25390625,True
1599562927.1784933,0.0,10,0.5,0.5,-30.431932315826415,-0.15025,-0.03,-0.2505,0.04654784456917215,10,1,100,0.0585511091924049,-10,-1,-100,14982.982849633205,-0.002907070310759081,0.0038555139584437337,0.9999883419092067,25.68688768281727,0.021984987708511115,89.22896885290919,-30.37815524883017,83.42311096191406,5356.25390625,True
1599562927.2154338,0.0,10,0.5,0.5,-25.822513957977293,-0.15025,-0.03,-0.2505,0.05894149981557039,10,1,100,0.09660248838020111,-10,-1,-100,14980.506293801474,-0.0035032827148598583,0.004006035768476831,0.9999858392435573,28.699385708306295,0.025464707831331816,102.16721908467831,-31.12020064712471,67.74076843261719,5356.25390625,True
1599562927.2533324,0.0,10,0.5,0.5,-26.22567293548584,-0.15025,-0.03,-0.2505,0.056577508804274715,10,1,100,0.07255045153037906,-10,-1,-100,14979.269970212481,-0.0038244479251719264,0.004121324053688888,0.9999841940181414,29.827642277222647,0.027062883766562497,107.4690249129184,-31.491136211173085,59.48797607421875,5356.25390625,True
1599562927.3081868,0.0,10,0.5,0.5,-24.648825214385987,-0.15025,-0.03,-0.2505,0.06240816858961473,10,1,100,0.07795552946946363,-10,-1,-100,14977.970171071705,-0.00416318806439964,0.004278930876813032,0.9999821791490545,30.724820356308445,0.028351961310993972,112.02540365452364,-31.862022323125757,50.96110534667969,5356.25390625,True
1599562927.351071,0.0,10,0.5,0.5,-26.557280666351318,-0.15025,-0.03,-0.2505,0.04669157335177718,10,1,100,0.04435306633879205,-10,-1,-100,14977.970171071705,-0.00416318806439964,0.004278930876813032,0.9999821791490545,30.724820356308445,0.028351961310993972,112.02540365452364,-31.862022323125757,50.96110534667969,5356.25390625,True
1599562927.3909645,0.0,10,0.5,0.5,-19.192818115234374,-0.15025,-0.03,-0.2505,0.09188529975144268,10,1,100,0.11961273313676478,-10,-1,-100,14975.371550840442,-0.004845139536358077,0.004689346783800687,0.999977267066414,31.50556648928571,0.029128206316211,117.5880845262581,-32.60370575112966,33.084930419921875,5356.25390625,True
1599562927.4298604,0.0,10,0.5,0.5,-19.68889246368408,-0.15025,-0.03,-0.2505,0.07826131361100425,10,1,100,0.08915952491890267,-10,-1,-100,14974.068824310438,-0.0051855847327248045,0.004937774589480076,0.9999743637179321,31.225439995670666,0.028418698652800667,117.89010743167995,-32.974546723712145,23.735748291015625,5356.25390625,True
1599562927.467759,0.0,10,0.5,0.5,-21.767592308044435,-0.15025,-0.03,-0.2505,0.05353392175722766,10,1,100,0.05544201717950814,-10,-1,-100,14974.068824310438,-0.0051855847327248045,0.004937774589480076,0.9999743637179321,31.225439995670666,0.028418698652800667,117.89010743167995,-32.974546723712145,23.735748291015625,5356.25390625,True
1599562927.50865,0.0,10,0.5,0.5,-17.667921852111814,-0.15025,-0.03,-0.2505,0.08896585979928232,10,1,100,0.09135743976551809,-10,-1,-100,14972.7700051422,-0.00550931803981503,0.005258830415005285,0.9999709956380748,30.457199652924693,0.027136747726266643,116.30572799849503,-33.34541641473383,14.113250732421875,5356.25390625,True
1599562927.546549,0.0,10,0.5,0.5,-11.795411041259763,-0.15025,-0.03,-0.2505,0.13461438650330693,10,1,100,0.12523822358477404,-10,-1,-100,14970.04639172228,-0.006108894223668987,0.005964359817023154,0.9999635532474858,27.471519996490272,0.023967078272197018,107.28311202890832,-34.08729608475811,-5.953857421875,5356.25390625,True
1599562927.5834494,0.0,10,0.5,0.5,-14.452789657592774,-0.15025,-0.03,-0.2505,0.08669949006693096,10,1,100,0.07957694037686058,-10,-1,-100,14969.331554098986,-0.00623569811735701,0.0061682053599667625,0.9999615339159934,28.455546985595248,0.02497661493927139,111.74251692104316,-34.27276731868225,-11.14166259765625,5356.25390625,True
1599562927.6233444,0.0,10,0.5,0.5,-13.362159210205078,-0.15025,-0.03,-0.2505,0.08938879899213015,10,1,100,0.08036289850628678,-10,-1,-100,14968.680191649357,-0.006355093432971271,0.006375865306143196,0.9999594797435825,29.46701960491871,0.026124665051380114,116.35292846712899,-34.45821833820172,-16.39801025390625,5356.25390625,True
1599562927.7390344,0.0,10,0.5,0.5,-5.726166656494139,-0.15025,-0.03,-0.2505,0.16566527167386447,10,1,100,0.10789804570619971,-10,-1,-100,14965.892128452775,-0.006711361593785161,0.00725591516383057,0.9999511534673544,32.25140168924667,0.03004557411328543,130.1409094794383,-35.19983262875105,-38.1080322265625,5356.25390625,True
1599562927.8138347,0.0,10,0.5,0.5,-1.7322836532592758,-0.15025,-0.03,-0.2505,0.17803915220525895,10,1,100,0.0913498724445986,-10,-1,-100,14963.040587727213,-0.006882179334266311,0.00816560068373164,0.9999429776607689,32.91074725845455,0.030954965003755688,135.65152300350462,-35.941264940489965,-60.913909912109375,5356.25390625,True
1599562927.8736756,0.0,10,0.5,0.5,-2.3749011077880855,-0.15025,-0.03,-0.2505,0.1329342709332362,10,1,100,0.07397134387973747,-10,-1,-100,14961.553292487632,-0.006877009755686923,0.008579009808617024,0.9999395518367717,32.17892284325921,0.02981622436662049,134.03039378562164,-36.31199480746392,-72.72833251953125,5356.25390625,True
1599562927.9325194,0.0,10,0.5,0.5,-2.5547975540161136,-0.15025,-0.03,-0.2505,0.11326261639887811,10,1,100,0.0733178010000588,-10,-1,-100,14960.84040669154,-0.006863901729261957,0.008772093900080661,0.9999379666867635,31.53062967365198,0.028952919925854366,132.0145801030404,-36.49737841174708,-78.73843383789062,5356.25390625,True
1599562927.9818947,0.0,10,0.5,0.5,3.6656763572692874,-0.15025,-0.03,-0.2505,0.1523470929494047,10,1,100,0.06443454558129641,-10,-1,-100,14958.637292001164,-0.006769393235802417,0.009299226727219409,0.9999338476606815,28.598843183530487,0.025986383633298617,121.60467921996234,-37.053631961391304,-97.18019104003906,5356.25390625,True
1599562928.0297675,0.0,10,0.5,0.5,1.9272468452453613,-0.15025,-0.03,-0.2505,0.11706410218017298,10,1,100,0.0687615038722251,-10,-1,-100,14957.863858235301,-0.006721372582117571,0.00945371897022731,0.9999327229110188,29.539808835249595,0.027032929647588116,126.24834609827315,-37.23904850631344,-103.46461486816406,5356.25390625,True
1599562928.077152,0.0,10,0.5,0.5,3.280593818664551,-0.15025,-0.03,-0.2505,0.11740723004691306,10,1,100,0.06793256860691863,-10,-1,-100,14957.149992562714,-0.00666878549649275,0.00959318040413145,0.9999317467656157,30.765060010137187,0.028468654622492238,132.15403354279024,-37.42443907977426,-109.81768798828125,5356.25390625,True
