Timestamp,Input Throttle,horizon,dT,dt,Input Roll,Roll P,Roll I,Roll D,Input Pitch,Pitch P,Pitch I,Pitch D,Input Yaw,Yaw P,Yaw I,Yaw D,Altitude,Direction X,Direction Y,Direction Z,Drag X,Drag Y,Drag Z,Vertical Velocity,Roll,Mass,Has Fuel
1599564518.38608,0.0,10,0.5,0.5,-11.642110725402834,-0.2,-0.03,-0.37525,-0.00031100306823459215,10,1,100,0.17492977608660482,-10,-1,-100,14994.000766984653,-0.0168100672947091,-7.445043214098228e-05,0.9998586980642218,28.64458240857498,0.02727520263906485,-87.50388179913286,27.00897926442249,-31.79156494140625,5356.25390625,True
1599564518.433951,0.0,10,0.5,0.5,-11.817400741577147,-0.2,-0.03,-0.37525,0.00010012558208899556,10,1,100,0.18189863579090634,-10,-1,-100,14995.57401465904,-0.01692022144120314,-6.670429626177395e-05,0.9998568405811492,28.426685587675546,0.02776388659566412,-85.04924744135734,26.45108836318849,-31.7896728515625,5356.25390625,True
1599564518.481825,0.0,10,0.5,0.5,-11.911726272583008,-0.2,-0.03,-0.37525,0.00711450340431046,10,1,100,0.17672483751531082,-10,-1,-100,14996.664838021388,-0.016957945025109396,4.165356827030378e-06,0.9998562037028998,28.285077798976083,0.028084952968369742,-83.4388471142945,26.079180687999187,-31.92803955078125,5356.25390625,True
1599564518.5336854,0.0,10,0.5,0.5,-12.1378642578125,-0.2,-0.03,-0.37525,2.7954631112731195e-05,10,1,100,0.1746482736271961,-10,-1,-100,14996.664838021388,-0.016957945025109396,4.165356827030378e-06,0.9998562037028998,28.285077798976083,0.028084952968369742,-83.4388471142945,26.079180687999187,-31.92803955078125,5356.25390625,True
1599564518.5905356,0.0,10,0.5,0.5,-11.704826942443848,-0.2,-0.03,-0.37525,0.024426837360578484,10,1,100,0.17979943817995486,-10,-1,-100,14998.658980109962,-0.01698935748011165,0.0002259695949523308,0.9998556449158823,28.057246374406994,0.028742003628807904,-80.41236327720303,25.33540907026128,-32.983673095703125,5356.25390625,True
1599564518.6374078,0.0,10,0.5,0.5,-11.732529983520509,-0.2,-0.03,-0.37525,0.02274516417606093,10,1,100,0.1753916567111759,-10,-1,-100,14999.686322825262,-0.016962398646324695,0.0004121164464843059,0.9998560432343238,27.971947347760224,0.02906635544594873,-78.99421099110403,24.963542927154144,-33.921478271484375,5356.25390625,True
1599564518.6862779,0.0,10,0.5,0.5,-11.5551547164917,-0.2,-0.03,-0.37525,0.030009546005804487,10,1,100,0.17263120290055467,-10,-1,-100,15000.653117442504,-0.016897375218561522,0.0006470060404687843,0.9998570198252882,27.901333737634904,0.029373479286250715,-77.62401306538771,24.591688818459286,-35.134033203125,5356.25390625,True
1599564518.7331514,0.0,10,0.5,0.5,-11.319121612548829,-0.2,-0.03,-0.37525,0.037530766382500934,10,1,100,0.16966420313969138,-10,-1,-100,15001.617956997012,-0.016795929036206643,0.0009283285783878518,0.9998585074768637,27.840509172663886,0.029649293972815956,-76.28649668009264,24.219846125403453,-36.6214599609375,5356.25390625,True
1599564518.7870116,0.0,10,0.5,0.5,-11.023651863098145,-0.2,-0.03,-0.37525,0.04523794009186106,10,1,100,0.16580219553669198,-10,-1,-100,15002.581819072482,-0.016653327047642025,0.0012532976206008344,0.9998605382468689,27.7832720643116,0.029876939200950407,-74.96369417166422,23.848014651500527,-38.383758544921875,5356.25390625,True
1599564518.8368745,0.0,10,0.5,0.5,-11.273629188537598,-0.2,-0.03,-0.37525,0.03235588384684071,10,1,100,0.17202774128669554,-10,-1,-100,15003.065213617403,-0.016565145358449093,0.0014304750589119056,0.9998617652957629,27.753749359166676,0.029966802514321936,-74.30164796657498,23.66210311699647,-39.36798095703125,5356.25390625,True
1599564518.8847492,0.0,10,0.5,0.5,-9.859056297302246,-0.2,-0.03,-0.37525,0.07930974787816361,10,1,100,0.14578946468787107,-10,-1,-100,15004.449968460714,-0.016231391176140343,0.0020170983348804404,0.9998662276798803,27.64791360945277,0.0301078922985538,-72.27771125752867,23.104385843950546,-42.733123779296875,5356.25390625,True
1599564518.9356108,0.0,10,0.5,0.5,-11.08900146484375,-0.2,-0.03,-0.37525,0.02085657515801228,10,1,100,0.17910701530688922,-10,-1,-100,15004.449968460714,-0.016231391176140343,0.0020170983348804404,0.9998662276798803,27.64791360945277,0.0301078922985538,-72.27771125752867,23.104385843950546,-42.733123779296875,5356.25390625,True
1599564518.9954503,0.0,10,0.5,0.5,-9.56796102142334,-0.2,-0.03,-0.37525,0.06928150905739486,10,1,100,0.1480834812124135,-10,-1,-100,15005.415779195959,-0.01594998525734062,0.002455430640664698,0.9998697759361763,27.550850908028586,0.030067176907125223,-70.86758848745467,22.73259013810931,-45.3201904296875,5356.25390625,True
1599564519.043322,0.0,10,0.5,0.5,-8.852005447387695,-0.2,-0.03,-0.37525,0.07475915378903684,10,1,100,0.13892273777726621,-10,-1,-100,15006.257565664477,-0.01561179853608296,0.002901482902316371,0.9998739186234615,27.41942158371921,0.029892542322459106,-69.3786375760509,22.36080882176353,-48.18255615234375,5356.25390625,True
1599564519.0961814,0.0,10,0.5,0.5,-8.072771621704101,-0.2,-0.03,-0.37525,0.08527999310699638,10,1,100,0.13016342705512254,-10,-1,-100,15007.156968129915,-0.015225949734273806,0.0033999950271216242,0.9998782978385443,27.24111855382259,0.029564218430503386,-67.78409303417655,21.9890437607967,-51.319580078125,5356.25390625,True
1599564519.14505,0.0,10,0.5,0.5,-7.231835327148438,-0.2,-0.03,-0.37525,0.08966387122636035,10,1,100,0.1196156628566078,-10,-1,-100,15008.05929895048,-0.014780892428775201,0.0038901558276368277,0.9998831891309332,27.002311141515428,0.02906669340778207,-66.05654637636141,21.61729803843907,-54.732177734375,5356.25390625,True
1599564519.1979098,0.0,10,0.5,0.5,-6.328623237609865,-0.2,-0.03,-0.37525,0.09652009395716953,10,1,100,0.10914346925542953,-10,-1,-100,15008.898152856156,-0.014283076305781713,0.0043949239989478665,0.9998883329523787,26.68825847138478,0.02839132317245515,-64.1682077957387,21.245574787463024,-58.419891357421875,5356.25390625,True
1599564519.2476144,0.0,10,0.5,0.5,-5.362804481506348,-0.2,-0.03,-0.37525,0.10175984959768286,10,1,100,0.09777742167558351,-10,-1,-100,15009.737982637947,-0.013729565124073377,0.0048980310987275875,0.9998937485217415,26.283690417711092,0.02753835981666574,-62.092511705019774,20.87387767586901,-62.38299560546875,5356.25390625,True
1599564519.2984414,0.0,10,0.5,0.5,-4.334410346984864,-0.2,-0.03,-0.37525,0.10613566286400757,10,1,100,0.08617073959369426,-10,-1,-100,15010.578788118088,-0.01312364545260511,0.0053915724895663404,0.999899345372385,25.77251483809208,0.026517789999189342,-59.803545490742664,20.502210992717732,-66.62161254882812,5356.25390625,True
1599564519.3473108,0.0,10,0.5,0.5,-0.48796208190918033,-0.2,-0.03,-0.37525,0.1587385488654937,10,1,100,-0.003022817757370816,-10,-1,-100,15012.13051579846,-0.011765167667710671,0.006314692467734203,0.9999108487704234,24.36356849213694,0.024075638094789756,-54.49019586349118,19.758985269417856,-75.92587280273438,5356.25390625,True
1599564519.3988755,0.0,10,0.5,0.5,-3.869712066650391,-0.2,-0.03,-0.37525,0.06691497278958967,10,1,100,0.13234496296299914,-10,-1,-100,15012.13051579846,-0.011765167667710671,0.006314692467734203,0.9999108487704234,24.36356849213694,0.024075638094789756,-54.49019586349118,19.758985269417856,-75.92587280273438,5356.25390625,True
1599564519.4467468,0.0,10,0.5,0.5,-0.8560171737670901,-0.2,-0.03,-0.37525,0.11300463966014801,10,1,100,0.050127811245024564,-10,-1,-100,15012.91077410418,-0.011021799218918566,0.006729782535527594,0.999916611507681,23.432748193674584,0.022732743194911902,-51.42568257483829,19.387432370495624,-80.99169921875,5356.25390625,True
1599564519.4972386,0.0,10,0.5,0.5,3.546102777481079,-0.2,-0.03,-0.37525,0.14875221487063522,10,1,100,-0.04905287215470738,-10,-1,-100,15014.461525953026,-0.009449103136343836,0.007427830840707244,0.9999277682807498,21.164847094246593,0.020138828126582915,-44.673601730929086,18.644445710136353,-91.74927520751953,5356.25390625,True
1599564519.5460746,0.0,10,0.5,0.5,-0.3513903579711913,-0.2,-0.03,-0.37525,0.07944462437267444,10,1,100,0.10756664789066596,-10,-1,-100,15014.461525953026,-0.009449103136343836,0.007427830840707244,0.9999277682807498,21.164847094246593,0.020138828126582915,-44.673601730929086,18.644445710136353,-91.74927520751953,5356.25390625,True
1599564519.611898,0.0,10,0.5,0.5,3.0780002403259275,-0.2,-0.03,-0.37525,0.10975102354940076,10,1,100,0.018108123917921132,-10,-1,-100,15015.17537911341,-0.0086414462778641,0.007699228698733492,0.9999330213987692,22.10211856968874,0.021111114078286104,-45.72511385508697,18.27297581261701,-97.48363494873047,5356.25390625,True
1599564519.660768,0.0,10,0.5,0.5,5.976282457351685,-0.2,-0.03,-0.37525,0.11882081953944898,10,1,100,-0.036375369221732956,-10,-1,-100,15016.247624771553,-0.007417894199300585,0.008024498320783599,0.9999402893534931,23.442410457041646,0.02280964371126169,-47.02297856147396,17.71574794731519,-106.0218505859375,5356.25390625,True
1599564519.7081525,0.0,10,0.5,0.5,6.17234245300293,-0.2,-0.03,-0.37525,0.10380545564570082,10,1,100,-0.006276223884313856,-10,-1,-100,15016.959526690189,-0.006585896356609813,0.008179936175892216,0.999944855786227,24.11304538871092,0.023839641849009045,-47.35641868127811,17.34424461519526,-111.66488647460938,5356.25390625,True
1599564519.7640383,0.0,10,0.5,0.5,8.844708765029907,-0.2,-0.03,-0.37525,0.10573185991438996,10,1,100,-0.05575169578731973,-10,-1,-100,15017.968300826964,-0.005386755100453759,0.008335315162818184,0.9999507514826038,24.85533278847152,0.0251228480966464,-47.24927996305096,16.786966331382125,-119.71387481689453,5356.25390625,True
1599564519.814866,0.0,10,0.5,0.5,8.889908712387086,-0.2,-0.03,-0.37525,0.0962737283169255,10,1,100,-0.0236086042225995,-10,-1,-100,15018.61770575028,-0.004596420981830821,0.008387460969079304,0.9999542606602813,25.197530993473308,0.025739840524873766,-46.84182516955009,16.415437847787963,-124.7440185546875,5356.25390625,True
1599564519.862739,0.0,10,0.5,0.5,7.176714492797852,-0.2,-0.03,-0.37525,0.09135873653876476,10,1,100,0.05457208519261688,-10,-1,-100,15018.61770575028,-0.004596420981830821,0.008387460969079304,0.9999542606602813,25.197530993473308,0.025739840524873766,-46.84182516955009,16.415437847787963,-124.7440185546875,5356.25390625,True
1599564520.2752595,0.0,10,0.5,0.5,10.05863470840454,-0.2,-0.03,-0.37525,0.09463588660532764,10,1,100,-0.027737182556695827,-10,-1,-100,15019.271018203464,-0.0038546719538242328,0.008415368907410471,0.9999571606175339,25.38224490086935,0.02608498410293188,-46.11930883989881,16.043908782378068,-129.49928283691406,5356.25390625,True
1599564520.3201036,0.0,10,0.5,0.5,11.012059558868408,-0.2,-0.03,-0.37525,0.09130168400519068,10,1,100,-0.033948122187598434,-10,-1,-100,15019.91944871936,-0.003131082927822662,0.008408519121856035,0.9999597457527362,25.429160668261886,0.02616347486278282,-45.13656596037952,15.67238511544793,-133.97927856445312,5356.25390625,True
1599564520.3690083,0.0,10,0.5,0.5,10.71913035964966,-0.2,-0.03,-0.37525,0.08953052309795262,10,1,100,-0.001976421741341751,-10,-1,-100,15020.213390484685,-0.0027710999230518363,0.008384664457116813,0.9999610084434083,25.407458714680146,0.026108663588721784,-44.56447827439455,15.486627192093074,-136.1161346435547,5356.25390625,True
1599564520.4188406,0.0,10,0.5,0.5,11.239857097625732,-0.2,-0.03,-0.37525,0.09019087492237426,10,1,100,-0.003736494016676868,-10,-1,-100,15020.508310233825,-0.002433912900951032,0.008368111747924617,0.9999620246658195,25.358826245559772,0.02599560236832994,-43.94662057773828,15.300872834254399,-138.18389892578125,5356.25390625,True
1599564520.4627225,0.0,10,0.5,0.5,13.933996280670167,-0.2,-0.03,-0.37525,0.08207817298863979,10,1,100,-0.07799776044239018,-10,-1,-100,15021.45361506741,-0.001458654268112355,0.008278457193891201,0.9999646691129718,25.074908853355748,0.02535351381859211,-41.87478735628534,14.743635934497497,-143.97401428222656,5356.25390625,True
1599564520.5106277,0.0,10,0.5,0.5,12.931745689392091,-0.2,-0.03,-0.37525,0.08635151140553701,10,1,100,-0.015520439660680577,-10,-1,-100,15021.683106022538,-0.0011465609653743285,0.00823527501356429,0.9999654322242362,24.941733576704628,0.025055762710806034,-41.128582284514415,14.557900639284433,-145.7663116455078,5356.25390625,True
1599564520.5624566,0.0,10,0.5,0.5,15.233559314727783,-0.2,-0.03,-0.37525,0.07536856692920255,10,1,100,-0.08153810199668497,-10,-1,-100,15022.56395990355,-0.0002683804264069247,0.008095981921034258,0.9999671909861249,24.504935557204703,0.024032775817972377,-38.86443171844475,14.000728381594126,-150.7296142578125,5356.25390625,True
1599564520.6103272,0.0,10,0.5,0.5,15.986647720336915,-0.2,-0.03,-0.37525,0.07103976955504371,10,1,100,-0.08288036069426923,-10,-1,-100,15023.3842701572,0.0005364246736049331,0.007930075455564473,0.9999684125770367,24.014014095084185,0.02287594821902726,-36.57290752923049,13.443608006267832,-155.07272338867188,5356.25390625,True
1599564520.6562047,0.0,10,0.5,0.5,15.216337997436526,-0.2,-0.03,-0.37525,0.08260702862971186,10,1,100,-0.03014418333977338,-10,-1,-100,15023.677237201366,0.0007832611705984245,0.007884776696459156,0.999968607906461,23.837758659314783,0.022472068161824617,-35.803863393351676,13.25791267191571,-156.38235473632812,5356.25390625,True
1599564520.7040765,0.0,10,0.5,0.5,15.533539550781251,-0.2,-0.03,-0.37525,0.0820118538834807,10,1,100,-0.032260891372875376,-10,-1,-100,15023.909659436904,0.0010220101662094083,0.007838642312554602,0.9999687551028361,23.657811513436116,0.02206525139611024,-35.036751770489126,13.072223061503749,-157.62307739257812,5356.25390625,True
1599564520.7549417,0.0,10,0.5,0.5,17.06977632904053,-0.2,-0.03,-0.37525,0.07096275613442067,10,1,100,-0.08240283998012213,-10,-1,-100,15024.66258833278,0.0016897829394234183,0.007696754546428575,0.9999689518195399,23.133012461618783,0.020877869732142274,-32.8020550273267,12.515185589069663,-160.9315185546875,5356.25390625,True
1599564520.806383,0.0,10,0.5,0.5,16.477659523010253,-0.2,-0.03,-0.37525,0.07987062585364027,10,1,100,-0.038704412594833815,-10,-1,-100,15024.895987333148,0.0018945502525760359,0.007649399587725985,0.9999689482005368,22.959569310725893,0.020493870465242044,-32.07391298733746,12.329516185250744,-161.89645385742188,5356.25390625,True
1599564520.8552856,0.0,10,0.5,0.5,18.022641082763673,-0.2,-0.03,-0.37525,0.06837161406556674,10,1,100,-0.09928918517143832,-10,-1,-100,15025.883293384803,0.0026269042577926395,0.007502503263135808,0.9999684054102945,22.30245566883979,0.019061182626749832,-29.282185685830882,11.586880753306986,-165.06607055664062,5356.25390625,True
1599564520.9051185,0.0,10,0.5,0.5,16.920092224121092,-0.2,-0.03,-0.37525,0.08297303040518637,10,1,100,-0.026593585067862417,-10,-1,-100,15025.883293384803,0.0026269042577926395,0.007502503263135808,0.9999684054102945,22.30245566883979,0.019061182626749832,-29.282185685830882,11.586880753306986,-165.06607055664062,5356.25390625,True
1599564520.9549866,0.0,10,0.5,0.5,17.95164447402954,-0.2,-0.03,-0.37525,0.07312377266272108,10,1,100,-0.07790255181458697,-10,-1,-100,15026.5122004695,0.0030887486671640047,0.007413751473190477,0.9999677474402685,21.874172102209915,0.018120721116408778,-27.34134304498534,11.029940714079093,-166.71910095214844,5356.25390625,True
1599564521.0078447,0.0,10,0.5,0.5,17.993359630584717,-0.2,-0.03,-0.37525,0.07504118748235487,10,1,100,-0.07476097157690291,-10,-1,-100,15027.204586375738,0.003475913398126958,0.007351285167710211,0.9999669377696603,21.522190132262413,0.017302980014889262,-25.54484699049501,10.473023892980326,-167.75131225585938,5356.25390625,True
1599564521.06569,0.0,10,0.5,0.5,17.67197734069824,-0.2,-0.03,-0.37525,0.08119941904579606,10,1,100,-0.03650674591695773,-10,-1,-100,15027.204586375738,0.003475913398126958,0.007351285167710211,0.9999669377696603,21.522190132262413,0.017302980014889262,-25.54484699049501,10.473023892980326,-167.75131225585938,5356.25390625,True
1599564521.1155648,0.0,10,0.5,0.5,17.95888826370239,-0.2,-0.03,-0.37525,0.08065280670787532,10,1,100,-0.08089595525436538,-10,-1,-100,15028.001464881469,0.0038760477613538147,0.007346992961686681,0.9999654983789055,21.191585333941667,0.01639069684042135,-23.371171908799788,9.730491974669707,-168.1613006591797,5356.25390625,True
1599564521.1664276,0.0,10,0.5,0.5,17.80413946533203,-0.2,-0.03,-0.37525,0.08097437998464692,10,1,100,-0.049987097555247016,-10,-1,-100,15028.16943401075,0.003955780636942837,0.007346544424630375,0.9999651894363969,21.135192902894204,0.016190910887758477,-22.86478059039687,9.544861509785795,-168.0914764404297,5356.25390625,True
1599564521.2158575,0.0,10,0.5,0.5,17.785592041015626,-0.2,-0.03,-0.37525,0.08149976256415853,10,1,100,-0.05018424331496228,-10,-1,-100,15028.338380763656,0.0040271731948699555,0.007351402171003683,0.9999648687639876,21.09821997346781,0.016007846350533393,-22.38133376727453,9.359231565712307,-167.95262145996094,5356.25390625,True
1599564521.2706764,0.0,10,0.5,0.5,17.15216901397705,-0.2,-0.03,-0.37525,0.08962299281629012,10,1,100,-0.0651895250108275,-10,-1,-100,15029.07178295392,0.0042257552056491465,0.007430108797400206,0.999963467570791,21.06611303324833,0.01537073710673914,-20.575913098746668,8.616712231629727,-166.70704650878906,5356.25390625,True
1599564521.326043,0.0,10,0.5,0.5,17.636897598266604,-0.2,-0.03,-0.37525,0.081725665601735,10,1,100,-0.045584921159530965,-10,-1,-100,15029.07178295392,0.0042257552056491465,0.007430108797400206,0.999963467570791,21.06611303324833,0.01537073710673914,-20.575913098746668,8.616712231629727,-166.70704650878906,5356.25390625,True
1599564521.3798995,0.0,10,0.5,0.5,17.05503942489624,-0.2,-0.03,-0.37525,0.08776846585420389,10,1,100,-0.05117990976015259,-10,-1,-100,15029.407722144853,0.004274499461152004,0.007485242700413856,0.9999628492079456,21.11325241822522,0.01509881259554637,-19.73413111522766,8.245449585750904,-165.67047119140625,5356.25390625,True
1599564521.4302766,0.0,10,0.5,0.5,16.69079433441162,-0.2,-0.03,-0.37525,0.09010140690241533,10,1,100,-0.04755528069342868,-10,-1,-100,15029.744637875818,0.004284363433544967,0.007556588676830661,0.9999622703870074,21.197498741189545,0.014852192410896433,-18.921400378050652,7.874182991484416,-164.35794067382812,5356.25390625,True
1599564521.4781475,0.0,10,0.5,0.5,15.195225746154787,-0.2,-0.03,-0.37525,0.10063213933835813,10,1,100,-0.03794629352422164,-10,-1,-100,15030.291515571997,0.004204469471295094,0.007717133418069333,0.9999613833985153,21.45476158991951,0.014423238523757818,-17.346140365791513,7.131633886362781,-160.90557861328125,5356.25390625,True
1599564521.5300095,0.0,10,0.5,0.5,16.4732840423584,-0.2,-0.03,-0.37525,0.08460800340897887,10,1,100,-0.04604726182962203,-10,-1,-100,15030.291515571997,0.004204469471295094,0.007717133418069333,0.9999613833985153,21.45476158991951,0.014423238523757818,-17.346140365791513,7.131633886362781,-160.90557861328125,5356.25390625,True
1599564521.5798767,0.0,10,0.5,0.5,14.546880111694335,-0.2,-0.03,-0.37525,0.09942624973753868,10,1,100,-0.02868821200128709,-10,-1,-100,15030.732921902556,0.00404599760369826,0.007851512159010459,0.9999609910692557,21.695592649625873,0.014151540798267295,-16.17172449223345,6.5747057034748035,-157.59246826171875,5356.25390625,True
1599564521.6317728,0.0,10,0.5,0.5,15.045062324523926,-0.2,-0.03,-0.37525,0.09096895622903053,10,1,100,-0.03669227925167773,-10,-1,-100,15030.838391748955,0.003974178258881442,0.007896335412523863,0.9999609261337263,21.77868405957223,0.014069823035179715,-15.77549109907142,6.389059753149384,-156.35025024414062,5356.25390625,True
1599564521.67961,0.0,10,0.5,0.5,12.221065689086915,-0.2,-0.03,-0.37525,0.10616528972739317,10,1,100,-0.0025214963206942956,-10,-1,-100,15031.319836938288,0.003598155254677643,0.008074732908929494,0.9999609252201873,22.08785272448292,0.013787282277872546,-14.140540230249746,5.646461676011301,-150.69235229492188,5356.25390625,True
1599564521.739487,0.0,10,0.5,0.5,13.379227539062502,-0.2,-0.03,-0.37525,0.09304688381025515,10,1,100,-0.02728170353169101,-10,-1,-100,15031.427257847972,0.003481734066758037,0.008116992225974904,0.9999609952218595,22.150858951115918,0.01372805063750227,-13.714779179406642,5.460808990992868,-149.10562133789062,5356.25390625,True
1599564521.791314,0.0,10,0.5,0.5,10.942266471862792,-0.2,-0.03,-0.37525,0.09962419712965953,10,1,100,0.005297753508565803,-10,-1,-100,15031.739757293835,0.0030802155947634345,0.008214507553415342,0.9999615163282759,22.27322933356851,0.013572976578295487,-12.384427590069414,4.903844661646241,-143.9324951171875,5356.25390625,True
1599564521.841177,0.0,10,0.5,0.5,10.633165382385254,-0.2,-0.03,-0.37525,0.0959439482059252,10,1,100,-0.0005910453045321964,-10,-1,-100,15031.94874028291,0.002769774736351856,0.008268987952912688,0.999961975370136,22.27612147545312,0.013478200209708774,-11.448423727238922,4.532530451695809,-140.13937377929688,5356.25390625,True
1599564521.8910806,0.0,10,0.5,0.5,10.826506698608398,-0.2,-0.03,-0.37525,0.09192556496522956,10,1,100,-0.01346550942731876,-10,-1,-100,15031.992684294819,0.002605919975702387,0.008281222214671667,0.9999623145597596,22.246069831658396,0.013428103228330936,-10.964782144193139,4.346871559267413,-138.13967895507812,5356.25390625,True
1599564521.9409137,0.0,10,0.5,0.5,9.074880954742433,-0.2,-0.03,-0.37525,0.09209971117201045,10,1,100,0.008793888452896078,-10,-1,-100,15032.201666533365,0.002256119830278598,0.00829320380041033,0.9999630656649455,22.11018135692529,0.0133114533132327,-9.967082329807685,3.9755493038539798,-133.93382263183594,5356.25390625,True
1599564521.99628,0.0,10,0.5,0.5,9.292779338836672,-0.2,-0.03,-0.37525,0.0906704344631494,10,1,100,-0.005615501255054632,-10,-1,-100,15032.245611321414,0.002070958007786766,0.008290433076343489,0.9999634892596513,21.999835154576882,0.01324075691985047,-9.454275473172023,3.789885262448278,-131.72769165039062,5356.25390625,True
1599564522.045183,0.0,10,0.5,0.5,4.56105001449585,-0.2,-0.03,-0.37525,0.08222530499877251,10,1,100,0.06344884604883767,-10,-1,-100,15032.537598575,0.0012767109313619961,0.008210619150553593,0.9999654772752719,21.220560884168297,0.01281587185767109,-7.332562647915808,3.047199051972344,-122.21522521972656,5356.25390625,True
1599564522.0930219,0.0,10,0.5,0.5,8.014531982421875,-0.2,-0.03,-0.37525,0.09025604615101052,10,1,100,-0.015683085739646004,-10,-1,-100,15032.537598575,0.0012767109313619961,0.008210619150553593,0.9999654772752719,21.220560884168297,0.01281587185767109,-7.332562647915808,3.047199051972344,-122.21522521972656,5356.25390625,True
1599564522.144845,0.0,10,0.5,0.5,4.934990795135498,-0.2,-0.03,-0.37525,0.08108117590340137,10,1,100,0.03163047378369459,-10,-1,-100,15032.62157984695,0.0008491051963064783,0.008126884778310289,0.9999666158248313,20.604780552343982,0.01248574615622586,-6.252181424215929,2.6758309937325584,-117.04632568359375,5356.25390625,True
1599564522.2082298,0.0,10,0.5,0.5,3.6251352081298833,-0.2,-0.03,-0.37525,0.07559727059506757,10,1,100,0.0344719548241586,-10,-1,-100,15032.706537370686,0.0004373820395814028,0.008000699346771717,0.9999678982381954,19.807450407628128,0.012040266892373643,-5.1761302485635525,2.304440627353094,-111.60247802734375,5356.25390625,True
1599564522.2630835,0.0,10,0.5,0.5,-1.1872499122619629,-0.2,-0.03,-0.37525,0.05052396886020553,10,1,100,0.0899089828434011,-10,-1,-100,15032.874499310972,-0.0004380112910571465,0.00765811351465805,0.9999705802889931,17.945411743946014,0.010918642403506283,-3.177889000110456,1.5615769510190711,-99.88945007324219,5356.25390625,True
1599564522.320929,0.0,10,0.5,0.5,3.060415313720703,-0.2,-0.03,-0.37525,0.08473666420044057,10,1,100,0.002761624315327688,-10,-1,-100,15032.874499310972,-0.0004380112910571465,0.00765811351465805,0.9999705802889931,17.945411743946014,0.010918642403506283,-3.177889000110456,1.5615769510190711,-99.88945007324219,5356.25390625,True
1599564522.3957286,0.0,10,0.5,0.5,-4.280833263397216,-0.2,-0.03,-0.37525,0.033485134761115976,10,1,100,0.09279829583810453,-10,-1,-100,15032.97800747375,-0.0012533280986407355,0.007192696332517606,0.9999733467888757,15.545371730616926,0.009436830449559112,-1.4431720043318077,0.8186261413519262,-87.3572998046875,5356.25390625,True
1599564522.456079,0.0,10,0.5,0.5,-1.5373062896728515,-0.2,-0.03,-0.37525,0.0643934910498341,10,1,100,0.03457818236287882,-10,-1,-100,15032.959450138966,-0.0014615940713646803,0.007051553307396817,0.9999740693331619,15.941303930405494,0.009673987040323894,-1.1441509011350182,0.6328861756012092,-84.226806640625,5356.25390625,True
1599564522.5119295,0.0,10,0.5,0.5,-4.171568237304688,-0.2,-0.03,-0.37525,0.046814357583231395,10,1,100,0.0551492933629424,-10,-1,-100,15032.978977769497,-0.0018342391337987836,0.00676454904296087,0.999975437919875,17.16753313627501,0.010428285975558699,-0.508942266077594,0.2614093796117172,-77.88653564453125,5356.25390625,True
1599564523.0745986,0.0,10,0.5,0.5,-5.502819091796875,-0.2,-0.03,-0.37525,0.04173874990069494,10,1,100,0.05668714285564843,-10,-1,-100,15033.001435127226,-0.002183269314159771,0.006458883873411905,0.999976757807006,18.16844370681128,0.011068630735537079,0.22678414050952816,-0.11006496395215803,-71.72869873046875,5356.25390625,True
1599564523.1409366,0.0,10,0.5,0.5,-6.764215957641602,-0.2,-0.03,-0.37525,0.03628511183723139,10,1,100,0.05809426385833578,-10,-1,-100,15032.959439344355,-0.0025094940078560567,0.006133092963429478,0.9999780435642208,19.023001253165315,0.011608668050505826,1.038885259454962,-0.48154351215004043,-65.8319091796875,5356.25390625,True
1599564523.1977844,0.0,10,0.5,0.5,-9.513456161499024,-0.2,-0.03,-0.37525,0.013417118293807463,10,1,100,0.07371916418280706,-10,-1,-100,15032.897912211716,-0.0029446644551304026,0.00563091721867535,0.999979810657457,19.918042261664336,0.012152573249377508,2.346584013003925,-1.038781669625111,-57.5001220703125,5356.25390625,True
1599564523.2651212,0.0,10,0.5,0.5,-9.578198608398438,-0.2,-0.03,-0.37525,0.025804816119619586,10,1,100,0.05891732013026519,-10,-1,-100,15032.853963732254,-0.0032018741200053433,0.005289354432707959,0.9999808851832144,20.26614539221478,0.012363617664688268,3.2415586243170758,-1.410290115985507,-52.2900390625,5356.25390625,True
1599564523.33294,0.0,10,0.5,0.5,-10.655995391845703,-0.2,-0.03,-0.37525,0.02332416538197718,10,1,100,0.0591077908501159,-10,-1,-100,15032.812945287093,-0.0034337499316027397,0.004958871011800494,0.9999818093143972,20.447899690675644,0.012478106972915279,4.132325264378122,-1.7818110763543742,-47.35546875,5356.25390625,True
1599564523.391781,0.0,10,0.5,0.5,-11.677021362304687,-0.2,-0.03,-0.37525,0.019301155615331134,10,1,100,0.05915243071159705,-10,-1,-100,15032.706497945357,-0.0036414327300036704,0.0046246240206741715,0.9999826762601142,20.497435175385338,0.012521010641326526,5.006191571094026,-2.153342624680497,-42.6966552734375,5356.25390625,True
1599564523.447632,0.0,10,0.5,0.5,-12.621873764038087,-0.2,-0.03,-0.37525,0.016962578196028692,10,1,100,0.058941755936532635,-10,-1,-100,15032.603957194951,-0.003825407847468525,0.004302261042651114,0.9999834282650495,20.451047332234012,0.012516279842977332,5.856834359412872,-2.5248822340514585,-38.3133544921875,5356.25390625,True
1599564523.5004923,0.0,10,0.5,0.5,-11.161768432617189,-0.2,-0.03,-0.37525,0.048863290751133714,10,1,100,0.040882983845688316,-10,-1,-100,15032.603957194951,-0.003825407847468525,0.004302261042651114,0.9999834282650495,20.451047332234012,0.012516279842977332,5.856834359412872,-2.5248822340514585,-38.3133544921875,5356.25390625,True
1599564523.5583365,0.0,10,0.5,0.5,-13.671870254516602,-0.2,-0.03,-0.37525,0.014377235255464277,10,1,100,0.05917517230231231,-10,-1,-100,15032.500439314288,-0.003989362215484354,0.003991379115681271,0.9999840768141602,20.306095326946235,0.012466755814163885,6.671254130283468,-2.896426971270334,-34.20562744140625,5356.25390625,True
1599564523.6281505,0.0,10,0.5,0.5,-14.485008079528809,-0.2,-0.03,-0.37525,0.012316308293395629,10,1,100,0.05897018765311271,-10,-1,-100,15032.393992986646,-0.0041342501731022755,0.0036928054589550757,0.9999846354636397,20.081667981190883,0.01238763134293149,7.444060615735096,-3.2679747005908046,-30.373382568359375,5356.25390625,True
1599564523.6820054,0.0,10,0.5,0.5,-15.23538494873047,-0.2,-0.03,-0.37525,0.009013567179335349,10,1,100,0.05776367442352409,-10,-1,-100,15032.22602252732,-0.004252907276995668,0.0033941424368798103,0.9999851961788291,19.797913379316526,0.012292565539389887,8.173519110802786,-3.639523838743763,-26.816864013671875,5356.25390625,True
1599564523.7378585,0.0,10,0.5,0.5,-16.807350761413574,-0.2,-0.03,-0.37525,-0.0060304421750283985,10,1,100,0.06349857557176386,-10,-1,-100,15031.976020107744,-0.004411031347371081,0.0029886530058049277,0.9999858052770866,19.352053085763448,0.01217103648343184,9.213348363337811,-4.196850505940551,-21.9984130859375,5356.25390625,True
1599564523.7966998,0.0,10,0.5,0.5,-15.975415313720703,-0.2,-0.03,-0.37525,0.020019080901568183,10,1,100,0.05275282153245868,-10,-1,-100,15031.893012363347,-0.004455363158864577,0.002859698678212844,0.999985985833098,19.21242554149425,0.01214305343688987,9.551934910880831,-4.382627282102702,-20.530029296875,5356.25390625,True
1599564523.850305,0.0,10,0.5,0.5,-17.105858726501463,-0.2,-0.03,-0.37525,0.005591835621657066,10,1,100,0.05730705481167668,-10,-1,-100,15031.725042807404,-0.00453569356393907,0.002613829985621269,0.9999862975944721,18.9436140819359,0.012100144336701741,10.217141168603835,-4.754183711067135,-17.799835205078125,5356.25390625,True
1599564523.9071538,0.0,10,0.5,0.5,-18.850569160461426,-0.2,-0.03,-0.37525,-0.017882432266236977,10,1,100,0.06408523307096238,-10,-1,-100,15031.32660393638,-0.004669128444142176,0.0021793428519636063,0.9999867247640369,18.472616040568923,0.012068118094918426,11.52137264799007,-5.497312761787924,-13.165771484375,5356.25390625,True
1599564523.964001,0.0,10,0.5,0.5,-17.781626205444336,-0.2,-0.03,-0.37525,0.014748757408602547,10,1,100,0.054149519211647276,-10,-1,-100,15031.182072066818,-0.004698985137867099,0.002083528571282306,0.9999867891364199,18.363198872936472,0.012064472911128301,11.840452196993013,-5.6830992034294425,-12.17938232421875,5356.25390625,True
1599564524.0138693,0.0,10,0.5,0.5,-18.03085124206543,-0.2,-0.03,-0.37525,0.014054468779823942,10,1,100,0.05430258488923584,-10,-1,-100,15031.09711173491,-0.004726557681587958,0.0019924230517189474,0.999986844864904,18.259898120768806,0.012063292677057344,12.159017022269959,-5.868887496750477,-11.2618408203125,5356.25390625,True
1599564524.0677238,0.0,10,0.5,0.5,-19.48282741546631,-0.2,-0.03,-0.37525,-0.01176296671393929,10,1,100,0.06279428588178904,-10,-1,-100,15030.571720812586,-0.00482800168505366,0.0016769957458007121,0.9999869389572034,18.013619573079566,0.012147387205975623,13.515232508491545,-6.6120593973951225,-8.280303955078125,5356.25390625,True
1599564524.119585,0.0,10,0.5,0.5,-19.07399782562256,-0.2,-0.03,-0.37525,0.0053748684947002336,10,1,100,0.057408931929061775,-10,-1,-100,15030.281681919354,-0.004870354294236245,0.0015484287562234488,0.9999869409234481,17.948936418502004,0.01221382935091404,14.224268392628263,-6.983655717788809,-7.20269775390625,5356.25390625,True
1599564524.1734445,0.0,10,0.5,0.5,-18.750634887695313,-0.2,-0.03,-0.37525,0.017987272416480782,10,1,100,0.053261770218678436,-10,-1,-100,15030.281681919354,-0.004870354294236245,0.0015484287562234488,0.9999869409234481,17.948936418502004,0.01221382935091404,14.224268392628263,-6.983655717788809,-7.20269775390625,5356.25390625,True
1599564524.2392678,0.0,10,0.5,0.5,-19.281674118041995,-0.2,-0.03,-0.37525,0.0062268314688549466,10,1,100,0.058506745917184584,-10,-1,-100,15029.986760240514,-0.004917366705930725,0.0014434650900656972,0.9999868678703802,17.92565399401705,0.012299187263621053,14.962535992009308,-7.355257693675867,-6.400390625,5356.25390625,True
1599564524.28614,0.0,10,0.5,0.5,-19.43699105834961,-0.2,-0.03,-0.37525,0.002661140625142989,10,1,100,0.0595932108208207,-10,-1,-100,15029.544376519741,-0.00496937816165973,0.001317401547112918,0.999986784779604,17.974374699880084,0.012472456096967401,16.141630072119504,-7.912668286481461,-5.7135009765625,5356.25390625,True
1599564524.3389986,0.0,10,0.5,0.5,-19.280580612182618,-0.2,-0.03,-0.37525,0.011563142531796834,10,1,100,0.05612836319221498,-10,-1,-100,15029.397893208312,-0.0049846551004130565,0.0012852449358151466,0.999986750591719,18.013944489393715,0.012544845451775123,16.557549240085866,-8.098473251353559,-5.62225341796875,5356.25390625,True
1599564524.3958466,0.0,10,0.5,0.5,-19.105012893676758,-0.2,-0.03,-0.37525,0.0062585736280247,10,1,100,0.06091826275515941,-10,-1,-100,15028.685979559086,-0.0050416065935414405,0.0012092196207305146,0.9999865599051143,18.290005216314928,0.012924417471208526,18.356531230896643,-8.841695969750624,-5.9456787109375,5356.25390625,True
1599564524.4487047,0.0,10,0.5,0.5,-19.261940704345704,-0.2,-0.03,-0.37525,0.01372064409999882,10,1,100,0.055273704745281246,-10,-1,-100,15028.685979559086,-0.0050416065935414405,0.0012092196207305146,0.9999865599051143,18.290005216314928,0.012924417471208526,18.356531230896643,-8.841695969750624,-5.9456787109375,5356.25390625,True
1599564524.499569,0.0,10,0.5,0.5,-18.95293054199219,-0.2,-0.03,-0.37525,0.012515610247701944,10,1,100,0.05744539342124976,-10,-1,-100,15028.329534525867,-0.005061010601368973,0.0011991466977380276,0.9999864740179689,18.497627129003025,0.013177350083448346,19.34654124794906,-9.213306572065983,-6.5205078125,5356.25390625,True
1599564524.5490625,0.0,10,0.5,0.5,-18.696557998657227,-0.2,-0.03,-0.37525,0.014873636023596128,10,1,100,0.05751812844256428,-10,-1,-100,15027.973089494975,-0.005078982721893679,0.0012122300765016632,0.9999863671234486,18.750013919921887,0.0134793340352067,20.402977310365856,-9.584914750796202,-7.37066650390625,5356.25390625,True
1599564524.603917,0.0,10,0.5,0.5,-18.37974621582031,-0.2,-0.03,-0.37525,0.016716399842158423,10,1,100,0.05686250554147204,-10,-1,-100,15027.554144202266,-0.005089040418687749,0.0012415857218875503,0.9999862799721366,19.044334773141472,0.01383458738471401,21.52832425384118,-9.956518773836052,-8.49627685546875,5356.25390625,True
1599564524.652142,0.0,10,0.5,0.5,-17.995557769775395,-0.2,-0.03,-0.37525,0.01936610003351683,10,1,100,0.056510971219526696,-10,-1,-100,15027.135199113283,-0.005094750704906824,0.001292756683090627,0.9999861860522942,19.376769355935444,0.01424636072526469,22.723429009551825,-10.328116826663848,-9.89727783203125,5356.25390625,True
1599564524.7059972,0.0,10,0.5,0.5,-16.426162872314453,-0.2,-0.03,-0.37525,0.03169662216078359,10,1,100,0.05448896885878829,-10,-1,-100,15026.295356195304,-0.005081356037816843,0.0014516038235896061,0.9999860362360847,20.15024296766603,0.015256138532596206,25.335072970019144,-11.071287305987946,-13.52532958984375,5356.25390625,True
1599564524.760374,0.0,10,0.5,0.5,-17.14785066986084,-0.2,-0.03,-0.37525,0.021372009869074202,10,1,100,0.05481273765694389,-10,-1,-100,15026.02582417638,-0.005071930600678656,0.0015022382258755326,0.9999860093022775,20.38154808595217,0.015561811795114852,26.05704510168889,-11.25707281289186,-14.604461669921875,5356.25390625,True
1599564524.8072484,0.0,10,0.5,0.5,-15.42820778656006,-0.2,-0.03,-0.37525,0.03591850684622521,10,1,100,0.0504820066619857,-10,-1,-100,15025.332465737243,-0.005023851227058186,0.0016804569521679206,0.9999859683931972,21.100141010196726,0.016558722864526025,28.315066627290705,-11.814408332189982,-18.2550048828125,5356.25390625,True
1599564524.860521,0.0,10,0.5,0.5,-15.16246662902832,-0.2,-0.03,-0.37525,0.03352113921560409,10,1,100,0.05027205565473551,-10,-1,-100,15024.85199701821,-0.004978184539096031,0.0018203496745143948,0.9999859519042041,21.585980610132406,0.01727443930811321,29.880699545471117,-12.185945052231924,-21.03289794921875,5356.25390625,True
1599564524.9193628,0.0,10,0.5,0.5,-14.40218495941162,-0.2,-0.03,-0.37525,0.03617342962662695,10,1,100,0.04756694008712396,-10,-1,-100,15024.368598716566,-0.004912083290844255,0.001971150148803489,0.9999859929043179,22.115554725651435,0.018052940026448167,31.550022215746527,-12.557462726842529,-24.086273193359375,5356.25390625,True
1599564524.9687474,0.0,10,0.5,0.5,-13.578652114868165,-0.2,-0.03,-0.37525,0.0392656343637651,10,1,100,0.04522836659020721,-10,-1,-100,15023.88519978372,-0.004830849236373122,0.0021356597771056735,0.9999860508291962,22.629602963982425,0.018833195186570322,33.24154098204164,-12.92895968780699,-27.415069580078125,5356.25390625,True
1599564525.0196495,0.0,10,0.5,0.5,-14.763374786376954,-0.2,-0.03,-0.37525,0.022907315549184182,10,1,100,0.05333069630160365,-10,-1,-100,15023.88519978372,-0.004830849236373122,0.0021356597771056735,0.9999860508291962,22.629602963982425,0.018833195186570322,33.24154098204164,-12.92895968780699,-27.415069580078125,5356.25390625,True
1599564525.0714731,0.0,10,0.5,0.5,-11.53125109100342,-0.2,-0.03,-0.37525,0.051875990407356576,10,1,100,0.0359661585040554,-10,-1,-100,15023.067815782502,-0.004673199039454498,0.0023981599911987246,0.999986204924545,23.332820109233218,0.01993105742372817,35.75675266808255,-13.48616414424656,-32.92474365234375,5356.25390625,True
1599564525.1223397,0.0,10,0.5,0.5,-12.386393119812013,-0.2,-0.03,-0.37525,0.035736728775704565,10,1,100,0.04481366908335088,-10,-1,-100,15022.796332146507,-0.00461068148723338,0.002488997871073119,0.9999862731586973,23.540280641673053,0.020258069997657557,36.573224899823245,-13.671887949036604,-34.899017333984375,5356.25390625,True
1599564525.1722043,0.0,10,0.5,0.5,-8.109040771484374,-0.2,-0.03,-0.37525,0.06826914798816196,10,1,100,0.018101440216794655,-10,-1,-100,15021.643987993011,-0.004311443776364992,0.0028661930163911037,0.9999865981052727,24.167942636659497,0.021222598721700306,39.59615751419884,-14.414732698556449,-43.484832763671875,5356.25390625,True
1599564525.2270586,0.0,10,0.5,0.5,-11.230105346679688,-0.2,-0.03,-0.37525,0.03070697708969356,10,1,100,0.04794688061077923,-10,-1,-100,15021.643987993011,-0.004311443776364992,0.0028661930163911037,0.9999865981052727,24.167942636659497,0.021222598721700306,39.59615751419884,-14.414732698556449,-43.484832763671875,5356.25390625,True
1599564525.2769253,0.0,10,0.5,0.5,-8.433033767700195,-0.2,-0.03,-0.37525,0.05224081822773728,10,1,100,0.028105579692397364,-10,-1,-100,15021.037541743717,-0.004131768233708295,0.0030606692183798635,0.9999867803102193,24.323255807953053,0.021421164814759846,40.88137182796805,-14.786130774403276,-48.190948486328125,5356.25390625,True
1599564525.3327754,0.0,10,0.5,0.5,-4.208216506958008,-0.2,-0.03,-0.37525,0.07245473544308702,10,1,100,-0.0006705421904116132,-10,-1,-100,15019.822696997202,-0.003707680416328462,0.003419811893970548,0.999987278915357,24.205412711050602,0.02109015461246146,42.73561310266846,-15.528905118698832,-58.430023193359375,5356.25390625,True
1599564525.3776557,0.0,10,0.5,0.5,-6.358271659851074,-0.2,-0.03,-0.37525,0.04561697569414079,10,1,100,0.02864092049436615,-10,-1,-100,15019.546328779543,-0.0035898103983999837,0.00350074436957002,0.9999874289460655,24.070650890686714,0.020847131754490645,43.0081113970409,-15.714599098960878,-61.162109375,5356.25390625,True
1599564525.8269987,0.0,10,0.5,0.5,-4.000985260009765,-0.2,-0.03,-0.37525,0.05494537648759096,10,1,100,0.012828947387896479,-10,-1,-100,15018.879335647332,-0.0033401727848977303,0.003657595359423582,0.9999877325457317,23.744852032437663,0.02025238280315669,43.43332149660201,-16.085992633581384,-66.8328857421875,5356.25390625,True
1599564525.8688555,0.0,10,0.5,0.5,-4.310152503967285,-0.2,-0.03,-0.37525,0.046858629837049325,10,1,100,0.023644283991480143,-10,-1,-100,15018.542421984952,-0.003212979751297303,0.0037251381577304236,0.9999878999802065,23.527949594817354,0.019889677638448188,43.53579600367582,-16.27169363198529,-69.77169799804688,5356.25390625,True
1599564525.9157312,0.0,10,0.5,0.5,-1.7859896850585941,-0.2,-0.03,-0.37525,0.05543818258659894,10,1,100,0.006058740273707924,-10,-1,-100,15017.931093308958,-0.002938951931939963,0.0038630916553865262,0.9999882194728115,22.93458378941433,0.019028797141711174,43.41145321232131,-16.643107334901114,-75.85580444335938,5356.25390625,True
1599564525.9701345,0.0,10,0.5,0.5,-0.26519951629638694,-0.2,-0.03,-0.37525,0.05400566480405451,10,1,100,0.0024989195486784313,-10,-1,-100,15017.19964669086,-0.002659193632573416,0.003973910644434142,0.9999885682963655,22.11832177992193,0.018043514063876137,42.8058221773874,-17.0145398601369,-82.2156982421875,5356.25390625,True
1599564526.019968,0.0,10,0.5,0.5,1.3131407852172852,-0.2,-0.03,-0.37525,0.053557799248257834,10,1,100,-0.002056497177560214,-10,-1,-100,15016.528747402714,-0.0023652859405533687,0.004069151174285427,0.9999889236542274,21.071070737101053,0.017008054238224227,41.67442841555574,-17.38599195531604,-88.85110473632812,5356.25390625,True
1599564526.0708332,0.0,10,0.5,0.5,7.0353876514434806,-0.2,-0.03,-0.37525,0.057383685544628665,10,1,100,-0.03736958843257754,-10,-1,-100,15015.125425290782,-0.0017791102959865135,0.004189077755659774,0.9999896431434238,22.061021745090947,0.018038598321646903,45.50815890197533,-18.128885485205124,-102.84558868408203,5356.25390625,True
1599564526.1256862,0.0,10,0.5,0.5,5.985625486373901,-0.2,-0.03,-0.37525,0.048640263176849635,10,1,100,-0.01083403390341215,-10,-1,-100,15014.390072739567,-0.0014897577816275836,0.004217413640166399,0.9999899969719397,23.345421160228845,0.019455181139213802,49.15039480576268,-18.50027330161742,-109.840087890625,5356.25390625,True
1599564526.1745894,0.0,10,0.5,0.5,3.560005424499512,-0.2,-0.03,-0.37525,0.04594179678856466,10,1,100,0.017819048933007096,-10,-1,-100,15014.390072739567,-0.0014897577816275836,0.004217413640166399,0.9999899969719397,23.345421160228845,0.019455181139213802,49.15039480576268,-18.50027330161742,-109.840087890625,5356.25390625,True
1599564526.228449,0.0,10,0.5,0.5,11.353638252258301,-0.2,-0.03,-0.37525,0.046805114814306145,10,1,100,-0.04126637037664954,-10,-1,-100,15012.861750770127,-0.0009550194337689602,0.00422421040001697,0.9999906219482149,25.11560691336049,0.021744296878087953,55.0134523733536,-19.24292439891817,-123.06683349609375,5356.25390625,True
1599564526.2742887,0.0,10,0.5,0.5,6.584212394714356,-0.2,-0.03,-0.37525,0.046205878679853665,10,1,100,0.011932198310956842,-10,-1,-100,15012.861750770127,-0.0009550194337689602,0.00422421040001697,0.9999906219482149,25.11560691336049,0.021744296878087953,55.0134523733536,-19.24292439891817,-123.06683349609375,5356.25390625,True
1599564526.3281794,0.0,10,0.5,0.5,10.33830933380127,-0.2,-0.03,-0.37525,0.04321808665147676,10,1,100,-0.01671833286267825,-10,-1,-100,15012.065851944499,-0.0006969553239764875,0.004196390957913137,0.9999909522371714,25.721007090395357,0.022543247362504494,57.43351948229164,-19.614199161589063,-129.27001953125,5356.25390625,True
1599564526.3790085,0.0,10,0.5,0.5,11.60758493423462,-0.2,-0.03,-0.37525,0.0431232407909424,10,1,100,-0.015871884030541378,-10,-1,-100,15011.267998982454,-0.00047244950214904874,0.00416974850672435,0.9999911949556649,26.091425063253695,0.02299243692565425,59.37061439766322,-19.985451886685727,-135.19737243652344,5356.25390625,True
1599564526.4318671,0.0,10,0.5,0.5,15.923348045349123,-0.2,-0.03,-0.37525,0.033974684672472166,10,1,100,-0.040769629449660255,-10,-1,-100,15009.6732711402,-4.4501551449522134e-05,0.004061955213340274,0.9999917492356907,26.362593648982042,0.022997684169474293,62.2317740936037,-20.727924810059502,-146.2251434326172,5356.25390625,True
1599564526.4807367,0.0,10,0.5,0.5,11.996284996032715,-0.2,-0.03,-0.37525,0.044773900366675126,10,1,100,0.0017357205822433658,-10,-1,-100,15009.6732711402,-4.4501551449522134e-05,0.004061955213340274,0.9999917492356907,26.362593648982042,0.022997684169474293,62.2317740936037,-20.727924810059502,-146.2251434326172,5356.25390625,True
1599564526.5375862,0.0,10,0.5,0.5,16.529539066314697,-0.2,-0.03,-0.37525,0.034705514813964666,10,1,100,-0.028348487621514096,-10,-1,-100,15008.353933623526,0.00022661425760179667,0.0039703443950711735,0.9999920924744169,26.158507075918173,0.022300189175780825,63.42137672691348,-21.28477789799032,-153.77182006835938,5356.25390625,True
1599564526.588449,0.0,10,0.5,0.5,17.876606910705565,-0.2,-0.03,-0.37525,0.03233376662811488,10,1,100,-0.027022492448043365,-10,-1,-100,15007.095144454623,0.000458672400436757,0.003865590310209006,0.9999924233868889,25.70499541709621,0.021246220669881383,63.965581619322776,-21.841647566596762,-160.69784545898438,5356.25390625,True
1599564526.6383157,0.0,10,0.5,0.5,17.90880047607422,-0.2,-0.03,-0.37525,0.03616466802529106,10,1,100,-0.01848239285378208,-10,-1,-100,15006.172292382922,0.0005899627315239608,0.0038054797798045014,0.99999258510632,25.305166382976704,0.020461915181104434,64.0501984199151,-22.21290682829075,-164.97012329101562,5356.25390625,True
1599564526.6863613,0.0,10,0.5,0.5,17.640319984436037,-0.2,-0.03,-0.37525,0.038682549414072044,10,1,100,-0.012147598895422822,-10,-1,-100,15005.772877495969,0.0006498378869698333,0.0037740981592078353,0.9999926669200156,25.084425442963518,0.020068817129206277,64.0267895672349,-22.398540483747826,-167.0028076171875,5356.25390625,True
1599564526.7402186,0.0,10,0.5,0.5,18.178652618408204,-0.2,-0.03,-0.37525,0.038409651051997014,10,1,100,-0.012502396974739507,-10,-1,-100,15005.312916722614,0.0007055501965793259,0.0037434915330837827,0.9999927442087077,24.853359245767326,0.01968411414369195,63.96753576941468,-22.58417666134995,-168.96649169921875,5356.25390625,True
1599564526.7900856,0.0,10,0.5,0.5,19.719655616760253,-0.2,-0.03,-0.37525,0.034737932142858974,10,1,100,-0.017834024867084654,-10,-1,-100,15004.390064979088,0.0008031574864907767,0.0036827250818578738,0.9999928962117797,24.369296164650084,0.018961364139148933,63.76248406100768,-22.9554559955486,-172.68692016601562,5356.25390625,True
1599564526.8519192,0.0,10,0.5,0.5,21.38503199005127,-0.2,-0.03,-0.37525,0.031463388865104906,10,1,100,-0.020843020919623832,-10,-1,-100,15003.00627471495,0.0009176475533240338,0.0035982065375985187,0.9999931053925726,23.620679825752653,0.01805545599112373,63.31798286750142,-23.512389153328694,-177.7501220703125,5356.25390625,True
1599564526.9107625,0.0,10,0.5,0.5,-184.90406616973877,-0.2,-0.03,-0.37525,0.031902473255681144,10,1,100,-0.01819854565737152,-10,-1,-100,15001.559009438497,0.0009962209272635187,0.003525906977659175,0.9999932877393973,23.00940729018098,0.01751377843032562,63.15548565678866,-24.069331451360085,177.80758666992188,5356.25390625,True
1599564526.968608,0.0,10,0.5,0.5,-52.42005084228516,-0.2,-0.03,-0.37525,0.039068045096709,10,1,100,-0.010488075306364282,-10,-1,-100,15001.559009438497,0.0009962209272635187,0.003525906977659175,0.9999932877393973,23.00940729018098,0.01751377843032562,63.15548565678866,-24.069331451360085,177.80758666992188,5356.25390625,True
1599564527.0275602,0.0,10,0.5,0.5,-51.886971805572514,-0.2,-0.03,-0.37525,0.034562642849503715,10,1,100,-0.014382005815114111,-10,-1,-100,15000.575610405882,0.0010306741841805962,0.0034854360919897463,0.9999933947011724,23.644979139190003,0.018085037951597067,65.91173601259842,-24.44060961835005,175.19102478027344,5356.25390625,True
1599564527.0774198,0.0,10,0.5,0.5,-52.3248094329834,-0.2,-0.03,-0.37525,0.0347788658935957,10,1,100,-0.01317261746499311,-10,-1,-100,14999.589282162255,0.0010500234547989938,0.003451134150074148,0.9999934935407442,24.218106315226073,0.018706771510071586,68.54601974179161,-24.81186567515841,172.56907653808594,5356.25390625,True
1599564527.130251,0.0,10,0.5,0.5,-52.64592612075806,-0.2,-0.03,-0.37525,0.035046147959051234,10,1,100,-0.011541318951340671,-10,-1,-100,14998.60295376333,0.0010520351605123356,0.003422852412786833,0.9999935886311379,24.787644900426567,0.019423148952597207,71.21941956707998,-25.183098509159212,169.71502685546875,5356.25390625,True
1599564527.2020578,0.0,10,0.5,0.5,-50.957944526672364,-0.2,-0.03,-0.37525,0.034512566892248076,10,1,100,-0.007512361823019919,-10,-1,-100,14996.50725049409,0.001016697680212389,0.0033926934945523565,0.9999937279586703,26.042289837017663,0.02123388453680593,77.05545423228347,-25.92548420516514,163.19577026367188,5356.25390625,True
1599564527.24594,0.0,10,0.5,0.5,-52.27652959442139,-0.2,-0.03,-0.37525,0.0371626931496946,10,1,100,-0.006833112132376047,-10,-1,-100,14995.459398693405,0.0009780097600714129,0.0033897436133025756,0.9999937765482071,26.673668729311363,0.022264798379815896,80.06666597523616,-26.296632473016675,159.52386474609375,5356.25390625,True
1599564527.3007936,0.0,10,0.5,0.5,-52.36336271667481,-0.2,-0.03,-0.37525,0.03803395737552127,10,1,100,-0.004959138546659855,-10,-1,-100,14994.409594025346,0.0009255044620066496,0.0033953319001702037,0.9999938075622161,27.277015997682966,0.02332405652649281,83.04685539731369,-26.6677497189906,155.57666015625,5356.25390625,True
1599564527.3526921,0.0,10,0.5,0.5,-52.389211795806894,-0.2,-0.03,-0.37525,0.03913197101973333,10,1,100,-0.002900980480648508,-10,-1,-100,14993.361742494395,0.0008588618865609186,0.0034107106119362603,0.9999938146855618,27.90627668425922,0.02442352757345527,86.15894693076648,-27.038834297196967,151.3542022705078,5356.25390625,True
1599564527.4045167,0.0,10,0.5,0.5,-53.67196061325074,-0.2,-0.03,-0.37525,0.03877661137011742,10,1,100,-0.005380511074203672,-10,-1,-100,14992.774827587768,0.0008207682739152372,0.003421708002608823,0.9999938091077292,28.198456834357895,0.024947121448237356,87.66549160433559,-27.22436455004963,149.1397705078125,5356.25390625,True
1599564527.4564111,0.0,10,0.5,0.5,-52.817174777984626,-0.2,-0.03,-0.37525,0.04097688404403853,10,1,100,0.00030969200399671645,-10,-1,-100,14991.66349981248,0.0007344966701440768,0.0034518685625604265,0.9999937725396435,28.72495095053019,0.0258986973958601,90.53391416161382,-27.59540221889068,144.50453186035156,5356.25390625,True
1599564527.510233,0.0,10,0.5,0.5,-53.064078533172605,-0.2,-0.03,-0.37525,0.04004659160679423,10,1,100,-0.0030162132098926426,-10,-1,-100,14991.13908636896,0.0006865413725303064,0.003470897357100662,0.9999937407466509,28.953764365937175,0.02630850511612384,91.87586911325624,-27.780910416611764,142.083740234375,5356.25390625,True
1599564527.5601003,0.0,10,0.5,0.5,-50.96149732971191,-0.2,-0.03,-0.37525,0.04336216250740271,10,1,100,0.0036601108356693734,-10,-1,-100,14990.02775884408,0.0005825333193351634,0.0035183878236160065,0.9999936407808074,29.3278302304599,0.026951295744230212,94.32068195485634,-28.1519086605901,137.03582763671875,5356.25390625,True
1599564527.6149533,0.0,10,0.5,0.5,-48.08888618850708,-0.2,-0.03,-0.37525,0.04873645274809499,10,1,100,0.01312689076661379,-10,-1,-100,14988.330493094283,0.00040232630875358005,0.0036103882028802256,0.9999934015935134,29.635886280055423,0.02735897114040602,97.21871888347225,-28.70837224154055,128.94825744628906,5356.25390625,True
1599564527.6718414,0.0,10,0.5,0.5,-47.69359712600708,-0.2,-0.03,-0.37525,0.048081128638585165,10,1,100,0.009902250568608046,-10,-1,-100,14987.156665418297,0.00026840548015768866,0.0036879226429859663,0.9999931635691706,29.637836508298253,0.027200963548068745,98.49746405234139,-29.07933668159863,123.21286010742188,5356.25390625,True
1599564527.7207458,0.0,10,0.5,0.5,-47.99734006118774,-0.2,-0.03,-0.37525,0.04523757461767493,10,1,100,0.004414149532867662,-10,-1,-100,14986.567799548153,0.000197263490559386,0.00373231703359182,0.9999930154239459,29.569068811525177,0.026989177518965957,98.90390880918221,-29.264818634926733,120.24205017089844,5356.25390625,True
1599564527.775564,0.0,10,0.5,0.5,-41.7522645072937,-0.2,-0.03,-0.37525,0.06442231971003487,10,1,100,0.03224652750019962,-10,-1,-100,14984.156668665935,-0.00011968772315149511,0.003946773595401287,0.9999922042961312,28.765611895795956,0.025364053247771967,98.68979575537307,-30.006772661936058,107.67184448242188,5356.25390625,True
1599564527.84139,0.0,10,0.5,0.5,-46.31367813110352,-0.2,-0.03,-0.37525,0.04303236652729804,10,1,100,0.0006611758774338,-10,-1,-100,14984.156668665935,-0.00011968772315149511,0.003946773595401287,0.9999922042961312,28.765611895795956,0.025364053247771967,98.68979575537307,-30.006772661936058,107.67184448242188,5356.25390625,True
1599564527.8982418,0.0,10,0.5,0.5,-38.30685022735596,-0.2,-0.03,-0.37525,0.0745557154405379,10,1,100,0.04049715923360844,-10,-1,-100,14981.747492379742,-0.00048088285167566627,0.0042328481839805305,0.999990925832797,27.011330081864717,0.02300866362428341,94.99783643722633,-30.748815882483132,94.0028076171875,5356.25390625,True
1599564527.945111,0.0,10,0.5,0.5,-39.09554970169068,-0.2,-0.03,-0.37525,0.06439435085446453,10,1,100,0.02471005346142762,-10,-1,-100,14980.507260109065,-0.0006645049662794175,0.004399792552295499,0.9999901000803191,25.748217865560125,0.021828450357339227,91.66581412721531,-31.119883082757283,86.75630187988281,5356.25390625,True
1599564527.9972422,0.0,10,0.5,0.5,-41.62765057373047,-0.2,-0.03,-0.37525,0.047797722477936365,10,1,100,0.006496369325071962,-10,-1,-100,14980.507260109065,-0.0006645049662794175,0.004399792552295499,0.9999901000803191,25.748217865560125,0.021828450357339227,91.66581412721531,-31.119883082757283,86.75630187988281,5356.25390625,True
1599564528.0500636,0.0,10,0.5,0.5,-32.64376607513428,-0.2,-0.03,-0.37525,0.09481902793990053,10,1,100,0.051620327745337584,-10,-1,-100,14977.973086732556,-0.0010734509504305382,0.004826397216504505,0.9999877767217785,28.31840399720217,0.024699488033796853,103.25946889757239,-31.86192253966493,71.44010925292969,5356.25390625,True
1599564528.1069117,0.0,10,0.5,0.5,-33.53703497314453,-0.2,-0.03,-0.37525,0.07883920428575172,10,1,100,0.033050782700809606,-10,-1,-100,14976.67230909178,-0.0012748059880513382,0.005067716241784609,0.9999863464676834,29.558069631115117,0.026383033563712546,109.0550051155765,-32.23285368193129,63.37022399902344,5356.25390625,True
1599564528.5384152,0.0,10,0.5,0.5,-36.344262603759766,-0.2,-0.03,-0.37525,0.05486223459955821,10,1,100,0.013101012869468253,-10,-1,-100,14976.67230909178,-0.0012748059880513382,0.005067716241784609,0.9999863464676834,29.558069631115117,0.026383033563712546,109.0550051155765,-32.23285368193129,63.37022399902344,5356.25390625,True
1599564528.578273,0.0,10,0.5,0.5,-33.76737194061279,-0.2,-0.03,-0.37525,0.07086805310642535,10,1,100,0.02473330104467869,-10,-1,-100,14976.022896523471,-0.001379029396647065,0.005211898839084397,0.9999854670886043,30.071775613726526,0.027137254209750522,111.59896405374535,-32.41829859437854,59.23262023925781,5356.25390625,True
1599564528.62415,0.0,10,0.5,0.5,-30.249343833923337,-0.2,-0.03,-0.37525,0.08963202713002043,10,1,100,0.036235552673446386,-10,-1,-100,14974.720167492284,-0.001576846205743973,0.005512170076665888,0.9999835646334841,30.947904092942657,0.028413108421858672,116.18532737614656,-32.789152846977586,50.75157165527344,5356.25390625,True
1599564528.6720219,0.0,10,0.5,0.5,-25.609460231781007,-0.2,-0.03,-0.37525,0.1137097298179305,10,1,100,0.04728448144624904,-10,-1,-100,14972.770958360052,-0.0018555116485881834,0.00600241408704545,0.9999802638560672,31.67652726121979,0.029280365629251136,120.97082767826285,-33.345371938792574,37.515716552734375,5356.25390625,True
1599564528.7228854,0.0,10,0.5,0.5,-25.09278532409668,-0.2,-0.03,-0.37525,0.10558022798390196,10,1,100,0.03741806727076759,-10,-1,-100,14971.408660268411,-0.0020175711732826917,0.006372317133906934,0.9999776612409427,31.632686563575998,0.02895169585624223,122.16934841323166,-33.71617383003719,28.349334716796875,5356.25390625,True
1599564528.7737498,0.0,10,0.5,0.5,-22.863965621948246,-0.2,-0.03,-0.37525,0.11291481762398177,10,1,100,0.03599527027285287,-10,-1,-100,14970.047339830198,-0.0021502381471601734,0.006773065679110367,0.9999747507098451,31.124945303600192,0.02796868147478217,121.55393747570392,-34.08699334261284,18.909027099609375,5356.25390625,True
1599564528.8256128,0.0,10,0.5,0.5,-20.592924064636236,-0.2,-0.03,-0.37525,0.11915295777801979,10,1,100,0.03442532266771235,-10,-1,-100,14968.683090118458,-0.0022550546403698026,0.007191783614790988,0.9999715960851123,30.133130089747972,0.026544286773249517,118.98501554943009,-34.45784938231222,9.194580078125,5356.25390625,True
1599564528.8754776,0.0,10,0.5,0.5,-24.00558514404297,-0.2,-0.03,-0.37525,0.0775603633162072,10,1,100,0.024102728314158477,-10,-1,-100,14968.683090118458,-0.0022550546403698026,0.007191783614790988,0.9999715960851123,30.133130089747972,0.026544286773249517,118.98501554943009,-34.45784938231222,9.194580078125,5356.25390625,True
1599564528.9263492,0.0,10,0.5,0.5,-12.123578376770023,-0.2,-0.03,-0.37525,0.1759895417683674,10,1,100,0.03383518121674821,-10,-1,-100,14965.893070076127,-0.002342085530689627,0.008084056154299267,0.9999645807084675,28.545471221542105,0.025030815440710105,115.19154359267358,-35.19968199886523,-11.056304931640625,5356.25390625,True
1599564528.9732165,0.0,10,0.5,0.5,-19.47523373413086,-0.2,-0.03,-0.37525,0.08708805371131902,10,1,100,0.02525895564279167,-10,-1,-100,14965.893070076127,-0.002342085530689627,0.008084056154299267,0.9999645807084675,28.545471221542105,0.025030815440710105,115.19154359267358,-35.19968199886523,-11.056304931640625,5356.25390625,True
1599564529.0190945,0.0,10,0.5,0.5,-6.971697334289551,-0.2,-0.03,-0.37525,0.1861507598948434,10,1,100,0.015715458789482557,-10,-1,-100,14963.043480979162,-0.0022543562142571458,0.00898188408331993,0.9999571208988779,31.82077125177304,0.029302185492735285,131.168738398454,-35.94131011328829,-32.40399169921875,5356.25390625,True
1599564529.0809293,0.0,10,0.5,0.5,-8.318382591247557,-0.2,-0.03,-0.37525,0.14544343154543654,10,1,100,0.01468118470401284,-10,-1,-100,14961.55423339468,-0.0021643092983358874,0.009424466335760892,0.9999532465068292,32.6725924764902,0.030692518251137686,136.09610243590694,-36.312026122432066,-43.489105224609375,5356.25390625,True
1599564529.1278372,0.0,10,0.5,0.5,-5.635057136535646,-0.2,-0.03,-0.37525,0.14380771155698982,10,1,100,0.005815690079482842,-10,-1,-100,14960.129437574069,-0.0020011391691829353,0.009808114049451637,0.9999498969152497,33.05766296665261,0.03125824279036173,139.13289332587664,-36.68270696523165,-54.84912109375,5356.25390625,True
1599564529.1742272,0.0,10,0.5,0.5,-9.581101013183595,-0.2,-0.03,-0.37525,0.10587253458519394,10,1,100,0.022175132291121943,-10,-1,-100,14960.129437574069,-0.0020011391691829353,0.009808114049451637,0.9999498969152497,33.05766296665261,0.03125824279036173,139.13289332587664,-36.68270696523165,-54.84912109375,5356.25390625,True
1599564529.2290804,0.0,10,0.5,0.5,-2.6113709030151373,-0.2,-0.03,-0.37525,0.1453029551969969,10,1,100,0.0016856767858154202,-10,-1,-100,14958.638235443621,-0.0018147390032068808,0.010163112691411295,0.9999467075113413,32.739443014269476,0.030717998545695225,139.2136907912792,-37.053388503315574,-66.48342895507812,5356.25390625,True
1599564529.2809484,0.0,10,0.5,0.5,0.15791587066650337,-0.2,-0.03,-0.37525,0.144043146053648,10,1,100,-0.0030288102416648408,-10,-1,-100,14957.150938195526,-0.001602609726769807,0.010470939741382808,0.9999438939575541,31.690582277914515,0.029268248930019922,136.1303660913808,-37.42410628837948,-78.39227294921875,5356.25390625,True
1599564529.3318126,0.0,10,0.5,0.5,2.989401371002197,-0.2,-0.03,-0.37525,0.1431862830790189,10,1,100,-0.007781537344938846,-10,-1,-100,14955.604069530964,-0.0013670561639976036,0.01073963114698549,0.9999413940228052,29.917240430229825,0.02732491060956695,129.81444193643728,-37.794886846286126,-90.57545471191406,5356.25390625,True
1599564529.378735,0.0,10,0.5,0.5,9.498174493789673,-0.2,-0.03,-0.37525,0.1482640168306099,10,1,100,-0.0218985582722682,-10,-1,-100,14953.3355213881,-0.001025387278934763,0.011026831961154941,0.9999386768986529,30.66290735785074,0.02851980997500502,135.05300244650624,-38.351083989736026,-109.31722259521484,5356.25390625,True
1599564529.4375756,0.0,10,0.5,0.5,6.436621465682984,-0.2,-0.03,-0.37525,0.12807819034754003,10,1,100,0.00024511441182186074,-10,-1,-100,14952.558180340799,-0.0009172031963343041,0.01110092968932984,0.9999379621248157,31.69975464799948,0.029859170215905874,140.30976978829514,-38.53643684887825,-115.60276794433594,5356.25390625,True
