Timestamp,Input Throttle,horizon,dT,dt,Input Roll,Roll P,Roll I,Roll D,Input Pitch,Pitch P,Pitch I,Pitch D,Input Yaw,Yaw P,Yaw I,Yaw D,Altitude,Direction X,Direction Y,Direction Z,Drag X,Drag Y,Drag Z,Vertical Velocity,Roll,Mass,Has Fuel
1599561536.7078025,0.0,10,0.5,0.5,-5.8498874816894535,-0.1005,-0.03,-0.001,-0.0002406746665224341,10,1,100,0.1750085913428463,-10,-1,-100,14994.032016851008,-0.01681226365113562,-7.352652528765936e-05,0.9998586612040599,28.644531499076916,0.0272750189127762,-87.50372196331212,27.008977038997998,-31.79217529296875,5356.25390625,True
1599561536.7385254,0.0,10,0.5,0.5,-6.024689514160157,-0.1005,-0.03,-0.001,5.8656919044926996e-05,10,1,100,0.18190893265314378,-10,-1,-100,14995.638466829201,-0.016922309740014473,-6.624220870174766e-05,0.9998568052701511,28.426645913677326,0.027763681965617838,-85.04912392260097,26.451086034316543,-31.7904052734375,5356.25390625,True
1599561536.7734032,0.0,10,0.5,0.5,-6.1952277832031255,-0.1005,-0.03,-0.001,0.0032492935079200705,10,1,100,0.1746007807459575,-10,-1,-100,14996.171671279939,-0.016940529976439,-3.055409535323414e-05,0.9998564984589362,28.354165199636448,0.027923630321893537,-84.23745840326188,26.265130280078154,-31.8306884765625,5356.25390625,True
1599561536.8053548,0.0,10,0.5,0.5,-6.343316864013673,-0.1005,-0.03,-0.001,0.007920533487453882,10,1,100,0.17858511151604883,-10,-1,-100,14997.185345196514,-0.01697791453475627,4.4383238500588465e-05,0.9998558638364725,28.22050714863408,0.028247546132089237,-82.65634978276078,25.893230023672498,-32.09136962890625,5356.25390625,True
1599561536.8404696,0.0,10,0.5,0.5,-6.494000686645508,-0.1005,-0.03,-0.001,0.005678080893465563,10,1,100,0.17792049268544646,-10,-1,-100,14997.716596216662,-0.0169904240397349,9.208180638735105e-05,0.9998556480872082,28.160952827470858,0.028411760362044614,-81.89114819238732,25.707285419181893,-32.320953369140625,5356.25390625,True
1599561536.872353,0.0,10,0.5,0.5,-6.6672674102783205,-0.1005,-0.03,-0.001,0.0009174322854280403,10,1,100,0.17836858459155702,-10,-1,-100,14997.716596216662,-0.0169904240397349,9.208180638735105e-05,0.9998556480872082,28.160952827470858,0.028411760362044614,-81.89114819238732,25.707285419181893,-32.320953369140625,5356.25390625,True
1599561536.9052656,0.0,10,0.5,0.5,-6.772948669433594,-0.1005,-0.03,-0.001,0.015546108101655319,10,1,100,0.1803204227238172,-10,-1,-100,14998.724409023416,-0.016992722182719324,0.00022498605761997418,0.9998555879596287,28.057170914088744,0.02874169044450258,-80.41214095025248,25.33540646801537,-32.98455810546875,5356.25390625,True
1599561536.938877,0.0,10,0.5,0.5,-6.791411193847656,-0.1005,-0.03,-0.001,0.03495121904268586,10,1,100,0.1756819493487073,-10,-1,-100,15000.209758041077,-0.01693719553458351,0.0005220136708793456,0.9998564191468446,27.935040049161863,0.02922258936140021,-78.30388700791845,24.777611922890237,-34.494384765625,5356.25390625,True
1599561536.9757795,0.0,10,0.5,0.5,-6.822415344238281,-0.1005,-0.03,-0.001,0.03395458349168404,10,1,100,0.17399231589122155,-10,-1,-100,15001.212684924481,-0.016855959008906008,0.0007825038927688672,0.9998576220310309,27.870042051519416,0.029516004015363067,-76.9521912618176,24.405763705091204,-35.8443603515625,5356.25390625,True
1599561537.0066922,0.0,10,0.5,0.5,-6.9862322387695315,-0.1005,-0.03,-0.001,0.007983811692008756,10,1,100,0.18380156435986247,-10,-1,-100,15001.212684924481,-0.016855959008906008,0.0007825038927688672,0.9998576220310309,27.870042051519416,0.029516004015363067,-76.9521912618176,24.405763705091204,-35.8443603515625,5356.25390625,True
1599561537.0385754,0.0,10,0.5,0.5,-6.790946350097657,-0.1005,-0.03,-0.001,0.07965769344883483,10,1,100,0.15368065301128297,-10,-1,-100,15003.103299106122,-0.016566808943001735,0.0014333732688374963,0.999861733582458,27.75365468882678,0.029966405309550078,-74.30138847238518,23.662100975759664,-39.3690185546875,5356.25390625,True
1599561537.0734828,0.0,10,0.5,0.5,-6.664875549316406,-0.1005,-0.03,-0.001,0.03613941197121609,10,1,100,0.17197325005882558,-10,-1,-100,15003.576928813593,-0.016470464724164722,0.0016280820520177838,0.9998630271895256,27.721986880445908,0.030036613994002172,-73.63486921325406,23.47619229346698,-40.421875,5356.25390625,True
1599561537.1084213,0.0,10,0.5,0.5,-6.405346221923828,-0.1005,-0.03,-0.001,0.06113364640263701,10,1,100,0.15557290723802328,-10,-1,-100,15004.517350557493,-0.0162341958132291,0.0020307700549575813,0.9998661544723282,27.64786808748822,0.030107333210539596,-72.27758619165442,23.10438386560925,-42.73406982421875,5356.25390625,True
1599561537.1418843,0.0,10,0.5,0.5,-6.374948272705078,-0.1005,-0.03,-0.001,0.021070978523688333,10,1,100,0.17912916491526465,-10,-1,-100,15004.517350557493,-0.0162341958132291,0.0020307700549575813,0.9998661544723282,27.64786808748822,0.030107333210539596,-72.27758619165442,23.10438386560925,-42.73406982421875,5356.25390625,True
1599561537.1727686,0.0,10,0.5,0.5,-6.080445297241211,-0.1005,-0.03,-0.001,0.07038769263631517,10,1,100,0.14818406329112885,-10,-1,-100,15005.46070051135,-0.015953552815483798,0.002477298013421046,0.9998696650799624,27.550733191423873,0.03006631896054699,-70.86727972141625,22.732588161258793,-45.321014404296875,5356.25390625,True
1599561537.2067118,0.0,10,0.5,0.5,-5.902264114379883,-0.1005,-0.03,-0.001,0.05106807379601149,10,1,100,0.15840207381158838,-10,-1,-100,15005.870851568063,-0.01579225643246884,0.0027054312441968592,0.9998716344004135,27.490072711580382,0.02999688307290225,-70.1343226026341,22.5466955864523,-46.717742919921875,5356.25390625,True
1599561537.2415845,0.0,10,0.5,0.5,-5.223620544433595,-0.1005,-0.03,-0.001,0.13625011669531065,10,1,100,0.08898711401433443,-10,-1,-100,15007.630594349466,-0.015015667511214083,0.0036848315263159456,0.9998804687290452,27.129755059502973,0.029335046343828285,-66.93763818785008,21.803166549999258,-52.99212646484375,5356.25390625,True
1599561537.272503,0.0,10,0.5,0.5,-5.169872222900391,-0.1005,-0.03,-0.001,0.0386560730302716,10,1,100,0.16644830067265953,-10,-1,-100,15007.630594349466,-0.015015667511214083,0.0036848315263159456,0.9998804687290452,27.129755059502973,0.029335046343828285,-66.93763818785008,21.803166549999258,-52.99212646484375,5356.25390625,True
1599561537.306443,0.0,10,0.5,0.5,-4.754067626953125,-0.1005,-0.03,-0.001,0.09620763560999424,10,1,100,0.11452175735990525,-10,-1,-100,15008.509487392963,-0.01454535487021029,0.004205152260808482,0.9998853681028456,26.854984920304197,0.028748276537728792,-65.1325902120474,21.431431745563447,-56.5419921875,5356.25390625,True
1599561537.339358,0.0,10,0.5,0.5,-4.504858978271485,-0.1005,-0.03,-0.001,0.07079952936926295,10,1,100,0.13335776413945574,-10,-1,-100,15008.9176839781,-0.01429113489832884,0.0044440768278241035,0.9998880005502946,26.68745738055221,0.028387688061523888,-64.16627593590086,21.245573060329455,-58.42047119140625,5356.25390625,True
1599561537.375257,0.0,10,0.5,0.5,-4.241398834228515,-0.1005,-0.03,-0.001,0.07689179890149807,10,1,100,0.12870173467845822,-10,-1,-100,15009.385450541624,-0.014020029950709889,0.004713336545463119,0.9998906056258308,26.49742606716269,0.027982732510796016,-63.153386169760935,21.059720963292378,-60.36737060546875,5356.25390625,True
1599561537.408173,0.0,10,0.5,0.5,-3.764135009765625,-0.1005,-0.03,-0.001,0.10713534669533495,10,1,100,0.09154758594386107,-10,-1,-100,15010.20672546723,-0.013438121172552952,0.005230077665736537,0.9998960261882043,26.04126412928917,0.027043097313196145,-60.97345631001924,20.68803852479881,-64.468017578125,5356.25390625,True
1599561537.442048,0.0,10,0.5,0.5,-2.7797815704345705,-0.1005,-0.03,-0.001,0.1665327547931899,10,1,100,0.003606496522253616,-10,-1,-100,15011.834626006312,-0.012112405419078952,0.006236544216316762,0.9999071932690562,24.767084921869785,0.024718168180350122,-55.91206156604289,19.944775577806343,-73.49575805664062,5356.25390625,True
1599561537.474,0.0,10,0.5,0.5,-2.6965242462158203,-0.1005,-0.03,-0.001,0.06630667715130326,10,1,100,0.1357658928302386,-10,-1,-100,15011.834626006312,-0.012112405419078952,0.006236544216316762,0.9999071932690562,24.767084921869785,0.024718168180350122,-55.91206156604289,19.944775577806343,-73.49575805664062,5356.25390625,True
1599561537.5118623,0.0,10,0.5,0.5,-2.3576661682128908,-0.1005,-0.03,-0.001,0.09236303130737084,10,1,100,0.09589962668577902,-10,-1,-100,15012.181298319949,-0.011753731899942183,0.006469596732134323,0.9999099930016441,24.360913989738528,0.024068117791801062,-54.48425484368593,19.75898381647171,-75.925048828125,5356.25390625,True
1599561537.5477965,0.0,10,0.5,0.5,-1.4865834350585938,-0.1005,-0.03,-0.001,0.14177896807029514,10,1,100,0.006099119528928942,-10,-1,-100,15013.342409317847,-0.010615114836496976,0.007127069081887132,0.9999182587708407,22.89997333283309,0.022041855783872133,-49.77632057717749,19.201670059429247,-83.62652587890625,5356.25390625,True
1599561537.583698,0.0,10,0.5,0.5,-1.109002426147461,-0.1005,-0.03,-0.001,0.09958135239692657,10,1,100,0.07429409117515282,-10,-1,-100,15013.747675640043,-0.01020466919523607,0.007337136859324799,0.9999210124551455,22.347079197115455,0.02138052440607648,-48.10601184122961,19.01591911605678,-86.33151245117188,5356.25390625,True
1599561537.6115959,0.0,10,0.5,0.5,-0.4415478210449219,-0.1005,-0.03,-0.001,0.11976692387446936,10,1,100,0.023933772965325964,-10,-1,-100,15014.498638058547,-0.00937808935428771,0.0077082924837612405,0.9999263141187192,21.184804626286777,0.020156446285293887,-44.71572770936428,18.644444656694105,-91.94866943359375,5356.25390625,True
1599561537.6465018,0.0,10,0.5,0.5,0.5774525299072266,-0.1005,-0.03,-0.001,0.13423206943090188,10,1,100,-0.032735852202997726,-10,-1,-100,15015.59627492493,-0.008116599795674372,0.008173550319255169,0.999933654740621,22.674473858409396,0.021774112992688437,-46.43372186614823,18.08723377430757,-100.89199829101562,5356.25390625,True
1599561537.6814094,0.0,10,0.5,0.5,0.7015592193603516,-0.1005,-0.03,-0.001,0.08810312568735368,10,1,100,0.09277022815088243,-10,-1,-100,15015.59627492493,-0.008116599795674372,0.008173550319255169,0.999933654740621,22.674473858409396,0.021774112992688437,-46.43372186614823,18.08723377430757,-100.89199829101562,5356.25390625,True
1599561537.7113292,0.0,10,0.5,0.5,1.4611913681030275,-0.1005,-0.03,-0.001,0.11595573392601569,10,1,100,-0.0016577687019384696,-10,-1,-100,15016.281809783773,-0.007263776674378414,0.008423365418250795,0.9999381403184175,23.57863854229139,0.02296123815951546,-47.29621061184516,17.715741601669293,-107.12074279785156,5356.25390625,True
1599561537.7442732,0.0,10,0.5,0.5,2.5367229003906253,-0.1005,-0.03,-0.001,0.1222564023065238,10,1,100,-0.05653146009367578,-10,-1,-100,15017.375544043141,-0.005995773236253868,0.008704376103639814,0.9999441407098429,24.564427025227157,0.02449067725196595,-47.72731807847805,17.158471310912752,-116.3966064453125,5356.25390625,True
1599561537.7761855,0.0,10,0.5,0.5,2.683232803344727,-0.1005,-0.03,-0.001,0.09450276361141233,10,1,100,0.06952464892514887,-10,-1,-100,15017.375544043141,-0.005995773236253868,0.008704376103639814,0.9999441407098429,24.564427025227157,0.02449067725196595,-47.72731807847805,17.158471310912752,-116.3966064453125,5356.25390625,True
1599561537.8100972,0.0,10,0.5,0.5,3.4142044067382815,-0.1005,-0.03,-0.001,0.10898359240750863,10,1,100,-0.020988695594137477,-10,-1,-100,15018.000534736668,-0.005178485224426561,0.008833776518252213,0.9999475724672798,25.057382910052183,0.025302293570099485,-47.633184709881576,16.7869410087868,-122.33029174804688,5356.25390625,True
1599561537.8440118,0.0,10,0.5,0.5,3.845844963073731,-0.1005,-0.03,-0.001,0.10221102177816477,10,1,100,0.016790725530729286,-10,-1,-100,15018.3433038207,-0.0047852489695320265,0.008887483314631328,0.999949055718656,25.23754201462135,0.025602770282080512,-47.44582826224344,16.601173004945686,-125.19798278808594,5356.25390625,True
1599561537.87393,0.0,10,0.5,0.5,4.552197814941407,-0.1005,-0.03,-0.001,0.10289187702227953,10,1,100,-0.034922396490476106,-10,-1,-100,15019.029819530784,-0.003963977158462774,0.008940299189392932,0.9999521778242653,25.44928070741838,0.025950365482191973,-46.77520070256653,16.22963638041844,-130.72903442382812,5356.25390625,True
1599561537.9098325,0.0,10,0.5,0.5,5.477729347229004,-0.1005,-0.03,-0.001,0.10129187110553073,10,1,100,-0.07884588960632434,-10,-1,-100,15019.935083563672,-0.002824108427053955,0.008972119721653488,0.9999557617611353,25.438081127672724,0.025856036859052967,-45.15209084034035,15.67234494464122,-138.50987243652344,5356.25390625,True
1599561537.9432063,0.0,10,0.5,0.5,6.1180390319824225,-0.1005,-0.03,-0.001,0.09703132377775939,10,1,100,-0.04513080801497438,-10,-1,-100,15020.554219106678,-0.002101074468211103,0.008960828881763045,0.999957643618884,25.243835147055908,0.025425646006012576,-43.74708626300638,15.300837688314068,-143.352783203125,5356.25390625,True
1599561537.9741213,0.0,10,0.5,0.5,6.5026878662109375,-0.1005,-0.03,-0.001,0.09744665564589632,10,1,100,-0.011406155109842407,-10,-1,-100,15020.899919826421,-0.001756974091024325,0.008953201556665704,0.9999583757456753,25.098941755042453,0.025118108394455666,-42.968929968332645,15.115092551405745,-145.67080688476562,5356.25390625,True
1599561538.0080302,0.0,10,0.5,0.5,6.6347062683105476,-0.1005,-0.03,-0.001,0.09828735327937148,10,1,100,0.022367920038370376,-10,-1,-100,15020.899919826421,-0.001756974091024325,0.008953201556665704,0.9999583757456753,25.098941755042453,0.025118108394455666,-42.968929968332645,15.115092551405745,-145.67080688476562,5356.25390625,True
1599561538.043934,0.0,10,0.5,0.5,7.21862964630127,-0.1005,-0.03,-0.001,0.09469382785359912,10,1,100,-0.05151168145736918,-10,-1,-100,15021.461440447485,-0.0010911228280672835,0.008919824369851946,0.9999596222769123,24.72706949246028,0.024354079375073345,-41.29382458275406,14.743621732817653,-150.10023498535156,5356.25390625,True
1599561538.0758524,0.0,10,0.5,0.5,7.764761108398439,-0.1005,-0.03,-0.001,0.09174452335863605,10,1,100,-0.055033843427846216,-10,-1,-100,15022.021008292562,-0.00045939534732591936,0.008862218287383773,0.9999606242462459,24.33997457897515,0.023515826614271512,-39.625222253216805,14.372178669655268,-154.254150390625,5356.25390625,True
1599561538.1097584,0.0,10,0.5,0.5,8.074506652832032,-0.1005,-0.03,-0.001,0.0933937555614456,10,1,100,-0.025655085962557965,-10,-1,-100,15022.360851218924,-0.0001572103216899614,0.008824698648634844,0.9999610492307566,24.129597444107727,0.02306909265899188,-38.776086300621174,14.186467856196387,-156.22781372070312,5356.25390625,True
1599561538.1443105,0.0,10,0.5,0.5,8.571668144226075,-0.1005,-0.03,-0.001,0.08969332961152399,10,1,100,-0.05884643294706912,-10,-1,-100,15022.858896303922,0.0004139350715523164,0.008756840266095627,0.9999615724648176,23.661800495628373,0.02212966636150222,-37.030725374028926,13.815068074610329,-159.96812438964844,5356.25390625,True
1599561538.176098,0.0,10,0.5,0.5,9.197825981140138,-0.1005,-0.03,-0.001,0.08429286807311691,10,1,100,-0.08911726066306455,-10,-1,-100,15023.693856194848,0.0012032634807398193,0.008646125664576416,0.9999618976080981,22.875771313727743,0.02069472243705231,-34.35971242475676,13.258021251890497,-165.0615692138672,5356.25390625,True
1599561538.211005,0.0,10,0.5,0.5,9.312323295593263,-0.1005,-0.03,-0.001,0.0953401924600325,10,1,100,-0.010783270989341441,-10,-1,-100,15023.693856194848,0.0012032634807398193,0.008646125664576416,0.9999618976080981,22.875771313727743,0.02069472243705231,-34.35971242475676,13.258021251890497,-165.0615692138672,5356.25390625,True
1599561538.4647026,0.0,10,0.5,0.5,9.724982940673828,-0.1005,-0.03,-0.001,0.08719383264692668,10,1,100,-0.06393631621057695,-10,-1,-100,15024.188973526354,0.001681775491260867,0.008572335278570741,0.9999618426215415,22.31929136195606,0.019776932704286633,-32.586643832851635,12.886689426415936,-168.1124267578125,5356.25390625,True
1599561538.4936302,0.0,10,0.5,0.5,10.092370651245117,-0.1005,-0.03,-0.001,0.08907797350592296,10,1,100,-0.0650843821824078,-10,-1,-100,15024.746591842617,0.0021231271151890864,0.008522745103141079,0.9999614268296351,21.754174952603545,0.01892253071819868,-30.848027387325285,12.51538073352026,-170.88711547851562,5356.25390625,True
1599561538.5265112,0.0,10,0.5,0.5,10.172198959350586,-0.1005,-0.03,-0.001,0.093993182671027,10,1,100,-0.021371639947925875,-10,-1,-100,15024.746591842617,0.0021231271151890864,0.008522745103141079,0.9999614268296351,21.754174952603545,0.01892253071819868,-30.848027387325285,12.51538073352026,-170.88711547851562,5356.25390625,True
1599561538.5624673,0.0,10,0.5,0.5,10.617814270019533,-0.1005,-0.03,-0.001,0.08550523266720542,10,1,100,-0.08704559985403154,-10,-1,-100,15025.458508064272,0.0027166357496025803,0.008445973245336814,0.9999606419385431,20.918848993685287,0.01779618769880808,-28.345715779927335,11.958454527216695,-174.5321044921875,5356.25390625,True
1599561538.5954099,0.0,10,0.5,0.5,10.912379806518555,-0.1005,-0.03,-0.001,0.08939766273388972,10,1,100,-0.06670517611029528,-10,-1,-100,15025.890150678344,0.0030672091924530387,0.008412027491858548,0.9999599142071877,20.386839671923703,0.017161175612203802,-26.76854009854501,11.587190325613271,-176.61709594726562,5356.25390625,True
1599561538.6731994,0.0,10,0.5,0.5,10.98984539794922,-0.1005,-0.03,-0.001,0.09274145839391701,10,1,100,-0.032063665027301465,-10,-1,-100,15025.890150678344,0.0030672091924530387,0.008412027491858548,0.9999599142071877,20.386839671923703,0.017161175612203802,-26.76854009854501,11.587190325613271,-176.61709594726562,5356.25390625,True
1599561538.7051222,0.0,10,0.5,0.5,11.396089447021485,-0.1005,-0.03,-0.001,0.09427946087126994,10,1,100,-0.09817447821098824,-10,-1,-100,15026.81300777744,0.0036650105809049377,0.008426418596921325,0.9999577806923008,19.42523598885407,0.016175218432354817,-23.873859225243766,10.84469810372364,-179.95852661132812,5356.25390625,True
1599561538.7469788,0.0,10,0.5,0.5,-25.008770561218263,-0.1005,-0.03,-0.001,0.093656094701035,10,1,100,-0.05282425053227876,-10,-1,-100,15027.026876146789,0.0037927168452342188,0.008434196527295998,0.9999572388996795,19.49943946963355,0.016224671101717235,-23.55541873285012,10.659079397544051,179.37852478027344,5356.25390625,True
1599561538.7809222,0.0,10,0.5,0.5,-25.60719234466553,-0.1005,-0.03,-0.001,0.09442941778242844,10,1,100,-0.053494479491809035,-10,-1,-100,15027.239768626285,0.003911834819916857,0.008448590895411823,0.9999566584908687,19.566434831045676,0.016278333334878027,-23.225278345207514,10.473461184722884,178.7846221923828,5356.25390625,True
1599561538.813827,0.0,10,0.5,0.5,-26.586070465087893,-0.1005,-0.03,-0.001,0.09671055217247712,10,1,100,-0.054018239763546305,-10,-1,-100,15027.455590648227,0.004022423007244888,0.008482593847034984,0.9999559318863892,19.618449293242957,0.016328390949030557,-22.874828959406315,10.287843476864909,178.25994873046875,5356.25390625,True
1599561538.8457377,0.0,10,0.5,0.5,-27.36484167480469,-0.1005,-0.03,-0.001,0.10900293761865641,10,1,100,-0.08270821122500717,-10,-1,-100,15028.189973114058,0.004381212773077737,0.008625403245128161,0.9999532026017498,19.791388679860386,0.016575762304888893,-21.41290883042193,9.545374853847166,175.77996826171875,5356.25390625,True
1599561538.8776603,0.0,10,0.5,0.5,-28.320027206420903,-0.1005,-0.03,-0.001,0.10025760023882702,10,1,100,-0.05460112038054527,-10,-1,-100,15028.403842080967,0.004449412245901749,0.008675678659972094,0.9999524665355123,19.853265569300188,0.01667373270243347,-21.062595348835615,9.359757324999528,175.00192260742188,5356.25390625,True
1599561538.9105701,0.0,10,0.5,0.5,-29.35847236633301,-0.1005,-0.03,-0.001,0.09524535211011688,10,1,100,-0.04801380161121531,-10,-1,-100,15028.403842080967,0.004449412245901749,0.008675678659972094,0.9999524665355123,19.853265569300188,0.01667373270243347,-21.062595348835615,9.359757324999528,175.00192260742188,5356.25390625,True
1599561538.9424782,0.0,10,0.5,0.5,-30.010725692749023,-0.1005,-0.03,-0.001,0.12426290257578307,10,1,100,-0.06887763790355983,-10,-1,-100,15029.137248862535,0.004636968680258779,0.008939335542790122,0.9999492921151111,20.178732285113078,0.017222666921164757,-19.711202026585276,8.617279149914621,171.20474243164062,5356.25390625,True
1599561538.9755216,0.0,10,0.5,0.5,-30.937926910400392,-0.1005,-0.03,-0.001,0.1066699218190045,10,1,100,-0.053277150059175396,-10,-1,-100,15029.284711618675,0.004663906155697442,0.009018638918201748,0.9999484547372599,20.275587677163006,0.017395820903132898,-19.379534116502263,8.431656469001265,170.08349609375,5356.25390625,True
1599561539.0123856,0.0,10,0.5,0.5,-31.73059759521485,-0.1005,-0.03,-0.001,0.11906616560808811,10,1,100,-0.05349350591632345,-10,-1,-100,15029.590380419628,0.00468891009846735,0.009202874556270947,0.9999466591883739,20.501471259188467,0.017794759356132703,-18.73329185654758,8.06040584291893,167.63470458984375,5356.25390625,True
1599561539.046329,0.0,10,0.5,0.5,-32.489306594848635,-0.1005,-0.03,-0.001,0.12352179399318436,10,1,100,-0.050639070212550416,-10,-1,-100,15029.954642924713,0.004684217266491135,0.009410148260685265,0.9999447520829899,20.782603183048163,0.018269763090134245,-18.116096870687542,7.689147127692065,164.91061401367188,5356.25390625,True
1599561539.076252,0.0,10,0.5,0.5,-33.5266381072998,-0.1005,-0.03,-0.001,0.10289279651812898,10,1,100,-0.051210274078730536,-10,-1,-100,15029.954642924713,0.004684217266491135,0.009410148260685265,0.9999447520829899,20.782603183048163,0.018269763090134245,-18.116096870687542,7.689147127692065,164.91061401367188,5356.25390625,True
1599561539.1091628,0.0,10,0.5,0.5,-33.17881181335449,-0.1005,-0.03,-0.001,0.1292668218882246,10,1,100,-0.046694631714780166,-10,-1,-100,15030.192929667537,0.004642355517344989,0.009649024898837599,0.9999426707835565,21.06376225523303,0.018763520644156612,-17.475165047336148,7.317879669426493,161.911376953125,5356.25390625,True
1599561539.145057,0.0,10,0.5,0.5,-32.96850881958008,-0.1005,-0.03,-0.001,0.11988729924585254,10,1,100,-0.047234394027154146,-10,-1,-100,15030.34234679828,0.004608542202145139,0.009779825787678678,0.9999415564653434,21.1999200750478,0.019009808891378977,-17.142213903434282,7.132242716884418,160.30859375,5356.25390625,True
1599561539.174979,0.0,10,0.5,0.5,-32.38631435394287,-0.1005,-0.03,-0.001,0.1552104788793805,10,1,100,-0.03515164929417625,-10,-1,-100,15030.79255180608,0.004467426855122841,0.010218676199711146,0.999937808443115,21.633447846251652,0.01976654340402292,-16.127519764296746,6.575319028174466,155.0874786376953,5356.25390625,True
1599561539.2078977,0.0,10,0.5,0.5,-31.941261077880863,-0.1005,-0.03,-0.001,0.1484202606843592,10,1,100,-0.03458060103058688,-10,-1,-100,15031.031816997565,0.004333870451722625,0.010554453433463576,0.9999349084213573,21.900874297971686,0.020230005635859725,-15.40535385840756,6.204027119102336,151.26287841796875,5356.25390625,True
1599561539.2417734,0.0,10,0.5,0.5,-31.87386854553223,-0.1005,-0.03,-0.001,0.1150304147864654,10,1,100,-0.047924687191190564,-10,-1,-100,15031.031816997565,0.004333870451722625,0.010554453433463576,0.9999349084213573,21.900874297971686,0.020230005635859725,-15.40535385840756,6.204027119102336,151.26287841796875,5356.25390625,True
1599561539.2777631,0.0,10,0.5,0.5,-31.386544158935546,-0.1005,-0.03,-0.001,0.1565779397779864,10,1,100,-0.028606327953041317,-10,-1,-100,15031.265224062023,0.004158354042097794,0.010930450229046956,0.9999316143364261,22.113345867124707,0.020607372948690986,-14.624257343077206,5.83272934714212,147.16329956054688,5356.25390625,True
1599561539.3126736,0.0,10,0.5,0.5,-31.100000762939455,-0.1005,-0.03,-0.001,0.14144300507030028,10,1,100,-0.03550869545173335,-10,-1,-100,15031.356049250695,0.00406197756937075,0.011132865077974468,0.9999297773610814,22.22911120346536,0.020787832609472586,-14.233076798728769,5.647078554829301,145.01040649414062,5356.25390625,True
1599561539.34658,0.0,10,0.5,0.5,-30.329515274047854,-0.1005,-0.03,-0.001,0.19506049053471186,10,1,100,-0.008538658596010162,-10,-1,-100,15031.68028451316,0.00372972764873625,0.011802388239257972,0.999923393447476,22.43399371440651,0.021114229413174583,-12.948004845466707,5.0901204669123885,138.1392822265625,5356.25390625,True
1599561539.3755026,0.0,10,0.5,0.5,-29.748078918457033,-0.1005,-0.03,-0.001,0.183808310082299,10,1,100,-0.013279964799648335,-10,-1,-100,15031.853148960741,0.0034716570340558982,0.012306389914781961,0.9999182468405622,22.411707964573793,0.021113231661492687,-11.991823541757151,4.7188093261522495,133.21493530273438,5356.25390625,True
1599561539.4104092,0.0,10,0.5,0.5,-29.397546798706053,-0.1005,-0.03,-0.001,0.16332378631443656,10,1,100,-0.024080480262365568,-10,-1,-100,15031.939094462083,0.00333633621603704,0.012575717365864932,0.9999153565144339,22.34316876799334,0.021039412986541377,-11.484906368206168,4.533151336923167,130.64971923828125,5356.25390625,True
1599561539.4443188,0.0,10,0.5,0.5,-29.029995094299316,-0.1005,-0.03,-0.001,0.16830732380323432,10,1,100,-0.020650569039707578,-10,-1,-100,15032.025039977627,0.0031833616258597815,0.012862987599379268,0.9999122010250587,22.23276148156937,0.020914772476465077,-10.960215493613243,4.347491338638451,128.01588439941406,5356.25390625,True
1599561539.4752362,0.0,10,0.5,0.5,-28.375353233337403,-0.1005,-0.03,-0.001,0.20719797523064754,10,1,100,-0.0013992316464539953,-10,-1,-100,15032.19888617599,0.0028706080165704097,0.0134747719494592,0.9999050905613618,21.87556203589664,0.020506966794828718,-9.863222744952454,3.976163012238916,122.54209899902344,5356.25390625,True
1599561539.5101748,0.0,10,0.5,0.5,-27.979275650024412,-0.1005,-0.03,-0.001,0.18214133387611622,10,1,100,-0.014949054439949965,-10,-1,-100,15032.284834084334,0.0027110467009623758,0.013799792849798145,0.9999011030812437,21.620788808237045,0.02021889296658548,-9.293230967580056,3.7904937046805274,119.70217895507812,5356.25390625,True
1599561539.546034,0.0,10,0.5,0.5,-27.27855529022217,-0.1005,-0.03,-0.001,0.22662661335340437,10,1,100,0.006224860844323023,-10,-1,-100,15032.456732836086,0.0023750975297836454,0.014496422466581544,0.9998921005025465,20.938794695993778,0.019468887583548124,-8.11849561408285,3.419141739358055,113.81642150878906,5356.25390625,True
1599561539.5769513,0.0,10,0.5,0.5,-26.223768356323244,-0.1005,-0.03,-0.001,0.28684714809035394,10,1,100,0.03195287585354534,-10,-1,-100,15032.59154117608,0.0018375788494663595,0.015673597916690433,0.9998754730626799,19.463984853303867,0.017938138556499658,-6.317252811609057,2.862070231060936,104.47323608398438,5356.25390625,True
1599561539.610861,0.0,10,0.5,0.5,-26.092742614746093,-0.1005,-0.03,-0.001,0.1696415175277878,10,1,100,-0.021549363017957627,-10,-1,-100,15032.59154117608,0.0018375788494663595,0.015673597916690433,0.9998754730626799,19.463984853303867,0.017938138556499658,-6.317252811609057,2.862070231060936,104.47323608398438,5356.25390625,True
1599561539.645768,0.0,10,0.5,0.5,-25.297633926391605,-0.1005,-0.03,-0.001,0.2661629230740497,10,1,100,0.01868275035942801,-10,-1,-100,15032.69802131562,0.0014739421598470642,0.016546753287394956,0.9998620067040028,18.170216577054685,0.016676299012141876,-5.132086246944434,2.490648852277348,97.90142822265625,5356.25390625,True
1599561539.6776826,0.0,10,0.5,0.5,-24.468044578552245,-0.1005,-0.03,-0.001,0.2871662176402595,10,1,100,0.023914008500285713,-10,-1,-100,15032.803531038924,0.001098159218375838,0.01752654822208332,0.9998457951873128,16.654739307981806,0.01524929385883906,-4.002528172379687,2.1191950436364366,91.05577087402344,5356.25390625,True
1599561539.7125888,0.0,10,0.5,0.5,-23.975742858886722,-0.1005,-0.03,-0.001,0.2441731600270095,10,1,100,0.005420379124956685,-10,-1,-100,15032.829921912053,0.0009270546008416786,0.01802122112987699,0.9998371748233585,15.824351517376835,0.014482291145110307,-3.469675502426518,1.9334608911053008,87.52969360351562,5356.25390625,True
1599561539.7474957,0.0,10,0.5,0.5,-23.105594802856448,-0.1005,-0.03,-0.001,0.3143483446787698,10,1,100,0.026652606539560617,-10,-1,-100,15032.936418661731,0.0005807979742535107,0.019103684696328064,0.9998173392698969,16.840297030318137,0.015411422903412325,-2.983040226211771,1.5619874524259543,80.27236938476562,5356.25390625,True
1599561539.776419,0.0,10,0.5,0.5,-22.197304397583007,-0.1005,-0.03,-0.001,0.3377582015532584,10,1,100,0.027428855026341,-10,-1,-100,15032.982377346372,0.0002614674531497034,0.02029462484893306,0.9997940087022985,18.04868046398538,0.01649915486915608,-2.4367973908598626,1.1905209568358854,72.74118041992188,5356.25390625,True
1599561539.8133202,0.0,10,0.5,0.5,-21.6463510055542,-0.1005,-0.03,-0.001,0.28717407899392683,10,1,100,0.011564182174486149,-10,-1,-100,15033.001941963215,0.00011804754550193178,0.020910686021444084,0.9997813407315069,18.578790380988266,0.016969754521659424,-2.1170629331006245,1.0047929089630658,68.87260437011719,5356.25390625,True
1599561539.8492267,0.0,10,0.5,0.5,-20.683056144714357,-0.1005,-0.03,-0.001,0.37139730408697313,10,1,100,0.025018992850312206,-10,-1,-100,15033.044008471654,-0.0001321483217116716,0.022229647393598177,0.999752882123166,19.481934128805005,0.017775258949818573,-1.3993196640183425,0.6333428579920115,60.93019104003906,5356.25390625,True
1599561539.884131,0.0,10,0.5,0.5,-18.81893286132813,-0.1005,-0.03,-0.001,0.5611663636385303,10,1,100,0.0315315382208904,-10,-1,-100,15033.010010057129,-0.0004162193452541364,0.025146212950985326,0.9996836973441551,20.470720517028806,0.018635020899037645,0.25440390194349766,-0.10957981385177451,44.223297119140625,5356.25390625,True
1599561539.9150481,0.0,10,0.5,0.5,-18.62686038208008,-0.1005,-0.03,-0.001,0.2705747869482557,10,1,100,0.0034035675541476997,-10,-1,-100,15033.010010057129,-0.0004162193452541364,0.025146212950985326,0.9996836973441551,20.470720517028806,0.018635020899037645,0.25440390194349766,-0.10957981385177451,44.223297119140625,5356.25390625,True
1599561539.9554558,0.0,10,0.5,0.5,-18.00480177307129,-0.1005,-0.03,-0.001,0.35876791898401017,10,1,100,0.004309842126616996,-10,-1,-100,15033.02764099522,-0.00042240929755411134,0.025939357228551917,0.9996634290184646,20.5239782359054,0.018673119554483968,0.6874143134587175,-0.2953201719787797,39.87542724609375,5356.25390625,True
1599561539.992356,0.0,10,0.5,0.5,-15.980488479614257,-0.1005,-0.03,-0.001,0.6462118264357904,10,1,100,-0.025547570417318845,-10,-1,-100,15032.991750492016,-0.00015455096911192598,0.029264191403799673,0.9995716998872466,19.81602144791191,0.017989128124871745,2.33358506219824,-1.0383095621139058,21.79791259765625,5356.25390625,True
1599561540.0302558,0.0,10,0.5,0.5,-14.81102655029297,-0.1005,-0.03,-0.001,0.5068703542260362,10,1,100,-0.0371580287548938,-10,-1,-100,15032.906928387354,0.00019598667174888668,0.031008465962921318,0.9995191026828105,18.81577321169791,0.017081958093843122,3.0086364283648717,-1.4098040524186137,12.347381591796875,5356.25390625,True
1599561540.0691617,0.0,10,0.5,0.5,-13.597198745727539,-0.1005,-0.03,-0.001,0.5268041850538328,10,1,100,-0.0697633238966112,-10,-1,-100,15032.825045892037,0.0008118891852258081,0.03276313046261111,0.9994628147751373,17.332618177877617,0.01573689747051603,3.501823300471941,-1.781282158295944,2.621734619140625,5356.25390625,True
1599561540.1020722,0.0,10,0.5,0.5,-12.848126388549806,-0.1005,-0.03,-0.001,0.448027367234615,10,1,100,-0.0453505117297934,-10,-1,-100,15032.784108138876,0.0011499706008843166,0.033628725382761,0.9994337328691423,16.39735405208565,0.014883020144836239,3.6583345097671636,-1.9670172728619117,-2.344512939453125,5356.25390625,True
1599561540.1429732,0.0,10,0.5,0.5,-11.576095550537111,-0.1005,-0.03,-0.001,0.5504092189284352,10,1,100,-0.10509507632387143,-10,-1,-100,15032.698331134277,0.0019999323181321875,0.035333169379489784,0.9993735875098577,17.239439877734604,0.015650641557405004,4.572664923021989,-2.3384920303275765,-12.48388671875,5356.25390625,True
1599561540.1808689,0.0,10,0.5,0.5,-10.273392990112304,-0.1005,-0.03,-0.001,0.562803571369479,10,1,100,-0.13371603637085555,-10,-1,-100,15032.61548827833,0.003031234911634669,0.036981668449134024,0.9993113467851892,18.74772946738232,0.017052579500249746,5.762857747830365,-2.7099946926049436,-22.899322509765625,5356.25390625,True
1599561540.2167728,0.0,10,0.5,0.5,-9.469338943481445,-0.1005,-0.03,-0.001,0.4838179599884661,10,1,100,-0.0969707119983651,-10,-1,-100,15032.571625987883,0.0036320859683723456,0.03774764297041259,0.9992807030067661,19.427063670520006,0.017703894594553744,6.381108332931484,-2.8957582694639754,-28.211181640625,5356.25390625,True
1599561540.2566667,0.0,10,0.5,0.5,-8.661041580200195,-0.1005,-0.03,-0.001,0.4896528514968824,10,1,100,-0.10734096172347686,-10,-1,-100,15032.468192506116,0.004269167168098446,0.03848292064385433,0.9992501383689721,19.94406120234013,0.01821294533618029,6.971281796514802,-3.0815280989997027,-33.592315673828125,5356.25390625,True
1599561540.2965596,0.0,10,0.5,0.5,-6.752148513793946,-0.1005,-0.03,-0.001,0.6345208779452914,10,1,100,-0.27625820753663455,-10,-1,-100,15032.28093026951,0.006379683778411468,0.04045621267133884,0.9991609452391436,20.67786887657058,0.01898458920243423,8.535427910183234,-3.6388639567745877,-50.152191162109375,5356.25390625,True
1599561540.3344579,0.0,10,0.5,0.5,-4.741255111694336,-0.1005,-0.03,-0.001,0.6108999987920114,10,1,100,-0.32430311338929385,-10,-1,-100,15032.028218707186,0.008728929019971422,0.042021461067912796,0.9990785767935784,20.144202686928462,0.01848541535790895,9.589226051899129,-4.196207622791734,-67.33767700195312,5356.25390625,True
1599561540.3723574,0.0,10,0.5,0.5,-3.238458236694336,-0.1005,-0.03,-0.001,0.5340205494808481,10,1,100,-0.2637039215928261,-10,-1,-100,15031.876977088745,0.010305385370223923,0.04273088997666095,0.9990334679449802,18.919905141013217,0.017284357439118964,9.804255168709894,-4.567762697103852,-79.14401245117188,5356.25390625,True
1599561540.41225,0.0,10,0.5,0.5,-2.94743879699707,-0.1005,-0.03,-0.001,0.46442432846331916,10,1,100,-0.10710428020150957,-10,-1,-100,15031.876977088745,0.010305385370223923,0.04273088997666095,0.9990334679449802,18.919905141013217,0.017284357439118964,9.804255168709894,-4.567762697103852,-79.14401245117188,5356.25390625,True
1599561540.4495082,0.0,10,0.5,0.5,-0.8224698181152342,-0.1005,-0.03,-0.001,0.5419192294448482,10,1,100,-0.35949432856838315,-10,-1,-100,15031.560716705746,0.01259064999292416,0.04342473232738963,0.9989773611824495,15.989249457563139,0.014555446608619954,9.29707737990005,-5.125102991120202,-97.37548828125,5356.25390625,True
1599561540.4864092,0.0,10,0.5,0.5,1.3734054260253905,-0.1005,-0.03,-0.001,0.4987880101145686,10,1,100,-0.3668311398496349,-10,-1,-100,15031.24440849747,0.014724153606292393,0.04365370374153609,0.9989382130293267,19.33277035938445,0.01780653031518387,12.464440923440414,-5.682454113031593,-116.2337646484375,5356.25390625,True
1599561540.5190349,0.0,10,0.5,0.5,2.347607757568359,-0.1005,-0.03,-0.001,0.47683239352316953,10,1,100,-0.21980603643469554,-10,-1,-100,15031.138963069767,0.015314770330122785,0.04365314944142127,0.998929357038615,20.066030397161985,0.01856659601875351,13.360478228616863,-5.868239040496334,-122.65142822265625,5356.25390625,True
1599561540.5569336,0.0,10,0.5,0.5,3.984629043579102,-0.1005,-0.03,-0.001,0.470682450523503,10,1,100,-0.2821063772379149,-10,-1,-100,15030.865558846272,0.016405956960896053,0.043589173341263616,0.9989148254699309,20.91016788986725,0.019470557644811926,14.8048064260295,-6.239810048030513,-135.58676147460938,5356.25390625,True
1599561540.8262131,0.0,10,0.5,0.5,4.30975602722168,-0.1005,-0.03,-0.001,0.47774081102848126,10,1,100,-0.17432518636551422,-10,-1,-100,15030.865558846272,0.016405956960896053,0.043589173341263616,0.9989148254699309,20.91016788986725,0.019470557644811926,14.8048064260295,-6.239810048030513,-135.58676147460938,5356.25390625,True
1599561540.8621173,0.0,10,0.5,0.5,5.2826003570556646,-0.1005,-0.03,-0.001,0.46943975564427654,10,1,100,-0.23132443857572513,-10,-1,-100,15030.75619506836,0.016912519370995676,0.04350839871925189,0.9989098988043978,21.084065328351475,0.019651871127957556,15.372788472947342,-6.425595874748314,-141.99777221679688,5356.25390625,True
1599561540.8960261,0.0,10,0.5,0.5,7.514987991333008,-0.1005,-0.03,-0.001,0.4459306618814729,10,1,100,-0.31265691779509486,-10,-1,-100,15030.310899426113,0.01810092287107788,0.04321667959405629,0.9989017345044907,20.44227641431481,0.018918517784483502,16.198998541414003,-6.982957139865151,-160.85079956054688,5356.25390625,True
1599561540.9339256,0.0,10,0.5,0.5,7.828230789184571,-0.1005,-0.03,-0.001,0.4753786210933046,10,1,100,-0.19498869169614122,-10,-1,-100,15030.310899426113,0.01810092287107788,0.04321667959405629,0.9989017345044907,20.44227641431481,0.018918517784483502,16.198998541414003,-6.982957139865151,-160.85079956054688,5356.25390625,True
1599561540.9638479,0.0,10,0.5,0.5,9.960138458251954,-0.1005,-0.03,-0.001,0.4490649924244069,10,1,100,-0.28098573223216994,-10,-1,-100,15029.866565164295,0.018874194154268043,0.04297637822567891,0.998897790421838,18.146257105237428,0.016595715434252933,15.528696414221175,-7.540350753275116,-179.09088134765625,5356.25390625,True
1599561541.0446296,0.0,10,0.5,0.5,-25.099069244384765,-0.1005,-0.03,-0.001,0.4634881273077285,10,1,100,-0.23877004363509646,-10,-1,-100,15029.590201109764,0.01918559923466385,0.04288881867313965,0.998895621181127,17.552337565192353,0.016101086296484674,15.761648374034372,-7.911966852509082,169.09442138671875,5356.25390625,True
1599561541.0846484,0.0,10,0.5,0.5,-25.49559924316406,-0.1005,-0.03,-0.001,0.4722598754313022,10,1,100,-0.20851755698195995,-10,-1,-100,15029.590201109764,0.01918559923466385,0.04288881867313965,0.998895621181127,17.552337565192353,0.016101086296484674,15.761648374034372,-7.911966852509082,169.09442138671875,5356.25390625,True
1599561541.1195872,0.0,10,0.5,0.5,-24.5406678314209,-0.1005,-0.03,-0.001,0.48379480097983696,10,1,100,-0.23383695540281713,-10,-1,-100,15029.077522743959,0.019409780175542787,0.04299416882690292,0.9988867612899976,20.385545558065512,0.01909256636904896,19.597287293643838,-8.469350210270276,151.81027221679688,5356.25390625,True
1599561541.155479,0.0,10,0.5,0.5,-24.180041816711427,-0.1005,-0.03,-0.001,0.4999056081095904,10,1,100,-0.21351182061965027,-10,-1,-100,15028.73575215356,0.01942454741779553,0.04323700315415332,0.9988759925615699,21.328094634553842,0.020253607276607515,21.404295287348774,-8.840906076893447,140.16453552246094,5356.25390625,True
1599561541.1893678,0.0,10,0.5,0.5,-24.379554542541506,-0.1005,-0.03,-0.001,0.49572249273984714,10,1,100,-0.2103231036634809,-10,-1,-100,15028.568778563873,0.019405247686525875,0.04342011162673535,0.9988684249031733,21.557380170430864,0.020570586773462025,22.089730592027305,-9.026676010435642,134.2474822998047,5356.25390625,True
1599561541.2192886,0.0,10,0.5,0.5,-23.352396827697753,-0.1005,-0.03,-0.001,0.5683052734034066,10,1,100,-0.20134234616800567,-10,-1,-100,15027.989762185025,0.019303332598389476,0.04424657102758276,0.9988341315268,21.54137191651711,0.020580484327181316,23.438520973049958,-9.583972709226714,116.09400939941406,5356.25390625,True
1599561541.2531984,0.0,10,0.5,0.5,-24.125592613220213,-0.1005,-0.03,-0.001,0.4857250730872973,10,1,100,-0.21182359254539487,-10,-1,-100,15027.989762185025,0.019303332598389476,0.04424657102758276,0.9988341315268,21.54137191651711,0.020580484327181316,23.438520973049958,-9.583972709226714,116.09400939941406,5356.25390625,True
1599561541.2871065,0.0,10,0.5,0.5,-23.637071418762208,-0.1005,-0.03,-0.001,0.5713276395968452,10,1,100,-0.20492265937449922,-10,-1,-100,15027.588480606093,0.019238423375720067,0.04502410511193471,0.9988006372769723,20.55549684906321,0.019475769563621115,23.234570568753423,-9.955519169690877,103.65266418457031,5356.25390625,True
1599561541.3200173,0.0,10,0.5,0.5,-22.497130500793457,-0.1005,-0.03,-0.001,0.6618994548036239,10,1,100,-0.2127901623848374,-10,-1,-100,15026.948037757655,0.01924990365474673,0.04655269130366368,0.9987303380501009,17.895931787583603,0.01682164434321209,21.363371838126806,-10.512896997696828,84.48130798339844,5356.25390625,True
1599561541.3539279,0.0,10,0.5,0.5,-21.920542785644532,-0.1005,-0.03,-0.001,0.6465123912823157,10,1,100,-0.22798692366541018,-10,-1,-100,15026.542925191694,0.01939744811933648,0.04779939998076029,0.9986685918601509,19.321139388212284,0.01836422305088527,23.881875095106867,-10.88448038191151,71.36056518554688,5356.25390625,True
1599561541.3888342,0.0,10,0.5,0.5,-22.008801376342774,-0.1005,-0.03,-0.001,0.5987622714604649,10,1,100,-0.22883021854659752,-10,-1,-100,15026.30962077831,0.01953877008246062,0.04849429494178122,0.9986323346566365,20.420684391644308,0.01957587230865057,25.67281557438211,-11.070253816783206,64.69833374023438,5356.25390625,True
1599561541.4277937,0.0,10,0.5,0.5,-21.702275344848633,-0.1005,-0.03,-0.001,0.5298333229852359,10,1,100,-0.21473333931896327,-10,-1,-100,15026.30962077831,0.01953877008246062,0.04849429494178122,0.9986323346566365,20.420684391644308,0.01957587230865057,25.67281557438211,-11.070253816783206,64.69833374023438,5356.25390625,True
1599561541.4627383,0.0,10,0.5,0.5,-20.01586964416504,-0.1005,-0.03,-0.001,0.6922999884632535,10,1,100,-0.2620253964574659,-10,-1,-100,15025.839131660294,0.019968376810221736,0.04996616874042807,0.998551273550321,21.927265675046257,0.021357928355346324,28.494325099186742,-11.441765891580335,51.169097900390625,5356.25390625,True
1599561541.4975483,0.0,10,0.5,0.5,-17.615601333618162,-0.1005,-0.03,-0.001,0.8040426800243772,10,1,100,-0.3332700653667061,-10,-1,-100,15025.138340384001,0.021006099374057046,0.05231374029892313,0.9984097437250019,22.520997118631556,0.022103488251328973,30.694899325897577,-11.99898509668413,30.362457275390625,5356.25390625,True
1599561541.5364442,0.0,10,0.5,0.5,-16.589135803222657,-0.1005,-0.03,-0.001,0.6582081759307523,10,1,100,-0.2803955775037852,-10,-1,-100,15024.905082209152,0.021467368586102355,0.05311387646293589,0.9983576855080889,22.344734189621953,0.021867642776242775,30.927416523000115,-12.18472761099142,23.289886474609375,5356.25390625,True
1599561541.574376,0.0,10,0.5,0.5,-13.321889251708985,-0.1005,-0.03,-0.001,0.9112131413415518,10,1,100,-0.5254337224425469,-10,-1,-100,15023.899829232134,0.02411244907749631,0.056132505602285485,0.998132121321769,19.44497190203962,0.018776821292189515,28.56048770135028,-12.927798703919565,-5.68988037109375,5356.25390625,True
1599561541.6042619,0.0,10,0.5,0.5,-12.985517349243164,-0.1005,-0.03,-0.001,0.6105388208640625,10,1,100,-0.2614065849510622,-10,-1,-100,15023.899829232134,0.02411244907749631,0.056132505602285485,0.998132121321769,19.44497190203962,0.018776821292189515,28.56048770135028,-12.927798703919565,-5.68988037109375,5356.25390625,True
1599561541.6391692,0.0,10,0.5,0.5,-11.107308303833008,-0.1005,-0.03,-0.001,0.7562248062802497,10,1,100,-0.4442967502838857,-10,-1,-100,15023.370846370235,0.025770715020086425,0.05744611825645564,0.9980159386225346,20.318739630206164,0.01988525306109547,30.704601531730034,-13.299350635765116,-20.594879150390625,5356.25390625,True
1599561541.6740758,0.0,10,0.5,0.5,-9.982319869995118,-0.1005,-0.03,-0.001,0.6814289353690679,10,1,100,-0.3836162621756357,-10,-1,-100,15023.13271707273,0.026720650265416653,0.05794905637637729,0.9979618798904499,21.459837257486427,0.02122569833186481,32.883489133515326,-13.485100954061686,-28.15301513671875,5356.25390625,True
1599561541.7059898,0.0,10,0.5,0.5,-8.096734100341797,-0.1005,-0.03,-0.001,0.7395974474282536,10,1,100,-0.5045140057689755,-10,-1,-100,15022.541215167847,0.028676506569646612,0.058924717172232556,0.9978504575722422,22.862748590446145,0.02304955921275154,36.00159541647483,-13.85655385514491,-43.4755859375,5356.25390625,True
1599561541.7404575,0.0,10,0.5,0.5,-6.979176208496094,-0.1005,-0.03,-0.001,0.6782776697895132,10,1,100,-0.4230702233651873,-10,-1,-100,15022.303070919239,0.02970572422577549,0.05924411508339291,0.9978014355452732,23.08147301436118,0.023406872760148332,36.834833743509414,-14.042264390947919,-51.2427978515625,5356.25390625,True
1599561541.7743187,0.0,10,0.5,0.5,-5.04114241027832,-0.1005,-0.03,-0.001,0.6963433280199132,10,1,100,-0.5499707159828391,-10,-1,-100,15021.708589966409,0.03178577479683193,0.05968893751368631,0.9977108274740996,22.758788915540023,0.023128127252550708,37.284009774893526,-14.413682350384635,-66.98641967773438,5356.25390625,True
1599561541.8092246,0.0,10,0.5,0.5,-1.380602973937988,-0.1005,-0.03,-0.001,0.6474100501876878,10,1,100,-0.7778136295126671,-10,-1,-100,15020.513623237843,0.03573689543468679,0.05963829661314017,0.9975801460944246,19.42580022710953,0.01961015663585404,33.47104557259526,-15.156632918042348,-99.31379699707031,5356.25390625,True
1599561541.8432262,0.0,10,0.5,0.5,-0.9614816665649413,-0.1005,-0.03,-0.001,0.6534413530295732,10,1,100,-0.3842784175896275,-10,-1,-100,15020.513623237843,0.03573689543468679,0.05963829661314017,0.9975801460944246,19.42580022710953,0.01961015663585404,33.47104557259526,-15.156632918042348,-99.31379699707031,5356.25390625,True
1599561541.8811235,0.0,10,0.5,0.5,0.26557645034790045,-0.1005,-0.03,-0.001,0.6342221779718922,10,1,100,-0.48106935746971113,-10,-1,-100,15020.216802256298,0.03660342143717789,0.059456918152330146,0.9975595543239107,19.56455464509086,0.0198809295430179,34.12506701987736,-15.342381921020456,-107.57024383544922,5356.25390625,True
1599561541.916031,0.0,10,0.5,0.5,4.071864883422852,-0.1005,-0.03,-0.001,0.5291836286196954,10,1,100,-0.7119429297489779,-10,-1,-100,15018.960062861093,0.03947626295757124,0.05833136633776525,0.9975164541821223,23.363155205361412,0.024563577551567146,42.732392521963924,-16.085195263241527,-141.2841796875,5356.25390625,True
1599561541.950448,0.0,10,0.5,0.5,6.179123977661133,-0.1005,-0.03,-0.001,0.569652317548495,10,1,100,-0.5362843949505935,-10,-1,-100,15018.297945944476,0.040477074192598,0.05767403562320854,0.9975145673521464,23.142927853824016,0.024357725268640214,43.3112817887561,-16.45656186695411,-158.3697967529297,5356.25390625,True
1599561541.982363,0.0,10,0.5,0.5,7.482408393859863,-0.1005,-0.03,-0.001,0.6064842432953111,10,1,100,-0.48296623461059696,-10,-1,-100,15017.94149187312,0.04088731510760863,0.05740989654401811,0.9975130732186401,22.650764251376213,0.0237667252266026,42.870855248424895,-16.642258502703342,-166.86566162109375,5356.25390625,True
1599561542.018266,0.0,10,0.5,0.5,8.769075370788576,-0.1005,-0.03,-0.001,0.6055601486758808,10,1,100,-0.48305030633906965,-10,-1,-100,15017.638748041238,0.04124728331870666,0.0571614021770433,0.9975125240917935,21.96143051090298,0.022968993029441057,42.03236500538424,-16.8279689570326,-175.3026123046875,5356.25390625,True
1599561542.0541718,0.0,10,0.5,0.5,-26.488125968933105,-0.1005,-0.03,-0.001,0.6022077060720942,10,1,100,-0.4813827892095267,-10,-1,-100,15017.276434063562,0.041546161870296944,0.0569057375053948,0.9975147384739806,21.087001021487808,0.022029721193310002,40.8065831445069,-17.013692401489852,176.32510375976562,5356.25390625,True
1599561542.0880797,0.0,10,0.5,0.5,-25.117205612182616,-0.1005,-0.03,-0.001,0.5882887669441915,10,1,100,-0.5000367601017177,-10,-1,-100,15016.613336013164,0.041975751511398346,0.05654861470243054,0.9975170627414298,20.73049280970883,0.021898898449775047,40.99736083113024,-17.385145802512987,159.78623962402344,5356.25390625,True
1599561542.128971,0.0,10,0.5,0.5,-24.938089416503907,-0.1005,-0.03,-0.001,0.614119283566301,10,1,100,-0.4764882129187972,-10,-1,-100,15016.251031254418,0.042141055276840686,0.056461230942101266,0.9975150429244949,22.030666276780142,0.023518654687337066,44.03654065596394,-17.570845039679238,151.6212921142578,5356.25390625,True
1599561542.1648798,0.0,10,0.5,0.5,-23.957494384765628,-0.1005,-0.03,-0.001,0.6225617003091943,10,1,100,-0.4904939155463875,-10,-1,-100,15015.5235121781,0.04240924210523908,0.0564614746818024,0.9975036631816524,23.64266461878343,0.025740083096031048,48.26282589104088,-17.94218846363995,135.4185028076172,5356.25390625,True
1599561542.2007847,0.0,10,0.5,0.5,-23.016861503601074,-0.1005,-0.03,-0.001,0.6490214255619289,10,1,100,-0.49239116896106894,-10,-1,-100,15014.803842828376,0.04266423030148877,0.0567051272401295,0.9974789681980578,23.88726197319499,0.026242490451861937,49.77663959454805,-18.31349663559542,119.05364990234375,5356.25390625,True
1599561542.2356913,0.0,10,0.5,0.5,-21.148206634521483,-0.1005,-0.03,-0.001,0.714330933722978,10,1,100,-0.5226256175184713,-10,-1,-100,15013.645813148003,0.04316459879872232,0.057523018884957325,0.997410607377376,22.41766431612433,0.02452182744256986,48.143400736483926,-18.870499197892585,94.02781677246094,5356.25390625,True
1599561542.2725935,0.0,10,0.5,0.5,-20.91771286010742,-0.1005,-0.03,-0.001,0.6737474900120503,10,1,100,-0.49996813584146704,-10,-1,-100,15013.285546186264,0.04340753743790593,0.057899374436762706,0.9973782873781685,21.482420779800666,0.023487427186785665,46.59176868106173,-19.056192423246,85.55181884765625,5356.25390625,True
1599561542.3015156,0.0,10,0.5,0.5,-19.86546912384033,-0.1005,-0.03,-0.001,0.7329044404147362,10,1,100,-0.5471143596118438,-10,-1,-100,15012.49278820993,0.0440534188946396,0.05877969902561111,0.9972984725076801,21.03789563010246,0.023263422515988126,46.522714622361384,-19.427587747563397,68.39686584472656,5356.25390625,True
1599561542.3354247,0.0,10,0.5,0.5,-19.681983795166015,-0.1005,-0.03,-0.001,0.6991226132104238,10,1,100,-0.5299971086629591,-10,-1,-100,15012.129634483019,0.04448172126058759,0.05927188143779554,0.9972503299295115,22.42524307989605,0.025052504616102086,50.067640233999256,-19.613256920433386,59.7176513671875,5356.25390625,True
1599561542.3713307,0.0,10,0.5,0.5,-16.777223739624024,-0.1005,-0.03,-0.001,0.8700855233477112,10,1,100,-0.7569465641296244,-10,-1,-100,15010.488665807876,0.04693099627373455,0.061271835554762386,0.9970171732505437,24.494752858023922,0.028046522163423213,56.77186065828832,-20.355795859355197,24.3167724609375,5356.25390625,True
1599561542.4052377,0.0,10,0.5,0.5,-17.41148277282715,-0.1005,-0.03,-0.001,0.6705011549887986,10,1,100,-0.5125874341104308,-10,-1,-100,15010.488665807876,0.04693099627373455,0.061271835554762386,0.9970171732505437,24.494752858023922,0.028046522163423213,56.77186065828832,-20.355795859355197,24.3167724609375,5356.25390625,True
1599561542.4426522,0.0,10,0.5,0.5,-16.03971361541748,-0.1005,-0.03,-0.001,0.7210436966746504,10,1,100,-0.6008978445139493,-10,-1,-100,15010.126542664948,0.047728922882490685,0.06172734402640707,0.9969511948535508,24.219146443253347,0.02770622724177817,56.64845702877215,-20.541431460954666,15.294662475585938,5356.25390625,True
1599561542.4775593,0.0,10,0.5,0.5,-11.88177671813965,-0.1005,-0.03,-0.001,0.8150267869462157,10,1,100,-0.9484519803674486,-10,-1,-100,15008.42026234814,0.05160866360605435,0.06299112643098558,0.996678816786909,21.37501624790704,0.024650854990705448,51.81734865157647,-21.284093244595184,-21.488433837890625,5356.25390625,True
1599561542.5124657,0.0,10,0.5,0.5,-11.39923063659668,-0.1005,-0.03,-0.001,0.6893015360372534,10,1,100,-0.5614246688440032,-10,-1,-100,15008.42026234814,0.05160866360605435,0.06299112643098558,0.996678816786909,21.37501624790704,0.024650854990705448,51.81734865157647,-21.284093244595184,-21.488433837890625,5356.25390625,True
1599561542.5443807,0.0,10,0.5,0.5,-9.019186660766602,-0.1005,-0.03,-0.001,0.7072318185306858,10,1,100,-0.8051226436494412,-10,-1,-100,15007.566121890093,0.053815736630193955,0.06314819295206298,0.9965521422473782,23.897482253716166,0.028170159904606557,58.9504632395189,-21.65536923640631,-40.29949951171875,5356.25390625,True
1599561542.5812812,0.0,10,0.5,0.5,-5.642355346679687,-0.1005,-0.03,-0.001,0.6328620098817879,10,1,100,-0.9422564918753209,-10,-1,-100,15006.223759145243,0.05705870026662095,0.06260903419649615,0.9964057474547534,24.725238595579256,0.029675680717734902,62.572179065901146,-22.21218380409414,-69.04415893554688,5356.25390625,True
1599561542.6161897,0.0,10,0.5,0.5,-5.1818840789794915,-0.1005,-0.03,-0.001,0.6872864869696247,10,1,100,-0.6193495383794112,-10,-1,-100,15006.223759145243,0.05705870026662095,0.06260903419649615,0.9964057474547534,24.725238595579256,0.029675680717734902,62.572179065901146,-22.21218380409414,-69.04415893554688,5356.25390625,True
1599561542.6510944,0.0,10,0.5,0.5,-2.7374398651123046,-0.1005,-0.03,-0.001,0.5993509754847031,10,1,100,-0.837167380799682,-10,-1,-100,15005.372372367769,0.05902645232241549,0.06180533894685165,0.9963412959442635,23.46688948600281,0.028161006780675374,60.38810347118239,-22.583422568433974,-88.55801391601562,5356.25390625,True
1599561542.6820123,0.0,10,0.5,0.5,0.7379003448486331,-0.1005,-0.03,-0.001,0.49697349374208405,10,1,100,-0.9067021969085384,-10,-1,-100,15003.963292790344,0.06143384067101124,0.06014125194049535,0.9962976026446307,22.234378130952297,0.027102882803289558,58.63944258130107,-23.140353537985497,-118.35101318359375,5356.25390625,True
1599561542.7169197,0.0,10,0.5,0.5,1.2423133392333987,-0.1005,-0.03,-0.001,0.6634691314279839,10,1,100,-0.6676585739900055,-10,-1,-100,15003.963292790344,0.06143384067101124,0.06014125194049535,0.9962976026446307,22.234378130952297,0.027102882803289558,58.63944258130107,-23.140353537985497,-118.35101318359375,5356.25390625,True
1599561542.7508283,0.0,10,0.5,0.5,3.721387672424317,-0.1005,-0.03,-0.001,0.5217246772645281,10,1,100,-0.7979364495572422,-10,-1,-100,15003.040414722287,0.06260500059035223,0.05885369379684054,0.9963015891925245,24.519173557838393,0.030460274364683605,65.71100450563577,-23.511552781743287,-138.55860900878906,5356.25390625,True
1599561542.7797508,0.0,10,0.5,0.5,6.243683563232422,-0.1005,-0.03,-0.001,0.5201302562554412,10,1,100,-0.7751954528939903,-10,-1,-100,15002.066709664301,0.06344870599798119,0.057670889967760756,0.9963173842493707,25.03782025568782,0.0313567584076938,68.16894194367188,-23.88271234126975,-158.79385375976562,5356.25390625,True
1599561542.8156555,0.0,10,0.5,0.5,-26.754669647216797,-0.1005,-0.03,-0.001,0.45992943491602367,10,1,100,-0.7679677293104203,-10,-1,-100,15000.6505400819,0.06413571362405189,0.05605202125101957,0.9963657868230968,23.00782511956437,0.028843699738818937,64.11585101333841,-24.43952461075211,171.25918579101562,5356.25390625,True
1599561542.850562,0.0,10,0.5,0.5,-26.00347258758545,-0.1005,-0.03,-0.001,0.5764237398576446,10,1,100,-0.7161960043306039,-10,-1,-100,15000.158304178156,0.06427822573882874,0.055645669830887735,0.9963793801183062,21.678811242853627,0.027320153681744768,60.875554702750605,-24.62515662110742,161.4130096435547,5356.25390625,True
1599561542.8814795,0.0,10,0.5,0.5,-25.56972956848145,-0.1005,-0.03,-0.001,0.5785519996579623,10,1,100,-0.7150852596192967,-10,-1,-100,14999.60552831681,0.06438616674385693,0.0553022849531345,0.9963915288735621,22.949093562012937,0.029180171973551244,64.93294522040233,-24.810767143100648,151.63671875,5356.25390625,True
1599561542.9153888,0.0,10,0.5,0.5,-24.163626365661624,-0.1005,-0.03,-0.001,0.5582534719294682,10,1,100,-0.7274954874791932,-10,-1,-100,14998.620125142275,0.06458750570159646,0.054812717455826096,0.9964055500208506,25.044724532653284,0.032459080268678296,71.93223338455641,-25.181920097398635,132.01417541503906,5356.25390625,True
1599561543.172701,0.0,10,0.5,0.5,-23.7824248046875,-0.1005,-0.03,-0.001,0.5924248953721029,10,1,100,-0.7179570581963705,-10,-1,-100,14998.130860689795,0.06467698375566586,0.054685392959333924,0.9964067420331681,25.484754412256933,0.03324029398800429,73.74028478233016,-25.367475631426302,122.12255859375,5356.25390625,True
1599561543.2026203,0.0,10,0.5,0.5,-23.355380790710452,-0.1005,-0.03,-0.001,0.597892047072695,10,1,100,-0.7234603601275551,-10,-1,-100,14997.637705708505,0.06480143174647694,0.05462654810638021,0.9964018841238651,25.5017839014114,0.03337130765456351,74.33425234982933,-25.553029698709302,112.16752624511719,5356.25390625,True
1599561543.2351515,0.0,10,0.5,0.5,-22.950399925231935,-0.1005,-0.03,-0.001,0.602890898242082,10,1,100,-0.7300594569614562,-10,-1,-100,14997.084996647784,0.06496930809168243,0.05462502306054441,0.9963910356189095,25.09284463413644,0.03286451381986539,73.67844969651968,-25.738591867902123,102.14671325683594,5356.25390625,True
1599561543.2693946,0.0,10,0.5,0.5,-20.529761703491214,-0.1005,-0.03,-0.001,0.6309057956771992,10,1,100,-0.80519766771901,-10,-1,-100,14995.54709304683,0.06580178353291911,0.05488333229454016,0.9963222094885439,22.15971183544421,0.029196494402851013,66.48813896562523,-26.295364018435418,71.68215942382812,5356.25390625,True
1599561543.3351877,0.0,10,0.5,0.5,-20.085877517700194,-0.1005,-0.03,-0.001,0.6197564449759989,10,1,100,-0.7675901453527563,-10,-1,-100,14994.99152430601,0.0662127219644757,0.05502158106420353,0.9962873586808428,23.062717429542726,0.03063580556912641,69.69099518964269,-26.48095297702789,61.39202880859375,5356.25390625,True
1599561543.3860505,0.0,10,0.5,0.5,-17.521012954711914,-0.1005,-0.03,-0.001,0.6447033936224721,10,1,100,-0.9150250436792255,-10,-1,-100,14993.388386198669,0.06792333986760947,0.05537753594498602,0.9961524724729097,25.886346971616167,0.03519757822684055,79.8843791215745,-27.037590667104546,30.111175537109375,5356.25390625,True
1599561543.4179657,0.0,10,0.5,0.5,-18.119008895874025,-0.1005,-0.03,-0.001,0.6088785701419458,10,1,100,-0.744410716752811,-10,-1,-100,14993.388386198669,0.06792333986760947,0.05537753594498602,0.9961524724729097,25.886346971616167,0.03519757822684055,79.8843791215745,-27.037590667104546,30.111175537109375,5356.25390625,True
1599561543.4548683,0.0,10,0.5,0.5,-14.457461486816406,-0.1005,-0.03,-0.001,0.6042767138333336,10,1,100,-1.0004225890571035,-10,-1,-100,14991.724780488876,0.07024727722833617,0.05533631405609503,0.9959935804957233,24.880488274872814,0.03396668712985203,78.37801739932983,-27.594217713854672,-1.79132080078125,5356.25390625,True
1599561543.487778,0.0,10,0.5,0.5,-11.805631240844727,-0.1005,-0.03,-0.001,0.5636389537993127,10,1,100,-0.9631142374544195,-10,-1,-100,14990.614727644366,0.07201535431307285,0.05492968666204375,0.9958898123117698,22.600236366132687,0.031127083114898257,72.16350821243826,-27.965372240848357,-23.40826416015625,5356.25390625,True
1599561543.5256772,0.0,10,0.5,0.5,-9.079400146484375,-0.1005,-0.03,-0.001,0.5110392415617597,10,1,100,-0.9810430389904217,-10,-1,-100,14989.504626447917,0.07377875059718875,0.05408218491828401,0.9958071164812905,25.277642731611,0.03546399902704697,81.79562976955025,-28.336458416779585,-45.306915283203125,5356.25390625,True
1599561543.5585878,0.0,10,0.5,0.5,-7.44734049987793,-0.1005,-0.03,-0.001,0.5355692150157352,10,1,100,-0.8985456200991968,-10,-1,-100,14988.950036273221,0.07462350591565062,0.053535392666754514,0.9957737163115289,25.934436606107095,0.03665834950664459,84.4763002721205,-28.52197249949885,-56.361053466796875,5356.25390625,True
1599561543.5875459,0.0,10,0.5,0.5,-5.793836837768555,-0.1005,-0.03,-0.001,0.5196910996186538,10,1,100,-0.9031263002380981,-10,-1,-100,14988.329016574658,0.07542406554991507,0.0528950077529293,0.9957476228898262,26.097898244853372,0.03705913892096713,85.5676501267064,-28.70748118965202,-67.48526000976562,5356.25390625,True
1599561543.6214206,0.0,10,0.5,0.5,-1.836272678375244,-0.1005,-0.03,-0.001,0.3258539129302679,10,1,100,-1.0393912683707565,-10,-1,-100,14986.603503089165,0.07738096253335834,0.050552257534424196,0.9957191651743901,24.011396560469084,0.034276996326620984,80.27085955506828,-29.264068042274246,-101.27570343017578,5356.25390625,True
1599561543.6563637,0.0,10,0.5,0.5,1.0617246856689453,-0.1005,-0.03,-0.001,0.36462615125419795,10,1,100,-0.9383667209047155,-10,-1,-100,14985.426672668778,0.07823027149185033,0.04877866201647903,0.9957412649650479,23.999852047872384,0.03471008135775726,81.26200709760815,-29.635167463373786,-124.1478271484375,5356.25390625,True
1599561543.686282,0.0,10,0.5,0.5,1.6263425216674807,-0.1005,-0.03,-0.001,0.5413752360209088,10,1,100,-0.85467867385141,-10,-1,-100,14985.426672668778,0.07823027149185033,0.04877866201647903,0.9957412649650479,23.999852047872384,0.03471008135775726,81.26200709760815,-29.635167463373786,-124.1478271484375,5356.25390625,True
