Timestamp,Input Throttle,horizon,dT,dt,Input Roll,Roll P,Roll I,Roll D,Input Pitch,Pitch P,Pitch I,Pitch D,Input Yaw,Yaw P,Yaw I,Yaw D,Altitude,Direction X,Direction Y,Direction Z,Drag X,Drag Y,Drag Z,Vertical Velocity,Roll,Mass,Has Fuel
1599562863.0816638,0.0,10,0.5,0.5,-8.745780235290527,-0.15025,-0.03,-0.12575,-0.0005160036784157328,10,1,100,0.17110062787052588,-10,-1,-100,14994.00076578767,-0.01677492516415032,-7.707227621143787e-05,0.9998592880728775,28.649033319512647,0.02703433100132805,-87.51364076790998,27.00929833095187,-31.79229736328125,5356.25390625,True
1599562863.112551,0.0,10,0.5,0.5,-8.920650497436522,-0.15025,-0.03,-0.12575,-0.00024258102682256935,10,1,100,0.177162491180877,-10,-1,-100,14995.0896361497,-0.01684525013708631,-7.22009220031383e-05,0.9998581061004835,28.503860209453137,0.02736323400036676,-85.87434721773394,26.637367180270896,-31.7911376953125,5356.25390625,True
1599562863.15048,0.0,10,0.5,0.5,-9.095131256103514,-0.15025,-0.03,-0.12575,-0.0007369365398528406,10,1,100,0.17181451890098676,-10,-1,-100,14995.0896361497,-0.01684525013708631,-7.22009220031383e-05,0.9998581061004835,28.503860209453137,0.02736323400036676,-85.87434721773394,26.637367180270896,-31.7911376953125,5356.25390625,True
1599562863.1909096,0.0,10,0.5,0.5,-9.258808135986328,-0.15025,-0.03,-0.12575,0.003374870861693106,10,1,100,0.17947562402666695,-10,-1,-100,14996.118936180486,-0.01689958268355878,-3.475521751453593e-05,0.9998571912514289,28.358842045170906,0.027686134626140124,-84.24769580268149,26.26545171355052,-31.830810546875,5356.25390625,True
1599562863.2307844,0.0,10,0.5,0.5,-9.36634814453125,-0.15025,-0.03,-0.12575,0.007769953454156451,10,1,100,0.17962946371715374,-10,-1,-100,14997.14823494642,-0.016935011193280395,3.9273223967964375e-05,0.9998565916437704,28.225245620383227,0.028011530072872087,-82.66665735749235,25.89355168895192,-32.091522216796875,5356.25390625,True
1599562863.271726,0.0,10,0.5,0.5,-9.326329627990722,-0.15025,-0.03,-0.12575,0.020150485168824294,10,1,100,0.17944966261926543,-10,-1,-100,14998.658977000276,-0.016950188909234443,0.00021908639251815598,0.9998563112253148,28.06203128464764,0.028507622564047264,-80.42262249037968,25.335728236889835,-32.9847412109375,5356.25390625,True
1599562863.309021,0.0,10,0.5,0.5,-9.192985534667967,-0.15025,-0.03,-0.12575,0.03473132627620403,10,1,100,0.17335876735298061,-10,-1,-100,15000.169718012912,-0.01689320579503623,0.0005149068409104022,0.9998571670338278,27.939707051178743,0.02898982125442901,-78.3136363874612,24.777933572071138,-34.49456787109375,5356.25390625,True
1599562863.3459532,0.0,10,0.5,0.5,-9.549362533569335,-0.15025,-0.03,-0.12575,0.005200772121070448,10,1,100,0.18074639935230558,-10,-1,-100,15000.169718012912,-0.01689320579503623,0.0005149068409104022,0.9998571670338278,27.939707051178743,0.02898982125442901,-78.3136363874612,24.777933572071138,-34.49456787109375,5356.25390625,True
1599562863.3854353,0.0,10,0.5,0.5,-8.894785568237305,-0.15025,-0.03,-0.12575,0.06661544746387413,10,1,100,0.15926756141108214,-10,-1,-100,15002.101350770332,-0.01668258617212053,0.0010727539741714261,0.9998602604951957,27.81665795246363,0.029538970004297133,-75.63427641295236,24.03424828274306,-37.46954345703125,5356.25390625,True
1599562863.42433,0.0,10,0.5,0.5,-8.902174453735352,-0.15025,-0.03,-0.12575,0.04997437669705235,10,1,100,0.16432844838821103,-10,-1,-100,15003.06521195639,-0.016521955863650954,0.0014276300392792758,0.9998624839681256,27.758553618607507,0.02973627406760709,-74.31139276779375,23.662422517426425,-39.36920166015625,5356.25390625,True
1599562863.4632275,0.0,10,0.5,0.5,-9.29294886779785,-0.15025,-0.03,-0.12575,0.014629533190195297,10,1,100,0.1820436748215336,-10,-1,-100,15003.06521195639,-0.016521955863650954,0.0014276300392792758,0.9998624839681256,27.758553618607507,0.02973627406760709,-74.31139276779375,23.662422517426425,-39.36920166015625,5356.25390625,True
1599562863.4961073,0.0,10,0.5,0.5,-8.6699552154541,-0.15025,-0.03,-0.12575,0.05579165666099018,10,1,100,0.15793389570074218,-10,-1,-100,15004.030048282817,-0.016303006025553304,0.0018004632505451469,0.9998654761149692,27.692114300846203,0.029855321384849594,-72.97135818081615,23.29060813266854,-41.5440673828125,5356.25390625,True
1599562863.5340402,0.0,10,0.5,0.5,-8.585610351562499,-0.15025,-0.03,-0.12575,0.041268396063116185,10,1,100,0.16619703509628464,-10,-1,-100,15004.449964757077,-0.016179573116434493,0.002005670469740222,0.9998670905174031,27.652964280454857,0.02987878469896401,-72.28790900206334,23.104705360218176,-42.73455810546875,5356.25390625,True
1599562863.5729022,0.0,10,0.5,0.5,-7.602948410034178,-0.15025,-0.03,-0.12575,0.09393066730135713,10,1,100,0.12927374534064312,-10,-1,-100,15005.833740251372,-0.01573230027129397,0.0026690814335454415,0.9998726772606974,27.49533491857975,0.029770432053435807,-70.14486418100783,22.54701712805764,-46.7183837890625,5356.25390625,True
1599562863.6108406,0.0,10,0.5,0.5,-7.654761169433593,-0.15025,-0.03,-0.12575,0.05318576229982175,10,1,100,0.1545044089922924,-10,-1,-100,15006.31810890371,-0.015556119429283276,0.002899316049126174,0.9998747927189429,27.424720552834106,0.029665848707814642,-69.38919566019044,22.361128361095258,-48.183929443359375,5356.25390625,True
1599562863.6507287,0.0,10,0.5,0.5,-6.924898750305175,-0.15025,-0.03,-0.12575,0.0841872495217916,10,1,100,0.12901089475548308,-10,-1,-100,15007.15696458635,-0.015165449345088011,0.0033878519081946036,0.9998792585135516,27.24649413970741,0.02933913978444334,-67.7947032410129,21.989363345735995,-51.3211669921875,5356.25390625,True
1599562863.6916182,0.0,10,0.5,0.5,-6.32247802734375,-0.15025,-0.03,-0.12575,0.08850530548313368,10,1,100,0.11878747035363708,-10,-1,-100,15008.05929594615,-0.014718976991770213,0.003868349774709307,0.9998841870868527,27.00768539187092,0.028843590814329367,-66.06701659935945,21.617617712279788,-54.733917236328125,5356.25390625,True
1599562863.7314782,0.0,10,0.5,0.5,-5.135675895690918,-0.15025,-0.03,-0.12575,0.12439827768662054,10,1,100,0.07830540018467115,-10,-1,-100,15009.32099456992,-0.013947050786130039,0.004628417179814556,0.9998920229348661,26.503655921154873,0.027767888662578896,-63.16570791227207,21.06004230587707,-60.36883544921875,5356.25390625,True
1599562863.7713716,0.0,10,0.5,0.5,-4.634772842407226,-0.15025,-0.03,-0.12575,0.10311779032681573,10,1,100,0.09116579127386412,-10,-1,-100,15010.157893941272,-0.013364890659094276,0.00512218901724028,0.9998975661923287,26.047928886173096,0.026832977183540024,-60.98664056802508,20.688359847493587,-64.46981811523438,5356.25390625,True
1599562863.8102987,0.0,10,0.5,0.5,-4.475027839660645,-0.15025,-0.03,-0.12575,0.08100819362279747,10,1,100,0.11488716760384271,-10,-1,-100,15010.578784366953,-0.013054319142527958,0.005366394867551618,0.9999003883176817,25.778027476029816,0.0263051142874682,-59.81396708892613,20.502530641526878,-66.62359619140625,5356.25390625,True
1599562863.8501592,0.0,10,0.5,0.5,-2.0959832305908206,-0.15025,-0.03,-0.12575,0.15554816183127368,10,1,100,-0.0028841315391913702,-10,-1,-100,15012.130511664203,-0.011704485623186562,0.006262455565340553,0.9999118894515601,24.368935416907753,0.023874716907771973,-54.50007500474375,19.75930497204554,-75.92837524414062,5356.25390625,True
1599562863.8910842,0.0,10,0.5,0.5,-2.466811241149902,-0.15025,-0.03,-0.12575,0.08976368969672616,10,1,100,0.09100768602100762,-10,-1,-100,15012.550426884438,-0.011335305738187524,0.0064746202479927335,0.9999147914379836,23.92399302348184,0.02321238188259571,-53.00334351500549,19.573523464981548,-78.42681884765625,5356.25390625,True
1599562863.9289887,0.0,10,0.5,0.5,-0.48724021911621096,-0.15025,-0.03,-0.12575,0.12859428730030262,10,1,100,0.004207208797935333,-10,-1,-100,15013.685169492033,-0.010215108504603528,0.007016253431347731,0.9999232089245786,22.357073163700345,0.02120655980880608,-48.12568504962559,19.016240161219674,-86.33660888671875,5356.25390625,True
1599562863.968876,0.0,10,0.5,0.5,-1.3510901641845703,-0.15025,-0.03,-0.12575,0.07493202726096361,10,1,100,0.11563048569515182,-10,-1,-100,15013.685169492033,-0.010215108504603528,0.007016253431347731,0.9999232089245786,22.357073163700345,0.02120655980880608,-48.12568504962559,19.016240161219674,-86.33660888671875,5356.25390625,True
1599562864.009734,0.0,10,0.5,0.5,0.31828092956542975,-0.15025,-0.03,-0.12575,0.11156232404881561,10,1,100,0.026066110835905792,-10,-1,-100,15014.461521822726,-0.009405902543852828,0.007345304154875656,0.9999287852163312,21.178869759918513,0.019977366230252397,-44.701506259917785,18.644765760556634,-91.95442199707031,5356.25390625,True
1599562864.0486624,0.0,10,0.5,0.5,2.1746590919494633,-0.15025,-0.03,-0.12575,0.12100178619707028,10,1,100,-0.026456929602003243,-10,-1,-100,15015.531814964139,-0.008198369681812501,0.0077262126611526765,0.9999365441729164,22.650989599306808,0.02156592799813644,-46.383896724562646,18.087555204872324,-100.76422882080078,5356.25390625,True
1599562864.091548,0.0,10,0.5,0.5,3.746992654800415,-0.15025,-0.03,-0.12575,0.11349857709448599,10,1,100,-0.04255335229616308,-10,-1,-100,15016.602107592975,-0.006960615127886456,0.008000338165241967,0.9999437706322706,23.920408198315418,0.023283901291936793,-47.47819310317416,17.530311969292093,-109.93755340576172,5356.25390625,True
1599562864.1304448,0.0,10,0.5,0.5,4.405403303146362,-0.15025,-0.03,-0.12575,0.10076459241443453,10,1,100,-0.008029016008599107,-10,-1,-100,15017.316939930664,-0.006156294374080527,0.008130023318785824,0.9999480000282094,24.51639393776723,0.024246789852548366,-47.632282775538485,17.15879623983577,-115.90257263183594,5356.25390625,True
1599562864.1703386,0.0,10,0.5,0.5,3.8219033470153807,-0.15025,-0.03,-0.12575,0.08814623767394592,10,1,100,0.07162398373078883,-10,-1,-100,15017.316939930664,-0.006156294374080527,0.008130023318785824,0.9999480000282094,24.51639393776723,0.024246789852548366,-47.632282775538485,17.15879623983577,-115.90257263183594,5356.25390625,True
1599562864.211227,0.0,10,0.5,0.5,7.0522943840026855,-0.15025,-0.03,-0.12575,0.10407595017920873,10,1,100,-0.10084558698443313,-10,-1,-100,15018.617701995885,-0.0045949424551103395,0.0082721044921959,0.9999552283933038,25.320050291999955,0.025605798995418386,-47.06771630924672,16.41573364699622,-127.04783630371094,5356.25390625,True
1599562864.2720308,0.0,10,0.5,0.5,7.25673342514038,-0.15025,-0.03,-0.12575,0.08993786758432382,10,1,100,-0.030181446996635358,-10,-1,-100,15019.269061295432,-0.003825623234742347,0.008270099617501882,0.9999584841678091,25.459790670802906,0.025838914391535038,-46.25835088027645,16.04420032352685,-132.20973205566406,5356.25390625,True
1599562864.3179104,0.0,10,0.5,0.5,8.124963428497313,-0.15025,-0.03,-0.12575,0.09135247124652479,10,1,100,-0.029629353721585455,-10,-1,-100,15019.919444915024,-0.003138423757261393,0.008279311906479911,0.999960800877052,25.44393499046255,0.02577162395785197,-45.16098320553022,15.672675143717013,-137.0955810546875,5356.25390625,True
1599562864.3707702,0.0,10,0.5,0.5,8.332362655639649,-0.15025,-0.03,-0.12575,0.08877300027732647,10,1,100,-0.00042339417571271576,-10,-1,-100,15020.213388046832,-0.0027866573935874835,0.008262596349777692,0.9999619812983548,25.383963749152134,0.025633068731123417,-44.52150347409468,15.486917949018988,-139.43539428710938,5356.25390625,True
1599562864.4183552,0.0,10,0.5,0.5,9.431939582824707,-0.15025,-0.03,-0.12575,0.08561284942931419,10,1,100,-0.03943576193465323,-10,-1,-100,15020.80322654883,-0.0021189650389035757,0.008217538706049717,0.9999639903740428,25.1736486202106,0.025172733969017775,-43.09538897337717,15.115418125527114,-143.90826416015625,5356.25390625,True
1599562864.4652297,0.0,10,0.5,0.5,10.20062384033203,-0.15025,-0.03,-0.12575,0.0834924541629816,10,1,100,-0.042910962298951305,-10,-1,-100,15021.453612971702,-0.001487739389029768,0.008156208813626078,0.9999656308540303,24.859989166114147,0.02450930921849808,-41.514385820259236,14.74394122063748,-148.10548400878906,5356.25390625,True
1599562864.5190835,0.0,10,0.5,0.5,10.92361305618286,-0.15025,-0.03,-0.12575,0.08177022502176284,10,1,100,-0.04608587158396566,-10,-1,-100,15021.9770468981,-0.0008922334076032876,0.00808406055135828,0.9999669253953094,24.50295919586376,0.02373438503602889,-39.88915942547133,14.372489972047703,-152.02699279785156,5356.25390625,True
1599562864.5669575,0.0,10,0.5,0.5,11.590507579803466,-0.15025,-0.03,-0.12575,0.08042551393777089,10,1,100,-0.04885713849320267,-10,-1,-100,15022.563958419487,-0.0003323129401081593,0.008005921259541988,0.9999678968811428,24.1164866042242,0.022892957407002475,-38.24726182967276,14.001065392410473,-155.6727752685547,5356.25390625,True
1599562864.6109478,0.0,10,0.5,0.5,12.635893245697021,-0.15025,-0.03,-0.12575,0.0744223048070087,10,1,100,-0.07881811956005215,-10,-1,-100,15023.38426784589,0.0004430524925971542,0.007880305835707247,0.9999688517571058,23.470816841603092,0.02155892086307292,-35.74486433280009,13.443978678983283,-160.62435913085938,5356.25390625,True
1599562864.6578217,0.0,10,0.5,0.5,12.147396934509278,-0.15025,-0.03,-0.12575,0.08695887544217491,10,1,100,-0.0019415109761885688,-10,-1,-100,15023.38426784589,0.0004430524925971542,0.007880305835707247,0.9999688517571058,23.470816841603092,0.02155892086307292,-35.74486433280009,13.443978678983283,-160.62435913085938,5356.25390625,True
1599562864.7017043,0.0,10,0.5,0.5,13.097483924865724,-0.15025,-0.03,-0.12575,0.07802377231891666,10,1,100,-0.054595779818387924,-10,-1,-100,15023.909657334094,0.0009157282576474413,0.007799304641389516,0.9999691656690565,23.00287887678514,0.02066357620682378,-34.066268767516675,13.072619943499864,-163.58059692382812,5356.25390625,True
1599562864.7465844,0.0,10,0.5,0.5,13.916437782287597,-0.15025,-0.03,-0.12575,0.07429786510450327,10,1,100,-0.07870014080179458,-10,-1,-100,15024.662587845698,0.0015595543523488921,0.007692225126288554,0.9999691982570406,22.2801814839631,0.01938675530121552,-31.59253672749335,12.51562547453506,-167.4976348876953,5356.25390625,True
1599562864.7900395,0.0,10,0.5,0.5,13.852059650421142,-0.15025,-0.03,-0.12575,0.08046997192960201,10,1,100,-0.03662661823359316,-10,-1,-100,15024.89598583011,0.001757468617287388,0.007651515515053316,0.9999691823323268,22.040284619244222,0.01898959803473086,-30.789570236466943,12.329971251060952,-168.6654815673828,5356.25390625,True
1599562864.8329256,0.0,10,0.5,0.5,14.387351779937745,-0.15025,-0.03,-0.12575,0.07884612526021098,10,1,100,-0.05802993369229979,-10,-1,-100,15025.41942410206,0.0021275154601519456,0.007600315259109933,0.9999688539579266,21.570029240773618,0.01824802768177358,-29.226739241777228,11.958676492274755,-170.79388427734375,5356.25390625,True
1599562864.8788033,0.0,10,0.5,0.5,14.72505612182617,-0.15025,-0.03,-0.12575,0.0797462947033132,10,1,100,-0.05871989285437494,-10,-1,-100,15025.882315934636,0.0024657266070897362,0.007562555004181121,0.9999683634766192,21.121211033025528,0.017583631185861186,-27.73148126632502,11.587397857724035,-172.64633178710938,5356.25390625,True
1599562864.923682,0.0,10,0.5,0.5,15.372448341369626,-0.15025,-0.03,-0.12575,0.07740828582544984,10,1,100,-0.08905135708075276,-10,-1,-100,15026.7416938073,0.003044763968503896,0.00750756831326696,0.9999671823767007,20.321375354585452,0.016496193161057486,-24.974010488623605,10.844878992762904,-175.52359008789062,5356.25390625,True
1599562864.9685638,0.0,10,0.5,0.5,15.375672035217285,-0.15025,-0.03,-0.12575,0.08289449253348943,10,1,100,-0.058268174756202426,-10,-1,-100,15027.20458677935,0.003287194000150371,0.007508044692054773,0.9999664112461515,19.983748032960403,0.016069520108075424,-23.719469137071776,10.473634111848662,-176.5481719970703,5356.25390625,True
1599562865.009453,0.0,10,0.5,0.5,15.52693956375122,-0.15025,-0.03,-0.12575,0.08626075247936699,10,1,100,-0.057660551940385746,-10,-1,-100,15027.604979346157,0.0034982616147690567,0.007539603777605584,0.9999654576736895,19.69446335612307,0.015714676028879847,-22.548548622402436,10.102396127909964,-177.29652404785156,5356.25390625,True
1599562865.0503435,0.0,10,0.5,0.5,15.628116550445558,-0.15025,-0.03,-0.12575,0.08740839235268713,10,1,100,-0.05656454381613845,-10,-1,-100,15028.001466581132,0.003676695213697544,0.0075791508701200825,0.9999645185627305,19.457145281219244,0.015425208835996521,-21.459153019809218,9.731162838463273,-177.76902770996094,5356.25390625,True
1599562865.0922346,0.0,10,0.5,0.5,15.674330059051513,-0.15025,-0.03,-0.12575,0.09056995374935924,10,1,100,-0.05511509287966358,-10,-1,-100,15028.337406616658,0.0038227910744635784,0.007644118016889907,0.9999634761970783,19.274026616381985,0.015193667528853318,-20.447101828516914,9.359932465810466,-177.96539306640625,5356.25390625,True
1599562865.1331246,0.0,10,0.5,0.5,15.67967657470703,-0.15025,-0.03,-0.12575,0.09337285111342922,10,1,100,-0.053360859056913,-10,-1,-100,15028.735847221338,0.00393658542351509,0.007728874660734763,0.9999623831883286,19.146456571543055,0.015012290461761993,-19.50693789193235,8.988703184985695,-177.8857421875,5356.25390625,True
1599562865.1743839,0.0,10,0.5,0.5,15.634448196411132,-0.15025,-0.03,-0.12575,0.09622298522326088,10,1,100,-0.050952558512570335,-10,-1,-100,15029.071787463035,0.004015394956644378,0.007831900492483697,0.9999612682189337,19.074437953373252,0.014872861136751316,-18.631660541737524,8.617473046563475,-177.53009033203125,5356.25390625,True
1599562865.4905384,0.0,10,0.5,0.5,15.709268783569335,-0.15025,-0.03,-0.12575,0.08593436958498699,10,1,100,-0.043317189260071075,-10,-1,-100,15029.071787463035,0.004015394956644378,0.007831900492483697,0.9999612682189337,19.074437953373252,0.014872861136751316,-18.631660541737524,8.617473046563475,-177.53009033203125,5356.25390625,True
1599562865.5224526,0.0,10,0.5,0.5,15.561534851074217,-0.15025,-0.03,-0.12575,0.09919635497430432,10,1,100,-0.048419890111865344,-10,-1,-100,15029.407728129067,0.004059730485897637,0.007952300009679827,0.9999601389620179,19.0571018449557,0.014767362127661905,-17.81345324509491,8.246240413512938,-176.89846801757812,5356.25390625,True
1599562865.5593538,0.0,10,0.5,0.5,15.408787925720215,-0.15025,-0.03,-0.12575,0.10205836974793334,10,1,100,-0.04533744021223027,-10,-1,-100,15029.744645031868,0.004070256681562331,0.008087452446208782,0.9999590122217392,19.092313904509318,0.014687751365057079,-17.043514789349206,7.875003771487511,-175.99090576171875,5356.25390625,True
1599562865.594261,0.0,10,0.5,0.5,15.379146331787108,-0.15025,-0.03,-0.12575,0.09675846712583906,10,1,100,-0.04337126149247525,-10,-1,-100,15029.851092998171,0.004060492934646578,0.008161660185177859,0.9999584489868313,19.128524888861634,0.014655120821741014,-16.67361527498357,7.689383245404439,-175.43365478515625,5356.25390625,True
1599562865.6531038,0.0,10,0.5,0.5,15.084228729248048,-0.15025,-0.03,-0.12575,0.10670552741011134,10,1,100,-0.03924671393535216,-10,-1,-100,15030.185080161085,0.004013197524234644,0.008318954957850485,0.9999573437072408,19.235678127139202,0.014599740437348695,-15.957987406492919,7.3181368365482875,-174.11219787597656,5356.25390625,True
1599562865.7119462,0.0,10,0.5,0.5,15.243094013214112,-0.15025,-0.03,-0.12575,0.09105714116942831,10,1,100,-0.044048855328953966,-10,-1,-100,15030.185080161085,0.004013197524234644,0.008318954957850485,0.9999573437072408,19.235678127139202,0.014599740437348695,-15.957987406492919,7.3181368365482875,-174.11219787597656,5356.25390625,True
1599562865.7518394,0.0,10,0.5,0.5,14.275706989288329,-0.15025,-0.03,-0.12575,0.12918882095331347,10,1,100,-0.021221709162495266,-10,-1,-100,15030.73293723201,0.0038052098900764144,0.00866489809117649,0.9999552189567101,19.64737386659484,0.014565835144649954,-14.646546975608898,6.575616387247298,-170.64178466796875,5356.25390625,True
1599562865.7937272,0.0,10,0.5,0.5,14.403678939819335,-0.15025,-0.03,-0.12575,0.10497376439016307,10,1,100,-0.03387270225857432,-10,-1,-100,15030.838406685623,0.0037310224192820345,0.008758267927970532,0.9999546850805834,19.77355512810038,0.014560354083796821,-14.324651350718904,6.389979537126422,-169.60174560546875,5356.25390625,True
1599562865.8336234,0.0,10,0.5,0.5,13.878231796264647,-0.15025,-0.03,-0.12575,0.11614544738441462,10,1,100,-0.020894784109493934,-10,-1,-100,15031.109893692308,0.0035456816159820325,0.008943697488720965,0.999953718137549,20.045138434909298,0.014549958946973434,-13.677980339492445,6.018697069089046,-167.31500244140625,5356.25390625,True
1599562865.8725204,0.0,10,0.5,0.5,13.044691177368165,-0.15025,-0.03,-0.12575,0.12886718943771389,10,1,100,-0.0004963946463201474,-10,-1,-100,15031.428257307038,0.003192105439505481,0.009226817632771365,0.9999523370137373,20.48271695740703,0.014536248088402245,-12.68366120331752,5.4617514107682865,-163.36795043945312,5356.25390625,True
1599562865.913407,0.0,10,0.5,0.5,13.097387184143065,-0.15025,-0.03,-0.12575,0.11068352303486026,10,1,100,-0.020368277548806123,-10,-1,-100,15031.528843981563,0.0030520744777467962,0.00931762541720916,0.9999519321937266,20.631542444437493,0.01453290647613742,-12.341679804090015,5.276097424466276,-161.9144744873047,5356.25390625,True
1599562865.9513063,0.0,10,0.5,0.5,11.915816707611084,-0.15025,-0.03,-0.12575,0.12977373964764372,10,1,100,0.01910300934823267,-10,-1,-100,15031.844277343247,0.0025668194684284554,0.009572374713246347,0.9999508893341542,21.06459064102652,0.014526837858063442,-11.270863191517266,4.719121211309227,-157.14093017578125,5356.25390625,True
1599562865.9921968,0.0,10,0.5,0.5,11.48342202758789,-0.15025,-0.03,-0.12575,0.12236004898829872,10,1,100,0.01174309078394271,-10,-1,-100,15031.9917397002,0.0021939440932848444,0.009735094999373774,0.9999502060276144,21.32262444358973,0.01452341652829937,-10.511411794719509,4.347794036547011,-153.6141357421875,5356.25390625,True
1599562866.0335257,0.0,10,0.5,0.5,11.85978611755371,-0.15025,-0.03,-0.12575,0.1062527846308725,10,1,100,-0.025356815471590636,-10,-1,-100,15031.9917397002,0.0021939440932848444,0.009735094999373774,0.9999502060276144,21.32262444358973,0.01452341652829937,-10.511411794719509,4.347794036547011,-153.6141357421875,5356.25390625,True
1599562866.0744157,0.0,10,0.5,0.5,10.745029769897462,-0.15025,-0.03,-0.12575,0.12008370666681908,10,1,100,0.02035869459946579,-10,-1,-100,15032.20170211594,0.0017800454097673876,0.009859400258960383,0.9999498105729471,21.534790393957902,0.014517272807238704,-9.709502227998245,3.976461062960814,-149.8123321533203,5356.25390625,True
1599562866.114273,0.0,10,0.5,0.5,10.02491400527954,-0.15025,-0.03,-0.12575,0.11955644023185888,10,1,100,0.02876202800293491,-10,-1,-100,15032.349163862062,0.0013294100775513142,0.009966211304356654,0.9999494523730099,21.679406174622248,0.014500468225198591,-8.862066206227995,3.605123064268486,-145.7351837158203,5356.25390625,True
1599562866.154166,0.0,10,0.5,0.5,7.974051883697509,-0.15025,-0.03,-0.12575,0.12378241819615543,10,1,100,0.09457030286824995,-10,-1,-100,15032.579633949907,0.00032392435625809557,0.010100232730440953,0.9999489388822822,21.672500304256207,0.014375334078255565,-7.034386190683191,2.8624275451354007,-136.75535583496094,5356.25390625,True
1599562866.196056,0.0,10,0.5,0.5,7.648538021087646,-0.15025,-0.03,-0.12575,0.1116809978111504,10,1,100,0.05409554966358596,-10,-1,-100,15032.664595067152,-0.00021903646529895928,0.010110752628254576,0.9999488610445622,21.49069585588879,0.014235490424203214,-6.0705130810009384,2.4910649513899643,-131.85293579101562,5356.25390625,True
1599562866.2399688,0.0,10,0.5,0.5,7.446824562072754,-0.15025,-0.03,-0.12575,0.10862201449421979,10,1,100,0.029892232849185723,-10,-1,-100,15032.706586498185,-0.0004890160966884789,0.010091277700930969,0.9999489621863807,21.344504834275565,0.014135687548563805,-5.57983893520698,2.3053784506828143,-129.2987823486328,5356.25390625,True
1599562866.2828221,0.0,10,0.5,0.5,6.187123203277588,-0.15025,-0.03,-0.12575,0.10374594268612625,10,1,100,0.06459541747883665,-10,-1,-100,15032.789593810448,-0.0010462677148460775,0.010028202041279376,0.9999491689519463,20.928542161469203,0.013863206220921928,-4.589801479960581,1.9339927734096594,-123.9841537475586,5356.25390625,True
1599562866.3237135,0.0,10,0.5,0.5,5.975416273117065,-0.15025,-0.03,-0.12575,0.10481542920499998,10,1,100,0.04049947250233015,-10,-1,-100,15032.830609966302,-0.0013299529832444248,0.009979854605941772,0.9999493155790979,20.65370256661434,0.013684701566357874,-4.094636772283828,1.7482926796152198,-121.2237548828125,5356.25390625,True
1599562866.367696,0.0,10,0.5,0.5,2.963381324768066,-0.15025,-0.03,-0.12575,0.07477003345570912,10,1,100,0.13731860880017455,-10,-1,-100,15032.937052555964,-0.002464038986804243,0.009662160404106095,0.9999502843482754,19.11383362764852,0.012663994589365438,-2.1793076864507404,1.0054376194101904,-109.49519348144531,5356.25390625,True
1599562866.409759,0.0,10,0.5,0.5,3.4386266899108886,-0.15025,-0.03,-0.12575,0.09462056166438704,10,1,100,0.05568197449663949,-10,-1,-100,15032.978066564188,-0.002748301534139911,0.00955372521734268,0.9999505853656714,18.644458660412802,0.012338827363175923,-1.7331189584634918,0.8197096211425277,-106.39126586914062,5356.25390625,True
1599562866.4496522,0.0,10,0.5,0.5,2.8116331176757807,-0.15025,-0.03,-0.12575,0.09221170202129131,10,1,100,0.05874476681101326,-10,-1,-100,15032.957558377995,-0.003030072647641712,0.009433413932422368,0.9999509134759215,18.119145541107414,0.011969969751349759,-1.302664316050417,0.6339767521546671,-103.21864318847656,5356.25390625,True
1599562866.4925396,0.0,10,0.5,0.5,-0.6328835945129394,-0.15025,-0.03,-0.12575,0.040011390449122816,10,1,100,0.1445408900783757,-10,-1,-100,15032.99954649934,-0.004061443856218529,0.008849766005535964,0.9999525920339675,15.793032542683017,0.01037768434156342,0.19517475599109044,-0.10897456400255301,-89.84078979492188,5356.25390625,True
1599562866.5324342,0.0,10,0.5,0.5,-1.0904970245361327,-0.15025,-0.03,-0.12575,0.05954644914004554,10,1,100,0.09482086249249783,-10,-1,-100,15032.959505058941,-0.004541743350265849,0.008497686273059826,0.9999535798702582,15.98767184449642,0.010500913590048287,0.8711033495687323,-0.48044705928124753,-82.73947143554688,5356.25390625,True
1599562866.5733228,0.0,10,0.5,0.5,-2.359108367919922,-0.15025,-0.03,-0.12575,0.055465806992811645,10,1,100,0.09328722949301466,-10,-1,-100,15032.918486356619,-0.004959099723561005,0.008141852064953298,0.9999545577549434,17.456005093758506,0.011477116935333676,1.686507470910962,-0.8519175283957994,-75.59231567382812,5356.25390625,True
1599562866.6132143,0.0,10,0.5,0.5,-3.5636463623046875,-0.15025,-0.03,-0.12575,0.04768429946105937,10,1,100,0.09609880670369743,-10,-1,-100,15032.874538173433,-0.0053592716520357,0.0077494057897182405,0.9999556114734622,18.61375386725868,0.012252069333209915,2.5825887739262625,-1.2233973005905048,-68.63650512695312,5356.25390625,True
1599562866.653108,0.0,10,0.5,0.5,-4.726053894042968,-0.15025,-0.03,-0.12575,0.0428654023514603,10,1,100,0.09506349832375106,-10,-1,-100,15032.833519815234,-0.005708979478843423,0.007350974971997775,0.999956684422016,19.47833049725718,0.01280772689042227,3.5232758431334403,-1.594895404676282,-61.942840576171875,5356.25390625,True
1599562866.6969914,0.0,10,0.5,0.5,-4.086393402099609,-0.15025,-0.03,-0.12575,0.0824344538506135,10,1,100,0.060614711981194315,-10,-1,-100,15032.833519815234,-0.005708979478843423,0.007350974971997775,0.999956684422016,19.47833049725718,0.01280772689042227,3.5232758431334403,-1.594895404676282,-61.942840576171875,5356.25390625,True
1599562866.7388792,0.0,10,0.5,0.5,-7.7404159011840825,-0.15025,-0.03,-0.12575,-0.005864700798073136,10,1,100,0.12416610750901048,-10,-1,-100,15032.686052704346,-0.006282480609310845,0.0065506892270726985,0.9999588086056564,20.429351284781625,0.013402970562069069,5.4171617957039935,-2.3379414679658583,-49.37799072265625,5356.25390625,True
1599562866.7780902,0.0,10,0.5,0.5,-7.995730331420898,-0.15025,-0.03,-0.12575,0.02802065936625607,10,1,100,0.09212771424725195,-10,-1,-100,15032.579604015336,-0.006508084854968818,0.006134322883524593,0.9999600066574069,20.589035200187837,0.013511932885164847,6.327293103875126,-2.7094832692126247,-43.509124755859375,5356.25390625,True
1599562866.8179836,0.0,10,0.5,0.5,-7.455678642272949,-0.15025,-0.03,-0.12575,0.06930450996900844,10,1,100,0.0699716942682711,-10,-1,-100,15032.579604015336,-0.006508084854968818,0.006134322883524593,0.9999600066574069,20.589035200187837,0.013511932885164847,6.327293103875126,-2.7094832692126247,-43.509124755859375,5356.25390625,True
1599562866.8588762,0.0,10,0.5,0.5,-9.188267448425293,-0.15025,-0.03,-0.12575,0.029000765907245867,10,1,100,0.09205193123356475,-10,-1,-100,15032.41456239007,-0.006705396297088916,0.005771033757812041,0.999960865649184,20.5575262501714,0.01351497298105621,7.184149740049304,-3.081032455824301,-37.915130615234375,5356.25390625,True
1599562866.8987684,0.0,10,0.5,0.5,-10.85391315460205,-0.15025,-0.03,-0.12575,0.003388202868857472,10,1,100,0.09752835770280777,-10,-1,-100,15032.226081442204,-0.006931214827237171,0.0052112588706103805,0.9999623998141142,20.19317119127295,0.013360681054848642,8.333726305142056,-3.638361628197094,-30.041290283203125,5356.25390625,True
1599562866.9406564,0.0,10,0.5,0.5,-11.396972740173338,-0.15025,-0.03,-0.12575,0.021325008240829613,10,1,100,0.08767308177601807,-10,-1,-100,15032.058110207203,-0.007044302099882025,0.004868742210294914,0.9999633359064798,19.791150785958333,0.0131875403349239,9.002219016009901,-4.009914460768217,-25.13623046875,5356.25390625,True
1599562866.9815474,0.0,10,0.5,0.5,-11.601370727539061,-0.15025,-0.03,-0.12575,0.03749324554574464,10,1,100,0.08190650968973603,-10,-1,-100,15031.975101984222,-0.007092410275366041,0.004707646443746231,0.9999637672343167,19.565626994678066,0.01309263015566064,9.31211201803076,-4.19569078284428,-22.786956787109375,5356.25390625,True
1599562867.0344062,0.0,10,0.5,0.5,-13.867986366271973,-0.15025,-0.03,-0.12575,-0.011020292562096232,10,1,100,0.09303307709065198,-10,-1,-100,15031.640137003385,-0.007235356219858196,0.004123285587377245,0.9999653234669373,18.70771078999729,0.012766045414225274,10.48153803275316,-4.938800700214533,-14.07818603515625,5356.25390625,True
1599562867.0822787,0.0,10,0.5,0.5,-13.489948440551757,-0.15025,-0.03,-0.12575,0.0325764709255293,10,1,100,0.08118127668916932,-10,-1,-100,15031.492674032575,-0.007255857907048656,0.003991679131658709,0.9999657089239323,18.457256158173983,0.012658975334502042,10.730423511679055,-5.1245812247298215,-12.07305908203125,5356.25390625,True
1599562867.1271582,0.0,10,0.5,0.5,-13.921826156616211,-0.15025,-0.03,-0.12575,0.03180959195317655,10,1,100,0.0812343281962274,-10,-1,-100,15031.408689713571,-0.007273571837805779,0.003868119177475323,0.9999660658276105,18.195275557542587,0.012540122924568988,10.961826670663765,-5.310363545778801,-10.13677978515625,5356.25390625,True
1599562867.170044,0.0,10,0.5,0.5,-14.845636489868165,-0.15025,-0.03,-0.12575,0.019800897494522317,10,1,100,0.08436494458485752,-10,-1,-100,15031.179195564822,-0.007316713203518926,0.003649788229315863,0.9999665718181677,17.65768809259727,0.012272996835433434,11.382778681701451,-5.681935502440837,-6.470550537109375,5356.25390625,True
1599562867.2189147,0.0,10,0.5,0.5,-16.309090858459474,-0.15025,-0.03,-0.12575,0.0015362979532796694,10,1,100,0.08268725709344915,-10,-1,-100,15030.718255530694,-0.007339740710977886,0.003287900917884836,0.9999676584339365,16.72478716235878,0.011712369940166447,12.192672244292048,-6.425111797058829,0.03582763671875,5356.25390625,True
1599562867.278753,0.0,10,0.5,0.5,-15.62154866027832,-0.15025,-0.03,-0.12575,0.03744038689981837,10,1,100,0.0804676719331541,-10,-1,-100,15030.718255530694,-0.007339740710977886,0.003287900917884836,0.9999676584339365,16.72478716235878,0.011712369940166447,12.192672244292048,-6.425111797058829,0.03582763671875,5356.25390625,True
1599562867.319593,0.0,10,0.5,0.5,-17.244030563354492,-0.15025,-0.03,-0.12575,0.010493868120309946,10,1,100,0.08151830812369784,-10,-1,-100,15030.131339361775,-0.007348535898295548,0.00304552022167625,0.9999683614128654,17.576132805674042,0.012188209841370078,14.296930273830675,-7.168317153499464,5.441070556640625,5356.25390625,True
1599562867.3704622,0.0,10,0.5,0.5,-17.019865699768065,-0.15025,-0.03,-0.12575,0.029745283172772786,10,1,100,0.0807820397717241,-10,-1,-100,15029.983877219143,-0.007349253502110746,0.003002664737905503,0.9999684857421425,17.890713113216826,0.012346150023711751,14.930441832803753,-7.354118807336752,6.620330810546875,5356.25390625,True
1599562867.4153373,0.0,10,0.5,0.5,-17.575512809753416,-0.15025,-0.03,-0.12575,0.026873258304943103,10,1,100,0.08005052028730544,-10,-1,-100,15029.691884806147,-0.007342875656925417,0.0029396037030724677,0.9999687199643577,18.461081668791515,0.012587675890748776,16.18586078619912,-7.725720828528608,8.7723388671875,5356.25390625,True
1599562867.4631817,0.0,10,0.5,0.5,-17.675110321044922,-0.15025,-0.03,-0.12575,0.03068843620260885,10,1,100,0.08078115806095504,-10,-1,-100,15029.544424522319,-0.007343448346920075,0.002918712687300508,0.9999687769538733,18.719008248611836,0.012674457488419413,16.807209299978357,-7.911520701492879,9.7451171875,5356.25390625,True
1599562867.5061,0.0,10,0.5,0.5,-18.53435794067383,-0.15025,-0.03,-0.12575,0.031520216871232,10,1,100,0.07907860860259225,-10,-1,-100,15028.895009943633,-0.007328263035410508,0.002908908800637524,0.9999689169221578,19.587696966256168,0.012826417019945654,19.241753439262972,-8.654710529655514,12.94793701171875,5356.25390625,True
1599562867.5509453,0.0,10,0.5,0.5,-18.212681716918944,-0.15025,-0.03,-0.12575,0.032379167858856424,10,1,100,0.08060643043510422,-10,-1,-100,15028.895009943633,-0.007328263035410508,0.002908908800637524,0.9999689169221578,19.587696966256168,0.012826417019945654,19.241753439262972,-8.654710529655514,12.94793701171875,5356.25390625,True
1599562867.594862,0.0,10,0.5,0.5,-18.867805435180664,-0.15025,-0.03,-0.12575,0.04415462565978142,10,1,100,0.07810874301010387,-10,-1,-100,15028.120596095338,-0.007305490963248357,0.0030169427536741343,0.9999687634412423,20.231694151416498,0.012724336285186152,21.58399483542545,-9.397880821335335,15.049606323242188,5356.25390625,True
1599562867.6456916,0.0,10,0.5,0.5,-18.679079677581786,-0.15025,-0.03,-0.12575,0.03326611271374029,10,1,100,0.08038914213886315,-10,-1,-100,15028.120596095338,-0.007305490963248357,0.0030169427536741343,0.9999687634412423,20.231694151416498,0.012724336285186152,21.58399483542545,-9.397880821335335,15.049606323242188,5356.25390625,True
1599562867.689575,0.0,10,0.5,0.5,-19.019804393768307,-0.15025,-0.03,-0.12575,0.058271664271151394,10,1,100,0.07628105701241628,-10,-1,-100,15027.344230324146,-0.007268154936862723,0.003244841263719364,0.9999683219627443,20.6876611423453,0.01243025189513882,23.81928308606924,-10.141028546656367,16.050201416015625,5356.25390625,True
1599562867.7384796,0.0,10,0.5,0.5,-18.96614572906494,-0.15025,-0.03,-0.12575,0.052927690376863554,10,1,100,0.07772879146668932,-10,-1,-100,15026.925285691977,-0.007247439394982005,0.003403479291679834,0.9999679449617008,20.851885442720977,0.012225145782711182,24.890008637841373,-10.512593891597579,16.137603759765625,5356.25390625,True
1599562867.7743833,0.0,10,0.5,0.5,-18.987035652160642,-0.15025,-0.03,-0.12575,0.047090498318416135,10,1,100,0.07780932726547045,-10,-1,-100,15026.71630107495,-0.007229423138093905,0.00349452522713638,0.9999677613475982,20.918473275597112,0.01210988550324564,25.411793237166474,-10.698374576206934,16.078094482421875,5356.25390625,True
1599562867.8172328,0.0,10,0.5,0.5,-18.99101192474365,-0.15025,-0.03,-0.12575,0.04889820466384323,10,1,100,0.07755388605815239,-10,-1,-100,15026.506341544446,-0.007210830814274742,0.003593319767050341,0.9999675454593614,20.974895182246726,0.011986837292434577,25.92387923376276,-10.884153953585981,15.94976806640625,5356.25390625,True
1599562867.8581252,0.0,10,0.5,0.5,-18.70355488586426,-0.15025,-0.03,-0.12575,0.09082496787455582,10,1,100,0.06953871801123121,-10,-1,-100,15025.60400087398,-0.00712118937645607,0.004063748418861197,0.999966386740401,21.107528315669374,0.011431420357271042,27.873735645204924,-11.627261146506402,14.748382568359375,5356.25390625,True
1599562867.9059958,0.0,10,0.5,0.5,-18.592825920104982,-0.15025,-0.03,-0.12575,0.07481827857069731,10,1,100,0.07190238414506164,-10,-1,-100,15025.121581452433,-0.007061386567183436,0.004344873522548909,0.9999656288562232,21.128257053424647,0.01112904616873664,28.795287443788993,-11.998809466381482,13.73486328125,5356.25390625,True
1599562868.236113,0.0,10,0.5,0.5,-18.732245208740235,-0.15025,-0.03,-0.12575,0.046848384285451024,10,1,100,0.07785445889435143,-10,-1,-100,15025.121581452433,-0.007061386567183436,0.004344873522548909,0.9999656288562232,21.128257053424647,0.01112904616873664,28.795287443788993,-11.998809466381482,13.73486328125,5356.25390625,True
1599562868.2730534,0.0,10,0.5,0.5,-18.378917388916015,-0.15025,-0.03,-0.12575,0.08127592157780553,10,1,100,0.06814506410234081,-10,-1,-100,15024.639160994324,-0.006973361956772637,0.004656545711823121,0.9999648437845471,21.103882681791116,0.010809775751962413,29.655453583634042,-12.37035517488128,12.446136474609375,5356.25390625,True
1599562868.311911,0.0,10,0.5,0.5,-18.10783193206787,-0.15025,-0.03,-0.12575,0.0877636311491304,10,1,100,0.06703007340349171,-10,-1,-100,15024.095218474395,-0.00688352594193568,0.004997274482801553,0.9999638215047334,21.02990482672985,0.010479170655297191,30.442002303217688,-12.741899343862325,10.882232666015625,5356.25390625,True
1599562868.3513937,0.0,10,0.5,0.5,-17.784387565612793,-0.15025,-0.03,-0.12575,0.09449972317172185,10,1,100,0.06252278302700758,-10,-1,-100,15023.61377611931,-0.00676126507504433,0.0053664648095972075,0.9999627424809548,20.900503026936416,0.010144148333973122,31.139968031500835,-13.113442748766957,9.0430908203125,5356.25390625,True
1599562868.3962722,0.0,10,0.5,0.5,-17.99764010620117,-0.15025,-0.03,-0.12575,0.057815642697748755,10,1,100,0.0746944471273222,-10,-1,-100,15023.61377611931,-0.00676126507504433,0.0053664648095972075,0.9999627424809548,20.900503026936416,0.010144148333973122,31.139968031500835,-13.113442748766957,9.0430908203125,5356.25390625,True
1599562868.436165,0.0,10,0.5,0.5,-17.393066772460937,-0.15025,-0.03,-0.12575,0.10167763114387962,10,1,100,0.058721946576047665,-10,-1,-100,15023.067881059484,-0.006616521333543487,0.005763281410429417,0.9999615023753801,20.70982427504103,0.009813899953786984,31.733344586330745,-13.484986335095435,6.92877197265625,5356.25390625,True
1599562868.4760587,0.0,10,0.5,0.5,-16.97179817199707,-0.15025,-0.03,-0.12575,0.10854696288948987,10,1,100,0.054041402299754404,-10,-1,-100,15022.522962655523,-0.006442959273359545,0.006184326970583565,0.9999601203926697,20.45084985057626,0.009499220881580126,32.203290755261676,-13.856530859683762,4.539215087890625,5356.25390625,True
1599562868.5139573,0.0,10,0.5,0.5,-15.690752662658692,-0.15025,-0.03,-0.12575,0.1675992898657538,10,1,100,0.02479441191939686,-10,-1,-100,15021.36867513461,-0.006020008818702469,0.00710148972346842,0.9999566632297273,19.698324939815496,0.008967223278277071,32.68884358100278,-14.599622310975565,-1.0655517578125,5356.25390625,True
1599562868.5508595,0.0,10,0.5,0.5,-15.457091339111328,-0.15025,-0.03,-0.12575,0.12966256686926456,10,1,100,0.037704374969761124,-10,-1,-100,15020.76125833881,-0.005753954271286232,0.007587205498889823,0.9999546621337199,20.009496576106425,0.009147609962061666,34.054064659738046,-14.971161976688395,-4.28082275390625,5356.25390625,True
1599562868.588758,0.0,10,0.5,0.5,-15.80432405090332,-0.15025,-0.03,-0.12575,0.08144333503512705,10,1,100,0.06417310620086787,-10,-1,-100,15020.76125833881,-0.005753954271286232,0.007587205498889823,0.9999546621337199,20.009496576106425,0.009147609962061666,34.054064659738046,-14.971161976688395,-4.28082275390625,5356.25390625,True
1599562868.624672,0.0,10,0.5,0.5,-14.78679542541504,-0.15025,-0.03,-0.12575,0.135225748357239,10,1,100,0.027954651113519018,-10,-1,-100,15020.15481858654,-0.005425884163488421,0.008073188954566895,0.9999526905814836,20.72310415364757,0.009613027430802161,36.14789972664139,-15.342683289091395,-7.771697998046875,5356.25390625,True
1599562868.6667821,0.0,10,0.5,0.5,-14.651030647277832,-0.15025,-0.03,-0.12575,0.11452756313614378,10,1,100,0.0416329682013267,-10,-1,-100,15019.882359904936,-0.005253473768473841,0.00832343739823426,0.9999515595283812,21.078047576458196,0.009884175062458592,37.21432530149956,-15.528435945066292,-9.620330810546875,5356.25390625,True
1599562868.7051914,0.0,10,0.5,0.5,-12.586285591125487,-0.15025,-0.03,-0.12575,0.2002608367301777,10,1,100,-0.0315727917395172,-10,-1,-100,15018.604052813142,-0.004432793671896822,0.00932699584179907,0.9999466773227608,22.586739040816934,0.011258140321466128,41.79569505626399,-16.271381903137325,-17.703704833984375,5356.25390625,True
1599562868.745093,0.0,10,0.5,0.5,-12.911737525939941,-0.15025,-0.03,-0.12575,0.12799960239604513,10,1,100,0.024568444927674626,-10,-1,-100,15018.269095832366,-0.004199323674046766,0.009578465277130424,0.9999453078461918,22.9471178414939,0.011645260420723556,42.949735922775005,-16.457100225878673,-19.896728515625,5356.25390625,True
1599562868.7859876,0.0,10,0.5,0.5,-11.170560668945312,-0.15025,-0.03,-0.12575,0.18006632789591281,10,1,100,-0.0396432362319307,-10,-1,-100,15017.261293789838,-0.0034056647030966643,0.010276578631550876,0.9999413949725051,23.937521467219174,0.01282683499315184,46.32826116281475,-17.01420833051312,-26.88995361328125,5356.25390625,True
1599562868.8451464,0.0,10,0.5,0.5,-11.942159591674805,-0.15025,-0.03,-0.12575,0.11074600383606302,10,1,100,0.03938710082588469,-10,-1,-100,15017.261293789838,-0.0034056647030966643,0.010276578631550876,0.9999413949725051,23.937521467219174,0.01282683499315184,46.32826116281475,-17.01420833051312,-26.88995361328125,5356.25390625,True
1599562868.8890305,0.0,10,0.5,0.5,-9.739353561401366,-0.15025,-0.03,-0.12575,0.18386414640249876,10,1,100,-0.05903918172919445,-10,-1,-100,15016.194899361813,-0.002513799276805442,0.010937186021044727,0.9999370274047945,24.83485616170172,0.01394938615966683,49.64717025786,-17.57124564501337,-34.5035400390625,5356.25390625,True
1599562868.9538574,0.0,10,0.5,0.5,-8.306946289062498,-0.15025,-0.03,-0.12575,0.18286448886711643,10,1,100,-0.0802313767440723,-10,-1,-100,15015.124597854563,-0.0015139281709477632,0.011524329616580696,0.9999324466424627,25.436181069776282,0.014735882193641421,52.47011645575953,-18.12822130628733,-42.7379150390625,5356.25390625,True
1599562869.0097075,0.0,10,0.5,0.5,-7.606859985351561,-0.15025,-0.03,-0.12575,0.15734441508360056,10,1,100,-0.05881777274472032,-10,-1,-100,15014.391207553446,-0.0008037200025692139,0.011822075087314967,0.99992979382294,25.62727734435259,0.014977108685946499,53.953252158121295,-18.4995144873835,-48.573211669921875,5356.25390625,True
1599562869.0705454,0.0,10,0.5,0.5,-6.521036384582519,-0.15025,-0.03,-0.12575,0.15546475196732237,10,1,100,-0.06891650058306495,-10,-1,-100,15013.658792412956,-7.076980939350608e-05,0.012071815060026844,0.9999271304814119,25.64029000901014,0.014960606271071602,55.0704464903193,-18.870797872546238,-54.6845703125,5356.25390625,True
1599562869.126396,0.0,10,0.5,0.5,-7.138328491210937,-0.15025,-0.03,-0.12575,0.13093921565224842,10,1,100,0.003810200288316571,-10,-1,-100,15013.658792412956,-7.076980939350608e-05,0.012071815060026844,0.9999271304814119,25.64029000901014,0.014960606271071602,55.0704464903193,-18.870797872546238,-54.6845703125,5356.25390625,True
1599562869.2021933,0.0,10,0.5,0.5,-3.3953721008300772,-0.15025,-0.03,-0.12575,0.16593783218316405,10,1,100,-0.16328105800902296,-10,-1,-100,15012.066031941096,0.001443373343896767,0.012386349186575659,0.9999222444906495,25.090121201377226,0.014166633925780929,56.02292778897466,-19.613370482154117,-67.736083984375,5356.25390625,True
1599562869.2789872,0.0,10,0.5,0.5,-2.9468204345703124,-0.15025,-0.03,-0.12575,0.14265213290615003,10,1,100,-0.09905212420483651,-10,-1,-100,15011.268186199712,0.0022298796785658924,0.012456907570203235,0.9999199233390674,24.440503909188543,0.013444196816619403,55.612696542058075,-19.98467797978583,-74.67605590820312,5356.25390625,True
1599562869.3398242,0.0,10,0.5,0.5,-1.6567941818237304,-0.15025,-0.03,-0.12575,0.1331625449768074,10,1,100,-0.0997287641442998,-10,-1,-100,15010.471315896488,0.0029449797337597976,0.012431937199844822,0.999918383685302,23.52379987934126,0.012618718752587941,54.528674093743945,-20.356008800631486,-81.89276123046875,5356.25390625,True
1599562869.388694,0.0,10,0.5,0.5,-0.3103451080322266,-0.15025,-0.03,-0.12575,0.12794933830150257,10,1,100,-0.10734694814831983,-10,-1,-100,15009.67346803355,0.003657832089965524,0.012359250009813753,0.9999169311515813,22.34060481439976,0.011799135950802687,52.73804388942352,-20.727365406855984,-89.3853759765625,5356.25390625,True
1599562869.4445496,0.0,10,0.5,0.5,-1.0650551452636718,-0.15025,-0.03,-0.12575,0.13542632444243577,10,1,100,-0.03676806220705343,-10,-1,-100,15009.67346803355,0.003657832089965524,0.012359250009813753,0.9999169311515813,22.34060481439976,0.011799135950802687,52.73804388942352,-20.727365406855984,-89.3853759765625,5356.25390625,True
1599562869.4894543,0.0,10,0.5,0.5,3.460176513671875,-0.15025,-0.03,-0.12575,0.10074373252465169,10,1,100,-0.18003406799063643,-10,-1,-100,15007.955698613077,0.004953828963640767,0.012042060382035476,0.9999152205864028,23.243478776174744,0.012605098759432727,56.85155587188567,-21.47007340671439,-105.10184478759766,5356.25390625,True
1599562869.545318,0.0,10,0.5,0.5,1.6956254749298094,-0.15025,-0.03,-0.12575,0.13257318273857838,10,1,100,-0.051181143447156706,-10,-1,-100,15007.955698613077,0.004953828963640767,0.012042060382035476,0.9999152205864028,23.243478776174744,0.012605098759432727,56.85155587188567,-21.47007340671439,-105.10184478759766,5356.25390625,True
1599562869.5871928,0.0,10,0.5,0.5,6.329987100601197,-0.15025,-0.03,-0.12575,0.08088082765936794,10,1,100,-0.17003790237929173,-10,-1,-100,15006.174449744984,0.006028465174719642,0.01157165921698315,0.9999148735320439,25.635314111804835,0.014838217871980764,64.88823419554559,-22.21259513782244,-121.21514129638672,5356.25390625,True
1599562869.6400576,0.0,10,0.5,0.5,5.60691237449646,-0.15025,-0.03,-0.12575,0.1139453733708296,10,1,100,-0.08829550675463424,-10,-1,-100,15005.774059666437,0.00625608341986056,0.011444836224194625,0.9999149349539914,26.038142453459603,0.015276788636617331,66.46307437555707,-22.398197851650515,-125.1471939086914,5356.25390625,True
1599562869.6799474,0.0,10,0.5,0.5,7.439342767715455,-0.15025,-0.03,-0.12575,0.09598224635021982,10,1,100,-0.11280656647460759,-10,-1,-100,15004.855112937978,0.0066800852281436495,0.011166811420413906,0.99991533580801,26.737010488851112,0.01598183402227282,69.38724735114415,-22.76937783349414,-132.81204223632812,5356.25390625,True
1599562869.7248363,0.0,10,0.5,0.5,8.749741966247559,-0.15025,-0.03,-0.12575,0.09596182703004563,10,1,100,-0.10900281618296578,-10,-1,-100,15003.930306761758,0.007024824728442862,0.010914698699193134,0.9999157570464825,27.107758906885714,0.01628883169231298,71.50578690509091,-23.140535779912454,-140.202880859375,5356.25390625,True
1599562869.768713,0.0,10,0.5,0.5,9.029223526000976,-0.15025,-0.03,-0.12575,0.10546741454110675,10,1,100,-0.09217896794335756,-10,-1,-100,15003.470343961613,0.007180206152550666,0.010773257612263337,0.9999161872677262,27.17873501080221,0.016290886245285713,72.2728826528035,-23.32611081993422,-143.79519653320312,5356.25390625,True
1599562869.814569,0.0,10,0.5,0.5,10.71054274749756,-0.15025,-0.03,-0.12575,0.09181096984223754,10,1,100,-0.10578880467261348,-10,-1,-100,15002.484990188153,0.007440687484301919,0.010522055899571928,0.9999169578067009,27.11359067818874,0.016023609209151746,73.25707322094806,-23.69726127830029,-150.77235412597656,5356.25390625,True
1599562869.8632874,0.0,10,0.5,0.5,11.889243167877197,-0.15025,-0.03,-0.12575,0.09077316485823168,10,1,100,-0.1027414465420225,-10,-1,-100,15001.560183014255,0.007645698432206284,0.010285992371179933,0.9999178674553344,26.803061679607147,0.015470634607670125,73.56295908454469,-24.06842063696425,-157.4732208251953,5356.25390625,True
1599562869.909163,0.0,10,0.5,0.5,13.882028354644774,-0.15025,-0.03,-0.12575,0.07864620888181317,10,1,100,-0.10589145885291004,-10,-1,-100,15000.1138904416,0.007857083163725374,0.009963028888891255,0.9999194989095459,25.96109088273295,0.014356333182283862,72.91700447760148,-24.625191267454973,-167.0063934326172,5356.25390625,True
1599562869.95504,0.0,10,0.5,0.5,13.754989910125733,-0.15025,-0.03,-0.12575,0.10035685160905848,10,1,100,-0.0904012573258747,-10,-1,-100,14999.591427081265,0.007904613586611717,0.00986897358535007,0.9999200570267696,25.598679761108194,0.013967385527597255,72.4467213874623,-24.810791672631538,-170.04586791992188,5356.25390625,True
1599562870.0039127,0.0,10,0.5,0.5,15.188156280517576,-0.15025,-0.03,-0.12575,0.09100993309984165,10,1,100,-0.09285260450237712,-10,-1,-100,14998.605095678591,0.00796742550481935,0.0097004723109531,0.9999212073797463,24.77833432244545,0.01323932149830269,71.1857574428149,-25.182007928627822,-175.91741943359375,5356.25390625,True
1599562870.052309,0.0,10,0.5,0.5,-81.68564865112305,-0.15025,-0.03,-0.12575,0.08154125656985753,10,1,100,-0.08816325185968207,-10,-1,-100,14996.509386684396,0.007979157136855262,0.009463339173111528,0.9999233861967025,23.93019411676896,0.012772432776126575,70.7995877717697,-25.924480032159167,173.169189453125,5356.25390625,True
1599562870.0962226,0.0,10,0.5,0.5,-37.279629692077634,-0.15025,-0.03,-0.12575,0.09814982080936757,10,1,100,-0.08248116595862306,-10,-1,-100,14995.462509264238,0.007936393574185432,0.0094006671954728,0.9999243176927518,24.939318685906624,0.013598914402510433,74.85420733450367,-26.295682488852975,168.12741088867188,5356.25390625,True
1599562870.1390755,0.0,10,0.5,0.5,-38.79345716094971,-0.15025,-0.03,-0.12575,0.10421260167036811,10,1,100,-0.08692555324103858,-10,-1,-100,14995.462509264238,0.007936393574185432,0.0094006671954728,0.9999243176927518,24.939318685906624,0.013598914402510433,74.85420733450367,-26.295682488852975,168.12741088867188,5356.25390625,True
1599562870.1809692,0.0,10,0.5,0.5,-38.30344751739502,-0.15025,-0.03,-0.12575,0.1010890301655547,10,1,100,-0.07952187289669861,-10,-1,-100,14994.41270221048,0.007867945290740485,0.009373876676542625,0.9999251101322313,25.86892934916899,0.014542287615343524,78.7535065721232,-26.666847250502435,163.0809326171875,5356.25390625,True
1599562870.2278452,0.0,10,0.5,0.5,-38.391228805541985,-0.15025,-0.03,-0.12575,0.10524018559454795,10,1,100,-0.07539048644863061,-10,-1,-100,14993.362895905855,0.007767395046660554,0.009388660183253905,0.9999257575611064,26.71737356330348,0.015558400097485908,82.48208966642481,-27.037973140226228,157.80316162109375,5356.25390625,True
1599562870.2707298,0.0,10,0.5,0.5,-38.429178802490235,-0.15025,-0.03,-0.12575,0.11025534331316111,10,1,100,-0.0721509700659106,-10,-1,-100,14992.25156668562,0.007646001776841244,0.00944895080264156,0.9999261252640407,27.465664999613747,0.016578283007663765,85.97002981434802,-27.409060148490774,152.25778198242188,5356.25390625,True
1599562870.3116202,0.0,10,0.5,0.5,-36.74792168426513,-0.15025,-0.03,-0.12575,0.13153678318215845,10,1,100,-0.051402739196782773,-10,-1,-100,14990.029887342826,0.0073468373288384,0.009698203641891159,0.9999259816743358,28.75007850751024,0.018392080336266926,92.45635093135309,-28.15112392191565,140.3459014892578,5356.25390625,True
1599562870.3525107,0.0,10,0.5,0.5,-38.27006395339965,-0.15025,-0.03,-0.12575,0.11665044219477522,10,1,100,-0.07198516795655206,-10,-1,-100,14989.442975066602,0.007262254329473143,0.009790001112895755,0.9999257050102591,28.975573016090394,0.018709738188109577,93.80293799449453,-28.33662054364488,137.19650268554688,5356.25390625,True
1599562870.3953967,0.0,10,0.5,0.5,-38.69054511260986,-0.15025,-0.03,-0.12575,0.11883549548799201,10,1,100,-0.07083906663640678,-10,-1,-100,14988.856060957653,0.007175482344261818,0.009893474778089172,0.9999253130158984,29.15236062008882,0.018949153181855475,95.00054706833689,-28.52211153151149,133.978515625,5356.25390625,True
1599562870.4372847,0.0,10,0.5,0.5,-38.17419389343262,-0.15025,-0.03,-0.12575,0.13545171782975254,10,1,100,-0.05833807601956611,-10,-1,-100,14987.744735679938,0.00698361619868238,0.010138576039378521,0.9999242163187585,29.346202584882207,0.01916377491359649,96.89145958730415,-28.89308154951168,127.33689880371094,5356.25390625,True
1599562870.4781756,0.0,10,0.5,0.5,-36.02592550277709,-0.15025,-0.03,-0.12575,0.18126629749238576,10,1,100,-0.03620093097379811,-10,-1,-100,14985.396113406285,0.006608840028926943,0.010777493270457844,0.9999200812426349,29.000660327520073,0.018493206733324222,98.24154440080076,-29.635015701091024,113.23104858398438,5356.25390625,True
1599562870.5200627,0.0,10,0.5,0.5,-37.61992174530029,-0.15025,-0.03,-0.12575,0.11750598979418805,10,1,100,-0.07354151623854902,-10,-1,-100,14985.396113406285,0.006608840028926943,0.010777493270457844,0.9999200812426349,29.000660327520073,0.018493206733324222,98.24154440080076,-29.635015701091024,113.23104858398438,5356.25390625,True
1599562870.565942,0.0,10,0.5,0.5,-33.259553398132326,-0.15025,-0.03,-0.12575,0.21317787028423926,10,1,100,-0.03206412917554963,-10,-1,-100,14982.984022529912,0.006232979740668092,0.01164598597848105,0.9999127566813723,27.531463255794037,0.016775303748850934,95.63337763700605,-30.377019022711924,98.02931213378906,5356.25390625,True
1599562870.607291,0.0,10,0.5,0.5,-34.960877460479736,-0.15025,-0.03,-0.12575,0.12655313136021945,10,1,100,-0.06947981661808292,-10,-1,-100,14982.984022529912,0.006232979740668092,0.01164598597848105,0.9999127566813723,27.531463255794037,0.016775303748850934,95.63337763700605,-30.377019022711924,98.02931213378906,5356.25390625,True
1599562870.6491818,0.0,10,0.5,0.5,-32.554387149810786,-0.15025,-0.03,-0.12575,0.1815845556367471,10,1,100,-0.05251863880939398,-10,-1,-100,14981.748684352264,0.006080273547452804,0.012144206099811358,0.9999077700127116,26.34210188319077,0.015838122349340397,92.63683998309118,-30.748067948630037,90.01722717285156,5356.25390625,True
1599562870.7120109,0.0,10,0.5,0.5,-28.70931184768677,-0.15025,-0.03,-0.12575,0.2645971064571871,10,1,100,-0.040104815138985575,-10,-1,-100,14979.274111206527,0.005830130539798109,0.013349287994009676,0.9998938974150918,27.271510202382157,0.016890093245108494,98.25688078974981,-31.490168126945786,73.17216491699219,5356.25390625,True
1599562870.7598844,0.0,10,0.5,0.5,-29.38079166793823,-0.15025,-0.03,-0.12575,0.18183734588034317,10,1,100,-0.060669512419114176,-10,-1,-100,14978.622756428435,0.005791330391055958,0.013688909767862868,0.9998895310191366,28.023989501632304,0.017643909268722356,101.572188326505,-31.675657474805803,68.78981018066406,5356.25390625,True
1599562870.8057897,0.0,10,0.5,0.5,-25.97530215835571,-0.15025,-0.03,-0.12575,0.2703368513066938,10,1,100,-0.06185140443379687,-10,-1,-100,14976.675529678701,0.005768216098640012,0.014798569878763528,0.9998738570502693,29.800714665284907,0.019728893045607588,109.93901308050228,-32.23203604813236,55.23219299316406,5356.25390625,True
1599562870.8566582,0.0,10,0.5,0.5,-27.43427959060669,-0.15025,-0.03,-0.12575,0.15987169709321458,10,1,100,-0.06401342985230823,-10,-1,-100,14976.675529678701,0.005768216098640012,0.014798569878763528,0.9998738570502693,29.800714665284907,0.019728893045607588,109.93901308050228,-32.23203604813236,55.23219299316406,5356.25390625,True
1599562871.2214174,0.0,10,0.5,0.5,-23.286000888824464,-0.15025,-0.03,-0.12575,0.29125484330721135,10,1,100,-0.07729184402165176,-10,-1,-100,14974.725385905942,0.005890208287675518,0.01598850293970834,0.9998548260723028,30.895124677939148,0.021059078924932067,115.97416462433102,-32.78831054667119,41.058135986328125,5356.25390625,True
1599562871.2742436,0.0,10,0.5,0.5,-22.10702980804443,-0.15025,-0.03,-0.12575,0.2648726819732437,10,1,100,-0.08456602451972477,-10,-1,-100,14973.423667635536,0.0060682331985184666,0.016825104322167255,0.9998400334105433,31.10653021633625,0.021205583938979446,118.10931741399014,-33.159132794354484,31.266387939453125,5356.25390625,True
1599562871.3151326,0.0,10,0.5,0.5,-18.89685732269287,-0.15025,-0.03,-0.12575,0.3234497067800949,10,1,100,-0.11701476680943032,-10,-1,-100,14971.412014554837,0.006525554053582478,0.018112671612599725,0.9998146569596525,30.475771850035105,0.02028784921799356,117.68837614768765,-33.715386397529585,16.064971923828125,5356.25390625,True
1599562871.356062,0.0,10,0.5,0.5,-20.516937156677244,-0.15025,-0.03,-0.12575,0.19542649557106206,10,1,100,-0.07127435270549473,-10,-1,-100,14971.412014554837,0.006525554053582478,0.018112671612599725,0.9998146569596525,30.475771850035105,0.02028784921799356,117.68837614768765,-33.715386397529585,16.064971923828125,5356.25390625,True
1599562871.4198542,0.0,10,0.5,0.5,-14.411679023742677,-0.15025,-0.03,-0.12575,0.3767868952441977,10,1,100,-0.17852227635077306,-10,-1,-100,14968.688483002014,0.007500269200982359,0.019755523713597213,0.9997767076926298,27.792299494480087,0.018074898974642314,109.73121042741137,-34.45719640584968,-5.16461181640625,5356.25390625,True
1599562871.4637363,0.0,10,0.5,0.5,-16.771717407226564,-0.15025,-0.03,-0.12575,0.21331263891796043,10,1,100,-0.0811774905568164,-10,-1,-100,14968.688483002014,0.007500269200982359,0.019755523713597213,0.9997767076926298,27.792299494480087,0.018074898974642314,109.73121042741137,-34.45719640584968,-5.16461181640625,5356.25390625,True
1599562871.5076194,0.0,10,0.5,0.5,-13.4428018951416,-0.15025,-0.03,-0.12575,0.2994981414587279,10,1,100,-0.14760308597855903,-10,-1,-100,14967.261779140448,0.008102847345131356,0.020532108902500748,0.9997563585038693,28.303659952556963,0.018788863292884213,112.97647406823698,-34.828130906021855,-16.191314697265625,5356.25390625,True
1599562871.5505047,0.0,10,0.5,0.5,-8.246294807434081,-0.15025,-0.03,-0.12575,0.3603898610689219,10,1,100,-0.25560822899265057,-10,-1,-100,14964.471847710316,0.009630444488299155,0.02178512668804346,0.9997162911517166,31.2716540651872,0.022346678011613073,127.53187291228605,-35.56976442679639,-39.07183837890625,5356.25390625,True
1599562871.5953848,0.0,10,0.5,0.5,-7.528222213745118,-0.15025,-0.03,-0.12575,0.2857951211350535,10,1,100,-0.19678939251980265,-10,-1,-100,14963.04807030526,0.01048096236497377,0.022238739569210596,0.9996977482670835,31.892786362830893,0.023344517910792426,131.44526144552958,-35.94049583791584,-50.925872802734375,5356.25390625,True
1599562871.6409762,0.0,10,0.5,0.5,-7.035902610778809,-0.15025,-0.03,-0.12575,0.2591270307552632,10,1,100,-0.1586270616465853,-10,-1,-100,14962.336180270417,0.010902945839224777,0.022401913939827673,0.9996895918353155,32.013008393735824,0.023555139360403758,132.63360305393198,-36.12585213520144,-56.956634521484375,5356.25390625,True
1599562871.685855,0.0,10,0.5,0.5,-5.774195381164551,-0.15025,-0.03,-0.12575,0.2584520950569011,10,1,100,-0.16332815505072956,-10,-1,-100,14961.55885696318,0.01132463645609011,0.022537206366711665,0.9996818628635419,31.948442311546522,0.023524245996676477,133.05779939615272,-36.31120831849298,-63.056304931640625,5356.25390625,True
1599562871.7287405,0.0,10,0.5,0.5,0.6951784744262697,-0.15025,-0.03,-0.12575,0.27613191171413815,10,1,100,-0.3045750562296418,-10,-1,-100,14958.644863066962,0.012987113911077418,0.02281497172128381,0.9996553465758176,29.798689441019608,0.021531885795702983,126.68944390417515,-37.05272156510242,-88.14349365234375,5356.25390625,True
1599562871.772623,0.0,10,0.5,0.5,1.4748684539794923,-0.15025,-0.03,-0.12575,0.24387179288594726,10,1,100,-0.22171275309978217,-10,-1,-100,14957.154651806457,0.013738873495601194,0.022768766538457556,0.9996463507788087,27.783063612377603,0.0201896018217425,119.3272844812308,-37.42356788912824,-101.10064697265625,5356.25390625,True
