Timestamp,Input Throttle,horizon,dT,dt,Input Roll,Roll P,Roll I,Roll D,Input Pitch,Pitch P,Pitch I,Pitch D,Input Yaw,Yaw P,Yaw I,Yaw D,Altitude,Direction X,Direction Y,Direction Z,Drag X,Drag Y,Drag Z,Vertical Velocity,Roll,Mass,Has Fuel
1599561437.8656094,0.0,10,0.5,0.5,-5.850304779052735,-0.1005,-0.02275,-0.37525,-0.0003017912143023839,10,1,100,0.17498349906112742,-10,-1,-100,14994.030063021579,-0.01681246734035106,-7.397364401517603e-05,0.9998586577460985,28.64448878628887,0.02727497684990483,-87.50359376744711,27.00897863148316,-31.7921142578125,5356.25390625,True
1599561437.8995204,0.0,10,0.5,0.5,-5.982881687927247,-0.1005,-0.02275,-0.37525,-0.00020803289231449652,10,1,100,0.177770498668889,-10,-1,-100,14995.101355101215,-0.01688487259972691,-6.907272663118711e-05,0.9998574379911616,28.499239303647258,0.0276022981276021,-85.86417245929924,26.637047359553755,-31.790924072265625,5356.25390625,True
1599561437.9364195,0.0,10,0.5,0.5,-6.096000878143311,-0.1005,-0.02275,-0.37525,0.0035385602561817664,10,1,100,0.17840300243675117,-10,-1,-100,14996.17362395709,-0.016941095712867584,-3.049461608974826e-05,0.9998564888753416,28.354139698906586,0.027923606167500604,-84.2373853207125,26.265132009586004,-31.83056640625,5356.25390625,True
1599561437.9723246,0.0,10,0.5,0.5,-6.119178548431398,-0.1005,-0.02275,-0.37525,0.007889682120756674,10,1,100,0.17859632248928603,-10,-1,-100,14997.186321687885,-0.016978564092825,4.415976918595872e-05,0.999855852816425,28.22047333018857,0.028247510947561748,-82.65625386538866,25.893231901872166,-32.091278076171875,5356.25390625,True
1599561438.007232,0.0,10,0.5,0.5,-6.0979707870483395,-0.1005,-0.02275,-0.37525,0.012404150111874875,10,1,100,0.17841490457168968,-10,-1,-100,14998.251752151875,-0.016995541944360114,0.0001530278650202342,0.9998555536358689,28.106605562614146,0.02857682922328405,-81.14347281121525,25.521346196965606,-32.618408203125,5356.25390625,True
1599561438.0411408,0.0,10,0.5,0.5,-6.426319488525391,-0.1005,-0.02275,-0.37525,0.0015326433149493502,10,1,100,0.1784166736126142,-10,-1,-100,14998.251752151875,-0.016995541944360114,0.0001530278650202342,0.9998555536358689,28.106605562614146,0.02857682922328405,-81.14347281121525,25.521346196965606,-32.618408203125,5356.25390625,True
1599561438.0800362,0.0,10,0.5,0.5,-6.382724868774415,-0.1005,-0.02275,-0.37525,0.009591187984808392,10,1,100,0.17975381223489134,-10,-1,-100,14998.725385251688,-0.016992247257340488,0.00022614824577802528,0.9998555957687671,28.057165734468803,0.028741679339274875,-80.41212941294452,25.33540844399196,-32.98443603515625,5356.25390625,True
1599561438.114943,0.0,10,0.5,0.5,-6.203597370910646,-0.1005,-0.02275,-0.37525,0.022594355873750516,10,1,100,0.1783642280381868,-10,-1,-100,14999.732219908852,-0.016961172006209568,0.00041062634705205645,0.9998560646563978,27.971853745377093,0.029065999353191874,-78.99394400991676,24.9635422771442,-33.92230224609375,5356.25390625,True
1599561438.1508467,0.0,10,0.5,0.5,-6.106235420227051,-0.1005,-0.02275,-0.37525,0.03029919347899279,10,1,100,0.176302805593527,-10,-1,-100,15000.740029792069,-0.016898762326587997,0.0006480043933969672,0.9998569957359579,27.901390715925004,0.029373242505193787,-77.62416892419066,24.59168823504707,-35.134857177734375,5356.25390625,True
1599561438.1847565,0.0,10,0.5,0.5,-5.575599198150635,-0.1005,-0.02275,-0.37525,0.055676877435697075,10,1,100,0.16585646637241552,-10,-1,-100,15002.157992324792,-0.01673169702280684,0.0010939197402320187,0.9998594169453718,27.81205411010836,0.02977015174491629,-75.62494566151997,24.033928425688455,-37.468994140625,5356.25390625,True
1599561438.2246492,0.0,10,0.5,0.5,-6.57099213180542,-0.1005,-0.02275,-0.37525,0.011194734726215126,10,1,100,0.18423616645281196,-10,-1,-100,15002.157992324792,-0.01673169702280684,0.0010939197402320187,0.9998594169453718,27.81205411010836,0.02977015174491629,-75.62494566151997,24.033928425688455,-37.468994140625,5356.25390625,True
1599561438.262549,0.0,10,0.5,0.5,-5.6543003211975105,-0.1005,-0.02275,-0.37525,0.05016103914437721,10,1,100,0.16634817005502264,-10,-1,-100,15003.10329865187,-0.01656915230129743,0.001447097150047813,0.9998616749840225,27.75375878348047,0.02996634310751532,-74.30167025939951,23.66210253680678,-39.368682861328125,5356.25390625,True
1599561438.2984536,0.0,10,0.5,0.5,-4.749039527130128,-0.1005,-0.02275,-0.37525,0.08126339910806539,10,1,100,0.1461361224612568,-10,-1,-100,15004.516373636667,-0.01623792550388958,0.0020495379132987194,0.9998660556142869,27.64784025541986,0.03010692356701565,-72.27751620677282,23.104385419731436,-42.733642578125,5356.25390625,True
1599561438.3393433,0.0,10,0.5,0.5,-4.091747243499756,-0.1005,-0.02275,-0.37525,0.09617029328273921,10,1,100,0.13057709065788595,-10,-1,-100,15005.87182802544,-0.015796003735496323,0.0027308376155425885,0.999871506140617,27.489948955792546,0.02999606734748,-70.13400953499597,22.546697199663054,-46.71722412109375,5356.25390625,True
1599561438.3752465,0.0,10,0.5,0.5,-4.12619285888672,-0.1005,-0.02275,-0.37525,0.08049112222637207,10,1,100,0.13481113665084465,-10,-1,-100,15006.750723255682,-0.01543382305539965,0.0032052206281188078,0.9998757541147899,27.336487738701415,0.02974588421916001,-68.59508960274319,22.174923776892783,-49.716949462890625,5356.25390625,True
1599561438.4121478,0.0,10,0.5,0.5,-4.450271315765381,-0.1005,-0.02275,-0.37525,0.05985834690910824,10,1,100,0.1487272252872593,-10,-1,-100,15007.219467814895,-0.015232497532814589,0.0034461325068828826,0.9998780401577273,27.240499575818628,0.029560865904238013,-67.7825497239951,21.989043629425375,-51.320037841796875,5356.25390625,True
1599561438.447055,0.0,10,0.5,0.5,-4.21387497253418,-0.1005,-0.02275,-0.37525,0.0629077581535895,10,1,100,0.1450083221303358,-10,-1,-100,15007.631570662837,-0.015017268887593907,0.003689871494671087,0.9998804260927957,27.129497135510505,0.02933353110761526,-66.93700434347086,21.80316808766925,-52.991943359375,5356.25390625,True
1599561438.4779725,0.0,10,0.5,0.5,-3.1067321151733402,-0.1005,-0.02275,-0.37525,0.09346589450220544,10,1,100,0.11452153496286743,-10,-1,-100,15008.51046385034,-0.014546249307116071,0.00418610479287606,0.9998854350163114,26.854849493028983,0.02874689618688161,-65.1322641216731,21.43143326432051,-56.542144775390625,5356.25390625,True
1599561438.7322927,0.0,10,0.5,0.5,-3.4938857810974127,-0.1005,-0.02275,-0.37525,0.07199016336149917,10,1,100,0.1331094928976536,-10,-1,-100,15008.91866027657,-0.014289226508542544,0.0044385598004688664,0.9998880523302022,26.687466428865065,0.028386552595775626,-64.16630005723985,21.245574640483028,-58.420440673828125,5356.25390625,True
1599561438.7602174,0.0,10,0.5,0.5,-2.2602512123107914,-0.1005,-0.02275,-0.37525,0.10216904468688634,10,1,100,0.09728072730618169,-10,-1,-100,15009.793645941187,-0.013732225673387815,0.004938971859959417,0.9998935105975145,26.28298044035797,0.027533456441357164,-62.090831224489605,20.873877610450084,-62.383636474609375,5356.25390625,True
1599561438.7921321,0.0,10,0.5,0.5,-3.690759625244141,-0.1005,-0.02275,-0.37525,0.052512343949803995,10,1,100,0.15268086368671263,-10,-1,-100,15009.793645941187,-0.013732225673387815,0.004938971859959417,0.9998935105975145,26.28298044035797,0.027533456441357164,-62.090831224489605,20.873877610450084,-62.383636474609375,5356.25390625,True
1599561438.826042,0.0,10,0.5,0.5,-0.559997423553467,-0.1005,-0.02275,-0.37525,0.13213720230344345,10,1,100,0.050155504061030975,-10,-1,-100,15011.021162257297,-0.012802903741653817,0.005659338706701842,0.9999020239709412,25.47112910084201,0.025946216857181695,-58.56990099301069,20.31639030934833,-68.84518432617188,5356.25390625,True
1599561438.92182,0.0,10,0.5,0.5,-2.9176342140197757,-0.1005,-0.02275,-0.37525,0.06052174178486639,10,1,100,0.1427110723784664,-10,-1,-100,15011.021162257297,-0.012802903741653817,0.005659338706701842,0.9999020239709412,25.47112910084201,0.025946216857181695,-58.56990099301069,20.31639030934833,-68.84518432617188,5356.25390625,True
1599561438.9586873,0.0,10,0.5,0.5,-0.6450376235961914,-0.1005,-0.02275,-0.37525,0.11268304072703081,10,1,100,0.06662831396003321,-10,-1,-100,15011.834623298957,-0.012114365048542821,0.006130250696363879,0.9999078268449899,24.768738941945195,0.024720176320267497,-55.91579772683927,19.944777014256115,-73.4971923828125,5356.25390625,True
1599561438.9945915,0.0,10,0.5,0.5,-0.014621290588379132,-0.1005,-0.02275,-0.37525,0.11148621808244585,10,1,100,0.05702024146659934,-10,-1,-100,15012.590468151844,-0.011404421612762474,0.006544381923759667,0.9999135513797752,23.9220793820092,0.02340862112818205,-53.00115822282413,19.573203530161642,-78.363525390625,5356.25390625,True
1599561439.0289538,0.0,10,0.5,0.5,1.898584513092041,-0.1005,-0.02275,-0.37525,0.13673684335974734,10,1,100,-0.0018907390473858476,-10,-1,-100,15013.747671801597,-0.010227127213237418,0.007147380395462541,0.9999221573814869,22.387428148203725,0.021416019405208826,-48.19286466299591,19.015919335306865,-86.08633422851562,5356.25390625,True
1599561439.0628388,0.0,10,0.5,0.5,2.9260050964355466,-0.1005,-0.02275,-0.37525,0.13128950564320796,10,1,100,-0.01971183959830511,-10,-1,-100,15014.846283086226,-0.008999399908951353,0.0076426748015069965,0.9999302977323755,21.586584885255725,0.020536690380139357,-45.11118769426212,18.45871058105428,-94.17106628417969,5356.25390625,True
1599561439.0947888,0.0,10,0.5,0.5,1.2558495216369627,-0.1005,-0.02275,-0.37525,0.09746323919394072,10,1,100,0.05752374966564187,-10,-1,-100,15015.248620285885,-0.008590896688344124,0.0077818374726387664,0.9999328174930752,22.025962983808483,0.02101158444129515,-45.56755927783863,18.27297553347922,-96.84044647216797,5356.25390625,True
1599561439.1286633,0.0,10,0.5,0.5,0.3458432424545288,-0.1005,-0.02275,-0.37525,0.08390654534874,10,1,100,0.09777853646448764,-10,-1,-100,15015.248620285885,-0.008590896688344124,0.0077818374726387664,0.9999328174930752,22.025962983808483,0.02101158444129515,-45.56755927783863,18.27297553347922,-96.84044647216797,5356.25390625,True
1599561439.163115,0.0,10,0.5,0.5,4.070058274459839,-0.1005,-0.02275,-0.37525,0.12317120214433301,10,1,100,-0.04051147197437899,-10,-1,-100,15016.28180430946,-0.00733889509328188,0.008135749554714912,0.9999399732973939,23.255293419396427,0.022573064216916704,-46.64768228584165,17.715754417767844,-104.48481750488281,5356.25390625,True
1599561439.1949928,0.0,10,0.5,0.5,2.445901874923706,-0.1005,-0.02275,-0.37525,0.09840088292003143,10,1,100,0.037316066458893446,-10,-1,-100,15016.62847858353,-0.006914047020418777,0.008229396929386162,0.9999422348215811,23.577661863048977,0.023061303129243253,-46.799727139903176,17.530008519106527,-106.89913940429688,5356.25390625,True
1599561439.2289038,0.0,10,0.5,0.5,4.973116376495362,-0.1005,-0.02275,-0.37525,0.11230197009738502,10,1,100,-0.059870188605399,-10,-1,-100,15017.6597115841,-0.005650508434188724,0.008437913130636488,0.9999484353587614,24.316965212866943,0.024362815320277748,-46.736488410265416,16.972756121262503,-113.90264129638672,5356.25390625,True
1599561439.2633965,0.0,10,0.5,0.5,2.4475580060958864,-0.1005,-0.02275,-0.37525,0.09172820741474588,10,1,100,0.06576843048685979,-10,-1,-100,15017.6597115841,-0.005650508434188724,0.008437913130636488,0.9999484353587614,24.316965212866943,0.024362815320277748,-46.736488410265416,16.972756121262503,-113.90264129638672,5356.25390625,True
1599561439.2953033,0.0,10,0.5,0.5,4.6362901916503905,-0.1005,-0.02275,-0.37525,0.10123429481314511,10,1,100,-0.028124663909499067,-10,-1,-100,15018.344272590242,-0.004803437026319521,0.00852180613023654,0.9999521517617795,24.740524795567854,0.0251518537199634,-46.51200821146076,16.601244338925696,-118.28777313232422,5356.25390625,True
1599561439.3292372,0.0,10,0.5,0.5,4.08768069858551,-0.1005,-0.02275,-0.37525,0.09668321899567422,10,1,100,0.011909978566872426,-10,-1,-100,15018.687041714438,-0.004403969703516553,0.008554524935683332,0.9999537115056752,24.90646613336399,0.02548182034658387,-46.30113818132173,16.415486528286944,-120.37923431396484,5356.25390625,True
1599561439.3641853,0.0,10,0.5,0.5,7.0521114013671875,-0.1005,-0.02275,-0.37525,0.0965967154286762,10,1,100,-0.12371761576215198,-10,-1,-100,15019.936050347518,-0.002814203508803856,0.008581655505469594,0.9999592168920673,25.282527363609457,0.02630963797749128,-44.87687440846703,15.672455302485641,-128.0590362548828,5356.25390625,True
1599561439.3941052,0.0,10,0.5,0.5,5.097365142822266,-0.1005,-0.02275,-0.37525,0.09218001510656626,10,1,100,-0.00795855103307784,-10,-1,-100,15020.276867517037,-0.0024280556690606547,0.008564863952247008,0.9999603730404256,25.314985247050522,0.026396030484696013,-44.402881497856626,15.486699923237083,-129.80703735351562,5356.25390625,True
1599561439.4290113,0.0,10,0.5,0.5,4.522499564743042,-0.1005,-0.02275,-0.37525,0.09395138934389888,10,1,100,0.02999909851725324,-10,-1,-100,15020.276867517037,-0.0024280556690606547,0.008564863952247008,0.9999603730404256,25.314985247050522,0.026396030484696013,-44.402881497856626,15.486699923237083,-129.80703735351562,5356.25390625,True
1599561439.46492,0.0,10,0.5,0.5,7.596155106544494,-0.1005,-0.02275,-0.37525,0.08182547385826977,10,1,100,-0.12952842160136965,-10,-1,-100,15021.460452563828,-0.000983408068908886,0.008453916514668917,0.9999637814461746,25.2585752878794,0.02631544239875308,-42.18203634379824,14.743702040450119,-136.11004638671875,5356.25390625,True
1599561439.49484,0.0,10,0.5,0.5,5.320289306640625,-0.1005,-0.02275,-0.37525,0.09298742552028182,10,1,100,0.014175589551863684,-10,-1,-100,15021.460452563828,-0.000983408068908886,0.008453916514668917,0.9999637814461746,25.2585752878794,0.02631544239875308,-42.18203634379824,14.743702040450119,-136.11004638671875,5356.25390625,True
1599561439.5297468,0.0,10,0.5,0.5,6.0600405658721925,-0.1005,-0.02275,-0.37525,0.08746443491082395,10,1,100,-0.024815037341188742,-10,-1,-100,15021.739747813088,-0.000634725539903294,0.008403418266437524,0.999964489211956,25.207106887845764,0.026202050395733707,-41.566651017921586,14.557960262778696,-137.51373291015625,5356.25390625,True
1599561439.564654,0.0,10,0.5,0.5,6.840053489303589,-0.1005,-0.02275,-0.37525,0.08288717085146946,10,1,100,-0.062279955621289615,-10,-1,-100,15022.361815497512,1.714026948405632e-05,0.00831574107538117,0.9999654234805214,25.07162052643256,0.02588590780287453,-40.29002753839009,14.186487747311766,-140.11404418945312,5356.25390625,True
1599561439.5975654,0.0,10,0.5,0.5,7.030158330726624,-0.1005,-0.02275,-0.37525,0.07655967075662393,10,1,100,-0.06833133801733782,-10,-1,-100,15022.859860108932,0.0006596057100696558,0.00817862287542703,0.9999663369574843,24.902642240616874,0.025472524185720866,-38.97233669470768,13.81503136307101,-142.43930053710938,5356.25390625,True
1599561439.6314752,0.0,10,0.5,0.5,7.197532622528077,-0.1005,-0.02275,-0.37525,0.07546406845920431,10,1,100,-0.07048686201281139,-10,-1,-100,15023.415522747673,0.0012575244067933621,0.008044245663906005,0.999966853822698,24.71838338782757,0.024994829529065902,-37.64553610390882,13.443591256539253,-144.48870849609375,5356.25390625,True
1599561439.6663888,0.0,10,0.5,0.5,6.926391070365907,-0.1005,-0.02275,-0.37525,0.081491117826582,10,1,100,-0.04255325883690334,-10,-1,-100,15023.692865980789,0.0015416350463674647,0.00797731006628699,0.999966992397994,24.639597989022683,0.02475521478216879,-37.00797007973304,13.257877298564257,-145.40997314453125,5356.25390625,True
1599561439.6963084,0.0,10,0.5,0.5,7.415864825057984,-0.1005,-0.02275,-0.37525,0.07268651740452914,10,1,100,-0.07472810216617104,-10,-1,-100,15024.18895895686,0.0020870109264737335,0.007836942441768673,0.9999671128184953,24.47487861528711,0.024246928938575003,-35.73230100229682,12.886461404522612,-147.0457763671875,5356.25390625,True
1599561439.7312143,0.0,10,0.5,0.5,7.185144448089599,-0.1005,-0.02275,-0.37525,0.07881703762656808,10,1,100,-0.049189401469204336,-10,-1,-100,15024.4682562612,0.002346181525293119,0.0077657445242830135,0.9999670937807074,24.390982212939154,0.02398287296767454,-35.09742865411974,12.700759290815434,-147.76026916503906,5356.25390625,True
1599561439.7666328,0.0,10,0.5,0.5,7.539342817306519,-0.1005,-0.02275,-0.37525,0.06973433014135764,10,1,100,-0.07781884686814435,-10,-1,-100,15024.964350404334,0.002837718630397148,0.007619175548910468,0.9999669472122213,24.22492406448064,0.023445273680968586,-33.84064343629984,12.329366170917648,-148.98248291015625,5356.25390625,True
1599561439.7965527,0.0,10,0.5,0.5,7.7504227779388435,-0.1005,-0.02275,-0.37525,0.06198157271747014,10,1,100,-0.10242737429712964,-10,-1,-100,15025.6713830987,0.00350349736230117,0.007416311129630392,0.9999663613519512,23.99145752004584,0.02263986281333848,-32.00235476729276,11.772302248933585,-150.29849243164062,5356.25390625,True
1599561439.8315425,0.0,10,0.5,0.5,7.542235412979126,-0.1005,-0.02275,-0.37525,0.06797595495680361,10,1,100,-0.08018711441698664,-10,-1,-100,15026.163572143647,0.0039024875692751535,0.0072873265919015705,0.9999658321472363,23.853215189113214,0.022118835553651045,-30.815574229830226,11.400941479357042,-150.8310546875,5356.25390625,True
1599561439.8664563,0.0,10,0.5,0.5,7.375881720352173,-0.1005,-0.02275,-0.37525,0.08075774973740898,10,1,100,-0.040776683283406695,-10,-1,-100,15026.163572143647,0.0039024875692751535,0.0072873265919015705,0.9999658321472363,23.853215189113214,0.022118835553651045,-30.815574229830226,11.400941479357042,-150.8310546875,5356.25390625,True
1599561439.8963764,0.0,10,0.5,0.5,7.528186840438844,-0.1005,-0.02275,-0.37525,0.06884111094688723,10,1,100,-0.08077926449123268,-10,-1,-100,15026.598144093528,0.004262022659247046,0.007180008140782769,0.9999651407153903,23.732717156140236,0.0216193871986427,-29.662512510945774,11.02959123735712,-151.08750915527344,5356.25390625,True
1599561439.9302855,0.0,10,0.5,0.5,7.447748351287842,-0.1005,-0.02275,-0.37525,0.06781489402094783,10,1,100,-0.08102388738515248,-10,-1,-100,15027.024903718033,0.0045872376015391614,0.007074149152197681,0.999964456200799,23.631751330947008,0.021146654978194155,-28.54308692538981,10.658250163109248,-151.0682373046875,5356.25390625,True
1599561439.9661899,0.0,10,0.5,0.5,7.420840798950196,-0.1005,-0.02275,-0.37525,0.07221897624517443,10,1,100,-0.0654493235760593,-10,-1,-100,15027.240725148818,0.004737730030911629,0.007018954886179869,0.9999641434503839,23.58874438952755,0.020921411769680088,-27.99539609260405,10.472582495662744,-150.95521545410156,5356.25390625,True
1599561439.9981046,0.0,10,0.5,0.5,7.119583028030395,-0.1005,-0.02275,-0.37525,0.06436865626325468,10,1,100,-0.0936469803153239,-10,-1,-100,15027.821782654268,0.005127719841039807,0.006898343817944157,0.9999630589885815,23.488805924878083,0.020293827051677333,-26.395714024896275,9.915589439596332,-150.20191955566406,5356.25390625,True
1599561440.035007,0.0,10,0.5,0.5,7.228088641357422,-0.1005,-0.02275,-0.37525,0.07239122241535811,10,1,100,-0.06737987996526557,-10,-1,-100,15028.036627559806,0.00524020413361519,0.006862610690247489,0.999962721722741,23.464391844042726,0.02010135770716298,-25.875053424976816,9.729927826185008,-149.8129119873047,5356.25390625,True
1599561440.071218,0.0,10,0.5,0.5,6.6282302722930915,-0.1005,-0.02275,-0.37525,0.0661894801968397,10,1,100,-0.08735052106021171,-10,-1,-100,15028.619637180935,0.005521147324813102,0.006774632310129007,0.999961809915399,23.412490234308102,0.019576322932092723,-24.341274646279377,9.172949189493877,-148.2319793701172,5356.25390625,True
1599561440.106125,0.0,10,0.5,0.5,7.222548377609253,-0.1005,-0.02275,-0.37525,0.07488820698727257,10,1,100,-0.05957369852037248,-10,-1,-100,15028.619637180935,0.005521147324813102,0.006774632310129007,0.999961809915399,23.412490234308102,0.019576322932092723,-24.341274646279377,9.172949189493877,-148.2319793701172,5356.25390625,True
1599561440.141033,0.0,10,0.5,0.5,6.555425450897217,-0.1005,-0.02275,-0.37525,0.06911926584157516,10,1,100,-0.07564511105182788,-10,-1,-100,15028.922372896574,0.005664811594467773,0.006722955157203377,0.9999613551450643,23.389897029511186,0.019270799651331504,-23.33425455135462,8.801634454720965,-146.83331298828125,5356.25390625,True
1599561440.1789303,0.0,10,0.5,0.5,5.828135898590089,-0.1005,-0.02275,-0.37525,0.06867084619696541,10,1,100,-0.07727535535807509,-10,-1,-100,15029.439953041612,0.005808271047635934,0.006672529708658559,0.9999608699017798,23.35844191891201,0.018879548444892497,-21.829391980561372,8.244667448936482,-144.21795654296875,5356.25390625,True
1599561440.214835,0.0,10,0.5,0.5,6.314151166534424,-0.1005,-0.02275,-0.37525,0.07224879918444366,10,1,100,-0.06643537980711119,-10,-1,-100,15029.589366999804,0.005838410969617898,0.006659774143397838,0.9999607794137274,23.34472677952385,0.018766605267861582,-21.325658550869218,8.059013012175814,-143.20828247070312,5356.25390625,True
1599561440.2497408,0.0,10,0.5,0.5,6.162539286804199,-0.1005,-0.02275,-0.37525,0.07225191424738635,10,1,100,-0.06582040999759045,-10,-1,-100,15029.74171119195,0.005858460333696456,0.006648776995958938,0.9999607353326313,23.327503129451422,0.018661967062332207,-20.81934962071772,7.873359127000775,-142.12966918945312,5356.25390625,True
1599561440.2886372,0.0,10,0.5,0.5,4.16636677055359,-0.1005,-0.02275,-0.37525,0.0692762969934394,10,1,100,-0.06294382434468455,-10,-1,-100,15030.342296141782,0.005849084942673774,0.006612211460655715,0.9999610326732402,23.196051793836567,0.018314789372090357,-18.750590659162604,7.13074960139655,-137.1259002685547,5356.25390625,True
1599561440.3285308,0.0,10,0.5,0.5,6.012312241363526,-0.1005,-0.02275,-0.37525,0.07288665675460754,10,1,100,-0.0640075481810662,-10,-1,-100,15030.342296141782,0.005849084942673774,0.006612211460655715,0.9999610326732402,23.196051793836567,0.018314789372090357,-18.750590659162604,7.13074960139655,-137.1259002685547,5356.25390625,True
1599561440.3635676,0.0,10,0.5,0.5,4.593861009216309,-0.1005,-0.02275,-0.37525,0.0709921912109462,10,1,100,-0.05769718977463631,-10,-1,-100,15030.642100006808,0.0057907077254228095,0.006595358813372906,0.9999614837313293,23.07113001735335,0.01817036373357405,-17.679030139254092,6.75944804691751,-134.2105255126953,5356.25390625,True
1599561440.3944838,0.0,10,0.5,0.5,4.133366703796387,-0.1005,-0.02275,-0.37525,0.07060993708445407,10,1,100,-0.053461732337590294,-10,-1,-100,15030.881355937687,0.005698530653144802,0.006576838628333671,0.9999621352541566,22.887516968232916,0.01802870552774172,-16.57540110230739,6.388147739354242,-131.01954650878906,5356.25390625,True
1599561440.4323816,0.0,10,0.5,0.5,3.638828723907471,-0.1005,-0.02275,-0.37525,0.06975519431947258,10,1,100,-0.04861682960897626,-10,-1,-100,15031.121587955742,0.005570272083977823,0.00655249150049082,0.9999630177781808,22.629722078076988,0.01787312276739891,-15.436545638818096,6.01684752036706,-127.55302429199219,5356.25390625,True
1599561440.469284,0.0,10,0.5,0.5,3.11234160194397,-0.1005,-0.02275,-0.37525,0.06851921690742373,10,1,100,-0.04402677900489371,-10,-1,-100,15031.35791312065,0.00541190099309876,0.006519323535805637,0.9999641042298849,22.28147536235466,0.01768418210051225,-14.261414255624041,5.645545823079433,-123.81102752685547,5356.25390625,True
1599561440.507184,0.0,10,0.5,0.5,3.5216929998397823,-0.1005,-0.02275,-0.37525,0.06962570330906641,10,1,100,-0.04983933055313684,-10,-1,-100,15031.50830216473,0.005320867966676108,0.006499461906810698,0.999964722057235,22.066943266182975,0.0175686024575575,-13.659796059004822,5.459893670669932,-121.83672332763672,5356.25390625,True
1599561440.5390964,0.0,10,0.5,0.5,2.2288774055480958,-0.1005,-0.02275,-0.37525,0.06600944287793103,10,1,100,-0.03654824056558538,-10,-1,-100,15031.679196663667,0.005117595255157585,0.006448733961305335,0.9999661114503333,21.54749057158806,0.017279147553919776,-12.431434918231169,5.0885848727284815,-117.68158721923828,5356.25390625,True
1599561440.575999,0.0,10,0.5,0.5,2.6901839498519897,-0.1005,-0.02275,-0.37525,0.06766042349557358,10,1,100,-0.04457621343624309,-10,-1,-100,15031.765132653993,0.005006411339685342,0.006417830012594803,0.9999668731030179,21.239575194451774,0.017099232205064617,-11.806831895090774,4.902927648300298,-115.50074005126953,5356.25390625,True
1599561440.6119018,0.0,10,0.5,0.5,0.13644139938354494,-0.1005,-0.02275,-0.37525,0.05764611722990037,10,1,100,-0.014692197544746169,-10,-1,-100,15032.024891386041,0.004634418544451451,0.006298916315107111,0.9999694224415115,20.24237721691562,0.016488873046435294,-9.974460124115692,4.345938226910354,-108.54525756835938,5356.25390625,True
1599561440.645811,0.0,10,0.5,0.5,-0.9336759475708005,-0.1005,-0.02275,-0.37525,0.051521039040490844,10,1,100,-0.005516369845371946,-10,-1,-100,15032.285626554978,0.004213939425871099,0.006135448479924443,0.999972299109563,19.02123627360173,0.01564473273249025,-8.171607961583017,3.788909858130258,-100.9703598022461,5356.25390625,True
1599561440.6787236,0.0,10,0.5,0.5,1.826550584602356,-0.1005,-0.02275,-0.37525,0.06782014626068454,10,1,100,-0.04740076715172694,-10,-1,-100,15032.285626554978,0.004213939425871099,0.006135448479924443,0.999972299109563,19.02123627360173,0.01564473273249025,-8.171607961583017,3.788909858130258,-100.9703598022461,5356.25390625,True
1599561440.7146268,0.0,10,0.5,0.5,0.494570966720581,-0.1005,-0.02275,-0.37525,0.0606191284935003,10,1,100,-0.031484645020404906,-10,-1,-100,15032.371560664615,0.00407073390241981,0.006070418102932524,0.9999732892180426,18.520892235692383,0.01527064753326113,-7.56676872667715,3.6032229309090273,-98.343505859375,5356.25390625,True
1599561440.7485366,0.0,10,0.5,0.5,-1.1038544677734374,-0.1005,-0.02275,-0.37525,0.051096001199449015,10,1,100,-0.012981419635648209,-10,-1,-100,15032.480930195074,0.00377389953562358,0.005925202912730713,0.9999753245219294,17.38636241206159,0.01437909918693819,-6.371175277316327,3.23182872716042,-93.0832748413086,5356.25390625,True
1599561440.7834432,0.0,10,0.5,0.5,-1.7565831995010377,-0.1005,-0.02275,-0.37525,0.04626766317796519,10,1,100,-0.0069775060526199376,-10,-1,-100,15032.591276217252,0.003451218743342679,0.005749887517547944,0.9999775136885435,16.32533410102945,0.013504531503147774,-5.294891040012031,2.8604094628714094,-87.74365234375,5356.25390625,True
1599561440.8123662,0.0,10,0.5,0.5,-2.465961267280578,-0.1005,-0.02275,-0.37525,0.042139770820848264,10,1,100,-0.003772346869472719,-10,-1,-100,15032.697715819813,0.003130661169913826,0.005553713231392494,0.9999796774084874,17.13885653833204,0.014146242659205659,-4.836964038067019,2.4889721698177723,-82.23129272460938,5356.25390625,True
1599561440.8472722,0.0,10,0.5,0.5,-1.799425517654419,-0.1005,-0.02275,-0.37525,0.05008057480871694,10,1,100,-0.017963015840617033,-10,-1,-100,15032.783650498954,0.002970325130009985,0.005448439925963084,0.9999807456501325,17.651018027336256,0.014551354801269659,-4.609822193932418,2.3032503388591796,-79.48324584960938,5356.25390625,True
1599561440.878191,0.0,10,0.5,0.5,-3.4002290884017947,-0.1005,-0.02275,-0.37525,0.035384078480224165,10,1,100,0.0019642384315946664,-10,-1,-100,15032.828566737706,0.002645545093837902,0.005220087883478094,0.9999828757402025,18.53740552514042,0.015256029608419057,-4.060607789749641,1.9318072960764985,-74.1534423828125,5356.25390625,True
1599561440.9150918,0.0,10,0.5,0.5,-2.7207518337249756,-0.1005,-0.02275,-0.37525,0.04475424199597186,10,1,100,-0.012476656118111138,-10,-1,-100,15032.913524719886,0.0024838186933708968,0.005098795373251106,0.9999839163358779,18.90905455643638,0.015554114256552036,-3.7438360786476683,1.7460874839860057,-71.58590698242188,5356.25390625,True
1599561440.948003,0.0,10,0.5,0.5,-4.202910291481018,-0.1005,-0.02275,-0.37525,0.028081696666098926,10,1,100,0.007217552118876411,-10,-1,-100,15032.957464423613,0.002160049702288564,0.004838159983354403,0.9999859630981123,19.536491884451316,0.0160579095231394,-3.0452703714166063,1.374650985152944,-66.65533447265625,5356.25390625,True
1599561440.9839072,0.0,10,0.5,0.5,-4.662889538764953,-0.1005,-0.02275,-0.37525,0.02410341625362456,10,1,100,0.009675748119370924,-10,-1,-100,15032.999451446813,0.0018456164457020957,0.00456638049454559,0.9999878708609993,19.983487972430726,0.016414516504960352,-2.27330663731068,1.0032141700145454,-61.999786376953125,5356.25390625,True
1599561441.0128303,0.0,10,0.5,0.5,-5.088151749801636,-0.1005,-0.02275,-0.37525,0.018619460129914292,10,1,100,0.012754742788815724,-10,-1,-100,15032.98577498144,0.0015339301908832345,0.0042708805108541935,0.9999897032659044,20.260232722477845,0.016640773569070406,-1.4514527453718558,0.6317697194676413,-57.62017822265625,5356.25390625,True
1599561441.0477366,0.0,10,0.5,0.5,-4.535942518424988,-0.1005,-0.02275,-0.37525,0.031739615033061996,10,1,100,-0.0015341657124220698,-10,-1,-100,15033.007257431396,0.0013829145903636933,0.004123213359317058,0.9999905432846998,20.343724548463314,0.016711966338351904,-1.0289885925153812,0.4460432819107987,-55.53375244140625,5356.25390625,True
1599561441.0771663,0.0,10,0.5,0.5,-5.737156965446473,-0.1005,-0.02275,-0.37525,0.012611008288341337,10,1,100,0.0163078286316725,-10,-1,-100,15033.048269265331,0.0010858712043196653,0.003816844255461851,0.9999921262608307,20.414145912210742,0.01677857610265935,-0.17264738793901782,0.07457934839619806,-51.567901611328125,5356.25390625,True
1599561441.1130702,0.0,10,0.5,0.5,-6.098952095794678,-0.1005,-0.02275,-0.37525,0.008598883950384814,10,1,100,0.018633066242717287,-10,-1,-100,15033.03068697243,0.0007971369008440545,0.003503769720391394,0.9999935440644144,20.422492215467702,0.01679804327273679,0.6876018898450904,-0.29690025935872866,-47.87786865234375,5356.25390625,True
1599561441.147014,0.0,10,0.5,0.5,-5.633488176727295,-0.1005,-0.02275,-0.37525,0.021721114291527566,10,1,100,0.005550873179555637,-10,-1,-100,15032.98673981533,0.0006559929999336038,0.0033404914350624185,0.9999942053782895,20.441422140156835,0.016821303002476015,1.1188208630612464,-0.4826449359293232,-46.1363525390625,5356.25390625,True
1599561441.1774871,0.0,10,0.5,0.5,-6.62083193359375,-0.1005,-0.02275,-0.37525,0.0028160624850841268,10,1,100,0.021958007140332532,-10,-1,-100,15032.97013497923,0.0003807742977988407,0.003022204542701437,0.9999953606345562,20.42753307379515,0.01682707851101765,1.9786847230559659,-0.8541431882002255,-42.8599853515625,5356.25390625,True
1599561441.2113955,0.0,10,0.5,0.5,-6.204869425201417,-0.1005,-0.02275,-0.37525,0.016794711002180683,10,1,100,0.009518107871004435,-10,-1,-100,15032.991618196364,0.0002460196081540489,0.0028621371137862056,0.9999958738142345,20.399573065535066,0.016813562782816767,2.4057224413677787,-1.039896413627139,-41.3251953125,5356.25390625,True
1599561441.2492955,0.0,10,0.5,0.5,-7.065539405059814,-0.1005,-0.02275,-0.37525,-0.0032146913094256158,10,1,100,0.025149570018237283,-10,-1,-100,15032.906654773979,-1.6407469692711452e-05,0.0025368612035483852,0.9999967820278368,20.31390418349879,0.01676478545810353,3.251548450646645,-1.4114103165295053,-38.4625244140625,5356.25390625,True
1599561441.2842011,0.0,10,0.5,0.5,-8.397080448913574,-0.1005,-0.02275,-0.37525,-0.041495195433287516,10,1,100,0.054511024223037066,-10,-1,-100,15032.73965939018,-0.0005196269185397066,0.0018954802787240791,0.999998068569324,20.09189333773523,0.016641198471342662,4.909346838235808,-2.1544627087320958,-33.56414794921875,5356.25390625,True
1599561441.3131247,0.0,10,0.5,0.5,-6.6342471298217776,-0.1005,-0.02275,-0.37525,0.022348629078680054,10,1,100,0.004457047000420384,-10,-1,-100,15032.73965939018,-0.0005196269185397066,0.0018954802787240791,0.999998068569324,20.09189333773523,0.016641198471342662,4.909346838235808,-2.1544627087320958,-33.56414794921875,5356.25390625,True
1599561441.3470342,0.0,10,0.5,0.5,-7.199573323822022,-0.1005,-0.02275,-0.37525,0.004941222131064354,10,1,100,0.018198576164405345,-10,-1,-100,15032.697666038875,-0.00064239968969935,0.0017396592157601378,0.9999982804527474,20.031015297505174,0.016610831983693054,5.316561078817646,-2.340229564584113,-32.5118408203125,5356.25390625,True
1599561441.3789482,0.0,10,0.5,0.5,-7.764823957061768,-0.1005,-0.02275,-0.37525,-0.012820442038895343,10,1,100,0.03306497503090326,-10,-1,-100,15032.6087981842,-0.0008871818987393864,0.001438835139970643,0.9999985713298388,19.909142358809067,0.016558525141728037,6.123304531804854,-2.7117668655057012,-30.61376953125,5356.25390625,True
1599561441.4148526,0.0,10,0.5,0.5,-7.880965618133545,-0.1005,-0.02275,-0.37525,-0.018059177581255678,10,1,100,0.03421799099560453,-10,-1,-100,15032.465243354673,-0.0011181294189193374,0.001120174182703596,0.999998747497417,19.794818102648367,0.016525430121755124,6.922481567559071,-3.083308655489785,-28.99169921875,5356.25390625,True
1599561441.4497588,0.0,10,0.5,0.5,-7.964356492614746,-0.1005,-0.02275,-0.37525,-0.018806026042352864,10,1,100,0.03701078170718735,-10,-1,-100,15032.378328693914,-0.0013514670795307375,0.0008261443901533591,0.9999987455103029,19.696494119338258,0.016519894820670688,7.718362602951893,-3.45485491814619,-27.64495849609375,5356.25390625,True
1599561441.482671,0.0,10,0.5,0.5,-8.014629603576662,-0.1005,-0.02275,-0.37525,-0.02121584029013769,10,1,100,0.03931555503404959,-10,-1,-100,15032.226962131332,-0.0015825914339849627,0.0005393713813371344,0.9999986022404562,19.62520907250963,0.016551630018865508,8.517766258334802,-3.82640553293173,-26.57379150390625,5356.25390625,True
1599561441.5135884,0.0,10,0.5,0.5,-8.03569702911377,-0.1005,-0.02275,-0.37525,-0.023190083364936605,10,1,100,0.04166310269815576,-10,-1,-100,15032.02090822754,-0.0018120107491316612,0.0002632674545094175,0.9999983236522413,19.59040167597915,0.01662855335665223,9.328612565176591,-4.1979607021641625,-25.778167724609375,5356.25390625,True
1599561441.5534816,0.0,10,0.5,0.5,-7.776000341033936,-0.1005,-0.02275,-0.37525,0.004144415609015879,10,1,100,0.018940449688178963,-10,-1,-100,15032.02090822754,-0.0018120107491316612,0.0002632674545094175,0.9999983236522413,19.59040167597915,0.01662855335665223,9.328612565176591,-4.1979607021641625,-25.778167724609375,5356.25390625,True
1599561441.586393,0.0,10,0.5,0.5,-8.058827195739747,-0.1005,-0.02275,-0.37525,-0.024872398770289662,10,1,100,0.044447854268431355,-10,-1,-100,15031.867588856025,-0.0020420253086273323,1.8408416605278516e-06,0.9999979150624516,19.60971752700545,0.016765527069892868,10.164667731448136,-4.569520294485931,-25.258026123046875,5356.25390625,True
1599561441.6163135,0.0,10,0.5,0.5,-8.010095532989503,-0.1005,-0.02275,-0.37525,-0.02594205061312775,10,1,100,0.04707462074771079,-10,-1,-100,15031.660559176467,-0.0022731676781269057,-0.00024323925917163825,0.9999973867682704,19.66749681192608,0.01694937957884482,11.024007320619537,-4.941084005981452,-25.013336181640625,5356.25390625,True
1599561441.6522179,0.0,10,0.5,0.5,-7.866528839111329,-0.1005,-0.02275,-0.37525,-0.040290496784180604,10,1,100,0.06180293224465447,-10,-1,-100,15031.339272576966,-0.002615596717862745,-0.0005945354800850918,0.9999964025842155,19.8200226100419,0.017307657926529454,12.363429354322433,-5.498436345290011,-25.162994384765625,5356.25390625,True
1599561441.6866398,0.0,10,0.5,0.5,-7.941800704193115,-0.1005,-0.02275,-0.37525,-0.0054098762687161675,10,1,100,0.027769625251002857,-10,-1,-100,15031.339272576966,-0.002615596717862745,-0.0005945354800850918,0.9999964025842155,19.8200226100419,0.017307657926529454,12.363429354322433,-5.498436345290011,-25.162994384765625,5356.25390625,True
1599561441.7175567,0.0,10,0.5,0.5,-7.747286213684083,-0.1005,-0.02275,-0.37525,-0.02847484465950169,10,1,100,0.053550426612119784,-10,-1,-100,15031.124431565753,-0.002848173823847296,-0.0008020950157323736,0.9999956222651453,19.966032660043233,0.017601640078371714,13.296758768133419,-5.870008037522916,-25.60699462890625,5356.25390625,True
1599561441.7514682,0.0,10,0.5,0.5,-7.770561529541015,-0.1005,-0.02275,-0.37525,-0.01835804030372827,10,1,100,0.043371025607854344,-10,-1,-100,15031.020916838665,-0.0029652848274989217,-0.0008967773447631414,0.9999952014266298,20.05198827393793,0.01776475653248052,13.776985227949949,-6.055794663039115,-25.932220458984375,5356.25390625,True
1599561441.7873569,0.0,10,0.5,0.5,-6.953013726043703,-0.1005,-0.02275,-0.37525,-0.04663274594067878,10,1,100,0.08339975637073524,-10,-1,-100,15030.467210589093,-0.0034339676964733356,-0.0012380613755566016,0.9999933375127505,20.47278881875668,0.018514713410358506,15.793852117074078,-6.798941991835671,-27.92181396484375,5356.25390625,True
1599561441.8172767,0.0,10,0.5,0.5,-7.698978842926026,-0.1005,-0.02275,-0.37525,-0.01271076343790376,10,1,100,0.03673971953498811,-10,-1,-100,15030.467210589093,-0.0034339676964733356,-0.0012380613755566016,0.9999933375127505,20.47278881875668,0.018514713410358506,15.793852117074078,-6.798941991835671,-27.92181396484375,5356.25390625,True
1599561441.8501892,0.0,10,0.5,0.5,-7.377385503387452,-0.1005,-0.02275,-0.37525,-0.02103995432060624,10,1,100,0.04980086417202964,-10,-1,-100,15030.358813759405,-0.00355102230566236,-0.0013121654447112662,0.9999928342055407,20.594573989676963,0.01872352628745905,16.322392855217508,-6.984728367199594,-28.591339111328125,5356.25390625,True
1599561441.8831005,0.0,10,0.5,0.5,-6.886995967864991,-0.1005,-0.02275,-0.37525,-0.02721657939032407,10,1,100,0.06424863744171345,-10,-1,-100,15030.022878745222,-0.003787198060507207,-0.0014342517055772864,0.9999917999928276,20.85359791955885,0.01916068294781713,17.407895745751794,-7.356299078701449,-30.136749267578125,5356.25390625,True
1599561441.9140177,0.0,10,0.5,0.5,-6.590647753143311,-0.1005,-0.02275,-0.37525,-0.027987680464977672,10,1,100,0.06655226782641224,-10,-1,-100,15029.741631786805,-0.00402104976176217,-0.0015507060259886223,0.9999907131916949,21.12703265616643,0.019614634133440334,18.528042394551527,-7.72786590289425,-31.957763671875,5356.25390625,True
1599561441.9469302,0.0,10,0.5,0.5,-5.713715504455567,-0.1005,-0.02275,-0.37525,-0.02966649933547867,10,1,100,0.08160993834459537,-10,-1,-100,15029.23284658743,-0.004368731018110952,-0.0016704241734874375,0.9999890618763647,21.543904078169263,0.020294487222262663,20.25813637762126,-8.28520518712159,-35.205322265625,5356.25390625,True
1599561441.9773571,0.0,10,0.5,0.5,-6.3286869239807135,-0.1005,-0.02275,-0.37525,-0.020935388693835336,10,1,100,0.05959324113919917,-10,-1,-100,15029.059996972908,-0.004482748037160802,-0.0016985876790947703,0.9999885098189537,21.679150607719645,0.020511492650880002,20.843073891826172,-8.47098130691173,-36.42547607421875,5356.25390625,True
1599561442.0102696,0.0,10,0.5,0.5,-6.760927494812012,-0.1005,-0.02275,-0.37525,-0.018229443353003024,10,1,100,0.04837825436614394,-10,-1,-100,15029.059996972908,-0.004482748037160802,-0.0016985876790947703,0.9999885098189537,21.679150607719645,0.020511492650880002,20.843073891826172,-8.47098130691173,-36.42547607421875,5356.25390625,True
1599561442.0471706,0.0,10,0.5,0.5,-4.797344228363038,-0.1005,-0.02275,-0.37525,-0.02376070610117399,10,1,100,0.08511624572308985,-10,-1,-100,15028.550234985189,-0.00481503236647913,-0.001747868202079043,0.9999868801239632,22.06643219133725,0.02110902475423224,22.613462332982934,-9.028296473809073,-40.49896240234375,5356.25390625,True
1599561442.0776172,0.0,10,0.5,0.5,-5.580564519500733,-0.1005,-0.02275,-0.37525,-0.0195665374148691,10,1,100,0.0640030026703628,-10,-1,-100,15028.378361845389,-0.0049233824030686085,-0.001753680077474386,0.9999863423626839,22.18989491980921,0.02128561473582609,23.20868255174788,-9.214063509028964,-41.99444580078125,5356.25390625,True
1599561442.319936,0.0,10,0.5,0.5,-5.360987121582032,-0.1005,-0.02275,-0.37525,-0.01918999872712486,10,1,100,0.0651443084471082,-10,-1,-100,15028.207464523264,-0.005030477854688029,-0.0017547615190972852,0.9999858074515681,22.303055748820952,0.021440901662737877,23.798164192737268,-9.399828098114323,-43.558746337890625,5356.25390625,True
1599561442.3488932,0.0,10,0.5,0.5,-5.135461142730714,-0.1005,-0.02275,-0.37525,-0.018629526540495385,10,1,100,0.06612003871466443,-10,-1,-100,15027.973090881831,-0.005135256258448727,-0.001750179718745525,0.9999852828987594,22.403713627534884,0.021571038686281203,24.378860450643895,-9.585590252054132,-45.191864013671875,5356.25390625,True
1599561442.3798149,0.0,10,0.5,0.5,-3.1817370178222655,-0.1005,-0.02275,-0.37525,-0.012972724817834003,10,1,100,0.08785467861828346,-10,-1,-100,15027.39887606632,-0.005426550362298648,-0.001694123413362286,0.9999838411179581,22.60971049911769,0.021774115857989936,26.036190977562963,-10.142863029917175,-50.5040283203125,5356.25390625,True
1599561442.4167178,0.0,10,0.5,0.5,-5.125275305938721,-0.1005,-0.02275,-0.37525,-0.018616551153023003,10,1,100,0.05891282103895499,-10,-1,-100,15027.39887606632,-0.005426550362298648,-0.001694123413362286,0.9999838411179581,22.60971049911769,0.021774115857989936,26.036190977562963,-10.142863029917175,-50.5040283203125,5356.25390625,True
1599561442.4715276,0.0,10,0.5,0.5,-2.2570197937011724,-0.1005,-0.02275,-0.37525,-0.007358863873134412,10,1,100,0.08764041436295189,-10,-1,-100,15026.760208321386,-0.005686219981333355,-0.001591544554719858,0.9999825667921687,22.62389199490233,0.02162800906007635,27.486997467295698,-10.700120680139232,-56.435546875,5356.25390625,True
1599561442.5034435,0.0,10,0.5,0.5,-2.382156437683106,-0.1005,-0.02275,-0.37525,-0.007439910729732817,10,1,100,0.07870499887520718,-10,-1,-100,15026.291460197885,-0.005839538430367617,-0.001498990710533335,0.9999818262437423,22.496791606461027,0.021307830292943936,28.283777872624082,-11.071622409499433,-60.733978271484375,5356.25390625,True
1599561442.535393,0.0,10,0.5,0.5,-3.9370651268005377,-0.1005,-0.02275,-0.37525,-0.016678151802089706,10,1,100,0.06352023471300661,-10,-1,-100,15026.291460197885,-0.005839538430367617,-0.001498990710533335,0.9999818262437423,22.496791606461027,0.021307830292943936,28.283777872624082,-11.071622409499433,-60.733978271484375,5356.25390625,True
1599561442.5683048,0.0,10,0.5,0.5,-0.5687615447998051,-0.1005,-0.02275,-0.37525,0.0023413734188530676,10,1,100,0.08344861175439876,-10,-1,-100,15025.649860290694,-0.006019472048568267,-0.001326267387587093,0.9999810033050993,22.055504183700553,0.020484826223341683,29.128238553036013,-11.628880757155088,-67.69772338867188,5356.25390625,True
1599561442.5952332,0.0,10,0.5,0.5,-1.9409442771911625,-0.1005,-0.02275,-0.37525,-0.007771359585231557,10,1,100,0.07100030523876824,-10,-1,-100,15025.41353315569,-0.006068484620416392,-0.00126151859430174,0.9999807908481283,21.833096353962304,0.02012329968144259,29.296360002351708,-11.814637272331382,-70.1566162109375,5356.25390625,True
1599561442.6271472,0.0,10,0.5,0.5,-0.3583313835144044,-0.1005,-0.02275,-0.37525,0.0013149794804429692,10,1,100,0.07566692180388325,-10,-1,-100,15024.942831015447,-0.006154325788821244,-0.0011204951085432666,0.999980434190988,21.262019682168102,0.01928516063482832,29.429826551309727,-12.186158905297242,-75.28082275390625,5356.25390625,True
1599561442.6540737,0.0,10,0.5,0.5,-0.9458902839660644,-0.1005,-0.02275,-0.37525,-0.004830581567507751,10,1,100,0.07027212194597665,-10,-1,-100,15024.644002935733,-0.0061822005401303655,-0.0010487362991705074,0.999980340081072,20.95156120746281,0.01885517731402789,29.443526557223812,-12.37192474166278,-77.92837524414062,5356.25390625,True
1599561442.6859908,0.0,10,0.5,0.5,2.0879322669982905,-0.1005,-0.02275,-0.37525,0.013406190236578965,10,1,100,0.07380424754899495,-10,-1,-100,15023.879355104757,-0.00623860443527024,-0.0008183540244489623,0.9999802048597716,19.76756653246305,0.0174592463617255,29.035168227979028,-12.929244465378776,-86.22921752929688,5356.25390625,True
1599561442.7159083,0.0,10,0.5,0.5,0.4327450736999512,-0.1005,-0.02275,-0.37525,-0.0008208969345128696,10,1,100,0.0689787638856307,-10,-1,-100,15023.642050036811,-0.006245009626478795,-0.0007390998632522984,0.9999802265975851,19.28779688796377,0.016979264895604543,28.738958113881978,-13.115024656277882,-89.1011962890625,5356.25390625,True
1599561442.748824,0.0,10,0.5,0.5,-0.5571563987731933,-0.1005,-0.02275,-0.37525,-0.008650810699168253,10,1,100,0.0684200906911932,-10,-1,-100,15023.642050036811,-0.006245009626478795,-0.0007390998632522984,0.9999802265975851,19.28779688796377,0.016979264895604543,28.738958113881978,-13.115024656277882,-89.1011962890625,5356.25390625,True
1599561442.777746,0.0,10,0.5,0.5,2.313582040405273,-0.1005,-0.02275,-0.37525,0.008542006882495751,10,1,100,0.06769277748500052,-10,-1,-100,15023.106893241755,-0.0062376536343641525,-0.0005836697248281802,0.9999803753108308,19.068120508060026,0.016789498442748543,29.219491700907366,-13.486587689959638,-94.95075988769531,5356.25390625,True
1599561442.8116207,0.0,10,0.5,0.5,2.9444183948516844,-0.1005,-0.02275,-0.37525,0.01034517313294161,10,1,100,0.065003969223416,-10,-1,-100,15022.57466608251,-0.006206021354015499,-0.0004268934283748301,0.999980651343292,20.313841177185132,0.018043461057207045,31.98923640995412,-13.858129001135541,-100.70643615722656,5356.25390625,True
1599561442.844636,0.0,10,0.5,0.5,3.5945203178405762,-0.1005,-0.02275,-0.37525,0.011362502756488913,10,1,100,0.06202195444927397,-10,-1,-100,15021.979938336182,-0.006149822344003025,-0.0002760957052778622,0.9999810515486275,21.450683824623756,0.019327712281377633,34.6886514889979,-14.229639818745502,-106.42158508300781,5356.25390625,True
1599561442.8805425,0.0,10,0.5,0.5,1.553849988937378,-0.1005,-0.02275,-0.37525,-0.003594980052682326,10,1,100,0.06767288384188493,-10,-1,-100,15021.979938336182,-0.006149822344003025,-0.0002760957052778622,0.9999810515486275,21.450683824623756,0.019327712281377633,34.6886514889979,-14.229639818745502,-106.42158508300781,5356.25390625,True
1599561442.9134543,0.0,10,0.5,0.5,4.2599474246978755,-0.1005,-0.02275,-0.37525,0.011947486286449475,10,1,100,0.05913016509234009,-10,-1,-100,15021.38423373201,-0.006072042764193131,-0.00013575525826967243,0.999981555763495,22.394826969353222,0.020520416728180963,37.164776083212125,-14.601117997234057,-111.92447662353516,5356.25390625,True
1599561442.946364,0.0,10,0.5,0.5,4.781689628791809,-0.1005,-0.02275,-0.37525,0.012338286685177677,10,1,100,0.05618604364251991,-10,-1,-100,15020.784623067244,-0.005974566080145975,-5.643724033818104e-06,0.9999821521048776,23.15094464230834,0.0215690372806479,39.40105800247545,-14.97256409894227,-117.16184997558594,5356.25390625,True
1599561442.9782848,0.0,10,0.5,0.5,6.404522627067566,-0.1005,-0.02275,-0.37525,0.018542123819915258,10,1,100,0.045424422120665414,-10,-1,-100,15019.887159619713,-0.005788281407821405,0.00016802450705592797,0.9999832336424992,24.119496934907477,0.022935432001403952,42.58351803724066,-15.529677591777878,-124.5036849975586,5356.25390625,True
1599561443.0141828,0.0,10,0.5,0.5,3.755457864761353,-0.1005,-0.02275,-0.37525,0.0012969767915632941,10,1,100,0.06401349743989146,-10,-1,-100,15019.887159619713,-0.005788281407821405,0.00016802450705592797,0.9999832336424992,24.119496934907477,0.022935432001403952,42.58351803724066,-15.529677591777878,-124.5036849975586,5356.25390625,True
1599561443.0470974,0.0,10,0.5,0.5,6.0073377878189085,-0.1005,-0.02275,-0.37525,0.011866595697765204,10,1,100,0.04836550028671402,-10,-1,-100,15019.286571358447,-0.005646436272817473,0.00026321524390184996,0.9999840241099618,24.568104222194833,0.02356996762102516,44.41747230217222,-15.901055751154605,-129.05398559570312,5356.25390625,True
1599561443.078516,0.0,10,0.5,0.5,6.424427761650087,-0.1005,-0.02275,-0.37525,0.011325482492857013,10,1,100,0.045877634992387006,-10,-1,-100,15018.627389447065,-0.005495413350459708,0.00034392187089247355,0.9999848409600289,24.881203770989046,0.023976197290754064,46.03894590602446,-16.272415234301363,-133.32870483398438,5356.25390625,True
1599561443.111392,0.0,10,0.5,0.5,5.888659860801697,-0.1005,-0.02275,-0.37525,0.007036516885052245,10,1,100,0.05152210015760643,-10,-1,-100,15018.267036540085,-0.005410114555523753,0.00037731637014559277,0.9999852940382937,24.99303234015073,0.024096336226135842,46.77603565087048,-16.458089507417252,-135.36276245117188,5356.25390625,True
1599561443.148292,0.0,10,0.5,0.5,7.054365679359436,-0.1005,-0.02275,-0.37525,0.009695918429979113,10,1,100,0.04109330570601082,-10,-1,-100,15017.603948162869,-0.005238515282457324,0.0004309777597886965,0.9999861860124899,25.13968283755657,0.024182541703327093,48.11727000442756,-16.82942999871107,-139.22413635253906,5356.25390625,True
1599561443.1802385,0.0,10,0.5,0.5,6.562373131752015,-0.1005,-0.02275,-0.37525,0.006789142723263807,10,1,100,0.04851745021750323,-10,-1,-100,15017.303166023921,-0.005150887717111918,0.00045255572468668484,0.9999866316851649,25.179186935439766,0.024155270764112845,48.72722086606524,-17.01509739926592,-141.05148315429688,5356.25390625,True
1599561443.21415,0.0,10,0.5,0.5,9.105146498680115,-0.1005,-0.02275,-0.37525,0.009382734377332915,10,1,100,0.0162025609590249,-10,-1,-100,15015.852966155624,-0.004778362695927102,0.0004950877519673347,0.9999884610024579,25.201903603209892,0.023699686306343316,50.911356223448564,-17.757755434429672,-147.67198181152344,5356.25390625,True
1599561443.247062,0.0,10,0.5,0.5,7.4201435369491575,-0.1005,-0.02275,-0.37525,0.005101865348711107,10,1,100,0.04260704371292908,-10,-1,-100,15015.487730214489,-0.004680991119565558,0.000494135164273868,0.999988922014928,25.19276434842858,0.023526531264914358,51.42798187590064,-17.943418106779973,-149.15489196777344,5356.25390625,True
1599561443.281598,0.0,10,0.5,0.5,7.621099151992799,-0.1005,-0.02275,-0.37525,0.004752089836898803,10,1,100,0.041370353192069054,-10,-1,-100,15015.124447766459,-0.004582493455996906,0.0004895167704246559,0.9999893805071418,25.17483983064425,0.023330997990659876,51.92619946633277,-18.1290802923974,-150.56890869140625,5356.25390625,True
1599561443.31448,0.0,10,0.5,0.5,8.987909647369385,-0.1005,-0.02275,-0.37525,0.002392026402381125,10,1,100,0.01893740301757209,-10,-1,-100,15014.04143628676,-0.004290279735370113,0.00046341296252570374,0.9999906893307648,25.085397937800067,0.022646153366777347,53.341063896556584,-18.68606530002961,-154.39743041992188,5356.25390625,True
1599561443.3474271,0.0,10,0.5,0.5,8.669681300163269,-0.1005,-0.02275,-0.37525,0.0007605711252364764,10,1,100,0.025999335218693437,-10,-1,-100,15013.310965285986,-0.004090192101785451,0.000424582281502187,0.9999915449934847,25.01185581230311,0.022140632283434426,54.24832371061812,-19.0573871839752,-156.6053466796875,5356.25390625,True
1599561443.3803766,0.0,10,0.5,0.5,8.390188822555542,-0.1005,-0.02275,-0.37525,0.0025221575396631845,10,1,100,0.03497628138369731,-10,-1,-100,15012.882253625896,-0.003991446572123099,0.0004050628499988271,0.9999919521067904,24.975090580833584,0.02188162555883633,54.69978275378623,-19.243047709686138,-157.60586547851562,5356.25390625,True
1599561443.4152927,0.0,10,0.5,0.5,8.93340145225525,-0.1005,-0.02275,-0.37525,-0.001169795461358876,10,1,100,0.02273292275713237,-10,-1,-100,15012.096118630143,-0.003791879184643729,0.0003536257507991203,0.9999927482742449,24.90754877374325,0.021362205377126377,55.6117027337994,-19.61436715465161,-159.40029907226562,5356.25390625,True
1599561443.448194,0.0,10,0.5,0.5,9.041950703048705,-0.1005,-0.02275,-0.37525,-0.003381343142645732,10,1,100,0.02031253610144833,-10,-1,-100,15011.303148194216,-0.0035899994393070065,0.0002867509508968639,0.9999935148179301,24.85498931248369,0.02085262231082772,56.55239308343921,-19.985683865173485,-160.91915893554688,5356.25390625,True
1599561443.4791086,0.0,10,0.5,0.5,8.84224864768982,-0.1005,-0.02275,-0.37525,-0.0004924793003210633,10,1,100,0.029224482731664614,-10,-1,-100,15010.93986547587,-0.003489144744835786,0.00025230040902435394,0.9999938810880061,24.83654690048733,0.020604793749120966,57.03921929848498,-20.171340855885607,-161.5751953125,5356.25390625,True
1599561443.5130217,0.0,10,0.5,0.5,8.64691965637207,-0.1005,-0.02275,-0.37525,0.0029347071518534993,10,1,100,0.03913501512502452,-10,-1,-100,15010.93986547587,-0.003489144744835786,0.00025230040902435394,0.9999938810880061,24.83654690048733,0.020604793749120966,57.03921929848498,-20.171340855885607,-161.5751953125,5356.25390625,True
1599561443.547961,0.0,10,0.5,0.5,9.219494303131103,-0.1005,-0.02275,-0.37525,-0.005562721701923792,10,1,100,0.01667627179894599,-10,-1,-100,15010.085371592664,-0.0032864850263916866,0.0001752331060951625,0.9999945841400991,24.819310840736843,0.02012766717844736,58.05679448066474,-20.542651384589902,-162.68057250976562,5356.25390625,True
1599561443.5808716,0.0,10,0.5,0.5,9.052634467697144,-0.1005,-0.02275,-0.37525,-0.002726605720913364,10,1,100,0.025607066785063817,-10,-1,-100,15009.65958971437,-0.003184794216470427,0.00013124557111951252,0.9999949199172958,24.821849556961823,0.019899507271872154,58.59152430332032,-20.72830466861439,-163.12994384765625,5356.25390625,True
1599561443.6137815,0.0,10,0.5,0.5,9.245057051849367,-0.1005,-0.02275,-0.37525,-0.009037980245669203,10,1,100,0.013232197396146506,-10,-1,-100,15008.8666189363,-0.002981209392009211,3.421067054673614e-05,0.9999955556002191,24.851724407078443,0.01946519547401534,59.72120910679465,-21.099606094272648,-163.822021484375,5356.25390625,True
1599561443.6466947,0.0,10,0.5,0.5,9.21358488998413,-0.1005,-0.02275,-0.37525,-0.010191563410474572,10,1,100,0.01087891582613737,-10,-1,-100,15008.012125559151,-0.0027761945228298294,-6.407608047231128e-05,0.9999961443116805,24.91739998326374,0.019060011567601256,60.941408813406255,-21.47089975881795,-164.23837280273438,5356.25390625,True
1599561443.68199,0.0,10,0.5,0.5,9.146770214080812,-0.1005,-0.02275,-0.37525,-0.012833561125709877,10,1,100,0.008594941596527756,-10,-1,-100,15007.09903835319,-0.002570430408045341,-0.00017696629786176805,0.9999966807797148,25.021239847999517,0.018681880070000437,62.262579291108594,-21.84218408818373,-164.3792724609375,5356.25390625,True
1599561443.7149,0.0,10,0.5,0.5,9.095903061676026,-0.1005,-0.02275,-0.37525,-0.007813620093533695,10,1,100,0.017578832740988422,-10,-1,-100,15006.667396635632,-0.002466425461094303,-0.0002334110783057053,0.9999969311276476,25.087806239997292,0.01850175794857422,62.963393690244395,-22.027822314620064,-164.3463134765625,5356.25390625,True
1599561443.7468123,0.0,10,0.5,0.5,8.993938592529297,-0.1005,-0.02275,-0.37525,-0.015224597455400134,10,1,100,0.004917575523678008,-10,-1,-100,15005.813879720634,-0.0022581595538096544,-0.0003515166057005209,0.999997388572343,25.250521398950635,0.018156475255267406,64.4493424194849,-22.399089974883566,-164.07376098632812,5356.25390625,True
1599561443.7787802,0.0,10,0.5,0.5,8.846045953369142,-0.1005,-0.02275,-0.37525,-0.016846655329060132,10,1,100,0.0023224369013760578,-10,-1,-100,15004.893956752145,-0.0020466290321034418,-0.0004729902091322626,0.9999977937924999,25.452070540331565,0.01782660589053186,66.05034303453462,-22.77034466689497,-163.52557373046875,5356.25390625,True
1599561443.8146493,0.0,10,0.5,0.5,8.878144103240968,-0.1005,-0.02275,-0.37525,-0.01185297049464485,10,1,100,0.011686878096475721,-10,-1,-100,15004.404698769096,-0.0019408629054234305,-0.0005373329490664079,0.9999979721601862,25.56693581164641,0.01766568333591257,66.89430576191772,-22.955966684227615,-163.148193359375,5356.25390625,True
1599561443.8475957,0.0,10,0.5,0.5,8.565885527038574,-0.1005,-0.02275,-0.37525,-0.019482590322674083,10,1,100,-0.0015002066023970147,-10,-1,-100,15003.486729386612,-0.0017262368219422247,-0.0006644686807539959,0.9999982892924401,25.82314031437318,0.017348418218908177,68.66762237362067,-23.327199074718738,-162.18666076660156,5356.25390625,True
1599561443.8795073,0.0,10,0.5,0.5,8.339523864364624,-0.1005,-0.02275,-0.37525,-0.020786661535996703,10,1,100,-0.004188251000647573,-10,-1,-100,15002.567783451756,-0.0015082880769051177,-0.0007910683850549376,0.9999985496378918,26.111685941188476,0.017033302601760825,70.55056870279871,-23.69841458802544,-160.94952392578125,5356.25390625,True
1599561443.9134133,0.0,10,0.5,0.5,8.456395104598998,-0.1005,-0.02275,-0.37525,-0.01555020541235775,10,1,100,0.005355828990238259,-10,-1,-100,15002.077548470115,-0.0013985337603789703,-0.0008576764228489395,0.9999986542463319,26.26667012843935,0.016875349116118862,71.53058915935421,-23.884015530359676,-160.2276611328125,5356.25390625,True
1599561443.9483247,0.0,10,0.5,0.5,7.935483565902711,-0.1005,-0.02275,-0.37525,-0.023176518241282244,10,1,100,-0.008354459839773332,-10,-1,-100,15001.093172873603,-0.001175741992769723,-0.0009866602811119199,0.9999988220654343,26.594706942035188,0.016557431572869954,73.56073370897018,-24.255203213158506,-158.57723999023438,5356.25390625,True
1599561443.9832318,0.0,10,0.5,0.5,8.101096068191529,-0.1005,-0.02275,-0.37525,-0.017264509600542547,10,1,100,0.001316434003738983,-10,-1,-100,15000.602938605705,-0.0010627625729743735,-0.0010492447364791242,0.9999988848099762,26.766114469351415,0.016397313730927347,74.60704340391662,-24.440789649731464,-157.64865112304688,5356.25390625,True
1599561444.0161428,0.0,10,0.5,0.5,7.452727780532838,-0.1005,-0.02275,-0.37525,-0.025063410598708608,10,1,100,-0.012604343240333863,-10,-1,-100,14999.6185637163,-0.000835059154532353,-0.001176143188018086,0.9999989596811638,27.1189605589698,0.016075925509558456,76.75027769070473,-24.811946903316638,-155.58489990234375,5356.25390625,True
1599561444.051045,0.0,10,0.5,0.5,6.488582014083863,-0.1005,-0.02275,-0.37525,-0.03227407761928415,10,1,100,-0.02843057226237503,-10,-1,-100,14998.142000823165,-0.00048575884779697193,-0.0013561485924313233,0.9999989624491303,27.656850484336033,0.015600947980629016,80.0472463766448,-25.368642320479598,-151.9725799560547,5356.25390625,True
1599561444.0829608,0.0,10,0.5,0.5,7.1775731887817384,-0.1005,-0.02275,-0.37525,-0.020863670283691734,10,1,100,-0.006715992919749468,-10,-1,-100,14997.59219664766,-0.0003674189871644009,-0.0014150382229251302,0.9999989313344867,27.83350957067616,0.015449004041902628,81.1540338597396,-25.554196418668816,-150.6307373046875,5356.25390625,True
1599561444.1168737,0.0,10,0.5,0.5,5.538679240417481,-0.1005,-0.02275,-0.37525,-0.032206665616290445,10,1,100,-0.034487708068089866,-10,-1,-100,14996.053134223679,-9.086013028646573e-06,-0.0015707255522001932,0.9999987663685811,28.335006475380656,0.015035254035247544,84.43532111555642,-26.110825772824363,-146.1917724609375,5356.25390625,True
1599561444.1517808,0.0,10,0.5,0.5,6.39551685333252,-0.1005,-0.02275,-0.37525,-0.02242563435877261,10,1,100,-0.012173043693472226,-10,-1,-100,14995.49747059634,0.00011195833912635627,-0.0016223430807063902,0.9999986777332551,28.48743028053983,0.014918270604495935,85.49929608952299,-26.29635812755511,-144.57443237304688,5356.25390625,True
1599561444.1816697,0.0,10,0.5,0.5,6.157950077056886,-0.1005,-0.02275,-0.37525,-0.022738891975472887,10,1,100,-0.013680946130343121,-10,-1,-100,14995.004306494142,0.00023384066210741265,-0.0016711295302896264,0.9999985763213055,28.629490900659754,0.014815361417765103,86.53854838503526,-26.48188544297609,-142.88821411132812,5356.25390625,True
1599561444.217604,0.0,10,0.5,0.5,5.911761568832398,-0.1005,-0.02275,-0.37525,-0.022278395725633872,10,1,100,-0.014941483559221515,-10,-1,-100,14994.451572719612,0.00035432031645813144,-0.0017103793723217268,0.9999984745285945,28.75942101117973,0.014728898227750893,87.54703764517248,-26.66740789117035,-141.1330108642578,5356.25390625,True
1599561444.251483,0.0,10,0.5,0.5,3.8237085884094246,-0.1005,-0.02275,-0.37525,-0.030792949583999855,10,1,100,-0.04322286965007584,-10,-1,-100,14992.845128224231,0.0007192575045180394,-0.0018226303447112663,0.9999980803417917,29.056577219176475,0.014588632771128467,90.31849216995715,-27.223949351389937,-135.45437622070312,5356.25390625,True
1599561444.2834342,0.0,10,0.5,0.5,3.933378154754639,-0.1005,-0.02275,-0.37525,-0.026179904462720307,10,1,100,-0.033680220632996,-10,-1,-100,14991.734777414124,0.0009623419650855053,-0.0018818626785793405,0.9999977662429058,29.15671987112676,0.014609411669678891,91.87918096354753,-27.594959853624136,-131.32431030273438,5356.25390625,True
1599561444.3163395,0.0,10,0.5,0.5,5.421184975433349,-0.1005,-0.02275,-0.37525,-0.020346191315659623,10,1,100,-0.009585582972034924,-10,-1,-100,14991.734777414124,0.0009623419650855053,-0.0018818626785793405,0.9999977662429058,29.15671987112676,0.014609411669678891,91.87918096354753,-27.594959853624136,-131.32431030273438,5356.25390625,True
