Timestamp,Input Throttle,horizon,dT,dt,Input Roll,Roll P,Roll I,Roll D,Input Pitch,Pitch P,Pitch I,Pitch D,Input Yaw,Yaw P,Yaw I,Yaw D,Altitude,Direction X,Direction Y,Direction Z,Drag X,Drag Y,Drag Z,Vertical Velocity,Roll,Mass,Has Fuel
1599560182.3507016,0.0,10,0.5,0.5,-2.9540991439819337,-0.05075,-0.02275,-0.12575,-0.0005417600268559988,10,1,100,0.171146556395123,-10,-1,-100,14993.50174293993,-0.016777376258359494,-7.67445882071907e-05,0.9998592469723694,28.71714954685167,0.02710904927197695,-88.32798475724496,27.194951357477045,-31.792510986328125,5356.25390625,True
1599560182.3864157,0.0,10,0.5,0.5,-3.0865544456481935,-0.05075,-0.02275,-0.12575,-0.0005301513407634027,10,1,100,0.17330356677986836,-10,-1,-100,14994.03983052075,-0.01681239504536347,-7.451759729692503e-05,0.9998586589213327,28.64445262793773,0.027274937488364924,-87.50348141029968,27.00897995029303,-31.79193115234375,5356.25390625,True
1599560182.4511392,0.0,10,0.5,0.5,-3.211999584197998,-0.05075,-0.02275,-0.12575,0.0036454879912395095,10,1,100,0.1814345117070882,-10,-1,-100,14995.639444564702,-0.016902863991936936,-3.4464959271841656e-05,0.9998571357954277,28.426631643595776,0.027763666413460678,-85.04908263952217,26.451089496633,-31.8310546875,5356.25390625,True
1599560182.485295,0.0,10,0.5,0.5,-3.3319312095642095,-0.05075,-0.02275,-0.12575,0.0034624833587758755,10,1,100,0.17614808166148702,-10,-1,-100,14996.173625499825,-0.016921683793869224,3.1418314608460065e-07,0.9998568180582067,28.357485669649616,0.027926265669750164,-84.24732323887113,26.265133702520796,-31.92919921875,5356.25390625,True
1599560182.5214934,0.0,10,0.5,0.5,-3.2900430900573734,-0.05075,-0.02275,-0.12575,0.024093751162309354,10,1,100,0.17942330019687996,-10,-1,-100,14998.247845726204,-0.01695318406977136,0.00021948827975528,0.9998562603568533,28.129323598615223,0.028588647573183034,-81.20903475481977,25.52134645580944,-32.984954833984375,5356.25390625,True
1599560182.5823295,0.0,10,0.5,0.5,-3.386969427490235,-0.05075,-0.02275,-0.12575,0.022365468209461885,10,1,100,0.1748842574839003,-10,-1,-100,14999.248821379268,-0.01692514467404642,0.0004028262604834304,0.9998566783338332,28.0438390871534,0.028915353202845398,-79.78554555660902,25.149472708414926,-33.922882080078125,5356.25390625,True
1599560182.6222231,0.0,10,0.5,0.5,-3.5315328163146975,-0.05075,-0.02275,-0.12575,0.01607953297630144,10,1,100,0.17601776614759534,-10,-1,-100,14999.720499890158,-0.01689457244335366,0.0005119860806071236,0.9998571454423923,28.006896095652927,0.029072999476505535,-79.09284674948158,24.963540382324723,-34.494873046875,5356.25390625,True
1599560182.6591232,0.0,10,0.5,0.5,-3.3541121635437015,-0.05075,-0.02275,-0.12575,0.049336515670576224,10,1,100,0.16513428934713376,-10,-1,-100,15001.247838533018,-0.016752480105952997,0.0009130930451396998,0.9998592504304746,27.912380640344033,0.02950279251172153,-77.06899562164452,24.405760792506257,-36.623046875,5356.25390625,True
1599560182.6920357,0.0,10,0.5,0.5,-3.743162590789795,-0.05075,-0.02275,-0.12575,0.009317128521832564,10,1,100,0.18101877109779532,-10,-1,-100,15001.247838533018,-0.016752480105952997,0.0009130930451396998,0.9998592504304746,27.912380640344033,0.02950279251172153,-77.06899562164452,24.405760792506257,-36.623046875,5356.25390625,True
1599560182.734924,0.0,10,0.5,0.5,-3.553544072723389,-0.05075,-0.02275,-0.12575,0.04537303397243015,10,1,100,0.16699102064232293,-10,-1,-100,15002.190215718583,-0.01660972557444329,0.0012400439191950054,0.9998612800320953,27.855180218355024,0.029732479447781877,-75.74208305997371,24.033921765168927,-38.3853759765625,5356.25390625,True
1599560182.7738178,0.0,10,0.5,0.5,-3.3350442619323735,-0.05075,-0.02275,-0.12575,0.07532536788361276,10,1,100,0.1502321055323509,-10,-1,-100,15003.594502179418,-0.016312495203367045,0.0018084386185113115,0.9998653069538932,27.759087087521,0.02994295131304008,-73.73325285351238,23.476184508757235,-41.544219970703125,5356.25390625,True
1599560182.8077269,0.0,10,0.5,0.5,-3.4999621437072754,-0.05075,-0.02275,-0.12575,0.04114968298899899,10,1,100,0.16626390086490714,-10,-1,-100,15004.062271493021,-0.016188451988189145,0.0020127592250235387,0.9998669325577919,27.719778036627375,0.02996645898308062,-73.04712468806578,23.290278053229613,-42.734710693359375,5356.25390625,True
1599560182.8486183,0.0,10,0.5,0.5,-3.4025252365112304,-0.05075,-0.02275,-0.12575,0.04450394997649482,10,1,100,0.16372400871720513,-10,-1,-100,15004.531017118017,-0.016053162721282103,0.0022271010428097796,0.9998686593686139,27.6747058542176,0.029961928643778824,-72.34757015926037,23.10437477179747,-43.993896484375,5356.25390625,True
1599560182.8815331,0.0,10,0.5,0.5,-2.522846920776367,-0.05075,-0.02275,-0.12575,0.12490557377749557,10,1,100,0.10358998527108523,-10,-1,-100,15006.332753723254,-0.01538427199392066,0.0031508251244408403,0.9998766906355265,27.408389362598644,0.029608826065030982,-69.35055147468664,22.36079783212231,-49.71826171875,5356.25390625,True
1599560182.9134455,0.0,10,0.5,0.5,-2.9192814056396483,-0.05075,-0.02275,-0.12575,0.05990335461167582,10,1,100,0.1482065785259761,-10,-1,-100,15006.799544594483,-0.015183192554818311,0.003396780923560448,0.999878958946132,27.31246985088136,0.029424417397034597,-68.53466716632781,22.17491392652757,-51.3212890625,5356.25390625,True
1599560182.9523408,0.0,10,0.5,0.5,-3.0791469337463377,-0.05075,-0.02275,-0.12575,0.03562550396409557,10,1,100,0.1681375232847158,-10,-1,-100,15006.799544594483,-0.015183192554818311,0.003396780923560448,0.999878958946132,27.31246985088136,0.029424417397034597,-68.53466716632781,22.17491392652757,-51.3212890625,5356.25390625,True
1599560182.9872503,0.0,10,0.5,0.5,-1.786366003417969,-0.05075,-0.02275,-0.12575,0.14577296179739804,10,1,100,0.06457653452425163,-10,-1,-100,15008.539753107703,-0.014243312613467935,0.0043953996723513095,0.9998888980819395,26.75914202692315,0.028251450342749913,-64.90009011677749,21.431430406502756,-58.42156982421875,5356.25390625,True
1599560183.0221562,0.0,10,0.5,0.5,-1.925353651428223,-0.05075,-0.02275,-0.12575,0.10406235652792911,10,1,100,0.09712089696500056,-10,-1,-100,15009.348332761903,-0.013687144379728844,0.00492051720190079,0.9998942196998613,26.3542955016069,0.02739880262389746,-62.8122870365488,21.059726156595033,-62.3843994140625,5356.25390625,True
1599560183.054071,0.0,10,0.5,0.5,-1.9970444717407227,-0.05075,-0.02275,-0.12575,0.07735431169869737,10,1,100,0.12049891332668064,-10,-1,-100,15009.804380425601,-0.013396850984823329,0.005151453253810246,0.9998969881508117,26.112888092101482,0.026908731358488442,-61.6890873158353,20.87388513673926,-64.46954345703125,5356.25390625,True
1599560183.095957,0.0,10,0.5,0.5,-2.195900555419922,-0.05075,-0.02275,-0.12575,0.054684542528618825,10,1,100,0.14919268990511916,-10,-1,-100,15009.804380425601,-0.013396850984823329,0.005151453253810246,0.9998969881508117,26.112888092101482,0.026908731358488442,-61.6890873158353,20.87388513673926,-64.46954345703125,5356.25390625,True
1599560183.1647716,0.0,10,0.5,0.5,-0.5430282211303712,-0.05075,-0.02275,-0.12575,0.15986786109289103,10,1,100,0.005566523082243369,-10,-1,-100,15011.41665543837,-0.012094079354242294,0.006104109414090343,0.999908232335765,24.838632862256254,0.024589513212509913,-56.594823234317396,20.130607872156332,-73.498046875,5356.25390625,True
1599560183.2046664,0.0,10,0.5,0.5,-1.605667569732666,-0.05075,-0.02275,-0.12575,0.06503181214443922,10,1,100,0.13542184455543438,-10,-1,-100,15011.41665543837,-0.012094079354242294,0.006104109414090343,0.999908232335765,24.838632862256254,0.024589513212509913,-56.594823234317396,20.130607872156332,-73.498046875,5356.25390625,True
1599560183.243562,0.0,10,0.5,0.5,0.24121747283935524,-0.05075,-0.02275,-0.12575,0.15662373701109894,10,1,100,-0.02611358702354201,-10,-1,-100,15013.01721185178,-0.010629297587737006,0.006933043867251734,0.9999194722254019,22.976963142990968,0.02192993588690319,-50.425900826643236,19.387488409260335,-83.56546020507812,5356.25390625,True
1599560183.280465,0.0,10,0.5,0.5,-0.9347344459533692,-0.05075,-0.02275,-0.12575,0.07420088597740401,10,1,100,0.1198222031136323,-10,-1,-100,15013.01721185178,-0.010629297587737006,0.006933043867251734,0.9999194722254019,22.976963142990968,0.02192993588690319,-50.425900826643236,19.387488409260335,-83.56546020507812,5356.25390625,True
1599560183.3153708,0.0,10,0.5,0.5,1.0520140357971193,-0.05075,-0.02275,-0.12575,0.15028223849511624,10,1,100,-0.055981121366515646,-10,-1,-100,15014.49179287767,-0.00903540825101401,0.007621254145828381,0.9999301365010368,21.683554917785674,0.020463498817368163,-45.768989752337895,18.644515768704544,-94.38555145263672,5356.25390625,True
1599560183.3495553,0.0,10,0.5,0.5,-0.21064124164581297,-0.05075,-0.02275,-0.12575,0.08188365795967836,10,1,100,0.10279303387540353,-10,-1,-100,15014.49179287767,-0.00903540825101401,0.007621254145828381,0.9999301365010368,21.683554917785674,0.020463498817368163,-45.768989752337895,18.644515768704544,-94.38555145263672,5356.25390625,True
1599560183.3784425,0.0,10,0.5,0.5,0.8724278518676758,-0.05075,-0.02275,-0.12575,0.11376233152138157,10,1,100,0.007264677967445704,-10,-1,-100,15015.232990421122,-0.008172557546672397,0.00790721983891453,0.9999353404983571,22.598073495429315,0.02148987885400607,-46.75165666465735,18.273035386522572,-99.96684265136719,5356.25390625,True
1599560183.4133503,0.0,10,0.5,0.5,1.2440170761108398,-0.05075,-0.02275,-0.12575,0.10891975979432739,10,1,100,0.006622409259128242,-10,-1,-100,15015.964423753321,-0.007387827877256041,0.008119972707686388,0.9999397412056802,23.442325339151054,0.022594721553376735,-47.514965173551275,17.90154207742574,-105.51313781738281,5356.25390625,True
1599560183.4457777,0.0,10,0.5,0.5,1.1278764797210696,-0.05075,-0.02275,-0.12575,0.09855287286324299,10,1,100,0.03640672205917678,-10,-1,-100,15016.30035535316,-0.006950930400062043,0.008216231384009324,0.9999420873772731,23.791827618989295,0.023113106918309177,-47.724278646743684,17.715790201783218,-108.25074768066406,5356.25390625,True
1599560183.4786887,0.0,10,0.5,0.5,1.3592822357177736,-0.05075,-0.02275,-0.12575,0.09814094986764971,10,1,100,0.034471087622224145,-10,-1,-100,15016.696834134986,-0.006542014126444985,0.00829720835513369,0.9999441776342722,24.101348741321612,0.023605232971400533,-47.83949588574644,17.530034893919495,-110.94795989990234,5356.25390625,True
1599560183.5145931,0.0,10,0.5,0.5,2.49280820980072,-0.05075,-0.02275,-0.12575,0.10948104788911331,10,1,100,-0.0591832407412833,-10,-1,-100,15017.698771944735,-0.0053251007442688455,0.008471055806258853,0.9999499410048438,24.83427074277523,0.02488482114563485,-47.730772053429895,16.972751934476833,-118.69278717041016,5356.25390625,True
1599560183.5439615,0.0,10,0.5,0.5,2.0539757389068605,-0.05075,-0.02275,-0.12575,0.09617050456711641,10,1,100,0.01738443280527758,-10,-1,-100,15018.033728108625,-0.004921039227813793,0.008505942234907058,0.9999517149940863,25.030570109821813,0.025238846490996225,-47.58263330867216,16.786986743464333,-121.14186096191406,5356.25390625,True
1599560183.585851,0.0,10,0.5,0.5,3.0785668872833254,-0.05075,-0.02275,-0.12575,0.09868619752914592,10,1,100,-0.07165882394643171,-10,-1,-100,15019.039575299481,-0.003750747369772233,0.00855834362167768,0.9999563423713165,25.393125263865056,0.025928751235443488,-46.67246002115632,16.229687846440257,-128.0776824951172,5356.25390625,True
1599560183.8262835,0.0,10,0.5,0.5,2.691443719482422,-0.05075,-0.02275,-0.12575,0.09319258991697124,10,1,100,0.0020790170153053428,-10,-1,-100,15019.314962675446,-0.0033634429168574826,0.008554561813399905,0.9999577524695358,25.44626320687448,0.026033389164587004,-46.23580950812365,16.043922844730012,-130.25213623046875,5356.25390625,True
1599560183.856198,0.0,10,0.5,0.5,2.895857823181153,-0.05075,-0.02275,-0.12575,0.092257945051782,10,1,100,-0.001833846793345556,-10,-1,-100,15019.643083655275,-0.002982381792920774,0.008541152927149165,0.99995907621538,25.469507063441963,0.02607771814254362,-45.74321019063963,15.858159498223873,-132.3577423095703,5356.25390625,True
1599560183.8922386,0.0,10,0.5,0.5,3.759435639381409,-0.05075,-0.02275,-0.12575,0.08606964169129655,10,1,100,-0.08359115604386885,-10,-1,-100,15020.58350497298,-0.0018982170747536388,0.00847186945566106,0.999962311389716,25.384142249049408,0.025875377862217597,-43.990669110962756,15.30088620205725,-138.26126098632812,5356.25390625,True
1599560183.9899747,0.0,10,0.5,0.5,3.4399049667358397,-0.05075,-0.02275,-0.12575,0.08860181707779483,10,1,100,-0.01452229376556581,-10,-1,-100,15020.912603829522,-0.001546999889110144,0.008431130971176554,0.9999632607360582,25.31131088666407,0.02570792108409146,-43.33288810445399,15.115135924446621,-140.09140014648438,5356.25390625,True
1599560184.0548031,0.0,10,0.5,0.5,4.197078853225708,-0.05075,-0.02275,-0.12575,0.07964506681749584,10,1,100,-0.08815365049735888,-10,-1,-100,15021.78271554294,-0.0005643588024702683,0.008312194700067685,0.999965293856947,24.990012394935146,0.024968297647239797,-41.208361587379905,14.557913438820126,-145.16806030273438,5356.25390625,True
1599560184.086751,0.0,10,0.5,0.5,4.185494920349122,-0.05075,-0.02275,-0.12575,0.07891056145036535,10,1,100,-0.05923274907574873,-10,-1,-100,15022.325681597693,5.983083693790287e-05,0.00819721874845627,0.9999664004480655,24.72119863099454,0.024335454153424974,-39.72673702222848,14.186457626766025,-148.20823669433594,5356.25390625,True
1599560184.1216319,0.0,10,0.5,0.5,4.381929896545411,-0.05075,-0.02275,-0.12575,0.08064702343186271,10,1,100,-0.06026308303680804,-10,-1,-100,15022.924313013908,0.0006302692167395068,0.008108498458310008,0.99996692695982,24.45885032114721,0.02366386926161056,-38.27781166197697,13.8150232080563,-150.97216796875,5356.25390625,True
1599560184.156571,0.0,10,0.5,0.5,4.12542061214447,-0.05075,-0.02275,-0.12575,0.08950018145680651,10,1,100,-0.0039364733909660905,-10,-1,-100,15022.924313013908,0.0006302692167395068,0.008108498458310008,0.99996692695982,24.45885032114721,0.02366386926161056,-38.27781166197697,13.8150232080563,-150.97216796875,5356.25390625,True
1599560184.1864924,0.0,10,0.5,0.5,4.8393823951721195,-0.05075,-0.02275,-0.12575,0.07264669630083012,10,1,100,-0.09212819967978618,-10,-1,-100,15023.724116723402,0.0014265982103096818,0.007955614554481086,0.9999673359738341,24.021067830538716,0.022567019984604,-36.07925228748625,13.25791147365055,-154.60121154785156,5356.25390625,True
1599560184.2197347,0.0,10,0.5,0.5,4.459150187683106,-0.05075,-0.02275,-0.12575,0.0878800539156798,10,1,100,-0.013130064066581026,-10,-1,-100,15023.724116723402,0.0014265982103096818,0.007955614554481086,0.9999673359738341,24.021067830538716,0.022567019984604,-36.07925228748625,13.25791147365055,-154.60121154785156,5356.25390625,True
1599560184.2536201,0.0,10,0.5,0.5,4.885668927764892,-0.05075,-0.02275,-0.12575,0.07627380460983746,10,1,100,-0.06701174773561075,-10,-1,-100,15024.201655970304,0.0019117250204098775,0.00785065113267088,0.9999673557592966,23.71755889132197,0.021815435641494463,-34.62715176108954,12.886529258523733,-156.67587280273438,5356.25390625,True
1599560184.2895694,0.0,10,0.5,0.5,4.8496870384216315,-0.05075,-0.02275,-0.12575,0.08264126823004908,10,1,100,-0.043872992913162545,-10,-1,-100,15024.466304688249,0.0021376014694448288,0.007813755791827824,0.9999671874018583,23.566543700765468,0.02144195037533587,-33.91171381940888,12.70084543965475,-157.6095428466797,5356.25390625,True
1599560184.3205209,0.0,10,0.5,0.5,5.082848488616944,-0.05075,-0.02275,-0.12575,0.07634459024832307,10,1,100,-0.06899923379893916,-10,-1,-100,15024.995602577575,0.002566709537290603,0.007723633315896011,0.9999668781967496,23.271563915067922,0.020709805848970832,-32.50968371567531,12.32949118746334,-159.27029418945312,5356.25390625,True
1599560184.3529484,0.0,10,0.5,0.5,5.166210304260254,-0.05075,-0.02275,-0.12575,0.07721091274984937,10,1,100,-0.06964515416118408,-10,-1,-100,15025.468259718036,0.0029586207598871297,0.007650259666098934,0.9999663594792779,22.99328532562749,0.02000834251984531,-31.155009197079618,11.958153635444784,-160.655029296875,5356.25390625,True
1599560184.3868904,0.0,10,0.5,0.5,5.142821417999268,-0.05075,-0.02275,-0.12575,0.08011658883736424,10,1,100,-0.0510691767702953,-10,-1,-100,15025.675291905995,0.0031419351490131675,0.007610681468265434,0.9999661023110273,22.862600886709036,0.019671987290323354,-30.497692962841956,11.77249037186091,-161.24403381347656,5356.25390625,True
1599560184.4277475,0.0,10,0.5,0.5,5.39937600440979,-0.05075,-0.02275,-0.12575,0.07105171280667122,10,1,100,-0.10394588890768182,-10,-1,-100,15026.606935825432,0.00378591261860264,0.007492931063803044,0.9999647608039584,22.41319840535622,0.01843777819693458,-28.014797351235657,11.029868108998851,-162.9100341796875,5356.25390625,True
1599560184.4905853,0.0,10,0.5,0.5,5.2664084815979,-0.05075,-0.02275,-0.12575,0.07992388146732682,10,1,100,-0.05526621861636879,-10,-1,-100,15026.807132341666,0.003925416877597801,0.0074671815818292435,0.9999644155176528,22.32202458584231,0.018158407653197737,-27.43184440792869,10.844219003664016,-163.15414428710938,5356.25390625,True
1599560184.529479,0.0,10,0.5,0.5,5.319559504699708,-0.05075,-0.02275,-0.12575,0.07872678660573723,10,1,100,-0.08164082405273024,-10,-1,-100,15027.476080797613,0.004289012482777726,0.007433473296635411,0.9999631732452305,22.10517555778738,0.0173892728529253,-25.77190212221647,10.287283016078854,-163.47218322753906,5356.25390625,True
1599560184.567376,0.0,10,0.5,0.5,5.308003642654419,-0.05075,-0.02275,-0.12575,0.082030112608953,10,1,100,-0.04564713786134157,-10,-1,-100,15027.476080797613,0.004289012482777726,0.007433473296635411,0.9999631732452305,22.10517555778738,0.0173892728529253,-25.77190212221647,10.287283016078854,-163.47218322753906,5356.25390625,True
1599560184.5992913,0.0,10,0.5,0.5,5.274771338272095,-0.05075,-0.02275,-0.12575,0.08055498208238465,10,1,100,-0.07733270067334483,-10,-1,-100,15028.014169705682,0.0045744608590027845,0.007420537692991922,0.9999620042422595,21.976558054189162,0.01671713326323637,-24.23637661986481,9.730359210088778,-163.1695556640625,5356.25390625,True
1599560184.6591299,0.0,10,0.5,0.5,5.290144596862794,-0.05075,-0.02275,-0.12575,0.0827489620250794,10,1,100,-0.0575493498194561,-10,-1,-100,15028.216319245985,0.004651249045400492,0.007429209759032784,0.9999615856245048,21.953159918974695,0.01651270540580897,-23.749153827754792,9.544719595410951,-162.93060302734375,5356.25390625,True
1599560184.7030132,0.0,10,0.5,0.5,5.213574196624757,-0.05075,-0.02275,-0.12575,0.08401961982714926,10,1,100,-0.06419323317297275,-10,-1,-100,15028.611829137779,0.004778964950771295,0.0074490280185193275,0.9999608359708788,21.934685464005863,0.01613085817471967,-22.807026871500135,9.173441452040713,-162.24591064453125,5356.25390625,True
1599560184.756868,0.0,10,0.5,0.5,5.037629471206665,-0.05075,-0.02275,-0.12575,0.0884265234419393,10,1,100,-0.06527332158414574,-10,-1,-100,15029.150894764694,0.004902488065317847,0.007507438948890012,0.9999598011776265,21.97169205142152,0.015619033854831373,-21.459757437443958,8.616524164310434,-160.70147705078125,5356.25390625,True
1599560184.8536096,0.0,10,0.5,0.5,4.992502004623414,-0.05075,-0.02275,-0.12575,0.08865811620834747,10,1,100,-0.057096159144519314,-10,-1,-100,15029.482927222503,0.004938320530428992,0.007562841723800714,0.9999592073756807,22.033491555852375,0.015314519604144698,-20.593552645384076,8.245244154637755,-159.32699584960938,5356.25390625,True
1599560184.8994873,0.0,10,0.5,0.5,4.70714801826477,-0.05075,-0.02275,-0.12575,0.09397318306873005,10,1,100,-0.051818812587331425,-10,-1,-100,15029.953632214805,0.004921119893855105,0.007661606143306919,0.9999585403256952,22.16741703433912,0.014908043280504985,-19.320234963632803,7.6883186144190985,-156.74810791015625,5356.25390625,True
1599560184.9423735,0.0,10,0.5,0.5,4.456528597259521,-0.05075,-0.02275,-0.12575,0.09663783521504324,10,1,100,-0.042486385520232414,-10,-1,-100,15030.358906658133,0.004819025264773543,0.007775569794483551,0.9999581578795527,22.327620095431953,0.014557856749868134,-18.051039307407443,7.131384880145606,-153.5487518310547,5356.25390625,True
1599560185.055072,0.0,10,0.5,0.5,4.6249917697906495,-0.05075,-0.02275,-0.12575,0.08951186766708577,10,1,100,-0.046868964962307524,-10,-1,-100,15030.495625752024,0.004765114403585377,0.007814134646271167,0.9999581156150744,22.381520888890364,0.014453397987506052,-17.62382823340935,6.9457383575142835,-152.34445190429688,5356.25390625,True
1599560185.124886,0.0,10,0.5,0.5,3.506628841781616,-0.05075,-0.02275,-0.12575,0.10606458658301401,10,1,100,-0.0070358247822405046,-10,-1,-100,15031.159687036765,0.004353221712208265,0.007999357453437037,0.9999585290106067,22.590199188625093,0.014026571012246752,-15.411945908572573,6.01749356556521,-145.2894287109375,5356.25390625,True
1599560185.1847253,0.0,10,0.5,0.5,3.769238386535644,-0.05075,-0.02275,-0.12575,0.09477849302725916,10,1,100,-0.022851322062865588,-10,-1,-100,15031.366717397934,0.004122492686935272,0.008064626532938417,0.9999589825852511,22.61205073762706,0.013896011523601051,-14.475322419559975,5.646191294276004,-141.98521423339844,5356.25390625,True
1599560185.2345948,0.0,10,0.5,0.5,3.5040952133178713,-0.05075,-0.02275,-0.12575,0.09239291438977144,10,1,100,-0.01708703509003126,-10,-1,-100,15031.626480746083,0.003860487800384823,0.008101701205565873,0.9999597287248716,22.573561778008415,0.01377861231812951,-13.500702781609444,5.2748867456361985,-138.4058074951172,5356.25390625,True
1599560185.2944314,0.0,10,0.5,0.5,3.217474803543091,-0.05075,-0.02275,-0.12575,0.09216322544013411,10,1,100,-0.010614063046202257,-10,-1,-100,15031.824720959645,0.003564105405902895,0.008132698132491789,0.9999605774098005,22.455623489268536,0.013660744724599544,-12.485081746066246,4.903579108309637,-134.55088806152344,5356.25390625,True
1599560185.3383162,0.0,10,0.5,0.5,2.9086996635437012,-0.05075,-0.02275,-0.12575,0.08981596875064041,10,1,100,-0.004517191827052201,-10,-1,-100,15031.968273074715,0.003240229075872049,0.008138898924907717,0.9999616288837417,22.2399933271249,0.013525939634026743,-11.429114776875856,4.532266718346641,-130.42076110839844,5356.25390625,True
1599560185.3772109,0.0,10,0.5,0.5,2.578118031692505,-0.05075,-0.02275,-0.12575,0.08716218599140799,10,1,100,0.0016993785120459348,-10,-1,-100,15032.165535404696,0.0028906806235566595,0.008119783555741548,0.9999628558504263,21.907230833838565,0.013354164684687678,-10.335962574380092,4.160946758890554,-126.01541900634766,5356.25390625,True
1599560185.4200995,0.0,10,0.5,0.5,2.646195647239685,-0.05075,-0.02275,-0.12575,0.08698613229086874,10,1,100,-0.01300259702406769,-10,-1,-100,15032.234869673033,0.0027083925421816668,0.008100248782306628,0.9999635246245246,21.690239097122017,0.013247344771611989,-9.777049617794091,3.975282881132797,-123.70956420898438,5356.25390625,True
1599560185.4729664,0.0,10,0.5,0.5,1.561333430671692,-0.05075,-0.02275,-0.12575,0.07788377164672924,10,1,100,0.03220534377084726,-10,-1,-100,15032.436035530875,0.002133722031876308,0.007999252612365882,0.9999657290067167,20.805725570299145,0.012806696016707154,-8.06447451655779,3.4182700427272015,-116.37928771972656,5356.25390625,True
1599560185.5467706,0.0,10,0.5,0.5,1.4680463819503786,-0.05075,-0.02275,-0.12575,0.07666000240062401,10,1,100,0.01980903128562935,-10,-1,-100,15032.569820406265,0.001726522043157034,0.007896005786119648,0.9999673355736477,20.0181993722422,0.012389513140164829,-6.916355668943107,3.0469043291615723,-111.14852142333984,5356.25390625,True
1599560185.5896568,0.0,10,0.5,0.5,1.057575926208496,-0.05075,-0.02275,-0.12575,0.07192853904431469,10,1,100,0.024321532958954967,-10,-1,-100,15032.6996986866,0.001318128859310749,0.007759022244482408,0.9999690295754764,19.233744139743145,0.011957206543172652,-5.8353992973069735,2.6755146252996016,-105.64269256591797,5356.25390625,True
1599560185.6375308,0.0,10,0.5,0.5,0.0949871614456177,-0.05075,-0.02275,-0.12575,0.05646062563722133,10,1,100,0.05149761582997151,-10,-1,-100,15032.83543370734,0.0007029406529360439,0.007493924459658422,0.9999716730841086,17.66892534631884,0.011013319923952793,-4.244427417463377,2.118371064917631,-96.8681869506836,5356.25390625,True
1599560185.687394,0.0,10,0.5,0.5,-0.5697165927886964,-0.05075,-0.02275,-0.12575,0.046070556956269985,10,1,100,0.05676216547218298,-10,-1,-100,15032.908668883378,9.9137542265546e-05,0.007158930788167767,0.9999743696124006,15.855152312741417,0.009880009305546973,-2.8069474113150603,1.561171252392708,-87.47476196289062,5356.25390625,True
1599560185.730818,0.0,10,0.5,0.5,-0.08282784538269045,-0.05075,-0.02275,-0.12575,0.065904192349945,10,1,100,0.01767843983482402,-10,-1,-100,15032.970190114109,-9.081018423648908e-05,0.007035520222886736,0.999975246297979,16.16815642184599,0.010069220111392286,-2.5218287167816915,1.3754334831056463,-84.24346923828125,5356.25390625,True
1599560185.7786696,0.0,10,0.5,0.5,-0.9431485671997071,-0.05075,-0.02275,-0.12575,0.04922339485005309,10,1,100,0.03976607784693542,-10,-1,-100,15032.977997953072,-0.0004606945557260597,0.0067726544417073984,0.9999769591907303,17.41517783330531,0.010846080618686145,-1.9827348814727375,1.0039596647073372,-77.76507568359375,5356.25390625,True
1599560185.8225546,0.0,10,0.5,0.5,-1.384594820022583,-0.05075,-0.02275,-0.12575,0.043489238775126476,10,1,100,0.042275084683358624,-10,-1,-100,15033.039516890654,-0.0008161033192643995,0.006482793261491199,0.999978653455613,18.44898588949252,0.011513067972498185,-1.3232876840529735,0.6324927391330406,-71.38027954101562,5356.25390625,True
1599560185.8589756,0.0,10,0.5,0.5,-2.387080426025391,-0.05075,-0.02275,-0.12575,0.02063680769163241,10,1,100,0.06116877168204231,-10,-1,-100,15033.04244043585,-0.0013072754112007996,0.006013039274775087,0.9999810670156107,19.562603647248235,0.012230417311148174,-0.16704229509438248,0.07529457192635958,-61.91253662109375,5356.25390625,True
1599560185.9008687,0.0,10,0.5,0.5,-1.8841374677658083,-0.05075,-0.02275,-0.12575,0.049578098526627506,10,1,100,0.02916800724605607,-10,-1,-100,15033.040485261357,-0.0014590631307842363,0.005851008061970364,0.9999818182544316,19.803683246535062,0.01238262925849417,0.2480403575984153,-0.11044260871571288,-58.8428955078125,5356.25390625,True
1599560185.9419062,0.0,10,0.5,0.5,-3.2017651540756225,-0.05075,-0.02275,-0.12575,0.011623642424088816,10,1,100,0.06092299145286616,-10,-1,-100,15033.040479258052,-0.0018819450453102105,0.005360711213688752,0.9999838603988214,20.337958059097243,0.012726559423449737,1.5400066284688747,-0.6676730022559143,-50.02667236328125,5356.25390625,True
1599560185.991771,0.0,10,0.5,0.5,-3.221161644172669,-0.05075,-0.02275,-0.12575,0.02225809734142664,10,1,100,0.04702116235250495,-10,-1,-100,15032.979929142748,-0.0021363522784421884,0.005014062343043701,0.9999851474785826,20.453270854759936,0.012810666128652741,2.4105255678502804,-1.0391756414360995,-44.49078369140625,5356.25390625,True
1599560186.0331886,0.0,10,0.5,0.5,-2.6766699970245362,-0.05075,-0.02275,-0.12575,0.05663479006162419,10,1,100,0.02196672647146709,-10,-1,-100,15032.979929142748,-0.0021363522784421884,0.005014062343043701,0.9999851474785826,20.453270854759936,0.012810666128652741,2.4105255678502804,-1.0391756414360995,-44.49078369140625,5356.25390625,True
1599560186.0790646,0.0,10,0.5,0.5,-4.6241776594161985,-0.05075,-0.02275,-0.12575,-0.015455279022570975,10,1,100,0.0713568523273176,-10,-1,-100,15032.841252289596,-0.0025822129851883267,0.004361193496734144,0.9999871560012074,20.214028869274355,0.012701015449554362,4.085934128674006,-1.7822121948049126,-34.244964599609375,5356.25390625,True
1599560186.120954,0.0,10,0.5,0.5,-4.309417958831787,-0.05075,-0.02275,-0.12575,0.012522524257287393,10,1,100,0.04768570079694254,-10,-1,-100,15032.774843466235,-0.0027693621104649298,0.004024867967145008,0.9999880654644576,19.91678469517,0.012546965439242838,4.865213518643851,-2.1537395127386567,-29.53570556640625,5356.25390625,True
1599560186.1773214,0.0,10,0.5,0.5,-4.631666239929199,-0.05075,-0.02275,-0.12575,0.013213337314460331,10,1,100,0.049631523345056834,-10,-1,-100,15032.647888600128,-0.0029545792478331257,0.003728246752421023,0.999988685254799,19.520595363444162,0.012343158093572362,5.59114769019518,-2.5252677792528164,-25.1015625,5356.25390625,True
1599560186.2251942,0.0,10,0.5,0.5,-4.942564984130859,-0.05075,-0.02275,-0.12575,0.008901721735717377,10,1,100,0.0492177050066714,-10,-1,-100,15032.575621575932,-0.00311659305230653,0.0034224012096565237,0.9999892869514685,19.051117357993657,0.012105948004794184,6.259652804004448,-2.896795578757653,-20.9432373046875,5356.25390625,True
1599560186.3009894,0.0,10,0.5,0.5,-5.234252452087403,-0.05075,-0.02275,-0.12575,0.007652215608016412,10,1,100,0.04997079443087577,-10,-1,-100,15032.442807558575,-0.003268310143414592,0.0031360463452842894,0.9999897416284463,18.659464996269413,0.01192837008769736,6.917483721398921,-3.2683231813273403,-17.06036376953125,5356.25390625,True
1599560186.3628242,0.0,10,0.5,0.5,-5.5062742607116695,-0.05075,-0.02275,-0.12575,0.00616685315694257,10,1,100,0.050698733207482784,-10,-1,-100,15032.310970818973,-0.003410623118005484,0.0028652629434963205,0.9999900789098918,18.233945287618873,0.011735489929972089,7.528369982272682,-3.6398521051630253,-13.452911376953125,5356.25390625,True
1599560186.4595668,0.0,10,0.5,0.5,-5.463004946899415,-0.05075,-0.02275,-0.12575,0.018670026171743705,10,1,100,0.04415889213032424,-10,-1,-100,15032.24358756491,-0.003478633314471395,0.002735623038670249,0.9999902076904822,18.007196530192886,0.01163081856429417,7.814313223725917,-3.8256179703938917,-11.75250244140625,5356.25390625,True
1599560186.524394,0.0,10,0.5,0.5,-6.674586633300781,-0.05075,-0.02275,-0.12575,-0.03330334062569311,10,1,100,0.0723111045630768,-10,-1,-100,15031.782649344415,-0.0037945539968438947,0.0021481155952364855,0.99999049343449,16.96410017101079,0.01112837472086883,9.149817694289535,-4.754477869358292,-4.28350830078125,5356.25390625,True
1599560186.5772526,0.0,10,0.5,0.5,-6.281645861816406,-0.05075,-0.02275,-0.12575,0.002165249346722284,10,1,100,0.053333264480647694,-10,-1,-100,15031.580500671174,-0.003907490062840872,0.001939380187880888,0.9999904851176814,16.605736322050276,0.010926746112817612,9.656835674261966,-5.126040247070561,-1.77801513671875,5356.25390625,True
1599560186.6301095,0.0,10,0.5,0.5,-6.457359356689453,-0.05075,-0.02275,-0.12575,0.0023241714198866635,10,1,100,0.05540562166386735,-10,-1,-100,15031.378352471278,-0.004027388699245213,0.0017538606383638055,0.9999903520100214,16.27875100255491,0.010713536323694973,10.15329541206223,-5.497614347712581,0.452056884765625,5356.25390625,True
1599560186.676985,0.0,10,0.5,0.5,-6.624163256072998,-0.05075,-0.02275,-0.12575,0.0020017143318344366,10,1,100,0.0566463619543478,-10,-1,-100,15031.120540516335,-0.0041459477927800695,0.00158523889409751,0.9999901490187532,16.59660948993475,0.010889640463042851,11.051673543758836,-5.869197743781225,2.40667724609375,5356.25390625,True
1599560186.7238605,0.0,10,0.5,0.5,-6.758125506591797,-0.05075,-0.02275,-0.12575,0.0020343518495997224,10,1,100,0.05784018615246887,-10,-1,-100,15030.913510242128,-0.004263160157060502,0.001434766699110232,0.9999898834038244,17.087910153306073,0.011145950945097145,12.099794021255647,-6.240787279658087,4.085845947265625,5356.25390625,True
1599560186.7677436,0.0,10,0.5,0.5,-6.871220516204834,-0.05075,-0.02275,-0.12575,0.0025784972647946054,10,1,100,0.05964977950951106,-10,-1,-100,15030.646909136907,-0.004384809702337101,0.0013052752085945098,0.9999895347954917,17.51325411122927,0.011328339999517352,13.140005616836664,-6.612381524152454,5.489593505859375,5356.25390625,True
1599560186.8255923,0.0,10,0.5,0.5,-6.8699420593261715,-0.05075,-0.02275,-0.12575,0.008951731468487139,10,1,100,0.05441067909220343,-10,-1,-100,15030.51702697191,-0.004446471802927118,0.0012476968659263549,0.9999893360136579,17.70274957884152,0.011394076052730158,13.655741623497274,-6.798180013060842,6.088165283203125,5356.25390625,True
1599560186.8674784,0.0,10,0.5,0.5,-7.100202187347413,-0.05075,-0.02275,-0.12575,-0.0011190499771663222,10,1,100,0.06907275792837483,-10,-1,-100,15030.052185501787,-0.004634610903109945,0.00110577736339821,0.9999886487546743,18.184997560228815,0.011500167829208116,15.179149153544362,-7.3555792323205065,7.470794677734375,5356.25390625,True
1599560186.9113605,0.0,10,0.5,0.5,-7.039181013488769,-0.05075,-0.02275,-0.12575,0.008713019388929863,10,1,100,0.057450654382763165,-10,-1,-100,15029.918396776193,-0.004698748870352687,0.0010679877816843037,0.9999883905131858,18.318400329756837,0.011507931840815434,15.677187011423293,-7.5413797868195775,7.7939453125,5356.25390625,True
1599560186.9622254,0.0,10,0.5,0.5,-7.124504146575928,-0.05075,-0.02275,-0.12575,0.005876951674767567,10,1,100,0.06540741372703142,-10,-1,-100,15029.58832002629,-0.004828219265746393,0.0010094850692354699,0.9999878345453094,18.546011596983224,0.011486689910967346,16.655067729010295,-7.91298135087176,8.233734130859375,5356.25390625,True
1599560187.0081046,0.0,10,0.5,0.5,-7.143691058349609,-0.05075,-0.02275,-0.12575,0.007420658615348049,10,1,100,0.06715541887573608,-10,-1,-100,15029.257267325069,-0.004960583684773191,0.0009719037009867478,0.999987223924737,18.722642741830942,0.011421121749671892,17.60438389400127,-8.284583342582245,8.398162841796875,5356.25390625,True
1599560187.0988574,0.0,10,0.5,0.5,-7.104249593353272,-0.05075,-0.02275,-0.12575,0.0091760462671678,10,1,100,0.07625258171305985,-10,-1,-100,15028.724066378083,-0.005162556428147833,0.0009547661738628616,0.9999862181213696,18.893193701203455,0.011251302601735416,18.96188851624063,-8.841986519181397,8.128387451171875,5356.25390625,True
1599560187.1467319,0.0,10,0.5,0.5,-6.927137123107911,-0.05075,-0.02275,-0.12575,0.01722306779356208,10,1,100,0.08645301895577066,-10,-1,-100,15027.989695538185,-0.005437758291271872,0.001013236448548384,0.9999847019513175,18.985217294395714,0.0109449959760146,20.65879980157837,-9.58519123452653,6.805023193359375,5356.25390625,True
1599560187.2275143,0.0,10,0.5,0.5,-6.918328158569336,-0.05075,-0.02275,-0.12575,0.018573035396119528,10,1,100,0.07441218797322588,-10,-1,-100,15027.593213210697,-0.005577197549186931,0.001079336971185577,0.9999838648194279,18.95617055259858,0.01076247061910364,21.428510190592117,-9.956793894629048,5.730377197265625,5356.25390625,True
1599560187.3073,0.0,10,0.5,0.5,-6.535943119049072,-0.05075,-0.02275,-0.12575,0.0358335906540713,10,1,100,0.09079682841802716,-10,-1,-100,15026.787554346258,-0.0058516106515566265,0.0012968024049488703,0.9999820383168414,18.728663456796415,0.010370147936393851,22.75529697794887,-10.70000088337225,2.755401611328125,5356.25390625,True
1599560187.3920746,0.0,10,0.5,0.5,-6.187623679351806,-0.05075,-0.02275,-0.12575,0.05011085814489463,10,1,100,0.09173381065035534,-10,-1,-100,15025.862754709087,-0.006108151082646155,0.0016244170167358594,0.9999800256803669,18.287652885496875,0.010018359549584807,23.76690528551997,-11.443210084092605,-1.32049560546875,5356.25390625,True
1599560187.4429486,0.0,10,0.5,0.5,-5.7710147521972655,-0.05075,-0.02275,-0.12575,0.06714168543240162,10,1,100,0.08968311721252728,-10,-1,-100,15024.924283907167,-0.00632116031476519,0.0020767840556939663,0.9999778647051449,19.45008467452346,0.010784307883323381,26.924236892731997,-12.18639417046693,-6.497039794921875,5356.25390625,True
1599560187.4898252,0.0,10,0.5,0.5,-5.863656092834473,-0.05075,-0.02275,-0.12575,0.051678920745660044,10,1,100,0.0771519592958925,-10,-1,-100,15024.45748997049,-0.006399181191529598,0.002346702514694806,0.9999767714639103,20.05899651621931,0.01128977465003674,28.616525753705165,-12.55796659303478,-9.498046875,5356.25390625,True
1599560187.5691297,0.0,10,0.5,0.5,-5.919375792694091,-0.05075,-0.02275,-0.12575,0.04089421662106044,10,1,100,0.07306770154813758,-10,-1,-100,15024.193819687353,-0.006431375490619088,0.002492912053425303,0.9999762111164407,20.36558069656957,0.011572005085917044,29.485162197473905,-12.743746680011071,-11.10174560546875,5356.25390625,True
1599560187.6130128,0.0,10,0.5,0.5,-4.824406589508057,-0.05075,-0.02275,-0.12575,0.09741104827430497,10,1,100,0.07667766725659823,-10,-1,-100,15023.129372624797,-0.00649188579021348,0.00313832380887185,0.9999740028333524,21.723278541337383,0.012955625260658419,33.291327171709376,-13.48681557776919,-18.204559326171875,5356.25390625,True
1599560187.6683788,0.0,10,0.5,0.5,-4.589680088043213,-0.05075,-0.02275,-0.12575,0.09285666205453563,10,1,100,0.06846243780374359,-10,-1,-100,15022.264142864151,-0.006470698825251096,0.0036817229493347745,0.9999722871024163,22.666670404818664,0.014091823534237397,36.17785262244449,-14.044054331130752,-24.254180908203125,5356.25390625,True
1599560187.7132602,0.0,10,0.5,0.5,-4.503533670806885,-0.05075,-0.02275,-0.12575,0.08001910277138424,10,1,100,0.06293556695677802,-10,-1,-100,15021.724106434034,-0.006399820835639717,0.004056553611501195,0.9999712929209862,23.300219511567427,0.014877881695793087,38.1765829923671,-14.415513195452197,-28.63153076171875,5356.25390625,True
1599560187.7626429,0.0,10,0.5,0.5,-4.1491586791992185,-0.05075,-0.02275,-0.12575,0.0852446062048142,10,1,100,0.059072928560031296,-10,-1,-100,15021.12840586889,-0.0062991466192885,0.0044419935288312696,0.9999702942814642,23.85437016914563,0.01559540733251393,40.09569586298957,-14.786944795838632,-33.284210205078125,5356.25390625,True
1599560187.8045294,0.0,10,0.5,0.5,-3.7732149734497074,-0.05075,-0.02275,-0.12575,0.09002220505750563,10,1,100,0.05420965404482255,-10,-1,-100,15020.527822764125,-0.006162629937623663,0.004832709118628275,0.9999693329871805,24.30461347048421,0.01618846438724243,41.88287075630957,-15.158350613534616,-38.21234130859375,5356.25390625,True
1599560187.914235,0.0,10,0.5,0.5,-4.292957775115967,-0.05075,-0.02275,-0.12575,0.051325983292549365,10,1,100,0.06791986545014994,-10,-1,-100,15020.527822764125,-0.006162629937623663,0.004832709118628275,0.9999693329871805,24.30461347048421,0.01618846438724243,41.88287075630957,-15.158350613534616,-38.21234130859375,5356.25390625,True
1599560187.9870386,0.0,10,0.5,0.5,-1.2985266372680662,-0.05075,-0.02275,-0.12575,0.1770688146225019,10,1,100,-0.0032244635997226434,-10,-1,-100,15018.599117888836,-0.005515580565092033,0.0059726113064335895,0.9999669525965407,24.77722199350897,0.016707994404542084,45.849715753335985,-16.27246068968186,-54.64990234375,5356.25390625,True
1599560188.145618,0.0,10,0.5,0.5,-2.1798984344482424,-0.05075,-0.02275,-0.12575,0.10398789045596292,10,1,100,0.029746006662534397,-10,-1,-100,15017.997557169641,-0.005227624111099755,0.006340561080842887,0.9999662340455967,24.555784057977743,0.016356798480495503,46.48196272771238,-16.643819393385726,-60.680084228515625,5356.25390625,True
1599560188.2064538,0.0,10,0.5,0.5,0.6703120300292968,-0.05075,-0.02275,-0.12575,0.16082931466171543,10,1,100,-0.05270745957395298,-10,-1,-100,15015.87060704804,-0.004217262674596586,0.007187924934880772,0.999965273612371,22.828596136882947,0.014228180633351505,46.12135855865966,-17.757968819108843,-80.42648315429688,5356.25390625,True
1599560188.3141663,0.0,10,0.5,0.5,-0.3922947410583496,-0.05075,-0.02275,-0.12575,0.09873942382324219,10,1,100,0.006225321403472789,-10,-1,-100,15015.198731755954,-0.003836488394403879,0.007389401046910741,0.9999653384537723,21.756909665673824,0.013337491084587799,44.881240694894906,-18.12939306584225,-87.5604248046875,5356.25390625,True
1599560188.4139013,0.0,10,0.5,0.5,1.3913209724426272,-0.05075,-0.02275,-0.12575,0.10230535223661001,10,1,100,-0.03221965117417899,-10,-1,-100,15013.670409227954,-0.003143189195428415,0.007600527326156343,0.9999661756009781,22.12056370547407,0.013733820261822155,47.51350051727322,-18.87225353561633,-101.7630615234375,5356.25390625,True
1599560188.5265992,0.0,10,0.5,0.5,2.280956604003906,-0.05075,-0.02275,-0.12575,0.08692131820204389,10,1,100,-0.037248288661460655,-10,-1,-100,15012.13622550841,-0.0024702465797434192,0.00764854890377694,0.99996769826905,24.51606591836712,0.016046198889048735,54.745408508230554,-19.614957604011853,-115.8453369140625,5356.25390625,True
1599560188.5784597,0.0,10,0.5,0.5,3.200444274139404,-0.05075,-0.02275,-0.12575,0.07245366406117397,10,1,100,-0.031692096173571375,-10,-1,-100,15010.536611034651,-0.001912628181051969,0.007557074549465536,0.999969615777247,26.032007971367655,0.017769384981083144,60.34634869544281,-20.357500493926164,-129.90745544433594,5356.25390625,True
1599560188.6482718,0.0,10,0.5,0.5,2.8392516391754152,-0.05075,-0.02275,-0.12575,0.07324441687946587,10,1,100,-0.002665442636074839,-10,-1,-100,15009.679186456371,-0.0016736602986320624,0.007477922415768764,0.9999706393377501,26.45278439656276,0.018187457722024927,62.44785044807633,-20.72873138623568,-136.57440185546875,5356.25390625,True
1599560188.8173363,0.0,10,0.5,0.5,3.364255307388306,-0.05075,-0.02275,-0.12575,0.07102867853213281,10,1,100,-0.0023660577785489766,-10,-1,-100,15008.87547262758,-0.0014633434372466156,0.0073830629193532725,0.9999716741027785,26.65228435777572,0.01826462823865382,64.05374967899682,-21.09994935254743,-142.967529296875,5356.25390625,True
1599560188.8701952,0.0,10,0.5,0.5,5.406825290298462,-0.05075,-0.02275,-0.12575,0.047663177212776166,10,1,100,-0.02550005432629935,-10,-1,-100,15006.675270146108,-0.0010661093096442761,0.007082094861708015,0.9999743533427793,26.237775919197794,0.017168486174951897,65.853150090571,-22.027999678333035,-157.7447967529297,5356.25390625,True
1599560188.9549725,0.0,10,0.5,0.5,5.239385150146484,-0.05075,-0.02275,-0.12575,0.054916175082370296,10,1,100,-0.003205210366214708,-10,-1,-100,15005.345187881147,-0.0009123009756683546,0.006872378984714929,0.9999759687682601,25.521243375770315,0.01603221420602575,65.68830093532645,-22.584864821245358,-165.78369140625,5356.25390625,True
1599560188.9938679,0.0,10,0.5,0.5,5.366333557891846,-0.05075,-0.02275,-0.12575,0.06094058761322656,10,1,100,0.003433160165574739,-10,-1,-100,15004.413544347277,-0.0008370088401514424,0.006735677603476015,0.9999769647664009,24.912046216258215,0.015259340504364869,65.1842026849092,-22.956127973399074,-170.79791259765625,5356.25390625,True
1599560189.0417383,0.0,10,0.5,0.5,5.822625329589845,-0.05075,-0.02275,-0.12575,0.059357399435451375,10,1,100,0.005228602090481893,-10,-1,-100,15003.479948222055,-0.0007888751119724494,0.006596651803894834,0.9999779306869907,24.22940873543601,0.014558066311450592,64.43339893005842,-23.327406204376643,-175.53622436523438,5356.25390625,True
1599560189.0776894,0.0,10,0.5,0.5,-56.93369758758545,-0.05075,-0.02275,-0.12575,0.0498598867523089,10,1,100,0.006820266327450031,-10,-1,-100,15002.073694652063,-0.0007627035681118244,0.006384461210002452,0.999979328255502,23.120381658004938,0.013743883896294589,62.96709032590725,-23.884346239295393,177.87371826171875,5356.25390625,True
1599560189.1265583,0.0,10,0.5,0.5,-12.381717222595217,-0.05075,-0.02275,-0.12575,0.05586916457551959,10,1,100,0.0106082596341984,-10,-1,-100,15001.143028144841,-0.0007761419081419614,0.006247104050163028,0.9999801854510544,23.67359660179892,0.014176952281727646,65.48655164382254,-24.25563113119162,173.8253173828125,5356.25390625,True
1599560189.1689668,0.0,10,0.5,0.5,-12.487627272033693,-0.05075,-0.02275,-0.12575,0.047035018184553544,10,1,100,0.015804072666091316,-10,-1,-100,14999.613728139433,-0.0008377451059931911,0.006043153867914763,0.9999813890640497,24.849320850176905,0.015307620036926402,70.33417632051956,-24.812504413160664,167.98883056640625,5356.25390625,True
1599560189.4442606,0.0,10,0.5,0.5,-13.867288220214844,-0.05075,-0.02275,-0.12575,0.0672694969057938,10,1,100,0.009480502733593327,-10,-1,-100,14999.613728139433,-0.0008377451059931911,0.006043153867914763,0.9999813890640497,24.849320850176905,0.015307620036926402,70.33417632051956,-24.812504413160664,167.98883056640625,5356.25390625,True
1599560189.534537,0.0,10,0.5,0.5,-13.812905392837525,-0.05075,-0.02275,-0.12575,0.05247595046920217,10,1,100,0.017300324391885565,-10,-1,-100,14998.611773123383,-0.0009098115602277194,0.005910043373656249,0.9999821216553058,25.65019670481704,0.016231572377670422,73.69915615523706,-25.18371370763977,163.84097290039062,5356.25390625,True
1599560189.576424,0.0,10,0.5,0.5,-13.410607397079469,-0.05075,-0.02275,-0.12575,0.038017750983861585,10,1,100,0.034140466165753974,-10,-1,-100,14996.606887331232,-0.0011291131245110074,0.005659021000865515,0.9999833501538233,27.110742977743865,0.01825610763914464,80.21762032095701,-25.926028952815813,154.7342529296875,5356.25390625,True
1599560189.6891232,0.0,10,0.5,0.5,-14.356635566329956,-0.05075,-0.02275,-0.12575,0.05008788430048203,10,1,100,0.028130248586307027,-10,-1,-100,14995.548292287043,-0.0012741436870578747,0.005542114639314568,0.9999838306308706,27.801762395510345,0.01928986465245913,83.45305023196624,-26.29713370213396,149.76873779296875,5356.25390625,True
1599560189.7419827,0.0,10,0.5,0.5,-13.782077001953125,-0.05075,-0.02275,-0.12575,0.03634776196341957,10,1,100,0.053364395108517565,-10,-1,-100,14993.410595188616,-0.001635201862868383,0.005312325907769861,0.9999845525348465,28.897428699938445,0.020955561702894945,89.2177958683615,-27.039245229409257,139.01199340820312,5356.25390625,True
1599560189.8397202,0.0,10,0.5,0.5,-15.828147791290284,-0.05075,-0.02275,-0.12575,0.05917062981019581,10,1,100,0.017330867616186733,-10,-1,-100,14993.410595188616,-0.001635201862868383,0.005312325907769861,0.9999845525348465,28.897428699938445,0.020955561702894945,89.2177958683615,-27.039245229409257,139.01199340820312,5356.25390625,True
1599560189.8865974,0.0,10,0.5,0.5,-13.320932490539553,-0.05075,-0.02275,-0.12575,0.02505976430396208,10,1,100,0.09719391106209191,-10,-1,-100,14990.07563360501,-0.0023605039005377784,0.005003521086527469,0.9999846962819343,29.30817395892743,0.02126446412210029,94.25523056139772,-28.1522646628351,120.81350708007812,5356.25390625,True
1599560189.9324808,0.0,10,0.5,0.5,-15.70579644165039,-0.05075,-0.02275,-0.12575,0.05150550096471411,10,1,100,0.04005586001662398,-10,-1,-100,14989.481884199078,-0.0024990038081979154,0.0049646535193297375,0.9999845534784022,29.189958455951682,0.021004767467654006,94.50133691706161,-28.33776552468823,117.53990173339844,5356.25390625,True
1599560189.9713707,0.0,10,0.5,0.5,-14.173976511764526,-0.05075,-0.02275,-0.12575,0.040819155305693286,10,1,100,0.07886343237046291,-10,-1,-100,14987.81098735577,-0.0029761304727055882,0.004833461504695859,0.9999838900188802,28.455644589096057,0.01978861380343851,93.95713154623239,-28.894290385997124,107.30638122558594,5356.25390625,True
1599560190.014254,0.0,10,0.5,0.5,-15.309511135864257,-0.05075,-0.02275,-0.12575,0.05379699251453445,10,1,100,0.031370764776151985,-10,-1,-100,14987.81098735577,-0.0029761304727055882,0.004833461504695859,0.9999838900188802,28.455644589096057,0.01978861380343851,93.95713154623239,-28.894290385997124,107.30638122558594,5356.25390625,True
1599560190.0501604,0.0,10,0.5,0.5,-12.593461363601685,-0.05075,-0.02275,-0.12575,0.04005531000707893,10,1,100,0.11239501031780078,-10,-1,-100,14985.416461104527,-0.0037107705363872024,0.004709636838594644,0.9999820245898797,26.510590698146608,0.017673093029884596,89.81554279607933,-29.63641560074982,92.70016479492188,5356.25390625,True
1599560190.0810804,0.0,10,0.5,0.5,-14.258911365127565,-0.05075,-0.02275,-0.12575,0.0523044249142684,10,1,100,0.03921830649267877,-10,-1,-100,14985.416461104527,-0.0037107705363872024,0.004709636838594644,0.9999820245898797,26.510590698146608,0.017673093029884596,89.81554279607933,-29.63641560074982,92.70016479492188,5356.25390625,True
1599560190.1185703,0.0,10,0.5,0.5,-13.42227455329895,-0.05075,-0.02275,-0.12575,0.05012041922551155,10,1,100,0.060811027210423745,-10,-1,-100,14984.815876951325,-0.003904521671115648,0.004690873520092365,0.9999813750346244,25.84260382999755,0.017164311879844126,88.10886312550579,-29.821967514983065,88.87698364257812,5356.25390625,True
1599560190.1554713,0.0,10,0.5,0.5,-12.367284241867065,-0.05075,-0.02275,-0.12575,0.04912585164511581,10,1,100,0.08855774108278527,-10,-1,-100,14983.616661983426,-0.004330378821029699,0.004665654568432853,0.999979739538114,26.091786929501076,0.017453495368557937,90.08240820991351,-30.193070711936404,81.02468872070312,5356.25390625,True
1599560190.1903818,0.0,10,0.5,0.5,-11.763948094558716,-0.05075,-0.02275,-0.12575,0.05177449101087433,10,1,100,0.09353169698974845,-10,-1,-100,14982.412566129933,-0.004759961069983982,0.004667603570313721,0.9999777778768499,27.726373117393717,0.018972236950193195,96.92048291976417,-30.564114560770633,72.89794921875,5356.25390625,True
1599560190.2212992,0.0,10,0.5,0.5,-11.152685998153688,-0.05075,-0.02275,-0.12575,0.05494461623861023,10,1,100,0.10133925117658642,-10,-1,-100,14981.21042380482,-0.005218627462361752,0.004698780821673433,0.9999753433891251,29.102116368700198,0.020506259508877207,102.98337083971077,-30.935096804210687,64.49687194824219,5356.25390625,True
1599560190.2591972,0.0,10,0.5,0.5,-11.280056526184083,-0.05075,-0.02275,-0.12575,0.05512060236436575,10,1,100,0.08210161533307642,-10,-1,-100,14980.547341821133,-0.00545745165176464,0.004729281419585582,0.9999739247194015,29.674074651971328,0.021208927439314174,105.64651350863133,-31.120566134235006,60.193511962890625,5356.25390625,True
1599560190.295136,0.0,10,0.5,0.5,-8.524203177642823,-0.05075,-0.02275,-0.12575,0.07620430500405671,10,1,100,0.1666640213642035,-10,-1,-100,14978.012203476857,-0.00644049828991276,0.004948928568654673,0.9999670134998454,31.27272271614547,0.023083244641403412,114.03236381475804,-31.86233004526356,42.29498291015625,5356.25390625,True
1599560190.3290427,0.0,10,0.5,0.5,-10.603761015701295,-0.05075,-0.02275,-0.12575,0.054238017602080094,10,1,100,0.06875350699756301,-10,-1,-100,14978.012203476857,-0.00644049828991276,0.004948928568654673,0.9999670134998454,31.27272271614547,0.023083244641403412,114.03236381475804,-31.86233004526356,42.29498291015625,5356.25390625,True
1599560190.357961,0.0,10,0.5,0.5,-8.803784965515137,-0.05075,-0.02275,-0.12575,0.07290542994647972,10,1,100,0.12430865398202283,-10,-1,-100,14976.744636701886,-0.006942395655392206,0.00511852734718198,0.9999628012183054,31.474603910247538,0.023091907445384686,116.12509425125495,-32.23317596773163,32.934783935546875,5356.25390625,True
1599560190.3934567,0.0,10,0.5,0.5,-8.967523137283326,-0.05075,-0.02275,-0.12575,0.0691915994663898,10,1,100,0.1029609666196788,-10,-1,-100,14976.078627230483,-0.007200990406913406,0.0052386868088946355,0.9999603501627842,31.392688560988,0.022834214713982122,116.499850635666,-32.41860042554799,28.15228271484375,5356.25390625,True
1599560190.4273303,0.0,10,0.5,0.5,-7.6975600597381595,-0.05075,-0.02275,-0.12575,0.08507320648676675,10,1,100,0.13288861871287222,-10,-1,-100,14974.810086351354,-0.007704973181988504,0.005491819974300204,0.9999552356488938,30.84368578664548,0.021882907927380083,115.7939864547701,-32.78946731706817,18.38165283203125,5356.25390625,True
1599560190.4562917,0.0,10,0.5,0.5,-6.98436425971985,-0.05075,-0.02275,-0.12575,0.09454395851700502,10,1,100,0.13737613954933153,-10,-1,-100,14973.477093425463,-0.008200303891801312,0.0058073277039113365,0.999949513706078,29.765557482569914,0.020567714102254605,113.03323368000775,-33.160374101105376,8.33758544921875,5356.25390625,True
1599560190.4892383,0.0,10,0.5,0.5,-7.159675352096557,-0.05075,-0.02275,-0.12575,0.08204939168223324,10,1,100,0.11477198481729575,-10,-1,-100,14972.808156373096,-0.008441206964775645,0.005979550983074605,0.9999464940660668,29.0265624158289,0.019870332308942317,110.85499007521278,-33.345846620695184,3.212921142578125,5356.25390625,True
1599560190.5171704,0.0,10,0.5,0.5,-5.781871941757203,-0.05075,-0.02275,-0.12575,0.10766319702317186,10,1,100,0.14177532990010772,-10,-1,-100,14971.47418883501,-0.00890195759719265,0.0063677759250364355,0.9999401014964376,27.55168204722928,0.01883509108315074,106.41543293005186,-33.71682651417885,-7.24151611328125,5356.25390625,True
1599560190.5490835,0.0,10,0.5,0.5,-5.973495217514038,-0.05075,-0.02275,-0.12575,0.09249560055064532,10,1,100,0.11962634970573177,-10,-1,-100,14970.804275781382,-0.009115701991689047,0.006581274838565383,0.999936793401812,28.682924299244338,0.019792358359508638,111.4059931762557,-33.90230003398038,-12.5712890625,5356.25390625,True
1599560190.577053,0.0,10,0.5,0.5,-4.550734868621825,-0.05075,-0.02275,-0.12575,0.12104744334689202,10,1,100,0.14288108147171197,-10,-1,-100,14969.413669226109,-0.009517878934986203,0.007033215608996767,0.999929969477251,30.599900978087724,0.021774734949608424,120.1769907669849,-34.27318472011092,-23.4361572265625,5356.25390625,True
1599560190.609963,0.0,10,0.5,0.5,-2.7597053375244145,-0.05075,-0.02275,-0.12575,0.1579433953096148,10,1,100,0.15776481676911888,-10,-1,-100,14967.340454565128,-0.010015109724975298,0.007777394114332404,0.9999196016270443,32.4157828819602,0.024148847199472218,129.4133651614596,-34.82937361193512,-40.24652099609375,5356.25390625,True
1599560190.637889,0.0,10,0.5,0.5,-4.68582666015625,-0.05075,-0.02275,-0.12575,0.08380839133061888,10,1,100,0.10839919891371567,-10,-1,-100,14967.340454565128,-0.010015109724975298,0.007777394114332404,0.9999196016270443,32.4157828819602,0.024148847199472218,129.4133651614596,-34.82937361193512,-40.24652099609375,5356.25390625,True
1599560190.6737938,0.0,10,0.5,0.5,-3.484877212524414,-0.05075,-0.02275,-0.12575,0.11250039374447916,10,1,100,0.1232662987712902,-10,-1,-100,14966.612925053574,-0.010147015531466828,0.0080356591675987,0.9999162296200348,32.78950651859252,0.024638654426734918,131.61483717195546,-35.014743239185364,-45.986846923828125,5356.25390625,True
1599560190.7094877,0.0,10,0.5,0.5,-1.9645697372436526,-0.05075,-0.02275,-0.12575,0.14374072385918507,10,1,100,0.1334747006343127,-10,-1,-100,14965.208645270322,-0.010356820263508355,0.008551796642683188,0.9999097974558563,33.02910662001713,0.024874461104327627,134.00621952222684,-35.38546579182625,-57.673004150390625,5356.25390625,True
1599560190.737415,0.0,10,0.5,0.5,-1.1279237617492675,-0.05075,-0.02275,-0.12575,0.15011695131026334,10,1,100,0.13165838148928835,-10,-1,-100,14963.805341449333,-0.0105281709096308,0.009075966315193628,0.9999033875593898,32.49961120736207,0.024092964115917395,133.26609880460984,-35.75620009112211,-69.6329345703125,5356.25390625,True
1599560190.7713459,0.0,10,0.5,0.5,-1.3580386512756348,-0.05075,-0.02275,-0.12575,0.12577612446877579,10,1,100,0.12067376483155817,-10,-1,-100,14963.078786911443,-0.01058151752946489,0.009327945640425146,0.9999005055088745,31.939079860954806,0.02340668118203412,131.66036233840111,-35.94158341735046,-75.71572875976562,5356.25390625,True
1599560190.8012633,0.0,10,0.5,0.5,0.25180163421630875,-0.05075,-0.02275,-0.12575,0.15361323231634624,10,1,100,0.12295513322866994,-10,-1,-100,14961.612980911159,-0.010648589429617205,0.009806881809307609,0.9998952108157823,30.231349439801633,0.021740885682221222,125.9337805844041,-36.312399303523314,-88.08700561523438,5356.25390625,True
1599560190.8331769,0.0,10,0.5,0.5,2.269910155487061,-0.05075,-0.02275,-0.12575,0.17642626301357156,10,1,100,0.11865475721898103,-10,-1,-100,14959.412802651059,-0.010668462845608644,0.010446190122969866,0.9998885242927967,30.258682979377813,0.02212669399251433,128.0214426072474,-36.86868124274718,-107.15833282470703,5356.25390625,True
1599560190.8645477,0.0,10,0.5,0.5,0.09900151691436765,-0.05075,-0.02275,-0.12575,0.11290327306713917,10,1,100,0.1168440661446787,-10,-1,-100,14959.412802651059,-0.010668462845608644,0.010446190122969866,0.9998885242927967,30.258682979377813,0.02212669399251433,128.0214426072474,-36.86868124274718,-107.15833282470703,5356.25390625,True
1599560190.8934698,0.0,10,0.5,0.5,2.587773181152344,-0.05075,-0.02275,-0.12575,0.1520529741343438,10,1,100,0.11434386778414445,-10,-1,-100,14957.944062198862,-0.010644322168827497,0.010798582936958631,0.9998850378979175,32.39151687532824,0.02448261611231245,138.4533535224517,-37.23942509881088,-120.03984069824219,5356.25390625,True
1599560190.9273803,0.0,10,0.5,0.5,2.3165942962646486,-0.05075,-0.02275,-0.12575,0.1337010102102415,10,1,100,0.11526245085104866,-10,-1,-100,14957.210667581414,-0.010629702814876636,0.010948680943703886,0.9998835611228242,33.140196625952264,0.02542691734727034,142.37342371379478,-37.42476443662472,-126.43585968017578,5356.25390625,True
1599560190.9632835,0.0,10,0.5,0.5,3.9406080728530886,-0.05075,-0.02275,-0.12575,0.1479040407900734,10,1,100,0.11240906744268542,-10,-1,-100,14955.67942372465,-0.010589913922945369,0.011211369148898616,0.9998810723905678,34.037305236797245,0.026572799581359788,147.70600210905792,-37.79540088192785,-139.08306884765625,5356.25390625,True
1599560190.9942,0.0,10,0.5,0.5,3.679492391014099,-0.05075,-0.02275,-0.12575,0.13338342777807538,10,1,100,0.1148839780552065,-10,-1,-100,14954.941144844051,-0.010575718841123526,0.011315049239844237,0.9998800547224118,34.24450785185465,0.026753775046678443,149.34911275353437,-37.980707593708985,-145.34039306640625,5356.25390625,True
1599560191.040078,0.0,10,0.5,0.5,5.293747752189637,-0.05075,-0.02275,-0.12575,0.14143581932952287,10,1,100,0.11475613413651023,-10,-1,-100,14953.409898962243,-0.010561262273561288,0.011479526163833192,0.9998783327076565,33.998297687310284,0.02621655784479169,149.75386911014866,-38.351327374712305,-157.663818359375,5356.25390625,True
1599560191.0859566,0.0,10,0.5,0.5,-55.36261283664703,-0.05075,-0.02275,-0.12575,0.14440585312181092,10,1,100,0.12488944352926323,-10,-1,-100,14950.28588212491,-0.010640055077520597,0.011653389375097451,0.9998754861201568,31.16206818348811,0.023178702976469755,139.97872518260905,-39.09271586761146,178.50711059570312,5356.25390625,True
1599560191.12186,0.0,10,0.5,0.5,-11.623819793891908,-0.05075,-0.02275,-0.12575,0.13034059218387462,10,1,100,0.1298310943776287,-10,-1,-100,14948.74291657831,-0.01075650728504339,0.011681237719483808,0.9998739151694918,30.912600117910205,0.023269135288734356,140.2086357667947,-39.46347793298343,167.00672912597656,5356.25390625,True
1599560191.1557705,0.0,10,0.5,0.5,-13.622186355400085,-0.05075,-0.02275,-0.12575,0.1277910869531448,10,1,100,0.11820337260090719,-10,-1,-100,14948.74291657831,-0.01075650728504339,0.011681237719483808,0.9998739151694918,30.912600117910205,0.023269135288734356,140.2086357667947,-39.46347793298343,167.00672912597656,5356.25390625,True
1599560191.182697,0.0,10,0.5,0.5,-11.199732708930972,-0.05075,-0.02275,-0.12575,0.12761084304368164,10,1,100,0.15003831319011518,-10,-1,-100,14946.345463477075,-0.011045817728713075,0.011677895178570347,0.9998707999911302,33.785567316641334,0.026748304538429947,155.45264056408007,-40.019450728057414,149.99374389648438,5356.25390625,True
1599560191.21561,0.0,10,0.5,0.5,-11.877268747711183,-0.05075,-0.02275,-0.12575,0.126641009462026,10,1,100,0.15129528539538753,-10,-1,-100,14944.68531434401,-0.011319911193112443,0.011664920104219784,0.999867885897703,34.89584065826455,0.028480481420477405,162.08381737568013,-40.39000009915619,138.39675903320312,5356.25390625,True
1599560191.2465258,0.0,10,0.5,0.5,-12.853236697959902,-0.05075,-0.02275,-0.12575,0.12699500615427756,10,1,100,0.1422955299681518,-10,-1,-100,14943.882584601175,-0.011486678885639267,0.01165523479748406,0.9998660968899755,35.272086454117066,0.029059980565919817,164.60072351794435,-40.57525470145564,132.49879455566406,5356.25390625,True
1599560191.279438,0.0,10,0.5,0.5,-13.116480000114441,-0.05075,-0.02275,-0.12575,0.1274382200295815,10,1,100,0.14595514203279827,-10,-1,-100,14943.081808528048,-0.0116707893005997,0.011649680415808415,0.9998640295676761,35.48791725389235,0.02936784708629532,166.38204311068307,-40.7605017053673,126.53306579589844,5356.25390625,True
1599560191.3113525,0.0,10,0.5,0.5,-13.377212004852295,-0.05075,-0.02275,-0.12575,0.12798377423197166,10,1,100,0.1497559530075899,-10,-1,-100,14942.284939846955,-0.011871768789892998,0.011648953289332189,0.9998616719292035,35.50324070169517,0.029362065251621515,167.22864883824028,-40.945746901658396,120.49928283691406,5356.25390625,True
