Timestamp,Input Throttle,horizon,dT,dt,Input Roll,Roll P,Roll I,Roll D,Input Pitch,Pitch P,Pitch I,Pitch D,Input Yaw,Yaw P,Yaw I,Yaw D,Altitude,Direction X,Direction Y,Direction Z,Drag X,Drag Y,Drag Z,Vertical Velocity,Roll,Mass,Has Fuel
1599560271.0425367,0.0,10,0.5,0.5,-2.9542755279541018,-0.05075,-0.02275,-0.37525,-0.0005671051874391775,10,1,100,0.1711322901204359,-10,-1,-100,14993.850375850569,-0.016775358119867148,-7.734042485485101e-05,0.9998592807882561,28.649000231647424,0.027034378345257775,-87.5135330692907,27.009297404592992,-31.791961669921875,5356.25390625,True
1599560271.0746949,0.0,10,0.5,0.5,-3.0869882514953613,-0.05075,-0.02275,-0.37525,-0.00021253417861167656,10,1,100,0.17716185838480553,-10,-1,-100,14994.918738595094,-0.01684563758690485,-7.217129656010266e-05,0.999858099574932,28.50382824199188,0.027363287938195934,-85.87424388063403,26.637366318654927,-31.790771484375,5356.25390625,True
1599560271.1026196,0.0,10,0.5,0.5,-3.2192276390075687,-0.05075,-0.02275,-0.37525,-0.0004621782927335057,10,1,100,0.1758669289322614,-10,-1,-100,14995.453896306804,-0.016882441709564266,-6.967597069638433e-05,0.999857478997473,28.431356307022266,0.02752554755822274,-85.0595093622892,26.45140666619138,-31.7901611328125,5356.25390625,True
1599560271.123567,0.0,10,0.5,0.5,-3.334278343963623,-0.05075,-0.02275,-0.37525,0.0030890135462136076,10,1,100,0.17582846288550463,-10,-1,-100,14995.984171055956,-0.016900202637275433,-3.506058867466992e-05,0.9998571807621198,28.358799594573078,0.02768618230448575,-84.24756259969186,26.265450953371623,-31.830413818359375,5356.25390625,True
1599560271.1455002,0.0,10,0.5,0.5,-3.3706558013916017,-0.05075,-0.02275,-0.37525,0.0077777637370511485,10,1,100,0.17964126841484301,-10,-1,-100,14997.048626305535,-0.016935646983063865,3.9064815433297793e-05,0.999856580883081,28.225207201717346,0.028011591794746424,-82.66653704771198,25.893550779714964,-32.09112548828125,5356.25390625,True
1599560271.1723914,0.0,10,0.5,0.5,-3.502440872192383,-0.05075,-0.02275,-0.37525,0.005655293916924388,10,1,100,0.1791053817368845,-10,-1,-100,14997.524212618242,-0.016947601375814577,8.712085278899489e-05,0.9998563752947537,28.16574262537044,0.028176553219615985,-81.90153981128431,25.707606197393307,-32.3206787109375,5356.25390625,True
1599560271.2074175,0.0,10,0.5,0.5,-3.719801174926758,-0.05075,-0.02275,-0.37525,0.0008584022666335774,10,1,100,0.1796047025993948,-10,-1,-100,14997.524212618242,-0.016947601375814577,8.712085278899489e-05,0.9998563752947537,28.16574262537044,0.028176553219615985,-81.90153981128431,25.707606197393307,-32.3206787109375,5356.25390625,True
1599560271.2387936,0.0,10,0.5,0.5,-3.383186059570313,-0.05075,-0.02275,-0.37525,0.02490999328460193,10,1,100,0.18012128817136322,-10,-1,-100,14999.056439093896,-0.016936890697945368,0.00030569247944980813,0.9998565138486591,28.017187865575096,0.02867169593106286,-79.70634803318147,25.149792632234522,-33.41888427734375,5356.25390625,True
1599560271.271587,0.0,10,0.5,0.5,-3.924009736633301,-0.05075,-0.02275,-0.37525,0.0030833998664655904,10,1,100,0.18288604502807868,-10,-1,-100,14999.056439093896,-0.016936890697945368,0.00030569247944980813,0.9998565138486591,28.017187865575096,0.02867169593106286,-79.70634803318147,25.149792632234522,-33.41888427734375,5356.25390625,True
1599560271.3054428,0.0,10,0.5,0.5,-3.5947115722656258,-0.05075,-0.02275,-0.37525,0.026431631245050304,10,1,100,0.17957717552654423,-10,-1,-100,15000.062296747696,-0.016891412892751468,0.0005176712260919875,0.9998571958969882,27.93982962293364,0.028990003380033557,-78.3139725272462,24.777932601787743,-34.494049072265625,5356.25390625,True
1599560271.3414738,0.0,10,0.5,0.5,-3.851510948944092,-0.05075,-0.02275,-0.37525,0.0187240513380585,10,1,100,0.1814331865553906,-10,-1,-100,15000.529092214303,-0.01685158643111675,0.0006398396591339597,0.9998577972091657,27.906165921566632,0.02914110388198399,-77.6341485874151,24.592007010139604,-35.134735107421875,5356.25390625,True
1599560271.3724258,0.0,10,0.5,0.5,-3.4507057762145994,-0.05075,-0.02275,-0.37525,0.0379792692704782,10,1,100,0.17415972208440916,-10,-1,-100,15001.530064686784,-0.01674918885415695,0.0009252973248450327,0.9998592943497542,27.84549999075531,0.029417859740336907,-76.29693885075962,24.22016438049249,-36.622100830078125,5356.25390625,True
1599560271.4063392,0.0,10,0.5,0.5,-2.827869546508789,-0.05075,-0.02275,-0.37525,0.06589463928786737,10,1,100,0.1586332570542236,-10,-1,-100,15002.935329914093,-0.0165150381464034,0.0014376735950846324,0.9998625838632311,27.758791357557413,0.0297364904652485,-74.31202310509488,23.662421514852667,-39.3685302734375,5356.25390625,True
1599560271.439457,0.0,10,0.5,0.5,-2.914889613342285,-0.05075,-0.02275,-0.37525,0.05827970263107883,10,1,100,0.15880967232000642,-10,-1,-100,15003.869892945746,-0.01630411164501016,0.0018328731897263898,0.9998653992009813,27.69236975493631,0.02985539605384671,-72.97202497341951,23.290607049075962,-41.54302978515625,5356.25390625,True
1599560271.4755666,0.0,10,0.5,0.5,-3.201638306427002,-0.05075,-0.02275,-0.37525,0.04147794993728735,10,1,100,0.16597545509132736,-10,-1,-100,15004.339615048608,-0.016178045660748555,0.0020377042205677004,0.9998670504622641,27.65316975585389,0.02987862387520261,-72.28843998575238,23.10470433382058,-42.733489990234375,5356.25390625,True
1599560271.5064917,0.0,10,0.5,0.5,-3.087733972167969,-0.05075,-0.02275,-0.37525,0.04479649072762147,10,1,100,0.16337227335697063,-10,-1,-100,15004.80347767449,-0.016040463660491413,0.002252265856330898,0.9998688068062073,27.608164730153458,0.02987388260630766,-71.59143643679639,22.91880479653124,-43.99267578125,5356.25390625,True
1599560271.539561,0.0,10,0.5,0.5,-1.74876160736084,-0.05075,-0.02275,-0.37525,0.09985953748044997,10,1,100,0.12345520735879054,-10,-1,-100,15006.14330626605,-0.015553331367288122,0.002945926727501753,0.9998746998494841,27.424781390073807,0.029664689524971418,-69.38934361403011,22.36112729104648,-48.182647705078125,5356.25390625,True
1599560271.5733685,0.0,10,0.5,0.5,-3.284962592315674,-0.05075,-0.02275,-0.37525,0.030779330950835727,10,1,100,0.17202900967826698,-10,-1,-100,15006.14330626605,-0.015553331367288122,0.002945926727501753,0.9998746998494841,27.424781390073807,0.029664689524971418,-69.38934361403011,22.36112729104648,-48.182647705078125,5356.25390625,True
1599560271.6083264,0.0,10,0.5,0.5,-1.9149508361816412,-0.05075,-0.02275,-0.37525,0.08521442543966462,10,1,100,0.12869153420521956,-10,-1,-100,15007.07298169611,-0.015160612098742834,0.0034383910099019684,0.9998791593527963,27.246500896796874,0.02933733802171735,-67.79471432526319,21.989362362262465,-51.319793701171875,5356.25390625,True
1599560271.6392562,0.0,10,0.5,0.5,-1.5976346992492676,-0.05075,-0.02275,-0.37525,0.08935848395685925,10,1,100,0.11856704194934241,-10,-1,-100,15007.94601612899,-0.014713168541920237,0.00392091116357625,0.9998840678434199,27.00764332755938,0.028841136255883002,-66.06690792497915,21.6176166059474,-54.73248291015625,5356.25390625,True
1599560271.6732795,0.0,10,0.5,0.5,-2.061443939208984,-0.05075,-0.02275,-0.37525,0.07061575662975852,10,1,100,0.13616323106068884,-10,-1,-100,15008.34737671644,-0.014468347249776326,0.004186083563999695,0.9998865653824213,26.86088948682353,0.028526732593776773,-65.14428060364742,21.431751960667587,-56.541778564453125,5356.25390625,True
1599560271.7062876,0.0,10,0.5,0.5,-0.20317964477539086,-0.05075,-0.02275,-0.37525,0.1265161390341749,10,1,100,0.07093595872962064,-10,-1,-100,15009.621769086341,-0.013654973816800642,0.004932110819056735,0.9998946024321419,26.288938397600905,0.027317756226906572,-62.102423475744835,20.874196255286243,-62.383331298828125,5356.25390625,True
1599560271.7422788,0.0,10,0.5,0.5,-0.5309646911621095,-0.05075,-0.02275,-0.37525,0.1068449742570215,10,1,100,0.08476587852570819,-10,-1,-100,15010.419606255367,-0.013044082889548413,0.005427846086139729,0.9999001902132211,25.777606938195426,0.026300965695392937,-59.812985523858565,20.502529614246072,-66.6219482421875,5356.25390625,True
1599560271.7731938,0.0,10,0.5,0.5,-0.1840147323608401,-0.05075,-0.02275,-0.37525,0.10745532944668612,10,1,100,0.07429026186920537,-10,-1,-100,15011.229161895462,-0.012396650036311683,0.005880435764765716,0.9999058673410681,25.148848851183615,0.02514593677346652,-57.29908590265274,20.130897559350238,-71.02450561523438,5356.25390625,True
1599560271.8061056,0.0,10,0.5,0.5,-1.769004029083252,-0.05075,-0.02275,-0.37525,0.06260111784159138,10,1,100,0.13864280103200846,-10,-1,-100,15011.229161895462,-0.012396650036311683,0.005880435764765716,0.9999058673410681,25.148848851183615,0.02514593677346652,-57.29908590265274,20.130897559350238,-71.02450561523438,5356.25390625,True
1599560271.8391747,0.0,10,0.5,0.5,-0.7488330696105959,-0.05075,-0.02275,-0.37525,0.08770083813597902,10,1,100,0.10045775661389016,-10,-1,-100,15011.629544914817,-0.012052950901260096,0.006105121647856333,0.9999087227663518,24.793282894187644,0.02453486903233892,-55.96900862813086,19.945095531067242,-73.2681884765625,5356.25390625,True
1599560271.8681004,0.0,10,0.5,0.5,2.453703131866455,-0.05075,-0.02275,-0.37525,0.15653662798939394,10,1,100,-0.02951688883148726,-10,-1,-100,15013.232054248801,-0.010562534467854523,0.006931658853159279,0.9999201893007056,23.065482103772087,0.02198924087875193,-50.134104230860466,19.201984245988477,-82.60592651367188,5356.25390625,True
1599560271.8905199,0.0,10,0.5,0.5,0.07869035415649417,-0.05075,-0.02275,-0.37525,0.09418789680899324,10,1,100,0.07568085410957157,-10,-1,-100,15013.57091371587,-0.010168490643222203,0.007112626272589535,0.9999230032085196,22.56266836223071,0.021364783398410147,-48.56818860406418,19.01623076391835,-85.072265625,5356.25390625,True
1599560271.9154527,0.0,10,0.5,0.5,0.31045379638671866,-0.05075,-0.02275,-0.37525,0.09568042186056748,10,1,100,0.06998948661688467,-10,-1,-100,15013.96934393677,-0.009763424589735729,0.007286922609317635,0.9999257853956794,22.028998049409825,0.020754397228704168,-46.95759209255778,18.830486450150925,-87.59182739257812,5356.25390625,True
1599560271.9434085,0.0,10,0.5,0.5,1.572384927368164,-0.05075,-0.02275,-0.37525,0.11266093221539422,10,1,100,0.02109044183880704,-10,-1,-100,15014.70565819298,-0.008955552486319143,0.007596243435387591,0.9999310452052858,21.339535103484245,0.020032248084197294,-44.593166349728634,18.459019404318163,-92.57980346679688,5356.25390625,True
1599560271.9733353,0.0,10,0.5,0.5,-0.21325044021606446,-0.05075,-0.02275,-0.37525,0.08209638283557971,10,1,100,0.10130189057490548,-10,-1,-100,15014.70565819298,-0.008955552486319143,0.007596243435387591,0.9999310452052858,21.339535103484245,0.020032248084197294,-44.593166349728634,18.459019404318163,-92.57980346679688,5356.25390625,True
1599560272.0092015,0.0,10,0.5,0.5,0.921395352935791,-0.05075,-0.02275,-0.37525,0.0984342097064142,10,1,100,0.05400743615748365,-10,-1,-100,15015.048424414592,-0.00853061453230936,0.007741668988875734,0.9999336453870166,21.756338875750433,0.020454180651537198,-45.008017497176,18.27328730378493,-95.05083465576172,5356.25390625,True
1599560272.0401187,0.0,10,0.5,0.5,3.154898892021179,-0.05075,-0.02275,-0.37525,0.12386599605379524,10,1,100,-0.045725261816849744,-10,-1,-100,15016.12164771813,-0.007242304919156064,0.008102517951414038,0.9999409473675458,22.913251484832454,0.02185763601475791,-45.959911526287186,17.716080397800035,-102.2959976196289,5356.25390625,True
1599560272.0740683,0.0,10,0.5,0.5,2.495360245132446,-0.05075,-0.02275,-0.37525,0.10816649641183398,10,1,100,-0.013134007363896985,-10,-1,-100,15016.851128278766,-0.006372672836743904,0.008285408218917144,0.9999453690335095,23.552944550455774,0.022805141518602422,-46.25494981290626,17.3445971489487,-106.9393081665039,5356.25390625,True
1599560272.106498,0.0,10,0.5,0.5,1.7850225824356079,-0.05075,-0.02275,-0.37525,0.09849685871693406,10,1,100,0.027377161479083964,-10,-1,-100,15017.189989800798,-0.00595585791239592,0.008361579962644377,0.9999473044801189,23.817503741588023,0.023248848067221054,-46.27483192739605,17.15885198286627,-109.17019653320312,5356.25390625,True
1599560272.142436,0.0,10,0.5,0.5,1.0346631696701052,-0.05075,-0.02275,-0.37525,0.0911277987639987,10,1,100,0.06841457470149082,-10,-1,-100,15017.189989800798,-0.00595585791239592,0.008361579962644377,0.9999473044801189,23.817503741588023,0.023248848067221054,-46.27483192739605,17.15885198286627,-109.17019653320312,5356.25390625,True
1599560272.1743498,0.0,10,0.5,0.5,3.7952858556747437,-0.05075,-0.02275,-0.37525,0.10952168265474438,10,1,100,-0.07240742044400383,-10,-1,-100,15018.190952135483,-0.004681200768335845,0.008526745763183166,0.99995268936388,24.453903053934535,0.024450334149696776,-45.97183396300699,16.601605362477493,-115.45880126953125,5356.25390625,True
1599560272.2072728,0.0,10,0.5,0.5,2.3448715665817264,-0.05075,-0.02275,-0.37525,0.09675792402708266,10,1,100,0.00813424666392204,-10,-1,-100,15018.526885591797,-0.00425996518717103,0.008559412242594211,0.9999542935347921,24.637548009780208,0.024814418863512485,-45.79995846795393,16.41585359273864,-117.41806030273438,5356.25390625,True
1599560272.24022,0.0,10,0.5,0.5,2.4886232961654664,-0.05075,-0.02275,-0.37525,0.09584912738903945,10,1,100,0.0029781510390901877,-10,-1,-100,15018.860866415896,-0.0038355215399373177,0.00857953199446749,0.9999558392275493,24.792370000810664,0.025138673249944277,-45.56734840819604,16.230100946086207,-119.3086166381836,5356.25390625,True
1599560272.2762077,0.0,10,0.5,0.5,4.091520364761353,-0.05075,-0.02275,-0.37525,0.09582445171452389,10,1,100,-0.08895500561372843,-10,-1,-100,15019.802262416342,-0.002619296712017227,0.00859642325423383,0.9999596195806951,25.10427288068084,0.02586356100727802,-44.55946332149088,15.672842714508494,-124.5672378540039,5356.25390625,True
1599560272.306674,0.0,10,0.5,0.5,2.8790937608718874,-0.05075,-0.02275,-0.37525,0.09253241584493643,10,1,100,-0.012215773130864305,-10,-1,-100,15020.13233744516,-0.0022170273962743656,0.008580942091735303,0.9999607253399219,25.1633995313706,0.02602261570251109,-44.13604721707196,15.487091326108676,-126.1824951171875,5356.25390625,True
1599560272.340602,0.0,10,0.5,0.5,4.237657516288757,-0.05075,-0.02275,-0.37525,0.0857937520565227,10,1,100,-0.09908801981290044,-10,-1,-100,15021.012213296723,-0.0010677062531169311,0.008504712547154382,0.9999632642591666,25.23247989968176,0.02627035857812657,-42.66759553196341,14.929846320756477,-130.614990234375,5356.25390625,True
1599560272.3735132,0.0,10,0.5,0.5,2.655272177505493,-0.05075,-0.02275,-0.37525,0.09349301087044265,10,1,100,0.015097803674923764,-10,-1,-100,15021.012213296723,-0.0010677062531169311,0.008504712547154382,0.9999632642591666,25.23247989968176,0.02627035857812657,-42.66759553196341,14.929846320756477,-130.614990234375,5356.25390625,True
1599560272.4105208,0.0,10,0.5,0.5,4.34380988521576,-0.05075,-0.02275,-0.37525,0.08053870222176443,10,1,100,-0.10346968512589953,-10,-1,-100,15021.882326460676,4.566737194154179e-06,0.008386580473442998,0.9999648320051597,25.173737771013865,0.02621370514980772,-40.98214954363636,14.372622053027719,-134.42745971679688,5356.25390625,True
1599560272.4404707,0.0,10,0.5,0.5,2.9757162567138673,-0.05075,-0.02275,-0.37525,0.09236202681835542,10,1,100,0.003119889947815191,-10,-1,-100,15021.882326460676,4.566737194154179e-06,0.008386580473442998,0.9999648320051597,25.173737771013865,0.02621370514980772,-40.98214954363636,14.372622053027719,-134.42745971679688,5356.25390625,True
1599560272.4743953,0.0,10,0.5,0.5,3.9692116867065432,-0.05075,-0.02275,-0.37525,0.0809398928974813,10,1,100,-0.07150263998444296,-10,-1,-100,15022.423340732697,0.0006775348050786919,0.008282720164607052,0.9999654681504071,25.08396239725136,0.02603804807905935,-39.782276794278665,14.001153857330515,-136.62472534179688,5356.25390625,True
1599560272.5074732,0.0,10,0.5,0.5,4.025566552734375,-0.05075,-0.02275,-0.37525,0.08179490817915797,10,1,100,-0.07250981933038214,-10,-1,-100,15023.021972792689,0.0012924497765572872,0.00819614625895147,0.9999655757875253,24.96642107462566,0.025776709561981484,-38.547021618707205,13.62969904679629,-138.5458984375,5356.25390625,True
1599560272.5424507,0.0,10,0.5,0.5,3.72247021484375,-0.05075,-0.02275,-0.37525,0.08305300513874275,10,1,100,-0.04540393151400006,-10,-1,-100,15023.28857421258,0.0015996156336208157,0.008129180498446466,0.9999656782381325,24.90019483942961,0.025620381308154475,-37.921723206899166,13.443976766409001,-139.40341186523438,5356.25390625,True
1599560272.5733683,0.0,10,0.5,0.5,4.093111103820801,-0.05075,-0.02275,-0.37525,0.07660335679051475,10,1,100,-0.0782525386542525,-10,-1,-100,15023.769043298904,0.002172154131480144,0.008010060487316343,0.9999655597456438,24.758502655433254,0.025269196882824863,-36.665750214702385,13.072542595858822,-140.91140747070312,5356.25390625,True
1599560272.607344,0.0,10,0.5,0.5,4.101270316123963,-0.05075,-0.02275,-0.37525,0.07559120001332828,10,1,100,-0.07985875882935797,-10,-1,-100,15024.302247244283,0.00270178415324284,0.007893085844230128,0.9999651991735735,24.627159443982702,0.024898362789268033,-35.43651990144246,12.701122261941949,-142.14353942871094,5356.25390625,True
1599560272.6405063,0.0,10,0.5,0.5,3.8973525897979733,-0.05075,-0.02275,-0.37525,0.0799406850903551,10,1,100,-0.0554775698669175,-10,-1,-100,15024.569826379651,0.002956781472581959,0.00782692543067927,0.9999649977282334,24.5693419062003,0.024712400177871602,-34.83715851098298,12.515416992146493,-142.65634155273438,5356.25390625,True
1599560272.6774347,0.0,10,0.5,0.5,4.32235337562561,-0.05075,-0.02275,-0.37525,0.05940929026954645,10,1,100,-0.1310055238994503,-10,-1,-100,15025.510258961236,0.003870511518759769,0.007580816026044827,0.9999637745283387,24.341901146835152,0.02393943951449953,-32.468956827372686,11.772626880744829,-144.01773071289062,5356.25390625,True
1599560272.7067983,0.0,10,0.5,0.5,3.841983327865601,-0.05075,-0.02275,-0.37525,0.08392784108087985,10,1,100,-0.04012634105885698,-10,-1,-100,15025.510258961236,0.003870511518759769,0.007580816026044827,0.9999637745283387,24.341901146835152,0.02393943951449953,-32.468956827372686,11.772626880744829,-144.01773071289062,5356.25390625,True
1599560272.7416763,0.0,10,0.5,0.5,3.986287337112427,-0.05075,-0.02275,-0.37525,0.06979791431789123,10,1,100,-0.0849149575270802,-10,-1,-100,15025.980963893584,0.004273191470496456,0.007453202052309575,0.9999630941258902,24.23674741686605,0.023554602310904074,-31.310155587437094,11.401248970757045,-144.28489685058594,5356.25390625,True
1599560272.7745078,0.0,10,0.5,0.5,3.9211928916931154,-0.05075,-0.02275,-0.37525,0.0774664802106094,10,1,100,-0.06492742249557089,-10,-1,-100,15026.185066573787,0.004453678722031266,0.007407752110139633,0.9999626442795329,24.18735531527425,0.023366532022853905,-30.738088753729304,11.215563904858671,-144.31478881835938,5356.25390625,True
1599560272.810489,0.0,10,0.5,0.5,3.794605926513672,-0.05075,-0.02275,-0.37525,0.06452566375748928,10,1,100,-0.10173707201561216,-10,-1,-100,15026.85792138055,0.0049483465718043445,0.0072496800389234145,0.9999614772607686,24.052620820831613,0.02282927056131853,-29.050460356299503,10.658522790126627,-143.9911651611328,5356.25390625,True
1599560272.8414052,0.0,10,0.5,0.5,3.6939918849945075,-0.05075,-0.02275,-0.37525,0.07001768992931556,10,1,100,-0.0834916880095372,-10,-1,-100,15027.263196814689,0.005228294933573074,0.007156844794039531,0.9999607214809397,23.973384979708708,0.0225001667590155,-27.947053005063374,10.287172399201008,-143.43057250976562,5356.25390625,True
1599560272.874352,0.0,10,0.5,0.5,3.5591365276336675,-0.05075,-0.02275,-0.37525,0.07009014644319884,10,1,100,-0.0823328252883333,-10,-1,-100,15027.664565818966,0.005468680287572779,0.007074052631966678,0.9999600248586303,23.90041973621143,0.022198862689424365,-26.857269956803613,9.91582953133386,-142.5941162109375,5356.25390625,True
1599560272.90832,0.0,10,0.5,0.5,3.880275606155396,-0.05075,-0.02275,-0.37525,0.0782638498638362,10,1,100,-0.05868119635375803,-10,-1,-100,15027.664565818966,0.005468680287572779,0.007074052631966678,0.9999600248586303,23.90041973621143,0.022198862689424365,-26.857269956803613,9.91582953133386,-142.5941162109375,5356.25390625,True
1599560272.9452257,0.0,10,0.5,0.5,3.129314919662476,-0.05075,-0.02275,-0.37525,0.06570305733850261,10,1,100,-0.09076585161891942,-10,-1,-100,15028.26906027936,0.005757362129841435,0.006960714525241236,0.9999591997849732,23.794652990362763,0.021803778184027872,-25.237845555722323,9.358827668303269,-140.8223114013672,5356.25390625,True
1599560272.9751494,0.0,10,0.5,0.5,3.141147966384888,-0.05075,-0.02275,-0.37525,0.0690692061128879,10,1,100,-0.07821825561898428,-10,-1,-100,15028.608904976398,0.005902953315562076,0.006889128845547963,0.9999588466761538,23.7189519694181,0.021579200467564542,-24.160250745324596,8.987500667962319,-139.29641723632812,5356.25390625,True
1599560273.0086987,0.0,10,0.5,0.5,3.7060959239959717,-0.05075,-0.02275,-0.37525,0.07613399442370206,10,1,100,-0.06395375423121813,-10,-1,-100,15028.608904976398,0.005902953315562076,0.006889128845547963,0.9999588466761538,23.7189519694181,0.021579200467564542,-24.160250745324596,8.987500667962319,-139.29641723632812,5356.25390625,True
1599560273.0416923,0.0,10,0.5,0.5,2.92778010673523,-0.05075,-0.02275,-0.37525,0.06989842735310216,10,1,100,-0.0755714653635634,-10,-1,-100,15028.943866485264,0.00600672119694994,0.006833070678706597,0.9999586133663543,23.631230589225666,0.021384347578853543,-23.07720251974187,8.61617917390049,-137.49459838867188,5356.25390625,True
1599560273.077596,0.0,10,0.5,0.5,3.161265435409546,-0.05075,-0.02275,-0.37525,0.07211519654054424,10,1,100,-0.06968589480782338,-10,-1,-100,15029.14406191057,0.006045608438906553,0.006802940924506955,0.9999585844490666,23.58021572139062,0.021296924947305472,-22.531579450842717,8.430520519036918,-136.4903564453125,5356.25390625,True
1599560273.1075158,0.0,10,0.5,0.5,2.576682201385498,-0.05075,-0.02275,-0.37525,0.06853288918371639,10,1,100,-0.07143714714312176,-10,-1,-100,15029.420429093996,0.006095269664671267,0.00674357495483412,0.9999586850888108,23.458112946908038,0.02113866034072003,-21.42837559343382,8.059206991110809,-134.27511596679688,5356.25390625,True
1599560273.141508,0.0,10,0.5,0.5,1.749330997467041,-0.05075,-0.02275,-0.37525,0.06519460172553938,10,1,100,-0.06699815545013232,-10,-1,-100,15029.89210738882,0.006098569408209613,0.0066598616211074844,0.9999592260159215,23.20403632880866,0.020925284692192046,-19.732374043159954,7.50224570501876,-130.4352569580078,5356.25390625,True
1599560273.1694314,0.0,10,0.5,0.5,3.1593983993530275,-0.05075,-0.02275,-0.37525,0.07350695325642137,10,1,100,-0.06678320337993829,-10,-1,-100,15029.89210738882,0.006098569408209613,0.0066598616211074844,0.9999592260159215,23.20403632880866,0.020925284692192046,-19.732374043159954,7.50224570501876,-130.4352569580078,5356.25390625,True
1599560273.1943655,0.0,10,0.5,0.5,1.892558086013794,-0.05075,-0.02275,-0.37525,0.06687139102094952,10,1,100,-0.062120718393355465,-10,-1,-100,15030.220230550854,0.006055392022445554,0.006599990130942224,0.9999598853742714,22.96894088706823,0.020779545461837957,-18.566308806858434,7.130943234760165,-127.53085327148438,5356.25390625,True
1599560273.2222908,0.0,10,0.5,0.5,0.8721641742706303,-0.05075,-0.02275,-0.37525,0.0618818452114198,10,1,100,-0.05233136136563658,-10,-1,-100,15030.629406780354,0.0059266123244672625,0.006500632962069921,0.9999613077701797,22.483732315480676,0.02051238643566882,-16.75536523055651,6.573994781263316,-122.65760803222656,5356.25390625,True
1599560273.4214916,0.0,10,0.5,0.5,2.6554938941955566,-0.05075,-0.02275,-0.37525,0.07176022013166042,10,1,100,-0.06525512436715517,-10,-1,-100,15030.629406780354,0.0059266123244672625,0.006500632962069921,0.9999613077701797,22.483732315480676,0.02051238643566882,-16.75536523055651,6.573994781263316,-122.65760803222656,5356.25390625,True
1599560273.44842,0.0,10,0.5,0.5,1.0834527023315432,-0.05075,-0.02275,-0.37525,0.06329588028582636,10,1,100,-0.05142691798225679,-10,-1,-100,15030.84229407669,0.005800747493518527,0.006424102673983404,0.9999625404150649,22.052600916719648,0.020270739171229797,-15.506294413634876,6.202697082536336,-119.06437683105469,5356.25390625,True
1599560273.4828897,0.0,10,0.5,0.5,0.7431406230926516,-0.05075,-0.02275,-0.37525,0.06119254597035574,10,1,100,-0.04674703091420592,-10,-1,-100,15031.110844634939,0.005643873406421071,0.0063358312148291684,0.9999640013199423,21.56033581071258,0.01998585175203843,-14.253008390003721,5.831397595103112,-115.20840454101562,5356.25390625,True
1599560273.5837085,0.0,10,0.5,0.5,0.3770949604034426,-0.05075,-0.02275,-0.37525,0.058791606115684625,10,1,100,-0.04193173250096209,-10,-1,-100,15031.312989030732,0.0054577206870385685,0.006234260705674416,0.9999656730500084,20.958649128286137,0.019598804846015647,-12.973335375929198,5.460093665275535,-111.0811767578125,5356.25390625,True
1599560273.6205778,0.0,10,0.5,0.5,0.0059162990570069685,-0.05075,-0.02275,-0.37525,0.05598266434421842,10,1,100,-0.03749065774741849,-10,-1,-100,15031.52001520025,0.005248616626667635,0.006116932417586795,0.9999675170530816,20.303525800213276,0.019144732908612728,-11.713388572792915,5.088781811612662,-106.71537780761719,5356.25390625,True
1599560273.6473203,0.0,10,0.5,0.5,1.576444278717041,-0.05075,-0.02275,-0.37525,0.06764689230228844,10,1,100,-0.05832136460328799,-10,-1,-100,15031.52001520025,0.005248616626667635,0.006116932417586795,0.9999675170530816,20.303525800213276,0.019144732908612728,-11.713388572792915,5.088781811612662,-106.71537780761719,5356.25390625,True
1599560273.6702583,0.0,10,0.5,0.5,-1.3890193996429443,-0.05075,-0.02275,-0.37525,0.04459853491334203,10,1,100,-0.01934091425945738,-10,-1,-100,15031.793444301933,0.004895018580849178,0.005907971570902962,0.9999705668993515,19.10841470237707,0.018206322574271593,-9.817555568643808,4.531790255787557,-99.90137481689453,5356.25390625,True
1599560273.6941943,0.0,10,0.5,0.5,1.0984706407546998,-0.05075,-0.02275,-0.37525,0.06541943057670492,10,1,100,-0.05458036375856701,-10,-1,-100,15031.793444301933,0.004895018580849178,0.005907971570902962,0.9999705668993515,19.10841470237707,0.018206322574271593,-9.817555568643808,4.531790255787557,-99.90137481689453,5356.25390625,True
1599560273.7221196,0.0,10,0.5,0.5,-1.9304445941925046,-0.05075,-0.02275,-0.37525,0.037527301060259345,10,1,100,-0.011214624781931748,-10,-1,-100,15032.060037570074,0.004501878727268276,0.00565509029352637,0.9999738761796213,17.646647907726585,0.016917692348831663,-7.952281145141263,3.974762659096072,-92.95430755615234,5356.25390625,True
1599560273.7460558,0.0,10,0.5,0.5,-0.4015245286941528,-0.05075,-0.02275,-0.37525,0.052050049113108815,10,1,100,-0.03468759275832367,-10,-1,-100,15032.13034694281,0.004359281763157544,0.005558082205334841,0.9999750518811497,17.16716136555796,0.016469026916334485,-7.374844666313451,3.789076971075856,-90.6085205078125,5356.25390625,True
1599560273.7749796,0.0,10,0.5,0.5,0.40582038707733153,-0.05075,-0.02275,-0.37525,0.06165660285658817,10,1,100,-0.04879055611326592,-10,-1,-100,15032.13034694281,0.004359281763157544,0.005558082205334841,0.9999750518811497,17.16716136555796,0.016469026916334485,-7.374844666313451,3.789076971075856,-90.6085205078125,5356.25390625,True
1599560273.8090672,0.0,10,0.5,0.5,-0.6893586820602416,-0.05075,-0.02275,-0.37525,0.05022780192155245,10,1,100,-0.03255910863014729,-10,-1,-100,15032.196750303265,0.004213147995639474,0.005455040879340639,0.9999762456743518,16.67408144155629,0.015993464738333945,-6.812023114611927,3.603386121840763,-88.20883178710938,5356.25390625,True
1599560273.8440378,0.0,10,0.5,0.5,-2.882530411720276,-0.05075,-0.02275,-0.37525,0.023732867370884925,10,1,100,0.001474529941157432,-10,-1,-100,15032.405725168297,0.0037723456740638033,0.005121384870516789,0.9999797702079395,17.686128649489554,0.016892600587564234,-6.10848476551906,3.0462825975603924,-81.11151123046875,5356.25390625,True
1599560273.875104,0.0,10,0.5,0.5,-0.29683130512237554,-0.05075,-0.02275,-0.37525,0.056977023618838635,10,1,100,-0.042418549443173914,-10,-1,-100,15032.405725168297,0.0037723456740638033,0.005121384870516789,0.9999797702079395,17.686128649489554,0.016892600587564234,-6.10848476551906,3.0462825975603924,-81.11151123046875,5356.25390625,True
1599560273.908554,0.0,10,0.5,0.5,-2.3853011735916136,-0.05075,-0.02275,-0.37525,0.0289537473464465,10,1,100,-0.008358470596706462,-10,-1,-100,15032.483843812486,0.003464240752744076,0.0048676395187997315,0.9999821524014926,18.480793941296813,0.01759140760747934,-5.6047735671069345,2.6748651647818065,-76.36904907226562,5356.25390625,True
1599560273.9425352,0.0,10,0.5,0.5,-2.617783125114441,-0.05075,-0.02275,-0.37525,0.025621502078695145,10,1,100,-0.005711846981532029,-10,-1,-100,15032.614697050769,0.0031617073149281237,0.004607804508349018,0.9999843857503313,19.148785035289478,0.018177253007406566,-5.001037391270144,2.3034454432323526,-71.80789184570312,5356.25390625,True
1599560273.978557,0.0,10,0.5,0.5,-3.768533928871155,-0.05075,-0.02275,-0.37525,0.0021334704617018,10,1,100,0.016243133026225397,-10,-1,-100,15032.691836814163,0.0026889833798537715,0.004159435236793192,0.9999877341582214,19.899210533371626,0.018834186736127054,-3.940112738548648,1.7463169847551097,-65.27523803710938,5356.25390625,True
1599560274.0084786,0.0,10,0.5,0.5,-1.3959300483703614,-0.05075,-0.02275,-0.37525,0.046795543983873436,10,1,100,-0.03080865696111028,-10,-1,-100,15032.691836814163,0.0026889833798537715,0.004159435236793192,0.9999877341582214,19.899210533371626,0.018834186736127054,-3.940112738548648,1.7463169847551097,-65.27523803710938,5356.25390625,True
1599560274.043544,0.0,10,0.5,0.5,-3.211374736595154,-0.05075,-0.02275,-0.37525,0.012577940225168005,10,1,100,0.0033578112365093074,-10,-1,-100,15032.760190891451,0.002380384610058135,0.003849955690199606,0.9999897557526737,20.240103141204724,0.019136005121590867,-3.155281439625978,1.3748946716416865,-61.19854736328125,5356.25390625,True
1599560274.0704763,0.0,10,0.5,0.5,-4.142017612457275,-0.05075,-0.02275,-0.37525,-0.009990724309476812,10,1,100,0.02306144433625152,-10,-1,-100,15032.837332099676,0.001922644967625545,0.0033650820017116904,0.9999924898015236,20.508041546316697,0.01938466330569691,-1.9015518800972746,0.8177456242315175,-55.592498779296875,5356.25390625,True
1599560274.0954082,0.0,10,0.5,0.5,-2.118009330749512,-0.05075,-0.02275,-0.37525,0.038277344518952455,10,1,100,-0.022468856227454256,-10,-1,-100,15032.837332099676,0.001922644967625545,0.0033650820017116904,0.9999924898015236,20.508041546316697,0.01938466330569691,-1.9015518800972746,0.8177456242315175,-55.592498779296875,5356.25390625,True
1599560274.1243274,0.0,10,0.5,0.5,-2.935123477935791,-0.05075,-0.02275,-0.37525,0.020076232678682714,10,1,100,-0.005782420358285953,-10,-1,-100,15032.837329990813,0.001773165220447226,0.0032016109851670774,0.9999933027636738,20.54136112786662,0.019419208389732493,-1.4720800867098884,0.6320232607107905,-53.86138916015625,5356.25390625,True
1599560274.1472702,0.0,10,0.5,0.5,-3.7505181137084964,-0.05075,-0.02275,-0.37525,0.00037680299575788834,10,1,100,0.01204899631996368,-10,-1,-100,15032.841232162667,0.0014773889193693867,0.0028759638183673613,0.9999947730633877,20.53941815823502,0.019427236796427397,-0.6068545997242479,0.26056756045731566,-50.605865478515625,5356.25390625,True
1599560274.1762578,0.0,10,0.5,0.5,-3.2475665824890134,-0.05075,-0.02275,-0.37525,0.013193449746045787,10,1,100,-0.0010933151316711333,-10,-1,-100,15032.847089835908,0.0013300632559086624,0.0026984772017812817,0.9999954745660236,20.509243828384054,0.019405158744157363,-0.1740308681021472,0.07483363597759318,-49.08172607421875,5356.25390625,True
1599560274.2096815,0.0,10,0.5,0.5,-3.3684163154602054,-0.05075,-0.02275,-0.37525,0.011142277716335185,10,1,100,0.00040402316329057886,-10,-1,-100,15032.848064819816,0.0011847389250066748,0.0025206813570408724,0.9999961212720657,20.46264302450665,0.019368378090859385,0.2573324131157329,-0.11090452225822078,-47.62652587890625,5356.25390625,True
1599560274.2446265,0.0,10,0.5,0.5,-4.03955894317627,-0.05075,-0.02275,-0.37525,-0.008999444870334057,10,1,100,0.017642931403750634,-10,-1,-100,15032.852944629616,0.0008979808236622652,0.002178075800272379,0.9999972248042733,20.44573967045791,0.019369163379134854,1.1183899313924257,-0.4823909297457165,-44.9227294921875,5356.25390625,True
1599560274.2725563,0.0,10,0.5,0.5,-3.6179600685119633,-0.05075,-0.02275,-0.37525,0.005536791369235253,10,1,100,0.0048133872797094385,-10,-1,-100,15032.851966450806,0.0007559817931052362,0.0020009726496680847,0.9999977122973752,20.434049529163058,0.01936704049015119,1.5481618941977129,-0.6681386035711465,-43.674285888671875,5356.25390625,True
1599560274.2954702,0.0,10,0.5,0.5,-4.174154412078857,-0.05075,-0.02275,-0.37525,-0.016304778730035423,10,1,100,0.021672957364708194,-10,-1,-100,15032.788487834274,0.0004753802205413562,0.001643372296022743,0.9999985366695006,20.389256528063814,0.019343864686284056,2.4037498074865575,-1.0396422635405542,-41.384307861328125,5356.25390625,True
1599560274.323423,0.0,10,0.5,0.5,-4.612311713409424,-0.05075,-0.02275,-0.37525,-0.03889547836680361,10,1,100,0.039560117396084137,-10,-1,-100,15032.730868477141,5.9689702615604374e-05,0.001115198398684331,0.9999993763846411,20.29276930524787,0.019287401226999436,3.674865332407,-1.59691628975159,-38.4661865234375,5356.25390625,True
1599560274.3473663,0.0,10,0.5,0.5,-3.5690028022766116,-0.05075,-0.02275,-0.37525,0.01364843563788606,10,1,100,-0.001776864905746794,-10,-1,-100,15032.730868477141,5.9689702615604374e-05,0.001115198398684331,0.9999993763846411,20.29276930524787,0.019287401226999436,3.674865332407,-1.59691628975159,-38.4661865234375,5356.25390625,True
1599560274.3782737,0.0,10,0.5,0.5,-4.289957777404785,-0.05075,-0.02275,-0.37525,-0.024426407550759935,10,1,100,0.028699785476520967,-10,-1,-100,15032.666414398467,-0.00021567715970954805,0.0007711088093357559,0.9999996794372321,20.237168167963357,0.019263794271419776,4.517527127237357,-1.9684431482262634,-36.865264892578125,5356.25390625,True
1599560274.40924,0.0,10,0.5,0.5,-3.7318163925170897,-0.05075,-0.02275,-0.37525,0.009723154064859981,10,1,100,0.0013769314567392337,-10,-1,-100,15032.666414398467,-0.00021567715970954805,0.0007711088093357559,0.9999996794372321,20.237168167963357,0.019263794271419776,4.517527127237357,-1.9684431482262634,-36.865264892578125,5356.25390625,True
1599560274.4431593,0.0,10,0.5,0.5,-4.335028778839112,-0.05075,-0.02275,-0.37525,-0.028082100707856383,10,1,100,0.031633700505118274,-10,-1,-100,15032.543367575505,-0.0004889306579855786,0.00042963422247090837,0.999999788180601,20.18919188175062,0.019253809807130897,5.357592291691051,-2.3399773159805006,-35.5400390625,5356.25390625,True
1599560274.4761302,0.0,10,0.5,0.5,-4.498753080749512,-0.05075,-0.02275,-0.37525,-0.04849424831653378,10,1,100,0.04955599398810357,-10,-1,-100,15032.411531576188,-0.0008984853066478773,-6.413826239793258e-05,0.9999995943051362,20.14113892170653,0.019277735206067872,6.618094994359428,-2.8972903789726985,-34.068817138671875,5356.25390625,True
1599560274.508078,0.0,10,0.5,0.5,-3.980831421661377,-0.05075,-0.02275,-0.37525,0.0006067386239323971,10,1,100,0.008823383978129354,-10,-1,-100,15032.411531576188,-0.0008984853066478773,-6.413826239793258e-05,0.9999995943051362,20.14113892170653,0.019277735206067872,6.618094994359428,-2.8972903789726985,-34.068817138671875,5356.25390625,True
1599560274.5319834,0.0,10,0.5,0.5,-4.374401832580566,-0.05075,-0.02275,-0.37525,-0.04983536430660189,10,1,100,0.05475997203256634,-10,-1,-100,15032.21719745663,-0.0013141968123867094,-0.0005203529984760272,0.9999990010592489,20.137629294109587,0.019367542824504737,7.89014373568163,-3.454616358671059,-33.21734619140625,5356.25390625,True
1599560274.5569446,0.0,10,0.5,0.5,-4.143750444030762,-0.05075,-0.02275,-0.37525,-0.020311192864517037,10,1,100,0.02878742330181575,-10,-1,-100,15032.096104189288,-0.0014539912131096887,-0.0006642389919837523,0.9999987223472405,20.15026511386107,0.019416220361360165,8.319801962962478,-3.640394251617492,-33.071258544921875,5356.25390625,True
1599560274.5868669,0.0,10,0.5,0.5,-4.113052941894532,-0.05075,-0.02275,-0.37525,-0.006189114677909705,10,1,100,0.015028980530139313,-10,-1,-100,15032.096104189288,-0.0014539912131096887,-0.0006642389919837523,0.9999987223472405,20.15026511386107,0.019416220361360165,8.319801962962478,-3.640394251617492,-33.071258544921875,5356.25390625,True
1599560274.613788,0.0,10,0.5,0.5,-4.168353495788574,-0.05075,-0.02275,-0.37525,-0.03786009112677275,10,1,100,0.045801083476279175,-10,-1,-100,15031.960363715654,-0.0017319836294985502,-0.0009500591312570468,0.9999980488082737,20.20460809244319,0.019549795440199403,9.19400901983134,-4.011953178207172,-32.98583984375,5356.25390625,True
1599560274.6457045,0.0,10,0.5,0.5,-4.122974948120117,-0.05075,-0.02275,-0.37525,-0.024520374288483648,10,1,100,0.033579958361553496,-10,-1,-100,15031.897865293897,-0.001871974076688996,-0.0010867479615847397,0.9999976573432181,20.242184742139816,0.01963061480927086,9.63781867480025,-4.197734224863542,-33.04638671875,5356.25390625,True
1599560274.6766176,0.0,10,0.5,0.5,-4.018373962402344,-0.05075,-0.02275,-0.37525,-0.04035648769252907,10,1,100,0.05064202262186611,-10,-1,-100,15031.69864847348,-0.0021525917367019665,-0.0013529734325009924,0.9999967679006299,20.33818369973269,0.019819831239497075,10.541066006422376,-4.569299096390528,-33.37420654296875,5356.25390625,True
1599560274.7094977,0.0,10,0.5,0.5,-4.035576236724854,-0.05075,-0.02275,-0.37525,-0.027069283805216747,10,1,100,0.03847231689474499,-10,-1,-100,15031.577555794967,-0.002295304180488118,-0.0014722728414112585,0.9999962819887879,20.396600504626086,0.019927919978298365,11.001381040893605,-4.755082641574509,-33.6412353515625,5356.25390625,True
1599560274.7434046,0.0,10,0.5,0.5,-3.625733032226563,-0.05075,-0.02275,-0.37525,-0.052920477439321045,10,1,100,0.07160107566732304,-10,-1,-100,15031.3129120284,-0.0027243227300255304,-0.001813698262866315,0.999994644267795,20.610973015468282,0.020301264942288344,12.42083834047324,-5.3124363533006935,-34.855743408203125,5356.25390625,True
1599560274.7793097,0.0,10,0.5,0.5,-4.083033953094483,-0.05075,-0.02275,-0.37525,-0.019002268542349123,10,1,100,0.028922759920785805,-10,-1,-100,15031.3129120284,-0.0027243227300255304,-0.001813698262866315,0.999994644267795,20.610973015468282,0.020301264942288344,12.42083834047324,-5.3124363533006935,-34.855743408203125,5356.25390625,True
1599560274.8092315,0.0,10,0.5,0.5,-2.980921369171143,-0.05075,-0.02275,-0.37525,-0.06025005901632885,10,1,100,0.0926175338016142,-10,-1,-100,15030.857840525103,-0.0033017062767390815,-0.0021870876671747958,0.9999921576608479,20.969814732661913,0.020884171126748025,14.406190601193039,-6.055577742592289,-37.43865966796875,5356.25390625,True
1599560274.8433552,0.0,10,0.5,0.5,-3.942494303894043,-0.05075,-0.02275,-0.37525,-0.023123413525958456,10,1,100,0.0351195012272682,-10,-1,-100,15030.857840525103,-0.0033017062767390815,-0.0021870876671747958,0.9999921576608479,20.969814732661913,0.020884171126748025,14.406190601193039,-6.055577742592289,-37.43865966796875,5356.25390625,True
1599560274.872277,0.0,10,0.5,0.5,-2.7997162551879886,-0.05075,-0.02275,-0.37525,-0.04809127063907499,10,1,100,0.08295035108670464,-10,-1,-100,15030.464290910517,-0.003734725357766365,-0.0024125529730497654,0.9999901156584771,21.266848606482604,0.02133949698884862,15.956190063424405,-6.612930413266637,-40.09869384765625,5356.25390625,True
1599560274.8972127,0.0,10,0.5,0.5,-3.781906665802002,-0.05075,-0.02275,-0.37525,-0.025719571449684633,10,1,100,0.03987651639844194,-10,-1,-100,15030.464290910517,-0.003734725357766365,-0.0024125529730497654,0.9999901156584771,21.266848606482604,0.02133949698884862,15.956190063424405,-6.612930413266637,-40.09869384765625,5356.25390625,True
1599560274.9310892,0.0,10,0.5,0.5,-3.3295318603515627,-0.05075,-0.02275,-0.37525,-0.033334505862256766,10,1,100,0.05601106399848224,-10,-1,-100,15030.335386850638,-0.003879329668544316,-0.0024801902731812703,0.9999893996725823,21.365454196822903,0.021484756920924785,16.48096123258432,-6.798713139291312,-41.123077392578125,5356.25390625,True
1599560274.9550605,0.0,10,0.5,0.5,-2.734748488616943,-0.05075,-0.02275,-0.37525,-0.038357267903561004,10,1,100,0.07316377726332217,-10,-1,-100,15030.01117189601,-0.0041647697570782296,-0.0025859491726382003,0.9999879837076777,21.554256675779367,0.02175213801265655,17.536243163626676,-7.170275761877832,-43.378173828125,5356.25390625,True
1599560274.984978,0.0,10,0.5,0.5,-3.033132917022705,-0.05075,-0.02275,-0.37525,-0.03332580474865286,10,1,100,0.06058219106725661,-10,-1,-100,15029.877384660882,-0.004307798330617201,-0.0026349901423625595,0.999987249768962,21.641847407033545,0.021869487141290247,18.064224818633882,-7.356055252758292,-44.6090087890625,5356.25390625,True
1599560275.0099099,0.0,10,0.5,0.5,-1.720579875946045,-0.05075,-0.02275,-0.37525,-0.03965166025897031,10,1,100,0.0924929699934855,-10,-1,-100,15029.416452734964,-0.004725963018078424,-0.0027359151497422613,0.9999850899097672,21.857275913332863,0.022121035985101276,19.628041216652623,-7.913385359594987,-48.714324951171875,5356.25390625,True
1599560275.045813,0.0,10,0.5,0.5,-2.5852343902587895,-0.05075,-0.02275,-0.37525,-0.03184164368994545,10,1,100,0.06579361915976924,-10,-1,-100,15029.28168903978,-0.004861181672884306,-0.002755516240088736,0.9999843878996281,21.90756409146944,0.022161463540263684,20.135665327146604,-8.099159163431878,-50.220367431640625,5356.25390625,True
1599560275.0767314,0.0,10,0.5,0.5,-3.1154223114013675,-0.05075,-0.02275,-0.37525,-0.02997571645302021,10,1,100,0.05248543957346695,-10,-1,-100,15029.28168903978,-0.004861181672884306,-0.002755516240088736,0.9999843878996281,21.90756409146944,0.022161463540263684,20.135665327146604,-8.099159163431878,-50.220367431640625,5356.25390625,True
1599560275.10951,0.0,10,0.5,0.5,-1.7093712951660158,-0.05075,-0.02275,-0.37525,-0.03239400333763595,10,1,100,0.08153208892682662,-10,-1,-100,15028.899856543518,-0.005123299522512249,-0.0027766444681514043,0.9999830208796047,21.96408623405203,0.022158948095054372,21.115042376015754,-8.470702748266426,-53.43890380859375,5356.25390625,True
1599560275.1435635,0.0,10,0.5,0.5,-0.6042370132446289,-0.05075,-0.02275,-0.37525,-0.02925397031905395,10,1,100,0.09699069384544101,-10,-1,-100,15028.369588588597,-0.0055004652548470805,-0.002766770232765833,0.999981044752579,21.907765508850037,0.021906977503671706,22.44876452929854,-9.02801014915092,-58.78277587890625,5356.25390625,True
1599560275.1804683,0.0,10,0.5,0.5,-2.5609671432495116,-0.05075,-0.02275,-0.37525,-0.030299362114170184,10,1,100,0.059493996509768686,-10,-1,-100,15028.369588588597,-0.0055004652548470805,-0.002766770232765833,0.999981044752579,21.907765508850037,0.021906977503671706,22.44876452929854,-9.02801014915092,-58.78277587890625,5356.25390625,True
1599560275.2113838,0.0,10,0.5,0.5,-0.8542553512573243,-0.05075,-0.02275,-0.37525,-0.025957657547528757,10,1,100,0.08509884721832153,-10,-1,-100,15028.040490131825,-0.005731631406836578,-0.00272697817556026,0.9999798557928286,21.751681988219808,0.021551405744128543,23.20769442262776,-9.399546471029204,-62.689361572265625,5356.25390625,True
1599560275.243297,0.0,10,0.5,0.5,-0.511076845550537,-0.05075,-0.02275,-0.37525,-0.022855305213352307,10,1,100,0.08483791100065406,-10,-1,-100,15027.644008671283,-0.005937594937530899,-0.002662314533969489,0.9999788282997194,21.483622326324554,0.021041328723855536,23.829427744001297,-9.771084621025553,-66.81549072265625,5356.25390625,True
1599560275.2772079,0.0,10,0.5,0.5,-0.14507186431884778,-0.05075,-0.02275,-0.37525,-0.020473167110831157,10,1,100,0.08646963805748403,-10,-1,-100,15027.251432877849,-0.006137797242979658,-0.0025817080368087885,0.9999778308685732,21.096956642713366,0.02038888276903314,24.292150564276604,-10.142628114783811,-71.17202758789062,5356.25390625,True
1599560275.3135583,0.0,10,0.5,0.5,0.23865513229370117,-0.05075,-0.02275,-0.37525,-0.017263696431177797,10,1,100,0.08477292026775061,-10,-1,-100,15026.798310123733,-0.006302580970311951,-0.002479256252425693,0.9999770651177694,20.57159268485855,0.01960121781768089,24.556850273154307,-10.514180283565146,-75.76190185546875,5356.25390625,True
1599560275.3434794,0.0,10,0.5,0.5,0.6046194175720214,-0.05075,-0.02275,-0.37525,-0.014555733288244206,10,1,100,0.08418048011443102,-10,-1,-100,15026.396944616921,-0.006445185100456862,-0.0023616419961325166,0.9999764408405345,19.92958383997074,0.01873515789274919,24.633195553531174,-10.885743779393794,-80.4976806640625,5356.25390625,True
1599560275.3774705,0.0,10,0.5,0.5,-1.100174446105957,-0.05075,-0.02275,-0.37525,-0.026279731602200894,10,1,100,0.07009198930817773,-10,-1,-100,15026.396944616921,-0.006445185100456862,-0.0023616419961325166,0.9999764408405345,19.92958383997074,0.01873515789274919,24.633195553531174,-10.885743779393794,-80.4976806640625,5356.25390625,True
1599560275.410383,0.0,10,0.5,0.5,1.0060909629821775,-0.05075,-0.02275,-0.37525,-0.011920178939447973,10,1,100,0.0828893558127401,-10,-1,-100,15025.936984687112,-0.006560084792836909,-0.002231458675783814,0.999975992651668,19.22451645355936,0.017878972350224145,24.57487600976273,-11.25731925223946,-85.2802734375,5356.25390625,True
1599560275.4473972,0.0,10,0.5,0.5,1.2889173431396483,-0.05075,-0.02275,-0.37525,-0.009594436683440972,10,1,100,0.0810553231809669,-10,-1,-100,15025.478001192678,-0.006646321577329965,-0.002092443507288843,0.9999757237501616,18.426004596332287,0.01703627569391564,24.333731509385444,-11.628905371105457,-89.96978759765625,5356.25390625,True
1599560275.4773223,0.0,10,0.5,0.5,1.6400653259277345,-0.05075,-0.02275,-0.37525,-0.006703071183717395,10,1,100,0.07933564555872225,-10,-1,-100,15025.012181409867,-0.006707700655707958,-0.0019404029413512577,0.9999756204969893,18.580367072398182,0.017192824369133254,25.32392445694018,-12.000493205548686,-94.7298355102539,5356.25390625,True
1599560275.5103576,0.0,10,0.5,0.5,0.9518525751113891,-0.05075,-0.02275,-0.37525,-0.01371403256655884,10,1,100,0.0752329430794566,-10,-1,-100,15024.753392001498,-0.006725105035875663,-0.0018666715006078428,0.9999756439532741,19.094655593296597,0.017719920403034654,26.428992562067865,-12.18628092571688,-97.11531829833984,5356.25390625,True
1599560275.5442998,0.0,10,0.5,0.5,2.1080789646148683,-0.05075,-0.02275,-0.37525,-0.004492667436430604,10,1,100,0.07535874987228834,-10,-1,-100,15024.230930153397,-0.006740957588889294,-0.0017166305975964435,0.9999758060424144,20.092343901518564,0.018827570458919,28.66050905253951,-12.55784080142889,-101.7260513305664,5356.25390625,True
1599560275.5791612,0.0,10,0.5,0.5,1.4077144563674928,-0.05075,-0.02275,-0.37525,-0.011131170780262734,10,1,100,0.07364462526893994,-10,-1,-100,15024.022922219709,-0.006738868480523925,-0.0016414983048736124,0.9999759462781678,20.55450123606756,0.019382437311311767,29.754899624492833,-12.743612077113209,-103.93498229980469,5356.25390625,True
1599560275.6114233,0.0,10,0.5,0.5,2.4592806596755983,-0.05075,-0.02275,-0.37525,-0.002018135450276166,10,1,100,0.07113573012653188,-10,-1,-100,15023.501437052619,-0.006713432722948977,-0.0014912784596067025,0.9999763526752172,21.369387369865787,0.0204421949857294,31.839461145896635,-13.115136317944367,-108.15099334716797,5356.25390625,True
1599560275.6444662,0.0,10,0.5,0.5,3.4384594482421873,-0.05075,-0.02275,-0.37525,0.006377603924290036,10,1,100,0.06411040745988258,-10,-1,-100,15022.64791879442,-0.006625919432293149,-0.0012793813601200026,0.999977229928268,22.359813052585693,0.021888716805762275,34.73574332446764,-13.672376764698281,-113.96580505371094,5356.25390625,True
1599560275.6765287,0.0,10,0.5,0.5,1.3433652351379397,-0.05075,-0.02275,-0.37525,-0.014692118535149382,10,1,100,0.07289407037166346,-10,-1,-100,15022.64791879442,-0.006625919432293149,-0.0012793813601200026,0.999977229928268,22.359813052585693,0.021888716805762275,34.73574332446764,-13.672376764698281,-113.96580505371094,5356.25390625,True
1599560275.7135305,0.0,10,0.5,0.5,2.9243864894866944,-0.05075,-0.02275,-0.37525,-0.00013966262755350616,10,1,100,0.06313088400203679,-10,-1,-100,15022.120573268505,-0.006536998888631238,-0.0011480701797200515,0.999977974547636,22.961671484527578,0.02281092710410752,36.643472308465526,-14.043840107533518,-117.4983901977539,5356.25390625,True
1599560275.744443,0.0,10,0.5,0.5,3.720185793876648,-0.05075,-0.02275,-0.37525,0.006309020290966822,10,1,100,0.05288462461803767,-10,-1,-100,15021.26217139943,-0.006362930751094804,-0.0009711752362939225,0.9999792847508977,23.680090034883076,0.02397806395929363,39.29505384889874,-14.600993251438666,-122.28060913085938,5356.25390625,True
1599560275.7775228,0.0,10,0.5,0.5,2.0098339029312133,-0.05075,-0.02275,-0.37525,-0.011254445707697092,10,1,100,0.07027172296750685,-10,-1,-100,15021.26217139943,-0.006362930751094804,-0.0009711752362939225,0.9999792847508977,23.680090034883076,0.02397806395929363,39.29505384889874,-14.600993251438666,-122.28060913085938,5356.25390625,True
1599560275.8104315,0.0,10,0.5,0.5,3.294723269844055,-0.05075,-0.02275,-0.37525,0.0002924836741803067,10,1,100,0.05449846387109826,-10,-1,-100,15020.66841866204,-0.0062197951146058484,-0.0008672224857959415,0.9999802808425236,24.055776879880774,0.024606621761346023,40.93801615382978,-14.97240366584937,-125.12422943115234,5356.25390625,True
1599560275.846392,0.0,10,0.5,0.5,3.390799587440491,-0.05075,-0.02275,-0.37525,-3.585383452808094e-05,10,1,100,0.05164137795708369,-10,-1,-100,15020.015095745097,-0.006064141850889486,-0.0007766804903819944,0.9999813113008804,24.364010824330563,0.02511881788830768,42.49537744799085,-15.343796658178842,-127.69229888916016,5356.25390625,True
1599560275.8743167,0.0,10,0.5,0.5,2.999666795158386,-0.05075,-0.02275,-0.37525,-0.004460158551696193,10,1,100,0.057193058719067894,-10,-1,-100,15019.743609840516,-0.005973709584606273,-0.000735581438352867,0.9999818866928273,24.49675864947664,0.0253337434637631,43.24621433454966,-15.529487143093863,-128.87298583984375,5356.25390625,True
1599560275.9012463,0.0,10,0.5,0.5,3.5362727680206296,-0.05075,-0.02275,-0.37525,-0.0005809318433771717,10,1,100,0.045628935666995385,-10,-1,-100,15019.089310033363,-0.00578706754024295,-0.000663844829304618,0.9999830344357484,24.726940164470527,0.02568797683575858,44.70110716337737,-15.900857413162672,-131.02767944335938,5356.25390625,True
1599560275.925212,0.0,10,0.5,0.5,3.5898779457092287,-0.05075,-0.02275,-0.37525,-0.0012016678483516771,10,1,100,0.04225908208574059,-10,-1,-100,15018.43110354396,-0.005587623195483323,-0.0006051615606474043,0.9999842059985302,24.91891992606385,0.025951797688687592,46.105089308430486,-16.27221454701867,-132.90682983398438,5356.25390625,True
1599560275.950147,0.0,10,0.5,0.5,3.2972921697616577,-0.05075,-0.02275,-0.37525,-0.004342185628145558,10,1,100,0.05029454174320763,-10,-1,-100,15018.099070889526,-0.00548038325124924,-0.0005811688570471174,0.9999848137057777,25.003704476255155,0.02605413493102202,46.79231544542964,-16.457888589631764,-133.7430877685547,5356.25390625,True
1599560275.9810328,0.0,10,0.5,0.5,3.355376975822449,-0.05075,-0.02275,-0.37525,-0.0043865715958246575,10,1,100,0.048766668293375615,-10,-1,-100,15017.769967687549,-0.005370044030748005,-0.0005603955557558237,0.9999854241857372,25.082505134492425,0.02613915505143894,47.47188085881218,-16.643559769492963,-134.5104522705078,5356.25390625,True
1599560276.166629,0.0,10,0.5,0.5,3.411711194419861,-0.05075,-0.02275,-0.37525,-0.004375747791794161,10,1,100,0.04745167562809932,-10,-1,-100,15017.436958305887,-0.005258922874609411,-0.0005420659616401561,0.9999860248496937,25.156377204380405,0.026208734096007935,48.14542648509289,-16.82922814167634,-135.20892333984375,5356.25390625,True
1599560276.189583,0.0,10,0.5,0.5,3.69697243347168,-0.05075,-0.02275,-0.37525,-0.0031514546435078877,10,1,100,0.03271339415345549,-10,-1,-100,15016.775822687545,-0.005025081151999402,-0.0005148236694761102,0.9999872416766151,25.292939548204306,0.026308748077549834,49.48026242045229,-17.200557152662704,-136.39923095703125,5356.25390625,True
1599560276.2165315,0.0,10,0.5,0.5,3.672106000518799,-0.05075,-0.02275,-0.37525,-0.004259466963058963,10,1,100,0.02887923840955653,-10,-1,-100,15016.05511613388,-0.00477885803340858,-0.0005005456536563671,0.9999884559183397,25.420014496216904,0.02636814132842618,50.80802269729274,-17.571875868897457,-137.31396484375,5356.25390625,True
1599560276.2494707,0.0,10,0.5,0.5,3.3630529937744145,-0.05075,-0.02275,-0.37525,-0.005640205586769511,10,1,100,0.05334314299687005,-10,-1,-100,15016.05511613388,-0.00477885803340858,-0.0005005456536563671,0.9999884559183397,25.420014496216904,0.02636814132842618,50.80802269729274,-17.571875868897457,-137.31396484375,5356.25390625,True
1599560276.322603,0.0,10,0.5,0.5,3.7552013288497927,-0.05075,-0.02275,-0.37525,-0.004842591904839539,10,1,100,0.011142534153956142,-10,-1,-100,15014.999446970061,-0.004396526077637724,-0.0004936279627589488,0.9999902133970527,25.603854285375167,0.026408229869560648,52.806496532516434,-18.12883465848051,-138.16940307617188,5356.25390625,True
1599560276.3495154,0.0,10,0.5,0.5,3.458033544158935,-0.05075,-0.02275,-0.37525,-0.005506055741819066,10,1,100,0.04920896815371659,-10,-1,-100,15014.999446970061,-0.004396526077637724,-0.0004936279627589488,0.9999902133970527,25.603854285375167,0.026408229869560648,52.806496532516434,-18.12883465848051,-138.16940307617188,5356.25390625,True
1599560276.372448,0.0,10,0.5,0.5,3.5754320083618163,-0.05075,-0.02275,-0.37525,-0.007091181999122519,10,1,100,0.018976827999614167,-10,-1,-100,15014.27483474079,-0.00412312224306131,-0.0005082581591667928,0.999991370731074,25.727022201804903,0.026417756962065716,54.15349575177271,-18.500127685010362,-138.3953399658203,5356.25390625,True
1599560276.3963914,0.0,10,0.5,0.5,3.4862068218231204,-0.05075,-0.02275,-0.37525,-0.0067203940659255525,10,1,100,0.016459613199317602,-10,-1,-100,15013.479909932823,-0.0038532022091684022,-0.0005183289807540767,0.9999924420553403,25.869529068729737,0.026441051631200457,55.552807984069105,-18.87141019847039,-138.34556579589844,5356.25390625,True
1599560276.4233143,0.0,10,0.5,0.5,3.5172577033996584,-0.05075,-0.02275,-0.37525,-0.0057046286492078374,10,1,100,0.04327817448997686,-10,-1,-100,15013.479909932823,-0.0038532022091684022,-0.0005183289807540767,0.9999924420553403,25.869529068729737,0.026441051631200457,55.552807984069105,-18.87141019847039,-138.34556579589844,5356.25390625,True
1599560276.4472504,0.0,10,0.5,0.5,3.2758893821716315,-0.05075,-0.02275,-0.37525,-0.009897440827655299,10,1,100,-0.004029537562729189,-10,-1,-100,15012.358812392224,-0.003424611355091148,-0.0005565025822638654,0.9999939811528579,26.086815730869564,0.026483952491807575,57.68289137796845,-19.42831319802819,-137.75439453125,5356.25390625,True
1599560276.4781654,0.0,10,0.5,0.5,3.505106367874146,-0.05075,-0.02275,-0.37525,-0.006079691379327226,10,1,100,0.03863500457743055,-10,-1,-100,15012.358812392224,-0.003424611355091148,-0.0005565025822638654,0.9999939811528579,26.086815730869564,0.026483952491807575,57.68289137796845,-19.42831319802819,-137.75439453125,5356.25390625,True
1599560276.5110564,0.0,10,0.5,0.5,3.3682429569244388,-0.05075,-0.02275,-0.37525,-0.007625034848062182,10,1,100,0.02254062784244685,-10,-1,-100,15011.960373537033,-0.0032799663952454037,-0.000570538035051798,0.9999944581380422,26.158990089215685,0.026502931915520594,58.398673821675295,-19.613942042265535,-137.41952514648438,5356.25390625,True
1599560276.5440903,0.0,10,0.5,0.5,3.122882340621948,-0.05075,-0.02275,-0.37525,-0.009659177844471291,10,1,100,0.0044445208870035405,-10,-1,-100,15011.171308688005,-0.0029855473819332006,-0.0006017390972212962,0.9999953621976899,26.301405169149394,0.026552475508148956,59.83529707289135,-19.98519117498789,-136.5431365966797,5356.25390625,True
1599560276.5720131,0.0,10,0.5,0.5,2.9593225807189945,-0.05075,-0.02275,-0.37525,-0.011125415930632685,10,1,100,9.61945415329131e-05,-10,-1,-100,15010.374431490316,-0.002679993776373715,-0.0006433411423008846,0.9999962018655537,26.43819336118525,0.02662169172530651,61.271333132722404,-20.356428952837895,-135.39132690429688,5356.25390625,True
1599560276.5969117,0.0,10,0.5,0.5,3.097787297821045,-0.05075,-0.02275,-0.37525,-0.009064378571737773,10,1,100,0.01367014126656518,-10,-1,-100,15009.918376077898,-0.0025275253454172353,-0.0006622946659390616,0.999996586484876,26.50305897755141,0.0266650994329841,61.98559291548451,-20.54204363779316,-134.7120361328125,5356.25390625,True
1599560276.6248698,0.0,10,0.5,0.5,3.026092678833008,-0.05075,-0.02275,-0.37525,-0.009097011995863612,10,1,100,0.0119929773030494,-10,-1,-100,15009.51896095695,-0.0023753698273632196,-0.0006796684760992937,0.9999969478298151,26.564621310165258,0.026714963692682836,62.6949051411164,-20.727655641670392,-133.96383666992188,5356.25390625,True
1599560276.653791,0.0,10,0.5,0.5,2.571781614685059,-0.05075,-0.02275,-0.37525,-0.011479162779935933,10,1,100,-0.006994031965591285,-10,-1,-100,15008.66153712757,-0.0020662748687358123,-0.0007169496374516709,0.9999976082428318,26.674899441372613,0.026835707664860313,64.0907934724154,-21.098871656780453,-132.26077270507812,5356.25390625,True
1599560276.6786933,0.0,10,0.5,0.5,2.790160450363159,-0.05075,-0.02275,-0.37525,-0.01005676271047388,10,1,100,0.006353420016385402,-10,-1,-100,15008.259192642872,-0.001908489785614617,-0.0007377209730693726,0.9999979067150611,26.721884982795768,0.026907103515511427,64.77263354336014,-21.28447589418782,-131.3059844970703,5356.25390625,True
1599560276.7115755,0.0,10,0.5,0.5,2.696328298568726,-0.05075,-0.02275,-0.37525,-0.010194630470085357,10,1,100,0.004513605482388414,-10,-1,-100,15007.808020296856,-0.0017500911346713338,-0.0007576579014525554,0.9999981815661091,26.762007216550206,0.026985781275624777,65.43978743178629,-21.470077809568096,-130.2822723388672,5356.25390625,True
1599560276.7474785,0.0,10,0.5,0.5,2.1018707271575927,-0.05075,-0.02275,-0.37525,-0.012002946610813532,10,1,100,-0.014526917139172462,-10,-1,-100,15006.942784687388,-0.0014349086200491567,-0.0007920040476977973,0.9999986568825182,26.81769185930596,0.02716458051966624,66.71841860407308,-21.841275182515844,-128.02813720703125,5356.25390625,True
1599560276.7773998,0.0,10,0.5,0.5,2.401473514175415,-0.05075,-0.02275,-0.37525,-0.010521033348191919,10,1,100,-0.0007911398253890364,-10,-1,-100,15006.540440450655,-0.0012750585848225195,-0.0008095417860192445,0.9999988594332005,26.830956353759028,0.02726375167758247,67.32309036870562,-22.026871017253903,-126.79777526855469,5356.25390625,True
1599560276.8113315,0.0,10,0.5,0.5,1.701932844543457,-0.05075,-0.02275,-0.37525,-0.012354274038224474,10,1,100,-0.02025441183031075,-10,-1,-100,15005.623447252088,-0.0009547556734538053,-0.0008419209733083511,0.999999189805011,26.82174414603318,0.027476837910995425,68.44325823793443,-22.39805843417414,-124.13038635253906,5356.25390625,True
1599560276.845331,0.0,10,0.5,0.5,1.4189226566314699,-0.05075,-0.02275,-0.37525,-0.01161028271232999,10,1,100,-0.0231281105933123,-10,-1,-100,15004.700595337315,-0.0006395605022929524,-0.0008643463288464468,0.9999994219337268,26.75597878336675,0.027699361541824154,69.41638834664256,-22.76924166415205,-121.18739318847656,5356.25390625,True
1599560276.8802683,0.0,10,0.5,0.5,0.3877276287078859,-0.05075,-0.02275,-0.37525,-0.012355782183004687,10,1,100,-0.04411155205562102,-10,-1,-100,15003.309969738126,-0.0001643935941981344,-0.0008912715497675537,0.999999589304801,26.52567674569575,0.028007430514176253,70.51655284606758,-23.326015022809386,-116.25636291503906,5356.25390625,True
1599560276.9117646,0.0,10,0.5,0.5,2.1945646957397464,-0.05075,-0.02275,-0.37525,-0.009688053131640671,10,1,100,0.0031535787356432223,-10,-1,-100,15003.309969738126,-0.0001643935941981344,-0.0008912715497675537,0.999999589304801,26.52567674569575,0.028007430514176253,70.51655284606758,-23.326015022809386,-116.25636291503906,5356.25390625,True
