Timestamp,Input Throttle,horizon,dT,dt,Input Roll,Roll P,Roll I,Roll D,Input Pitch,Pitch P,Pitch I,Pitch D,Input Yaw,Yaw P,Yaw I,Yaw D,Altitude,Direction X,Direction Y,Direction Z,Drag X,Drag Y,Drag Z,Vertical Velocity,Roll,Mass,Has Fuel
1599559280.8908715,0.0,10,0.5,0.5,-0.058353378295898435,-0.001,-0.03,-0.2505,-0.0005530922896114055,10,1,100,0.1711310730622282,-10,-1,-100,14994.005649550701,-0.016775497106461812,-7.705722844325131e-05,0.999859278478234,28.64900262006244,0.02703434725553312,-87.51354392900356,27.009297710284926,-31.7918701171875,5356.25390625,True
1599559280.9158063,0.0,10,0.5,0.5,-0.23313185119628907,-0.001,-0.03,-0.2505,-0.00026292735939607875,10,1,100,0.1771587536710815,-10,-1,-100,14995.085730961058,-0.016845735587332877,-7.237222255342623e-05,0.9998580979092899,28.503846431075846,0.02736327213853945,-85.87430305131541,26.63736669731927,-31.790679931640625,5356.25390625,True
1599559280.9487545,0.0,10,0.5,0.5,-0.4073004913330078,-0.001,-0.03,-0.2505,0.0033803628647295194,10,1,100,0.17781235890955344,-10,-1,-100,14996.166788690374,-0.016900216312486015,-3.492651314103123e-05,0.9998571805356652,28.35882474966255,0.027686175804589857,-84.24764177205114,26.26545117111457,-31.79132080078125,5356.25390625,True
1599559280.9813333,0.0,10,0.5,0.5,-0.5820870666503907,-0.001,-0.03,-0.2505,-0.00036770072782408317,10,1,100,0.17405430802548824,-10,-1,-100,14996.166788690374,-0.016900216312486015,-3.492651314103123e-05,0.9998571805356652,28.35882474966255,0.027686175804589857,-84.24764177205114,26.26545117111457,-31.79132080078125,5356.25390625,True
1599559281.0183463,0.0,10,0.5,0.5,-0.7537197875976561,-0.001,-0.03,-0.2505,0.003532335762694009,10,1,100,0.17773973911059954,-10,-1,-100,14996.643352023326,-0.016918356398430222,5.601154210796396e-07,0.9998568743657573,28.28706882742091,0.027845934594975266,-83.44110055102733,26.079499365204786,-31.80322265625,5356.25390625,True
1599559281.0402899,0.0,10,0.5,0.5,-0.9127790222167969,-0.001,-0.03,-0.2505,0.009541470795605292,10,1,100,0.18081833354682436,-10,-1,-100,14997.708783591865,-0.016947454283801153,8.744867794453656e-05,0.9998563777593397,28.147487003676318,0.028163644532472724,-81.84847330437161,25.707607297778903,-31.8768310546875,5356.25390625,True
1599559281.0812163,0.0,10,0.5,0.5,-1.0556297454833985,-0.001,-0.03,-0.2505,0.015511143564362524,10,1,100,0.1800938985610553,-10,-1,-100,14998.717572777881,-0.0169519143576461,0.00022062853388370447,0.9998562816338461,28.016803130964625,0.028480753651097323,-80.29304692535419,25.335730325691014,-32.075469970703125,5356.25390625,True
1599559281.1161184,0.0,10,0.5,0.5,-1.1843893737792968,-0.001,-0.03,-0.2505,0.02268154471977428,10,1,100,0.17834074802026262,-10,-1,-100,14999.729290310526,-0.016924620406809164,0.000406686023846797,0.9998566856457796,27.899123270044527,0.028798071135265457,-78.78528777170466,24.963867746670044,-32.452301025390625,5356.25390625,True
1599559281.1502,0.0,10,0.5,0.5,-1.3001356811523437,-0.001,-0.03,-0.2505,0.030318183876511834,10,1,100,0.17611796068027447,-10,-1,-100,15000.681436839863,-0.016864214548042232,0.0006448834743073618,0.9998575810549132,27.79688099738902,0.029113612972655547,-77.33031683928633,24.592018917184024,-33.053863525390625,5356.25390625,True
1599559281.1821086,0.0,10,0.5,0.5,-1.4052640533447267,-0.001,-0.03,-0.2505,0.038096845366343605,10,1,100,0.17322010929623688,-10,-1,-100,15001.678503342671,-0.01676762492335555,0.0009315554578387937,0.9998589795360436,27.710990233032444,0.029422522128770414,-75.92868225285709,24.22018320237061,-33.914306640625,5356.25390625,True
1599559281.2152998,0.0,10,0.5,0.5,-1.504167465209961,-0.001,-0.03,-0.2505,0.046330695665814575,10,1,100,0.16972016457928907,-10,-1,-100,15002.630646710866,-0.016632755199010536,0.0012661726679008872,0.999860864451282,27.639851768056182,0.029715865983129936,-74.57400058448836,23.848359446833733,-35.047088623046875,5356.25390625,True
1599559281.248341,0.0,10,0.5,0.5,-1.7781636962890623,-0.001,-0.03,-0.2505,0.013003297649239638,10,1,100,0.18319286282304534,-10,-1,-100,15002.630646710866,-0.016632755199010536,0.0012661726679008872,0.999860864451282,27.639851768056182,0.029715865983129936,-74.57400058448836,23.848359446833733,-35.047088623046875,5356.25390625,True
1599559281.285251,0.0,10,0.5,0.5,-1.2115684967041016,-0.001,-0.03,-0.2505,0.0770746780667969,10,1,100,0.15207392340001125,-10,-1,-100,15004.034934043302,-0.016350049368245065,0.001847422903614631,0.999864622293574,27.551046041999335,0.03009731863051762,-72.6002225300267,23.29064544985367,-37.2611083984375,5356.25390625,True
1599559281.3151917,0.0,10,0.5,0.5,-1.7497710876464843,-0.001,-0.03,-0.2505,0.019137889437098075,10,1,100,0.1802894897821343,-10,-1,-100,15004.034934043302,-0.016350049368245065,0.001847422903614631,0.999864622293574,27.551046041999335,0.03009731863051762,-72.6002225300267,23.29064544985367,-37.2611083984375,5356.25390625,True
1599559281.349141,0.0,10,0.5,0.5,-0.748913604736328,-0.001,-0.03,-0.2505,0.11870588766938997,10,1,100,0.12086624027234986,-10,-1,-100,15005.845463731443,-0.015810338160832698,0.0027508752971656886,0.999871224654625,27.431517934765697,0.03040508340220054,-69.98281413838417,22.54706615904113,-41.1754150390625,5356.25390625,True
1599559281.3830476,0.0,10,0.5,0.5,-1.4120306243896483,-0.001,-0.03,-0.2505,0.05688278839876508,10,1,100,0.1569583013973659,-10,-1,-100,15006.322021311265,-0.0156488085445376,0.0030076671932230195,0.9998730263034358,27.394569332056356,0.03042923989081983,-69.31368021260434,22.3611785657027,-42.325714111328125,5356.25390625,True
1599559281.4209485,0.0,10,0.5,0.5,-1.6688338928222657,-0.001,-0.03,-0.2505,0.03149562064455984,10,1,100,0.17298139845294944,-10,-1,-100,15006.322021311265,-0.0156488085445376,0.0030076671932230195,0.9998730263034358,27.394569332056356,0.03042923989081983,-69.31368021260434,22.3611785657027,-42.325714111328125,5356.25390625,True
1599559281.4518702,0.0,10,0.5,0.5,-0.31810726928710964,-0.001,-0.03,-0.2505,0.14729635060189836,10,1,100,0.08583752044684892,-10,-1,-100,15008.060281081707,-0.014857776113403148,0.004057867430417607,0.9998813830654519,27.181166899642538,0.03023369657270446,-66.49206516449073,21.617661328087213,-47.574127197265625,5356.25390625,True
1599559281.484743,0.0,10,0.5,0.5,-1.587469268798828,-0.001,-0.03,-0.2505,0.04264144502309672,10,1,100,0.16473407913095348,-10,-1,-100,15008.060281081707,-0.014857776113403148,0.004057867430417607,0.9998813830654519,27.181166899642538,0.03023369657270446,-66.49206516449073,21.617661328087213,-47.574127197265625,5356.25390625,True
1599559281.5166569,0.0,10,0.5,0.5,-0.783567672729492,-0.001,-0.03,-0.2505,0.10586180830299953,10,1,100,0.11236596733826955,-10,-1,-100,15008.932339430088,-0.014383526404773875,0.004629495293002077,0.9998858344538616,27.0150282092586,0.029925665528333256,-64.95177371253648,21.24592572348223,-50.59735107421875,5356.25390625,True
1599559281.5536454,0.0,10,0.5,0.5,-1.0917425842285153,-0.001,-0.03,-0.2505,0.07768031251176968,10,1,100,0.13107422557969142,-10,-1,-100,15009.339559809305,-0.014124632743231627,0.0048895998064902675,0.9998882870419082,26.911747543721308,0.029711600894913023,-64.1386964156493,21.0600646211759,-52.1842041015625,5356.25390625,True
1599559281.5845628,0.0,10,0.5,0.5,-0.5948048248291015,-0.001,-0.03,-0.2505,0.11727912883089472,10,1,100,0.09536101255609171,-10,-1,-100,15010.13935219904,-0.01356688940748393,0.005482753669709223,0.9998929337304081,26.660181952271593,0.029161922923455263,-62.42021028315868,20.688357408446326,-55.536224365234375,5356.25390625,True
1599559281.6274502,0.0,10,0.5,0.5,-0.47048747253417966,-0.001,-0.03,-0.2505,0.11977762686916985,10,1,100,0.0836178992368799,-10,-1,-100,15010.996761424118,-0.012955881586440033,0.006040864817527312,0.9998978213220463,26.33470786123551,0.028443228737340988,-60.55297040176047,20.316672941011003,-59.12481689453125,5356.25390625,True
1599559281.6583672,0.0,10,0.5,0.5,-0.3386246337890624,-0.001,-0.03,-0.2505,0.12751310149001133,10,1,100,0.07096064515448787,-10,-1,-100,15011.796553272055,-0.012288439591816384,0.0066147488649023955,0.9999026149330005,25.923596952531504,0.02755977676202641,-58.51983829662581,19.945015062721417,-62.962646484375,5356.25390625,True
1599559281.6882854,0.0,10,0.5,0.5,-0.7189599609375,-0.001,-0.03,-0.2505,0.10036740662908558,10,1,100,0.09870093961821425,-10,-1,-100,15012.202797059435,-0.011937551009807333,0.0068853486583610665,0.999905038916067,25.680532952879272,0.02705843903258871,-57.4323753852278,19.759197368867962,-64.96636962890625,5356.25390625,True
1599559281.7202039,0.0,10,0.5,0.5,-0.11261183166503907,-0.001,-0.03,-0.2505,0.13173576197293874,10,1,100,0.05237825238640703,-10,-1,-100,15012.945948714041,-0.011200966766919972,0.007412756725211982,0.9999097906217436,25.118408567874912,0.025957770205617382,-55.121386223925185,19.387586422690664,-69.08926391601562,5356.25390625,True
1599559281.751998,0.0,10,0.5,0.5,-0.5350972747802732,-0.001,-0.03,-0.2505,0.10716351816694397,10,1,100,0.08329369262846859,-10,-1,-100,15013.341450208798,-0.010816437677202582,0.007664829942720145,0.9999121236678373,24.79833798552135,0.025367982581044494,-53.89885221285171,19.20179401278924,-71.1966552734375,5356.25390625,True
1599559281.7859068,0.0,10,0.5,0.5,0.10640409851074228,-0.001,-0.03,-0.2505,0.13580556256577245,10,1,100,0.03269109001836629,-10,-1,-100,15014.083625679603,-0.010011235181792512,0.008150135850671918,0.9999166717560772,24.07955768974482,0.024137876736102785,-51.32655153745223,18.83023662122972,-75.50198364257812,5356.25390625,True
1599559281.820721,0.0,10,0.5,0.5,-0.33666720581054677,-0.001,-0.03,-0.2505,0.11204292533791724,10,1,100,0.06753463428062859,-10,-1,-100,15014.478151632706,-0.00960039835283266,0.008371578820901887,0.9999188712188165,23.677044705073417,0.023505704173292664,-49.972048846813195,18.644471908605148,-77.69534301757812,5356.25390625,True
1599559281.8510232,0.0,10,0.5,0.5,1.4473900146484375,-0.001,-0.03,-0.2505,0.17648082311698668,10,1,100,-0.08157112764525469,-10,-1,-100,15015.937114225933,-0.007876182834234375,0.009154768126929324,0.9999270753232478,21.890453941842633,0.02109928300107909,-44.36527119072583,17.90150420513694,-86.61434936523438,5356.25390625,True
1599559281.8899176,0.0,10,0.5,0.5,-0.11241154479980475,-0.001,-0.03,-0.2505,0.11734140194091178,10,1,100,0.04050688400002022,-10,-1,-100,15016.275976353558,-0.007424430053711651,0.009325013419140923,0.9999289584581049,21.383041183837506,0.0205336946617014,-42.888543447553715,17.71578357627633,-88.86627197265625,5356.25390625,True
1599559281.9178762,0.0,10,0.5,0.5,0.004756477355957078,-0.001,-0.03,-0.2505,0.11793113401988795,10,1,100,0.03484464530360046,-10,-1,-100,15016.612885741517,-0.006968361903895831,0.00948111087313066,0.9999307728382939,20.902668441065458,0.020037746292091162,-41.4867531323357,17.530070118825527,-91.13755798339844,5356.25390625,True
1599559281.9537928,0.0,10,0.5,0.5,0.10543512725830079,-0.001,-0.03,-0.2505,0.11703644609518951,10,1,100,0.03295524525553002,-10,-1,-100,15017.006436101161,-0.006542576792265889,0.009611249252711871,0.9999324070039532,21.290845307682453,0.020415689613134145,-41.81073817660411,17.344356730861584,-93.37545776367188,5356.25390625,True
1599559281.9837124,0.0,10,0.5,0.5,0.7414105415344239,-0.001,-0.03,-0.2505,0.13050222831066002,10,1,100,-0.023037711220732143,-10,-1,-100,15017.666583871352,-0.005652302818085535,0.009848727268439808,0.9999355249435058,21.981117577282447,0.021198131710806346,-42.24434070923847,16.972928002259202,-97.7246322631836,5356.25390625,True
1599559282.0167248,0.0,10,0.5,0.5,0.29922743988037104,-0.001,-0.03,-0.2505,0.11811028166726698,10,1,100,0.015510812060988803,-10,-1,-100,15018.00349408586,-0.00519943681391334,0.00994902233288569,0.9999369894205523,22.318249296035635,0.02162964145329763,-42.424152262072376,16.78721178713743,-99.88367462158203,5356.25390625,True
1599559282.0507114,0.0,10,0.5,0.5,0.9463380317687988,-0.001,-0.03,-0.2505,0.12559457802435423,10,1,100,-0.037887679862041536,-10,-1,-100,15018.664620108902,-0.004308425169180064,0.010105453564105898,0.999939656819763,22.943225425424767,0.022521609921417267,-42.649579989344645,16.415774129659308,-104.19062805175781,5356.25390625,True
1599559282.0867321,0.0,10,0.5,0.5,1.0271172981262207,-0.001,-0.03,-0.2505,0.12201711366562112,10,1,100,-0.044281827749123294,-10,-1,-100,15019.323793730699,-0.0034465519128106517,0.0102126934648277,0.999941909398794,23.463736206601194,0.023382762069748625,-42.6325375860725,16.044328765584,-108.38294219970703,5356.25390625,True
1599559282.1301103,0.0,10,0.5,0.5,0.6027129707336425,-0.001,-0.03,-0.2505,0.11547061740209039,10,1,100,-0.006989324452770361,-10,-1,-100,15019.591369091882,-0.0030087534240456596,0.010248354441704417,0.9999429576901226,23.678481764849806,0.02378262041077208,-42.525815723484016,15.858603404029694,-110.42752075195312,5356.25390625,True
1599559282.1590316,0.0,10,0.5,0.5,2.143952606201172,-0.001,-0.03,-0.2505,0.11624897985858569,10,1,100,-0.1468487446747126,-10,-1,-100,15020.844290207722,-0.00134567141565778,0.010285942062477724,0.9999461928345587,24.4136522638569,0.025248364895499788,-41.79628666906354,15.115687527477029,-118.17555236816406,5356.25390625,True
1599559282.1849995,0.0,10,0.5,0.5,1.205659309387207,-0.001,-0.03,-0.2505,0.10810537017775174,10,1,100,-0.0687870326629342,-10,-1,-100,15021.447802772745,-0.0005509349053551247,0.01024433948131717,0.9999473736048919,24.653708599458138,0.025794665173955483,-41.171964402043955,14.744225094193848,-121.67912292480469,5356.25390625,True
1599559282.2218642,0.0,10,0.5,0.5,0.8557926025390625,-0.001,-0.03,-0.2505,0.10839502007441493,10,1,100,-0.03259048261338307,-10,-1,-100,15021.771043601097,-0.00016416603092033868,0.01020816161445507,0.9999478818848349,24.739661637193063,0.026009588471084626,-40.79599288821012,14.558494162970241,-123.359375,5356.25390625,True
1599559282.251164,0.0,10,0.5,0.5,1.3370931015014649,-0.001,-0.03,-0.2505,0.10438753882655219,10,1,100,-0.07299893129636721,-10,-1,-100,15022.288619985688,0.0005481913302086034,0.010138038134876851,0.9999484585062578,24.853733525583582,0.026326495194169294,-39.94017527422557,14.187034346068605,-126.53521728515625,5356.25390625,True
1599559282.2850728,0.0,10,0.5,0.5,0.6477375869750976,-0.001,-0.03,-0.2505,0.11146557951054872,10,1,100,-0.002514850506883456,-10,-1,-100,15022.288619985688,0.0005481913302086034,0.010138038134876851,0.9999484585062578,24.853733525583582,0.026326495194169294,-39.94017527422557,14.187034346068605,-126.53521728515625,5356.25390625,True
1599559282.3180134,0.0,10,0.5,0.5,1.4836763763427734,-0.001,-0.03,-0.2505,0.09889384813262453,10,1,100,-0.08019023275542188,-10,-1,-100,15022.88041547744,0.0012478850159930667,0.010023270768821027,0.9999489871118834,24.897614364121203,0.026496015433862766,-38.96480619166963,13.815579686538713,-129.46348571777344,5356.25390625,True
1599559282.3578794,0.0,10,0.5,0.5,1.8395419311523438,-0.001,-0.03,-0.2505,0.08698794747172649,10,1,100,-0.11721111250716768,-10,-1,-100,15023.67045376706,0.002214250739145651,0.009810542663216312,0.9999494238941874,24.85799379422901,0.026499737907519114,-37.33629028588288,13.258413086396017,-133.41648864746094,5356.25390625,True
1599559282.3897922,0.0,10,0.5,0.5,0.9499131393432616,-0.001,-0.03,-0.2505,0.10824691006523102,10,1,100,-0.02131590894721514,-10,-1,-100,15023.67045376706,0.002214250739145651,0.009810542663216312,0.9999494238941874,24.85799379422901,0.026499737907519114,-37.33629028588288,13.258413086396017,-133.41648864746094,5356.25390625,True
1599559282.4187508,0.0,10,0.5,0.5,1.8986451187133788,-0.001,-0.03,-0.2505,0.08370604238464707,10,1,100,-0.11604577587201494,-10,-1,-100,15024.45756286662,0.0030695016421817167,0.009587711966939085,0.9999493256855108,24.72458533255535,0.02625143908061304,-35.577643091203285,12.70127051185037,-136.8401641845703,5356.25390625,True
1599559282.4518428,0.0,10,0.5,0.5,1.1263860626220703,-0.001,-0.03,-0.2505,0.10592661386258093,10,1,100,-0.031172290923907605,-10,-1,-100,15024.45756286662,0.0030695016421817167,0.009587711966939085,0.9999493256855108,24.72458533255535,0.02625143908061304,-35.577643091203285,12.70127051185037,-136.8401641845703,5356.25390625,True
1599559282.486757,0.0,10,0.5,0.5,1.6949199752807615,-0.001,-0.03,-0.2505,0.08655818760675225,10,1,100,-0.0895859177541051,-10,-1,-100,15024.921430655639,0.0035950089269414873,0.009412235948681338,0.9999492415744218,24.59971991359698,0.02597818685101387,-34.36428765773892,12.329857424601508,-138.78567504882812,5356.25390625,True
1599559282.517674,0.0,10,0.5,0.5,1.4885068130493162,-0.001,-0.03,-0.2505,0.09561628205899368,10,1,100,-0.06378998001730815,-10,-1,-100,15025.175337439985,0.003833742769713489,0.009335852887207214,0.9999490708367321,24.53386150132881,0.025821147937787912,-33.75680866512707,12.144155554816276,-139.65687561035156,5356.25390625,True
1599559282.551105,0.0,10,0.5,0.5,1.710699073791504,-0.001,-0.03,-0.2505,0.08422527370347221,10,1,100,-0.09003522803340408,-10,-1,-100,15025.640181543655,0.004285380629038845,0.009163685015902461,0.9999488298857065,24.424866536462428,0.025503576077943138,-32.5804171260234,11.772761267137003,-141.19363403320312,5356.25390625,True
1599559282.5855632,0.0,10,0.5,0.5,1.829008880615234,-0.001,-0.03,-0.2505,0.07410175105693137,10,1,100,-0.11021425675173112,-10,-1,-100,15026.346237417776,0.004875361174355816,0.008916086269382817,0.9999483657964827,24.244672258182405,0.024959312212140882,-30.811664661145638,11.21569275275985,-142.98196411132812,5356.25390625,True
1599559282.629478,0.0,10,0.5,0.5,1.643534957885742,-0.001,-0.03,-0.2505,0.08060743663747208,10,1,100,-0.08888726667364535,-10,-1,-100,15026.796433268115,0.005213891605893967,0.008751249961338504,0.9999481141331465,24.122495820538774,0.02457374647440636,-29.642520745466346,10.844328096131035,-143.82952880859375,5356.25390625,True
1599559282.6844804,0.0,10,0.5,0.5,1.5636385040283203,-0.001,-0.03,-0.2505,0.08880911097110987,10,1,100,-0.07217883016410702,-10,-1,-100,15026.994675815804,0.005365510120591314,0.008677220164489054,0.999947957221456,24.062592230947047,0.024379014203531765,-29.063204661137956,10.658649669106385,-144.14974975585938,5356.25390625,True
1599559282.7183578,0.0,10,0.5,0.5,1.6365384521484374,-0.001,-0.03,-0.2505,0.08002061367330751,10,1,100,-0.08715750910912462,-10,-1,-100,15027.386278040824,0.0056357716469939735,0.008531248601558924,0.999947726571365,23.947506110043488,0.0239924655301927,-27.917574965628805,10.287300252751795,-144.5833740234375,5356.25390625,True
1599559282.753854,0.0,10,0.5,0.5,1.6011083755493163,-0.001,-0.03,-0.2505,0.07877058283537627,10,1,100,-0.08558407697087758,-10,-1,-100,15027.825731433579,0.005864049541641556,0.008388346258606393,0.9999476229133298,23.840670992199232,0.023617033704034507,-26.79081615721223,9.91595972075713,-144.74119567871094,5356.25390625,True
1599559282.7857704,0.0,10,0.5,0.5,1.5658721237182616,-0.001,-0.03,-0.2505,0.07788460278757725,10,1,100,-0.08345228215813345,-10,-1,-100,15028.220262927935,0.006048876948657597,0.008251673579491928,0.9999476591156146,23.743388583050805,0.023259807789629154,-25.683293303274688,9.544626980873677,-144.62319946289062,5356.25390625,True
1599559282.818682,0.0,10,0.5,0.5,1.519700500488281,-0.001,-0.03,-0.2505,0.07802670615126366,10,1,100,-0.08081895503666785,-10,-1,-100,15028.546434126096,0.006190254003652969,0.008129932118500879,0.9999477911166756,23.655611447610262,0.022926066626656645,-24.593751210563553,9.173300966218674,-144.229248046875,5356.25390625,True
1599559282.851391,0.0,10,0.5,0.5,1.4721094436645508,-0.001,-0.03,-0.2505,0.07717822674246924,10,1,100,-0.0779823480690103,-10,-1,-100,15028.912644408876,0.006290154215432355,0.008012869868291283,0.9999481125920584,23.576069387598555,0.02261958399973221,-23.519722977331742,8.801980648715531,-143.5594940185547,5356.25390625,True
1599559282.9032521,0.0,10,0.5,0.5,1.4164006271362304,-0.001,-0.03,-0.2505,0.07655606050878744,10,1,100,-0.0747705565786275,-10,-1,-100,15029.235885209404,0.00634932435323878,0.007902065735140353,0.9999486203987556,23.50197278865945,0.02234241747284686,-22.45750423764012,8.430665011777075,-142.61395263671875,5356.25390625,True
1599559282.9341693,0.0,10,0.5,0.5,1.6621299743652345,-0.001,-0.03,-0.2505,0.08749309510867379,10,1,100,-0.06910510095633753,-10,-1,-100,15029.235885209404,0.00634932435323878,0.007902065735140353,0.9999486203987556,23.50197278865945,0.02234241747284686,-22.45750423764012,8.430665011777075,-142.61395263671875,5356.25390625,True
1599559282.9850302,0.0,10,0.5,0.5,1.179631591796875,-0.001,-0.03,-0.2505,0.07022849169502327,10,1,100,-0.07075599757901067,-10,-1,-100,15029.746624659863,0.006362456191877445,0.007746261721635132,0.9999497560280448,23.391670158556636,0.021982530856238594,-20.876459903795674,7.8736988428275705,-140.67852783203125,5356.25390625,True
1599559283.0185091,0.0,10,0.5,0.5,1.0147534713745117,-0.001,-0.03,-0.2505,0.06917638845840886,10,1,100,-0.06121337106894223,-10,-1,-100,15030.183143787435,0.00628629117235059,0.007596120611340934,0.9999513895659902,23.264006335700174,0.021684012446097065,-19.294756234547023,7.316740180259289,-138.12269592285156,5356.25390625,True
1599559283.055984,0.0,10,0.5,0.5,1.1226768569946288,-0.001,-0.03,-0.2505,0.07320790526562734,10,1,100,-0.058166628933682046,-10,-1,-100,15030.481968290289,0.006188377681036123,0.007497328963275466,0.999952745903572,23.15589036620333,0.021511249765700062,-18.23102757454582,6.945437455999398,-136.07421875,5356.25390625,True
1599559283.0859053,0.0,10,0.5,0.5,1.6115937957763673,-0.001,-0.03,-0.2505,0.08296908095205281,10,1,100,-0.06804026482117324,-10,-1,-100,15030.481968290289,0.006188377681036123,0.007497328963275466,0.999952745903572,23.15589036620333,0.021511249765700062,-18.23102757454582,6.945437455999398,-136.07421875,5356.25390625,True
1599559283.1257966,0.0,10,0.5,0.5,1.001552177429199,-0.001,-0.03,-0.2505,0.07171342248549882,10,1,100,-0.05364815006177377,-10,-1,-100,15030.736847048509,0.0060570379050106345,0.007395944722341596,0.9999543051027289,23.017885588708,0.021349885848597,-17.15404582197669,6.574136419636748,-133.75010681152344,5356.25390625,True
1599559283.1567135,0.0,10,0.5,0.5,0.5440474853515624,-0.001,-0.03,-0.2505,0.06386702091532676,10,1,100,-0.03738222002660445,-10,-1,-100,15031.105980670662,0.005789590573428316,0.007233348490433118,0.9999570787341865,22.728704464827043,0.021101756254914943,-15.504151896578707,6.0171857480029045,-129.7472381591797,5356.25390625,True
1599559283.189628,0.0,10,0.5,0.5,0.7443724136352536,-0.001,-0.03,-0.2505,0.0670990685936067,10,1,100,-0.04043501475117885,-10,-1,-100,15031.347186274128,0.005574445029827093,0.0071158417358543734,0.9999591443449076,22.462534928229694,0.020910582203781936,-14.377438548323719,5.6458838727767935,-126.7342529296875,5356.25390625,True
1599559283.2195475,0.0,10,0.5,0.5,0.6243416061401368,-0.001,-0.03,-0.2505,0.06467842559715864,10,1,100,-0.03495269977493902,-10,-1,-100,15031.587414549896,0.005329578771290915,0.006987933468435665,0.9999613814422843,22.119381672341685,0.02067523564626552,-13.227013862781911,5.274578732988164,-123.46467590332031,5356.25390625,True
1599559283.2526493,0.0,10,0.5,0.5,0.9528794364929201,-0.001,-0.03,-0.2505,0.069794285525662,10,1,100,-0.04476130585235011,-10,-1,-100,15031.646005259478,0.00519701547827462,0.0069190928032231026,0.9999625578914937,21.915643444449856,0.02053500267766005,-12.644046936918647,5.08892417096895,-121.75411224365234,5356.25390625,True
1599559283.286578,0.0,10,0.5,0.5,0.42110428619384765,-0.001,-0.03,-0.2505,0.06027281111201109,10,1,100,-0.026609875952787895,-10,-1,-100,15031.830568747595,0.004912537948150116,0.006770845133752962,0.9999650107014157,21.438996559538513,0.020199168723733302,-11.46677914417005,4.717609231098129,-118.18476104736328,5356.25390625,True
1599559283.322482,0.0,10,0.5,0.5,1.2419391860961915,-0.001,-0.03,-0.2505,0.0749844559988864,10,1,100,-0.05491395032472936,-10,-1,-100,15031.830568747595,0.004912537948150116,0.006770845133752962,0.9999650107014157,21.438996559538513,0.020199168723733302,-11.46677914417005,4.717609231098129,-118.18476104736328,5356.25390625,True
1599559283.372269,0.0,10,0.5,0.5,-0.27522071838378914,-0.001,-0.03,-0.2505,0.04706678926919815,10,1,100,-0.0030505656895998337,-10,-1,-100,15032.115714917192,0.0044423707407796,0.006517934905835689,0.9999688904494802,20.55890151953388,0.019542320416344537,-9.698060316598607,4.160616930656475,-112.4206314086914,5356.25390625,True
1599559283.4021897,0.0,10,0.5,0.5,0.06936033248901374,-0.001,-0.03,-0.2505,0.051171379812279295,10,1,100,-0.012274247920107242,-10,-1,-100,15032.285629926366,0.004100473954748808,0.0063263111451257285,0.9999715815465167,19.9042817782055,0.019023782925703402,-8.55138269708555,3.7892693413478478,-108.35610961914062,5356.25390625,True
1599559283.4321103,0.0,10,0.5,0.5,0.48368703842163074,-0.001,-0.03,-0.2505,0.05896760594271061,10,1,100,-0.027782105400716097,-10,-1,-100,15032.343243534095,0.00393253731156843,0.006224047070955276,0.9999728978269118,19.568623546865844,0.01874833087387988,-7.9952687028725595,3.6035883501307597,-106.28580474853516,5356.25390625,True
1599559283.465021,0.0,10,0.5,0.5,-0.6443781967163086,-0.001,-0.03,-0.2505,0.03218462942043662,10,1,100,0.014267966179976423,-10,-1,-100,15032.517061243649,0.0033996450219158517,0.005888755655045393,0.999976882218064,18.392419383726406,0.017721061798056163,-6.353130767942136,3.046510898086954,-100.09371185302734,5356.25390625,True
1599559283.696401,0.0,10,0.5,0.5,0.28091300201416014,-0.001,-0.03,-0.2505,0.051971610379716385,10,1,100,-0.018326746068952578,-10,-1,-100,15032.616666950868,0.0032139288634793124,0.00576519709390922,0.9999782163446006,17.948120551241036,0.017312901733675477,-5.821780485232902,2.8608045091311802,-98.00679779052734,5356.25390625,True
1599559283.7313094,0.0,10,0.5,0.5,-0.3516731643676757,-0.001,-0.03,-0.2505,0.03589224760237544,10,1,100,0.0035719378966002843,-10,-1,-100,15032.678183638724,0.002848358557677386,0.005508029787079168,0.999980774045877,17.060132574614236,0.016476696470972996,-4.815320593110968,2.489371331794651,-93.79154205322266,5356.25390625,True
1599559283.8559787,0.0,10,0.5,0.5,-0.43396097183227544,-0.001,-0.03,-0.2505,0.03101175806578863,10,1,100,0.008098693149563137,-10,-1,-100,15032.777786196442,0.0024773478559870178,0.00523133488685449,0.9999832478011329,16.203568338963912,0.015650745024505506,-3.891138992881026,2.1179169522619286,-89.6588134765625,5356.25390625,True
1599559283.9407482,0.0,10,0.5,0.5,-2.0699998474121095,-0.001,-0.03,-0.2505,-0.025884445991549786,10,1,100,0.07263695842901204,-10,-1,-100,15032.956482493551,0.0015559468345601511,0.00446415275756678,0.9999888251223638,17.340258624554462,0.016719985256162452,-2.3382652548069482,1.1892413728325018,-79.44064331054688,5356.25390625,True
1599559284.038487,0.0,10,0.5,0.5,-1.5846406631469727,-0.001,-0.03,-0.2505,-0.02218229794030588,10,1,100,0.0584618216478657,-10,-1,-100,15032.976980769075,0.0008504844845858884,0.0038026021132671305,0.9999924084178388,18.519428158691596,0.017897407754857216,-0.9372096374253109,0.44630272230059687,-71.69769287109375,5356.25390625,True
1599559284.072397,0.0,10,0.5,0.5,-1.1239175567626953,-0.001,-0.03,-0.2505,-0.009388148172303407,10,1,100,0.04190471741773266,-10,-1,-100,15032.99553030869,0.00036336698075919023,0.003320201291813368,0.9999944220983531,19.117348088972733,0.018508325168686994,0.24041975319394046,-0.11090543944739606,-66.3719482421875,5356.25390625,True
1599559284.1202693,0.0,10,0.5,0.5,-1.1326135787963867,-0.001,-0.03,-0.2505,-0.011845195768976295,10,1,100,0.042829998403525985,-10,-1,-100,15033.001385790529,-8.37431489837557e-05,0.0028624552431055932,0.9999958996601267,19.64537150998175,0.01902317218476796,1.4884131719439628,-0.6681320472666401,-61.650848388671875,5356.25390625,True
1599559284.1691382,0.0,10,0.5,0.5,-0.8073976898193359,-0.001,-0.03,-0.2505,0.0017086635197556196,10,1,100,0.029203664524010797,-10,-1,-100,15032.90763370134,-0.0003622164917637836,0.002572862537507661,0.9999966245830915,19.907627397506385,0.01927544242936365,2.3469678681475417,-1.0396289210595833,-58.84722900390625,5356.25390625,True
1599559284.2040443,0.0,10,0.5,0.5,-0.8894518585205078,-0.001,-0.03,-0.2505,-0.00011250384819079876,10,1,100,0.03087767363294238,-10,-1,-100,15032.868569856859,-0.0006265353494209028,0.0022964526005351356,0.9999971668754415,20.10328622504351,0.019462024055037896,3.217025362459996,-1.4111367829146766,-56.319061279296875,5356.25390625,True
1599559284.2711751,0.0,10,0.5,0.5,-0.9745690078735352,-0.001,-0.03,-0.2505,-0.002299163779601026,10,1,100,0.03270166118954887,-10,-1,-100,15032.82950638025,-0.0008792623135683526,0.002028862653429492,0.9999975553040704,20.24794294639133,0.019598285378602795,4.093326332194493,-1.782655283006585,-54.05853271484375,5356.25390625,True
1599559284.3010943,0.0,10,0.5,0.5,-1.287258010864258,-0.001,-0.03,-0.2505,-0.018487757672355148,10,1,100,0.04752467252745215,-10,-1,-100,15032.70938855398,-0.0012398788319238057,0.0016419390234007933,0.9999978833661227,20.400113637129785,0.019740956939886242,5.413569574335093,-2.3399516252390162,-51.112823486328125,5356.25390625,True
1599559284.354562,0.0,10,0.5,0.5,-0.9064412155151368,-0.001,-0.03,-0.2505,0.006085298181118828,10,1,100,0.024638573956744854,-10,-1,-100,15032.627357181977,-0.0013556076727901485,0.0015173301021067472,0.999997930016457,20.445387159434333,0.01978434305875096,5.856401892036758,-2.525721506231042,-50.25238037109375,5356.25390625,True
1599559284.3974476,0.0,10,0.5,0.5,-1.3715511474609374,-0.001,-0.03,-0.2505,-0.021283193477434424,10,1,100,0.05027480335297921,-10,-1,-100,15032.45157584839,-0.0016900505533339837,0.0011588727037480143,0.9999979003693876,20.55925226667537,0.0198989369436052,7.188789013568903,-3.083042847594871,-48.06536865234375,5356.25390625,True
1599559284.428329,0.0,10,0.5,0.5,-0.9484850463867188,-0.001,-0.03,-0.2505,0.014155300140128215,10,1,100,0.017247255139527788,-10,-1,-100,15032.45157584839,-0.0016900505533339837,0.0011588727037480143,0.9999979003693876,20.55925226667537,0.0198989369436052,7.188789013568903,-3.083042847594871,-48.06536865234375,5356.25390625,True
1599559284.4592545,0.0,10,0.5,0.5,-1.324719451904297,-0.001,-0.03,-0.2505,-0.01148663765819274,10,1,100,0.040970781032016214,-10,-1,-100,15032.343177655712,-0.0019027680638221565,0.0009287689783576591,0.9999977584284279,20.630937357554572,0.019976643208949645,8.083493509195117,-3.454598485799173,-46.94366455078125,5356.25390625,True
1599559284.4871807,0.0,10,0.5,0.5,-1.332845718383789,-0.001,-0.03,-0.2505,-0.01163154002648736,10,1,100,0.04252881406428459,-10,-1,-100,15032.163490728359,-0.0021078085986062007,0.0007208790547773027,0.9999975187350717,20.704673540651623,0.020061291366936865,8.985218597175493,-3.8261592575675643,-46.089385986328125,5356.25390625,True
1599559284.5206058,0.0,10,0.5,0.5,-1.3273055114746093,-0.001,-0.03,-0.2505,-0.014978035996394629,10,1,100,0.04400537390196866,-10,-1,-100,15032.00138229446,-0.0023053858327712184,0.0005038285447387636,0.9999972156726036,20.781183935290034,0.02015369422520409,9.89457215218539,-4.197723847897466,-45.502471923828125,5356.25390625,True
1599559284.552661,0.0,10,0.5,0.5,-1.2772741241455077,-0.001,-0.03,-0.2505,-0.004014862633737064,10,1,100,0.03505078849927995,-10,-1,-100,15031.920327836415,-0.0024015765031842576,0.0004083193177264031,0.9999970328484149,20.82129061544367,0.02020347016914704,10.352624050577289,-4.383507235550092,-45.3094482421875,5356.25390625,True
1599559284.5905817,0.0,10,0.5,0.5,-1.3149413452148437,-0.001,-0.03,-0.2505,-0.015297592122628413,10,1,100,0.046181707922755784,-10,-1,-100,15031.74064133258,-0.0025883587801264186,0.0002208902461977733,0.9999966257974696,20.906933258501844,0.020311171494310803,11.27680250929173,-4.755075392853497,-45.12890625,5356.25390625,True
1599559284.6334686,0.0,10,0.5,0.5,-1.2795006866455076,-0.001,-0.03,-0.2505,-0.01604908655175342,10,1,100,0.047544899889467127,-10,-1,-100,15031.562908183434,-0.002768770028470572,4.5555288501825545e-05,0.9999961659112724,21.000948511866614,0.020429402957224892,12.213173947545725,-5.126644586162477,-45.223480224609375,5356.25390625,True
1599559284.6864164,0.0,10,0.5,0.5,-1.1641124877929685,-0.001,-0.03,-0.2505,-0.02508186039476627,10,1,100,0.05791989065807109,-10,-1,-100,15031.232832414098,-0.0030253806178481093,-0.00019415324673558224,0.9999954046777585,21.15651196462948,0.02062008945881407,13.642177134440171,-5.683998587895786,-45.881866455078125,5356.25390625,True
1599559284.7228367,0.0,10,0.5,0.5,-1.0232719268798827,-0.001,-0.03,-0.2505,-0.023780640974896104,10,1,100,0.05891357978808264,-10,-1,-100,15030.846115305321,-0.003266073325931499,-0.00039857165470700927,0.9999945869381822,21.32290141792015,0.020810346479140984,15.09878767189957,-6.241350053277145,-47.1600341796875,5356.25390625,True
1599559284.7547483,0.0,10,0.5,0.5,-1.3527299804687498,-0.001,-0.03,-0.2505,-0.0035303903534347762,10,1,100,0.03503535554505783,-10,-1,-100,15030.846115305321,-0.003266073325931499,-0.00039857165470700927,0.9999945869381822,21.32290141792015,0.020810346479140984,15.09878767189957,-6.241350053277145,-47.1600341796875,5356.25390625,True
1599559284.7876844,0.0,10,0.5,0.5,-1.054579284667969,-0.001,-0.03,-0.2505,-0.015861624142873943,10,1,100,0.05175102599900759,-10,-1,-100,15030.59904688492,-0.0034166012184468626,-0.0005092579215578608,0.9999940337284435,21.43322405626915,0.020923022491566055,16.081258188231395,-6.6129148974582455,-48.3563232421875,5356.25390625,True
1599559284.8216739,0.0,10,0.5,0.5,-1.1769553527832028,-0.001,-0.03,-0.2505,-0.010342542130639414,10,1,100,0.04477468790681801,-10,-1,-100,15030.44670397113,-0.0034884539101999127,-0.0005581918452880429,0.9999937595361185,21.486103624446454,0.020970998921933087,16.57427109253995,-6.798696081754734,-49.05780029296875,5356.25390625,True
1599559284.8572237,0.0,10,0.5,0.5,-0.7131773986816407,-0.001,-0.03,-0.2505,-0.01953214262631673,10,1,100,0.06010431967181581,-10,-1,-100,15030.046315407148,-0.003691693295251413,-0.0006848672706183243,0.9999929511538745,21.624680548603095,0.02106170066204579,18.05014776377849,-7.3560340239123665,-51.5753173828125,5356.25390625,True
1599559284.9200287,0.0,10,0.5,0.5,-0.8186626586914062,-0.001,-0.03,-0.2505,-0.01391147015019972,10,1,100,0.053538022339180674,-10,-1,-100,15029.728933511302,-0.0038153228652773254,-0.0007476517744762477,0.9999924421355683,21.689301281144637,0.021059329257534613,19.019635980749815,-7.727587598660238,-53.59796142578125,5356.25390625,True
1599559284.953937,0.0,10,0.5,0.5,-0.09783500671386691,-0.001,-0.03,-0.2505,-0.01602425333140095,10,1,100,0.06472714254429299,-10,-1,-100,15029.0531550491,-0.004028059988045079,-0.0008227980066132665,0.9999915488323755,21.707877607201418,0.020837996338759875,20.86902585309784,-8.470682520137364,-58.382110595703125,5356.25390625,True
1599559284.9889693,0.0,10,0.5,0.5,-1.25704638671875,-0.001,-0.03,-0.2505,-0.00863274185013304,10,1,100,0.04361607861600367,-10,-1,-100,15029.0531550491,-0.004028059988045079,-0.0008227980066132665,0.9999915488323755,21.707877607201418,0.020837996338759875,20.86902585309784,-8.470682520137364,-58.382110595703125,5356.25390625,True
1599559285.020881,0.0,10,0.5,0.5,-0.8832633361816407,-0.001,-0.03,-0.2505,-0.009925642381407388,10,1,100,0.04880755431487828,-10,-1,-100,15028.885186642874,-0.004073946402391286,-0.0008336028403041142,0.9999913539961308,21.683578988625438,0.020730105584389067,21.303525559001653,-8.656454440050023,-59.710235595703125,5356.25390625,True
1599559285.053476,0.0,10,0.5,0.5,-0.4700130157470701,-0.001,-0.03,-0.2505,-0.009772176529561086,10,1,100,0.05305436978156793,-10,-1,-100,15028.51116392063,-0.004153082213881452,-0.0008412310376164585,0.9999910220789313,21.591327470420353,0.020443964958333637,22.124838993565998,-9.02799690337357,-62.50341796875,5356.25390625,True
1599559285.0874007,0.0,10,0.5,0.5,0.02946257019042986,-0.001,-0.03,-0.2505,-0.008171705487289248,10,1,100,0.05607937409218566,-10,-1,-100,15027.972102683154,-0.004251498716609007,-0.0008330277731607721,0.9999906153676603,21.335266666816164,0.0198435348188743,23.2144879678234,-9.585311186045937,-67.07321166992188,5356.25390625,True
1599559285.132317,0.0,10,0.5,0.5,-1.0555312194824218,-0.001,-0.03,-0.2505,-0.009035477544703257,10,1,100,0.04633626635849796,-10,-1,-100,15027.972102683154,-0.004251498716609007,-0.0008330277731607721,0.9999906153676603,21.335266666816164,0.0198435348188743,23.2144879678234,-9.585311186045937,-67.07321166992188,5356.25390625,True
1599559285.1872056,0.0,10,0.5,0.5,0.702424301147461,-0.001,-0.03,-0.2505,-0.003615184111672687,10,1,100,0.05461056694638532,-10,-1,-100,15027.14104865177,-0.004325823789780094,-0.0007833574182073544,0.9999903367531585,20.710165110600784,0.018718562502486484,24.284914596432802,-10.328408106168762,-73.8255615234375,5356.25390625,True
1599559285.2212071,0.0,10,0.5,0.5,0.41461265563964833,-0.001,-0.03,-0.2505,-0.002203976500437292,10,1,100,0.04906863384059855,-10,-1,-100,15026.533626803313,-0.0043421842620909,-0.0007251242086051534,0.9999903097684077,20.066030346091914,0.0177402509444208,24.80226752522446,-10.885747143505167,-79.10287475585938,5356.25390625,True
1599559285.2558935,0.0,10,0.5,0.5,-0.3630868988037108,-0.001,-0.03,-0.2505,-0.005666184934511389,10,1,100,0.04701422854183726,-10,-1,-100,15026.309993947158,-0.004337604888428447,-0.0007035077925826287,0.9999903450837001,19.832861934711737,0.017416365259242336,24.933472832813223,-11.071530736550633,-80.9085693359375,5356.25390625,True
1599559285.2862546,0.0,10,0.5,0.5,-0.28117152404785156,-0.001,-0.03,-0.2505,-0.005289019807445438,10,1,100,0.046587455077988754,-10,-1,-100,15026.08733777795,-0.004328974870342888,-0.0006804107854779482,0.9999903984627727,19.58692123299921,0.01709488375308092,25.038547199452744,-11.25731618374727,-82.68289184570312,5356.25390625,True
1599559285.3203893,0.0,10,0.5,0.5,-0.1996257019042968,-0.001,-0.03,-0.2505,-0.004980601902913737,10,1,100,0.046235608504607555,-10,-1,-100,15025.867611003341,-0.004317463837775219,-0.0006566708353315853,0.9999904640992451,19.33276798871451,0.016782044998684565,25.122603409659,-11.44310340845083,-84.42745971679688,5356.25390625,True
1599559285.353533,0.0,10,0.5,0.5,0.740818099975586,-0.001,-0.03,-0.2505,0.001133175893699696,10,1,100,0.04080510527353979,-10,-1,-100,15025.116633356316,-0.00425736795711333,-0.0005796602890213894,0.9999907693634111,18.518404998141367,0.015911145669462574,25.239844456497327,-12.000474398959824,-89.59375,5356.25390625,True
1599559285.3904064,0.0,10,0.5,0.5,0.4236212081909179,-0.001,-0.03,-0.2505,-0.0007073149250814122,10,1,100,0.04017639380624122,-10,-1,-100,15024.659601724707,-0.00419681131774611,-0.0005266034704715775,0.9999910546917649,18.48724902878747,0.015878867058297975,25.979983574359558,-12.372056958540993,-93.10597229003906,5356.25390625,True
1599559285.4204712,0.0,10,0.5,0.5,-0.35600326538085936,-0.001,-0.03,-0.2505,-0.00598229684307934,10,1,100,0.04624434423449874,-10,-1,-100,15024.659601724707,-0.00419681131774611,-0.0005266034704715775,0.9999910546917649,18.48724902878747,0.015878867058297975,25.979983574359558,-12.372056958540993,-93.10597229003906,5356.25390625,True
1599559285.4544003,0.0,10,0.5,0.5,0.6237583503723145,-0.001,-0.03,-0.2505,-0.00024656606124033153,10,1,100,0.03798373359951097,-10,-1,-100,15024.14495215111,-0.004121675103697253,-0.000474746488424991,0.9999913931680168,19.280467957948957,0.01664514215451557,27.91107211719347,-12.743626315688887,-96.63660430908203,5356.25390625,True
1599559285.4874432,0.0,10,0.5,0.5,0.688692008972168,-0.001,-0.03,-0.2505,0.0002521301451484433,10,1,100,0.03569441559169553,-10,-1,-100,15023.63323239144,-0.004032675494138981,-0.0004233958858561378,0.9999917790983498,20.010130689650925,0.01744215793985509,29.814830250573984,-13.115178466262035,-100.0587387084961,5356.25390625,True
1599559285.525978,0.0,10,0.5,0.5,1.2163269996643067,-0.001,-0.03,-0.2505,0.003242460861993272,10,1,100,0.02666902996803993,-10,-1,-100,15022.812917988515,-0.00386991672816411,-0.00034990108781068614,0.9999924506283764,21.081026856819907,0.018755224280540828,32.75004296359406,-13.672469188909872,-105.1717529296875,5356.25390625,True
1599559285.55792,0.0,10,0.5,0.5,0.029555511474609376,-0.001,-0.03,-0.2505,-0.004063673309512229,10,1,100,0.04289931585936543,-10,-1,-100,15022.812917988515,-0.00386991672816411,-0.00034990108781068614,0.9999924506283764,21.081026856819907,0.018755224280540828,32.75004296359406,-13.672469188909872,-105.1717529296875,5356.25390625,True
1599559285.5898068,0.0,10,0.5,0.5,1.324269058227539,-0.001,-0.03,-0.2505,0.003147693988975336,10,1,100,0.022304047168367768,-10,-1,-100,15021.937916250667,-0.0036831163469131555,-0.00028468431520697597,0.9999931767811298,22.006603409538172,0.02006213204107752,35.58676082117745,-14.229709977465514,-110.00875854492188,5356.25390625,True
1599559285.6546366,0.0,10,0.5,0.5,0.19989971923828123,-0.001,-0.03,-0.2505,-0.003332100923658115,10,1,100,0.04091863643931168,-10,-1,-100,15021.937916250667,-0.0036831163469131555,-0.00028468431520697597,0.9999931767811298,22.006603409538172,0.02006213204107752,35.58676082117745,-14.229709977465514,-110.00875854492188,5356.25390625,True
1599559285.684554,0.0,10,0.5,0.5,1.7226738319396973,-0.001,-0.03,-0.2505,0.004631317479715852,10,1,100,0.009553601726437821,-10,-1,-100,15020.7689683832,-0.00339856681181742,-0.0002126493537856408,0.999994202245132,23.06197163918036,0.021730324252383783,39.24852424370236,-14.972619343469855,-115.7375717163086,5356.25390625,True
1599559285.7284367,0.0,10,0.5,0.5,1.0198516502380373,-0.001,-0.03,-0.2505,0.0007277145822100618,10,1,100,0.020505385833859354,-10,-1,-100,15020.174240398454,-0.0032402824509123636,-0.00018305398018133957,0.9999947335165713,23.50456615844293,0.022486758428872534,40.998363880179234,-15.344041692709517,-118.27560424804688,5356.25390625,True
1599559285.7638676,0.0,10,0.5,0.5,1.075902114868164,-0.001,-0.03,-0.2505,0.0004781358386096303,10,1,100,0.01844568561632743,-10,-1,-100,15019.574629812618,-0.003078587653117659,-0.0001587785439454697,0.9999952485324297,23.892687112194274,0.023175458236841744,42.68860405502087,-15.71544434809153,-120.68428039550781,5356.25390625,True
1599559285.798773,0.0,10,0.5,0.5,0.5552636642456055,-0.001,-0.03,-0.2505,-0.001912625292324745,10,1,100,0.034503343029335026,-10,-1,-100,15019.574629812618,-0.003078587653117659,-0.0001587785439454697,0.9999952485324297,23.892687112194274,0.023175458236841744,42.68860405502087,-15.71544434809153,-120.68428039550781,5356.25390625,True
1599559285.8386645,0.0,10,0.5,0.5,1.1836571884155274,-0.001,-0.03,-0.2505,0.00035355560489379106,10,1,100,0.016024323278805614,-10,-1,-100,15018.9213081731,-0.0029116131314443267,-0.00013851128572214312,0.999995751652774,24.23002826217283,0.02378958480294021,44.31908808429744,-16.086828474732386,-122.85389709472656,5356.25390625,True
1599559285.9309347,0.0,10,0.5,0.5,1.196626335144043,-0.001,-0.03,-0.2505,5.0516028940546156e-05,10,1,100,0.01351268324646272,-10,-1,-100,15018.268963229028,-0.002738085076876592,-0.00012314707912115103,0.9999962438554001,24.518241453093474,0.024324853342774688,45.88646625385627,-16.45819559763214,-124.75372314453125,5356.25390625,True
1599559285.9578617,0.0,10,0.5,0.5,1.587089729309082,-0.001,-0.03,-0.2505,0.00015405745908568568,10,1,100,-0.009443374955491298,-10,-1,-100,15016.87735920155,-0.0023728177621765803,-0.00010851128630687058,0.999997178976605,24.985972149188747,0.025189571937749126,48.882663618334,-17.200884087946704,-127.90396118164062,5356.25390625,True
1599559285.9927702,0.0,10,0.5,0.5,1.2911221008300782,-0.001,-0.03,-0.2505,-0.0013015449833940107,10,1,100,-0.004390623561648051,-10,-1,-100,15015.862708828063,-0.0020880516696351334,-0.0001086582148632527,0.9999978141144196,25.267090936285612,0.025687070046768477,51.04185205844681,-17.7578649225978,-129.5937042236328,5356.25390625,True
1599559286.0306683,0.0,10,0.5,0.5,1.1380138320922852,-0.001,-0.03,-0.2505,-0.0014232392572594362,10,1,100,0.003075009321496666,-10,-1,-100,15015.126379866502,-0.0018986626708610691,-0.00011011740956141979,0.9999981914754739,25.430394308188124,0.025963742767226728,52.451830663359665,-18.129170049355437,-130.3766326904297,5356.25390625,True
1599559286.0984864,0.0,10,0.5,0.5,1.1305897521972657,-0.001,-0.03,-0.2505,-0.0015679053751902455,10,1,100,0.0008795819672280623,-10,-1,-100,15014.404698963277,-0.0017081546539149798,-0.00011291779390971137,0.9999985347275514,25.57987246770214,0.026209065396497627,53.84687576471901,-18.500463761098516,-130.88397216796875,5356.25390625,True
1599559286.170294,0.0,10,0.5,0.5,1.127524383544922,-0.001,-0.03,-0.2505,-0.001978593377088449,10,1,100,-0.011837470328913979,-10,-1,-100,15013.24844841531,-0.0014211514009926966,-0.0001193532765356849,0.9999989830412284,25.78497907465612,0.026540405890120338,55.92239415293,-19.057383536129162,-131.1280975341797,5356.25390625,True
1599559286.2071948,0.0,10,0.5,0.5,1.0179499130249021,-0.001,-0.03,-0.2505,-0.0019386005334399352,10,1,100,-0.014591145548120797,-10,-1,-100,15012.081455156556,-0.0011370035921713087,-0.00012492495859635613,0.9999993458080791,25.97122894309083,0.026854119091575437,57.98269757978972,-19.614279721933848,-130.75198364257812,5356.25390625,True
1599559286.2430997,0.0,10,0.5,0.5,1.083401069641113,-0.001,-0.03,-0.2505,-0.0015657108056247948,10,1,100,0.0032072767870526733,-10,-1,-100,15011.718173585366,-0.0010424033134341158,-0.00012665306205463322,0.999999448677015,26.03047864459157,0.026960634769148055,58.66852605711598,-19.799906641484988,-130.48878479003906,5356.25390625,True
1599559286.3198972,0.0,10,0.5,0.5,0.8761637954711914,-0.001,-0.03,-0.2505,-0.0013009999199475298,10,1,100,-0.017848513525031664,-10,-1,-100,15010.494540125132,-0.0007668378611447043,-0.00012584680758499257,0.9999996980610922,26.206888265900336,0.027307059337502028,60.73854814403941,-20.356771976197397,-129.28567504882812,5356.25390625,True
1599559286.3518093,0.0,10,0.5,0.5,0.9149831237792969,-0.001,-0.03,-0.2505,-0.0012241962200488878,10,1,100,-0.010634145658375359,-10,-1,-100,15009.684969371185,-0.0005840105667529993,-0.00012444557146475021,0.9999998217224629,26.305019160732183,0.027550867338180872,62.08555588172588,-20.728003420530033,-128.13909912109375,5356.25390625,True
1599559286.420628,0.0,10,0.5,0.5,0.6568168029785154,-0.001,-0.03,-0.2505,-0.0005464871243188511,10,1,100,-0.021972455941154906,-10,-1,-100,15008.392000426073,-0.0003168443897940819,-0.00011702351567994537,0.9999999429575631,26.411598504128897,0.027941437890126944,64.02398572287669,-21.284834372946783,-125.90753173828125,5356.25390625,True
1599559286.4714885,0.0,10,0.5,0.5,0.24839208984375005,-0.001,-0.03,-0.2505,0.00094781983679541,10,1,100,-0.03306919712052715,-10,-1,-100,15006.666414464824,2.4712290265515752e-05,-9.669715037766696e-05,0.9999999950194819,26.450096583406847,0.028505048423213962,66.37119471768246,-22.027250715851682,-122.047119140625,5356.25390625,True
1599559286.5024064,0.0,10,0.5,0.5,0.6265881118774412,-0.001,-0.03,-0.2505,0.0007768727178635588,10,1,100,-0.01670456947222165,-10,-1,-100,15005.790437946911,0.00018426944801469802,-7.978344130763905e-05,0.9999999798396862,26.41073170326032,0.028793342613241808,67.39835373265691,-22.39845139482239,-119.77568054199219,5356.25390625,True
1599559286.5612514,0.0,10,0.5,0.5,0.552204002380371,-0.001,-0.03,-0.2505,0.0014618909803552297,10,1,100,-0.017597519220468576,-10,-1,-100,15004.857820821926,0.00033537338811833595,-5.8206153197285415e-05,0.9999999420683654,26.32696879288644,0.029075426018360703,68.30744905908816,-22.769649362660488,-117.33462524414062,5356.25390625,True
1599559286.5892053,0.0,10,0.5,0.5,0.8085007133483886,-0.001,-0.03,-0.2505,0.00071738341981483,10,1,100,-0.010553521605392635,-10,-1,-100,15004.42520378728,0.0004066733225673351,-4.5405879334934955e-05,0.9999999162775539,26.268743136501346,0.029211750496024837,68.71675438146488,-22.95524789662514,-116.07791900634766,5356.25390625,True
1599559286.6390429,0.0,10,0.5,0.5,0.07489260482788063,-0.001,-0.03,-0.2505,0.003922319290073181,10,1,100,-0.02645173640219902,-10,-1,-100,15002.992586575449,0.0006140980993314994,-4.694860561881137e-06,0.9999998114307237,26.025221924530292,0.02957859683460527,69.74606947004234,-23.51204402839954,-112.08589172363281,5356.25390625,True
1599559286.6759465,0.0,10,0.5,0.5,0.29728709793090824,-0.001,-0.03,-0.2505,0.003344223385492751,10,1,100,-0.01991262578296831,-10,-1,-100,15002.05899317516,0.0007413693912147112,2.695550426655133e-05,0.9999997248223754,25.793984106207542,0.029754223236971616,70.22808992100076,-23.883244032791183,-109.22115325927734,5356.25390625,True
1599559286.7098517,0.0,10,0.5,0.5,0.18489174270629882,-0.001,-0.03,-0.2505,0.004015254124929252,10,1,100,-0.02023858245035625,-10,-1,-100,15001.1127042023,0.0008583261962817159,6.169076950285548e-05,0.9999996297351261,25.55030134979253,0.029900908571493065,70.65652633732209,-24.25444762710991,-106.177734375,5356.25390625,True
1599559286.7969003,0.0,10,0.5,0.5,0.09204130935668942,-0.001,-0.03,-0.2505,0.004483060652773282,10,1,100,-0.0205718635999183,-10,-1,-100,15000.109774895478,0.0009659524572389062,9.734984830575272e-05,0.9999995287293176,25.26137119696082,0.029959370161936456,70.9376669730512,-24.625655482632148,-103.06722259521484,5356.25390625,True
1599559286.8328052,0.0,10,0.5,0.5,-0.8218013496398927,-0.001,-0.03,-0.2505,0.00916146203093126,10,1,100,-0.030595946420558545,-10,-1,-100,14998.102939352859,0.0011533472743709145,0.00017209520824083114,0.9999993200864208,24.54101513049852,0.029711703077493525,71.01521297974173,-25.368087202417666,-96.64825439453125,5356.25390625,True
1599559286.9061239,0.0,10,0.5,0.5,-0.13450844573974619,-0.001,-0.03,-0.2505,0.0058103763607441385,10,1,100,-0.020646491223076317,-10,-1,-100,14997.086337900604,0.0012316771901127893,0.00020931153774401444,0.9999992195796852,24.155829567600414,0.029418489313224907,70.93512624597723,-25.7393100974246,-93.36322021484375,5356.25390625,True
1599559286.949014,0.0,10,0.5,0.5,-0.6300530014038086,-0.001,-0.03,-0.2505,0.007923576397972289,10,1,100,-0.02333423180895161,-10,-1,-100,14995.513096558512,0.001325912462858899,0.0002620588057640516,0.9999990866402445,23.490506716049794,0.02865267353507319,70.49132218187842,-26.296151192958728,-88.50909423828125,5356.25390625,True
1599559286.999873,0.0,10,0.5,0.5,-0.647133934020996,-0.001,-0.03,-0.2505,0.007968332082350964,10,1,100,-0.021826157217269836,-10,-1,-100,14993.883213694906,0.0013966882143649887,0.0003100915956801263,0.9999989765520934,24.650238720448204,0.029840413376320304,75.55697228299863,-26.852954550503043,-84.00640869140625,5356.25390625,True
1599559287.0347793,0.0,10,0.5,0.5,-0.3452680740356446,-0.001,-0.03,-0.2505,0.006200032657647835,10,1,100,-0.018398518013596703,-10,-1,-100,14992.795323554194,0.0014287672513677234,0.00033732788716381323,0.9999989224164384,25.373037221049614,0.03043474281015252,78.86092334153234,-27.224121687425516,-81.1485595703125,5356.25390625,True
1599559287.0766685,0.0,10,0.5,0.5,-0.4148928146362305,-0.001,-0.03,-0.2505,0.006101951221985631,10,1,100,-0.017749476456059565,-10,-1,-100,14991.725011071074,0.0014510356400623723,0.00036083692633354396,0.9999988821455171,26.03139822325177,0.030859628676768124,82.02420178412392,-27.59526072668986,-78.45687866210938,5356.25390625,True
1599559287.1773975,0.0,10,0.5,0.5,-0.4892012481689453,-0.001,-0.03,-0.2505,0.0058994707307523315,10,1,100,-0.017000562552212575,-10,-1,-100,14990.581456522807,0.0014635219012793577,0.0003799987367442069,0.999998856851649,26.626379042298414,0.031134854035829506,85.04189570826021,-27.966372348160682,-75.92919921875,5356.25390625,True
1599559287.2152975,0.0,10,0.5,0.5,-0.8642325592041016,-0.001,-0.03,-0.2505,0.00631822787439814,10,1,100,-0.016045164041244984,-10,-1,-100,14988.9222765835,0.001465415403375141,0.0004008757260622205,0.999998845927508,27.423135120173566,0.03133310327839705,89.35297742206701,-28.522990001655906,-72.3516845703125,5356.25390625,True
1599559287.2721455,0.0,10,0.5,0.5,-0.6419082870483398,-0.001,-0.03,-0.2505,0.005161241964388908,10,1,100,-0.014902970259771931,-10,-1,-100,14987.725987540674,0.0014560949654377705,0.00040899682605869834,0.9999988562538698,27.899238277804013,0.03135634504368359,92.10268543975354,-28.89403656566786,-70.1121826171875,5356.25390625,True
1599559287.3040612,0.0,10,0.5,0.5,-0.9585532608032226,-0.001,-0.03,-0.2505,0.004831889413174786,10,1,100,-0.012763189183505372,-10,-1,-100,14985.99747199833,0.0014276258586475958,0.00041306979735668086,0.9999988956282653,28.534227631467026,0.031269187991604976,96.03814805468625,-29.450560538521007,-67.05276489257812,5356.25390625,True
1599559287.3570356,0.0,10,0.5,0.5,-0.744735366821289,-0.001,-0.03,-0.2505,0.004128919042171022,10,1,100,-0.012563769842611839,-10,-1,-100,14984.798253033543,0.0013995122462834879,0.00041009484066476627,0.9999989365932817,28.90110826180167,0.031144121691694414,98.5153241839564,-29.82154802253286,-65.2852783203125,5356.25390625,True
1599559287.400921,0.0,10,0.5,0.5,-0.9638320007324219,-0.001,-0.03,-0.2505,0.003151168637663798,10,1,100,-0.009341625075748955,-10,-1,-100,14983.001377965673,0.0013444384053701703,0.0003982853312380292,0.9999990169266014,29.38016081134932,0.030892723721164077,102.04346162762754,-30.377990141764066,-63.02777099609375,5356.25390625,True
1599559287.4607637,0.0,10,0.5,0.5,-0.48933276367187495,-0.001,-0.03,-0.2505,0.004351016959686906,10,1,100,-0.014860285288606454,-10,-1,-100,14983.001377965673,0.0013444384053701703,0.0003982853312380292,0.9999990169266014,29.38016081134932,0.030892723721164077,102.04346162762754,-30.377990141764066,-63.02777099609375,5356.25390625,True
1599559287.5246336,0.0,10,0.5,0.5,-1.2157025299072264,-0.001,-0.03,-0.2505,0.00022657026616674288,10,1,100,-0.0013540912089104688,-10,-1,-100,14979.879307466792,0.0012216379810615601,0.0003606665190010514,0.9999991887598235,30.019498714801955,0.030369115809050932,107.49367935518322,-31.30530027548831,-60.443572998046875,5356.25390625,True
1599559287.5570676,0.0,10,0.5,0.5,-0.7255793151855467,-0.001,-0.03,-0.2505,0.0028338493731095067,10,1,100,-0.01032853650473499,-10,-1,-100,14979.294346542913,0.0011917462345915042,0.0003501241589184413,0.9999992285766953,30.127398599205737,0.030252995881690652,108.52867208766386,-31.490749489846554,-60.099517822265625,5356.25390625,True
1599559287.5920062,0.0,10,0.5,0.5,-0.9007672576904296,-0.001,-0.03,-0.2505,3.689085339062719e-05,10,1,100,-0.0027290377649643264,-10,-1,-100,14977.371494737221,0.0010957010410906076,0.00031510166659884717,0.999999350074873,30.427550118633345,0.029893779182705377,111.57597533821209,-32.04707364232219,-59.31134033203125,5356.25390625,True
1599559287.6418426,0.0,10,0.5,0.5,-0.7984888763427734,-0.001,-0.03,-0.2505,0.002191702494338838,10,1,100,-0.008552442055319959,-10,-1,-100,14976.730869286926,0.001061650299273909,0.0003028938114621405,0.9999993905768049,30.519940163250006,0.029769493368991158,112.57238259441301,-32.23250747331595,-59.161346435546875,5356.25390625,True
1599559287.6717591,0.0,10,0.5,0.5,-0.8438000640869141,-0.001,-0.03,-0.2505,0.0003818543243894576,10,1,100,-0.003804537275422899,-10,-1,-100,14975.43301749602,0.0009878976465342146,0.0002754126915431238,0.9999994741029065,30.690946400705695,0.029508304189784198,114.52617584274877,-32.603364214127396,-59.03179931640625,5356.25390625,True
1599559287.7241027,0.0,10,0.5,0.5,-0.7861459655761719,-0.001,-0.03,-0.2505,-0.0015699366473877806,10,1,100,0.001937253621007471,-10,-1,-100,14973.453525045188,0.0008690857884004353,0.0002328003582683329,0.999999595246861,30.91509226013048,0.029076749555590902,117.36278117740828,-33.159623705392534,-59.2908935546875,5356.25390625,True
1599559287.759839,0.0,10,0.5,0.5,-0.8328261108398436,-0.001,-0.03,-0.2505,0.0009879721598194606,10,1,100,-0.0052188491114632946,-10,-1,-100,14972.743564376608,0.0008266641323713133,0.00021747576850930734,0.9999996346652845,30.981098530185665,0.02891932024425626,118.28182773748296,-33.345037129063726,-59.492431640625,5356.25390625,True
1599559287.7927244,0.0,10,0.5,0.5,-0.7612386779785156,-0.001,-0.03,-0.2505,-0.0008298979463382938,10,1,100,0.00018381714695241136,-10,-1,-100,14971.391024710843,0.0007395301715649471,0.00018719604415316576,0.9999997090263408,31.100027662368884,0.028580028984833056,120.07844454016158,-33.71585490541585,-60.0679931640625,5356.25390625,True
1599559287.8266335,0.0,10,0.5,0.5,-0.7200099182128907,-0.001,-0.03,-0.2505,-0.0010390125977360774,10,1,100,0.0015230211161529027,-10,-1,-100,14970.040438905824,0.0006487428820888993,0.00015797061499534047,0.999999777088954,31.199760708550304,0.02820246046176119,121.81106752183909,-34.08666112244705,-60.867431640625,5356.25390625,True
1599559287.908414,0.0,10,0.5,0.5,-0.519674560546875,-0.001,-0.03,-0.2505,-0.0034001502783949154,10,1,100,0.008624055552921877,-10,-1,-100,14967.974032134516,0.0005022865745248482,0.00011015562295154867,0.9999998677869592,31.30858210837563,0.027551954032432928,124.26566560842218,-34.64285133838834,-62.48602294921875,5356.25390625,True
1599559287.97025,0.0,10,0.5,0.5,-0.4013531036376953,-0.001,-0.03,-0.2505,-0.0037021344111811453,10,1,100,0.011029325565292143,-10,-1,-100,14965.913485257188,0.000348043978291295,6.420407416666902e-05,0.9999999373716111,31.35929107608648,0.026787219273513557,126.50169559281917,-35.19902185550953,-64.57510375976562,5356.25390625,True
1599559288.0071476,0.0,10,0.5,0.5,-0.2812514038085937,-0.001,-0.03,-0.2505,-0.003841547172253276,10,1,100,0.01334234563573603,-10,-1,-100,14963.780672789784,0.0001875901574410934,2.1432061484153944e-05,0.9999999821752996,31.341906000065528,0.025905275164375435,128.46707980235493,-35.75517738143342,-67.08413696289062,5356.25390625,True
1599559288.0470443,0.0,10,0.5,0.5,-0.42215229797363274,-0.001,-0.03,-0.2505,-0.00255193883962664,10,1,100,0.009421947356024286,-10,-1,-100,14962.28750866279,7.827590109933544e-05,-5.429063296586443e-06,0.9999999969217043,31.29002596860656,0.025259608871370156,129.61029949761698,-36.12594153525592,-68.93963623046875,5356.25390625,True
1599559288.0949142,0.0,10,0.5,0.5,-0.10444494628906242,-0.001,-0.03,-0.2505,-0.0037685483646420718,10,1,100,0.016907753161237712,-10,-1,-100,14960.153719559428,-8.822854367693816e-05,-4.0616962661131235e-05,0.9999999952829932,31.150057321934195,0.024227852534916244,131.05696618255848,-36.68208196870455,-71.9361572265625,5356.25390625,True
1599559288.1577463,0.0,10,0.5,0.5,-0.2815133056640625,-0.001,-0.03,-0.2505,-0.002653996422325133,10,1,100,0.012781152602481138,-10,-1,-100,14958.661532044876,-0.00020103632580944453,-6.216138917681499e-05,0.9999999778601786,31.014346045417966,0.02351613769649572,131.8322674457106,-37.05284009704363,-74.0643310546875,5356.25390625,True
1599559288.193651,0.0,10,0.5,0.5,-0.4911755065917968,-0.001,-0.03,-0.2505,-0.0016051069931273115,10,1,100,0.007871948440456553,-10,-1,-100,14957.884188301861,-0.00025787887720936896,-7.190498748862008e-05,0.9999999641640781,30.93233281975335,0.02315779988368396,132.15538159986468,-37.238219207179,-75.17108154296875,5356.25390625,True
1599559288.223571,0.0,10,0.5,0.5,0.42888790893554674,-0.001,-0.03,-0.2505,-0.004280150996939187,10,1,100,0.02702437541253301,-10,-1,-100,14954.898836967768,-0.00048264238307762277,-0.00010480438112877181,0.9999998780361785,30.514046022498707,0.021761743342714922,133.0213191667398,-37.97973841671079,-79.7423095703125,5356.25390625,True
1599559288.2654946,0.0,10,0.5,0.5,-0.6554550781249999,-0.001,-0.03,-0.2505,-0.0010224396478878226,10,1,100,0.004678955477252523,-10,-1,-100,14954.898836967768,-0.00048264238307762277,-0.00010480438112877181,0.9999998780361785,30.514046022498707,0.021761743342714922,133.0213191667398,-37.97973841671079,-79.7423095703125,5356.25390625,True
