Timestamp,Input Throttle,horizon,dT,dt,Input Roll,Roll P,Roll I,Roll D,Input Pitch,Pitch P,Pitch I,Pitch D,Input Yaw,Yaw P,Yaw I,Yaw D,Altitude,Direction X,Direction Y,Direction Z,Drag X,Drag Y,Drag Z,Vertical Velocity,Roll,Mass,Has Fuel
1599561636.5130322,0.0,10,0.5,0.5,-5.849970336914063,-0.1005,-0.03,-0.2505,-0.0005425039045099286,10,1,100,0.17114098777217315,-10,-1,-100,14993.492953261593,-0.01677731525827889,-7.614859735068843e-05,0.9998592480415008,28.717146997247195,0.027109061488964744,-88.32797814064219,27.194950285505836,-31.792633056640625,5356.25390625,True
1599561636.542,0.0,10,0.5,0.5,-6.024869522094726,-0.1005,-0.03,-0.2505,-0.00023817356261286412,10,1,100,0.1772195531569133,-10,-1,-100,14994.565221718978,-0.016847939522354312,-7.13219857995149e-05,0.9998580608501516,28.571795375825378,0.027439343844833496,-86.68214963660576,26.823011444051062,-31.791473388671875,5356.25390625,True
1599561636.573914,0.0,10,0.5,0.5,-6.199204605102539,-0.1005,-0.03,-0.2505,-0.0007279669163101693,10,1,100,0.17184192070160642,-10,-1,-100,14994.565221718978,-0.016847939522354312,-7.13219857995149e-05,0.9998580608501516,28.571795375825378,0.027439343844833496,-86.68214963660576,26.823011444051062,-31.791473388671875,5356.25390625,True
1599561636.6073349,0.0,10,0.5,0.5,-6.359894302368165,-0.1005,-0.03,-0.2505,0.0033937477729194996,10,1,100,0.1795555471955657,-10,-1,-100,14995.638466605102,-0.016902747090915438,-3.378701409215472e-05,0.9998571377948042,28.42661605012991,0.027763657929298784,-85.04903619738158,26.451088246995678,-31.8311767578125,5356.25390625,True
1599561636.6392484,0.0,10,0.5,0.5,-6.509897735595704,-0.1005,-0.03,-0.2505,0.0035641917002885997,10,1,100,0.1777710811407785,-10,-1,-100,14996.171671237447,-0.016920983600844836,1.9158931761574066e-06,0.9998568299063169,28.357521482181248,0.027926308855352577,-84.24743030849407,26.265132525709912,-31.9293212890625,5356.25390625,True
1599561636.6742523,0.0,10,0.5,0.5,-6.571039306640625,-0.1005,-0.03,-0.2505,0.009314176295664788,10,1,100,0.18103363325419372,-10,-1,-100,14997.185344620375,-0.016951839098538205,8.66439271115191e-05,0.9998563034976613,28.233322533001257,0.0282561619294622,-82.69387867106437,25.89323205130964,-32.321502685546875,5356.25390625,True
1599561636.7081616,0.0,10,0.5,0.5,-6.737856033325196,-0.1005,-0.03,-0.2505,0.007491805856753875,10,1,100,0.18012056960448813,-10,-1,-100,14997.719524630927,-0.016956178209536182,0.00014702364131073822,0.9998562228663557,28.17882391364207,0.02842248385218085,-81.9431034679395,25.707287100919405,-32.619110107421875,5356.25390625,True
1599561636.7420826,0.0,10,0.5,0.5,-6.703517990112306,-0.1005,-0.03,-0.2505,0.018915513584077406,10,1,100,0.17995921483951605,-10,-1,-100,14998.724406779278,-0.01694324128693502,0.0003056325211572325,0.999856406272148,28.084475349397096,0.02875335943239393,-80.49036444372226,25.335406934328034,-33.419769287109375,5356.25390625,True
1599561636.7720034,0.0,10,0.5,0.5,-6.696419540405274,-0.1005,-0.03,-0.2505,0.026129943716844455,10,1,100,0.1776866091954995,-10,-1,-100,14999.733194132219,-0.01689541745027296,0.0005151302926599666,0.9998571295489984,28.006933189503577,0.02907301487572403,-79.09295139304886,24.96353926703442,-34.4949951171875,5356.25390625,True
1599561636.8079388,0.0,10,0.5,0.5,-6.907397827148438,-0.1005,-0.03,-0.2505,0.018900507007125,10,1,100,0.18019504110917495,-10,-1,-100,15000.209755310905,-0.016859385691204255,0.0006393923600353117,0.9998576660162812,27.973214625470593,0.02922479155053643,-78.41082422468446,24.7776099186538,-35.13568115234375,5356.25390625,True
1599561636.840849,0.0,10,0.5,0.5,-6.413179138183593,-0.1005,-0.03,-0.2505,0.055248816805059234,10,1,100,0.16699530679298757,-10,-1,-100,15001.685335221468,-0.016691305247638996,0.00108221579003045,0.9998601047837212,27.883634280895055,0.02962453930724432,-76.40454664656932,24.21983878110706,-37.469879150390625,5356.25390625,True
1599561636.871826,0.0,10,0.5,0.5,-6.6595246124267575,-0.1005,-0.03,-0.2505,0.029818620935997527,10,1,100,0.17538526475660643,-10,-1,-100,15002.157988613239,-0.016614855380440424,0.00125254588722785,0.9998611792191392,27.85501959694421,0.029732100233577446,-75.74164516124429,24.033920737783653,-38.3853759765625,5356.25390625,True
1599561636.9077597,0.0,10,0.5,0.5,-6.523623504638672,-0.1005,-0.03,-0.2505,0.033099214098294694,10,1,100,0.17355147463066461,-10,-1,-100,15002.634548148373,-0.016528896576516718,0.0014360114880890723,0.9998623572517213,27.825316994011594,0.029822558173776336,-75.07699209333555,23.84800544113027,-39.36956787109375,5356.25390625,True
1599561636.9426706,0.0,10,0.5,0.5,-5.124386352539063,-0.1005,-0.03,-0.2505,0.10572228179680862,10,1,100,0.13105664879826245,-10,-1,-100,15004.515391677734,-0.016064725649878635,0.0022616378011549565,0.9998683961323362,27.674265424475507,0.029960578391732814,-72.34641677182441,23.104373775703376,-43.993621826171875,5356.25390625,True
1599561636.980534,0.0,10,0.5,0.5,-5.289950912475586,-0.1005,-0.03,-0.2505,0.07473324036800609,10,1,100,0.1437614194947367,-10,-1,-100,15005.460694165085,-0.015759011833303815,0.0027284018683936947,0.9998720965049891,27.561251365215984,0.029855733524868772,-70.89415417370856,22.73257754885547,-46.718048095703125,5356.25390625,True
1599561637.01048,0.0,10,0.5,0.5,-5.928053512573243,-0.1005,-0.03,-0.2505,0.028329482241654026,10,1,100,0.17421660397546468,-10,-1,-100,15005.460694165085,-0.015759011833303815,0.0027284018683936947,0.9998720965049891,27.561251365215984,0.029855733524868772,-70.89415417370856,22.73257754885547,-46.718048095703125,5356.25390625,True
1599561637.044394,0.0,10,0.5,0.5,-4.269254837036134,-0.1005,-0.03,-0.2505,0.10679090701545088,10,1,100,0.11205438101459306,-10,-1,-100,15006.750716676237,-0.01519498510390065,0.003439285950027046,0.9998786345051315,27.311678898716135,0.02942130273942653,-68.53267922439228,22.17491261684326,-51.3209228515625,5356.25390625,True
1599561637.0812654,0.0,10,0.5,0.5,-5.366169525146485,-0.1005,-0.03,-0.2505,0.03603172508298739,10,1,100,0.16828093464434601,-10,-1,-100,15006.750716676237,-0.01519498510390065,0.003439285950027046,0.9998786345051315,27.311678898716135,0.02942130273942653,-68.53267922439228,22.17491261684326,-51.3209228515625,5356.25390625,True
1599561637.1112227,0.0,10,0.5,0.5,-3.4796243591308595,-0.1005,-0.03,-0.2505,0.12029991382494665,10,1,100,0.09288976869078128,-10,-1,-100,15008.100306940963,-0.01451120019176191,0.0042025116172913395,0.9998858754703466,26.9256163001718,0.02860732964156016,-65.86883407716448,21.617291170856788,-56.542694091796875,5356.25390625,True
1599561637.1450522,0.0,10,0.5,0.5,-4.721534957885742,-0.1005,-0.03,-0.2505,0.04434608523098044,10,1,100,0.1610298381788041,-10,-1,-100,15008.100306940963,-0.01451120019176191,0.0042025116172913395,0.9998858754703466,26.9256163001718,0.02860732964156016,-65.86883407716448,21.617291170856788,-56.542694091796875,5356.25390625,True
1599561637.1809855,0.0,10,0.5,0.5,-2.6069503326416017,-0.1005,-0.03,-0.2505,0.12763550661048328,10,1,100,0.07203295626094709,-10,-1,-100,15009.387395365397,-0.013704272342962703,0.004956448975962042,0.9998938076281395,26.353078280868168,0.027393608926272527,-62.80938156878684,21.059724503296593,-62.384185791015625,5356.25390625,True
1599561637.2118766,0.0,10,0.5,0.5,-2.507757247924805,-0.1005,-0.03,-0.2505,0.10742243981128459,10,1,100,0.08571665538142824,-10,-1,-100,15010.206716785557,-0.013097814320517504,0.005454569391864572,0.9998993424004112,25.841431431005166,0.026373616477768928,-60.50569709831069,20.688050649688158,-66.62277221679688,5356.25390625,True
1599561637.2468162,0.0,10,0.5,0.5,-2.7047121734619144,-0.1005,-0.03,-0.2505,0.08581708096851295,10,1,100,0.1100537019704004,-10,-1,-100,15010.614912850317,-0.012770932033703363,0.005707173759110188,0.9999021609450967,25.54027156301127,0.025807546529759307,-59.264822014580325,20.502226575311127,-68.84527587890625,5356.25390625,True
1599561637.280718,0.0,10,0.5,0.5,-2.3685972290039063,-0.1005,-0.03,-0.2505,0.08541052002534164,10,1,100,0.10628654107055191,-10,-1,-100,15011.023108328343,-0.012442935732548989,0.005929235209603717,0.999905004247996,25.206401390552184,0.025209430016747882,-57.96141228636379,20.316411600031678,-71.1370849609375,5356.25390625,True
1599561637.310646,0.0,10,0.5,0.5,-0.30306115722656246,-0.1005,-0.03,-0.2505,0.13712594829753846,10,1,100,0.021276296686524504,-10,-1,-100,15012.181288896012,-0.011375229409751426,0.00659791533306467,0.9999135320962175,23.986132472244282,0.02327230934691189,-53.646446654229415,19.75902581173787,-78.4254150390625,5356.25390625,True
1599561637.346514,0.0,10,0.5,0.5,-0.20721890258789055,-0.1005,-0.03,-0.2505,0.11578960824813149,10,1,100,0.042955949816958605,-10,-1,-100,15012.996703697136,-0.010605660310597181,0.00700832188715759,0.9999191984324044,22.970791998910617,0.02191982825850635,-50.412353085134555,19.38748679117047,-83.62896728515625,5356.25390625,True
1599561637.6387355,0.0,10,0.5,0.5,-1.3999759826660156,-0.1005,-0.03,-0.2505,0.07517694484071585,10,1,100,0.11939752458011245,-10,-1,-100,15012.996703697136,-0.010605660310597181,0.00700832188715759,0.9999191984324044,22.970791998910617,0.02191982825850635,-50.412353085134555,19.38748679117047,-83.62896728515625,5356.25390625,True
1599561637.6726725,0.0,10,0.5,0.5,0.5859618530273437,-0.1005,-0.03,-0.2505,0.11403169306667725,10,1,100,0.03397664397743645,-10,-1,-100,15013.747666246025,-0.009833278964021312,0.007358302292905302,0.9999245781618643,21.821973120818104,0.02061329245841782,-46.97614935480852,19.015987697200536,-89.01077270507812,5356.25390625,True
1599561637.708772,0.0,10,0.5,0.5,2.2491055068969725,-0.1005,-0.03,-0.2505,0.13063686350160814,10,1,100,-0.025447362433757545,-10,-1,-100,15014.84530157107,-0.008595770141705011,0.007823859650863614,0.9999324476962604,22.145257305680158,0.020962634361100945,-46.27921482415631,18.458775209400496,-97.2677993774414,5356.25390625,True
1599561637.7456758,0.0,10,0.5,0.5,2.3040417823791506,-0.1005,-0.03,-0.2505,0.11149425320781642,10,1,100,0.005116125111950337,-10,-1,-100,15015.596264967113,-0.007753989671878498,0.008069777748124361,0.9999373752046997,23.070564214623626,0.022081626016736466,-47.245328423585924,18.087288061326497,-102.96907043457031,5356.25390625,True
1599561637.7841668,0.0,10,0.5,0.5,1.0151525115966797,-0.1005,-0.03,-0.2505,0.08728917009482498,10,1,100,0.0886184510426133,-10,-1,-100,15015.596264967113,-0.007753989671878498,0.008069777748124361,0.9999373752046997,23.070564214623626,0.022081626016736466,-47.245328423585924,18.087288061326497,-102.96907043457031,5356.25390625,True
1599561637.818075,0.0,10,0.5,0.5,4.9517800369262694,-0.1005,-0.03,-0.2505,0.1264844445425837,10,1,100,-0.09360763165380093,-10,-1,-100,15017.032765656593,-0.006102798267975718,0.008423268126038384,0.9999459007403237,24.395836039452416,0.024095199249394954,-47.91209745103274,17.344271315516863,-113.83765411376953,5356.25390625,True
1599561637.8519542,0.0,10,0.5,0.5,4.138433361053467,-0.1005,-0.03,-0.2505,0.10253894186997001,10,1,100,-0.02278777620766133,-10,-1,-100,15017.658732375829,-0.0052518911467131345,0.008524237810087213,0.9999498762483748,24.86011895661749,0.02491643717426953,-47.78041326068113,16.972745671960404,-118.87351989746094,5356.25390625,True
1599561637.8818748,0.0,10,0.5,0.5,3.874621376037598,-0.1005,-0.03,-0.2505,0.09775125042332845,10,1,100,0.019739044580593328,-10,-1,-100,15017.999548170017,-0.004871782171719455,0.008569942996933973,0.999951409727243,25.05110876418485,0.025263677205081145,-47.62163576922298,16.786980141152114,-121.28829956054688,5356.25390625,True
1599561637.9178085,0.0,10,0.5,0.5,3.4201727142333986,-0.1005,-0.03,-0.2505,0.09344480251738545,10,1,100,0.0569928267238783,-10,-1,-100,15017.999548170017,-0.004871782171719455,0.008569942996933973,0.999951409727243,25.05110876418485,0.025263677205081145,-47.62163576922298,16.786980141152114,-121.28829956054688,5356.25390625,True
1599561637.9547107,0.0,10,0.5,0.5,6.697713821411133,-0.1005,-0.03,-0.2505,0.10107335586682603,10,1,100,-0.1144245511765857,-10,-1,-100,15019.312033333932,-0.0033193545973861753,0.008637500729507188,0.9999571868166179,25.45187643091198,0.02603820978346254,-46.245963162864285,16.04391549305339,-130.25967407226562,5356.25390625,True
1599561637.989617,0.0,10,0.5,0.5,6.019845382690431,-0.1005,-0.03,-0.2505,0.09118302984767013,10,1,100,-0.04266224942799019,-10,-1,-100,15019.93605031399,-0.0025670652781733445,0.00860752372363383,0.9999596595419262,25.468506267841075,0.026066186312113965,-45.20653445147309,15.67239114214975,-134.33251953125,5356.25390625,True
1599561638.0225291,0.0,10,0.5,0.5,5.830110443115235,-0.1005,-0.03,-0.2505,0.09407864051236546,10,1,100,-0.005627156991690793,-10,-1,-100,15020.27589116001,-0.0022271563692484236,0.008605141813576666,0.9999604948741101,25.439406040151304,0.025998294895492793,-44.62064452881282,15.48663317800255,-136.26528930664062,5356.25390625,True
1599561638.0604296,0.0,10,0.5,0.5,6.772087234497071,-0.1005,-0.03,-0.2505,0.08999005475575048,10,1,100,-0.047377254551896696,-10,-1,-100,15020.899910143344,-0.00154551658567369,0.008564673988900316,0.9999621281518353,25.316414532946695,0.025715314283060592,-43.34158092538299,15.11512846258082,-139.92446899414062,5356.25390625,True
1599561638.095303,0.0,10,0.5,0.5,5.983432731628419,-0.1005,-0.03,-0.2505,0.0941109186571892,10,1,100,0.02008169844997354,-10,-1,-100,15020.899910143344,-0.00154551658567369,0.008564673988900316,0.9999621281518353,25.316414532946695,0.025715314283060592,-43.34158092538299,15.11512846258082,-139.92446899414062,5356.25390625,True
1599561638.130245,0.0,10,0.5,0.5,7.839572731018068,-0.1005,-0.03,-0.2505,0.08194275289792552,10,1,100,-0.0871998983924385,-10,-1,-100,15021.741702238796,-0.0005758734080937668,0.008453604394506304,0.9999641018269401,25.002308734178186,0.024989234163820383,-41.228589327239135,14.557905165710135,-144.89675903320312,5356.25390625,True
1599561638.1631217,0.0,10,0.5,0.5,7.253147254943848,-0.1005,-0.03,-0.2505,0.08889862081862966,10,1,100,-0.024080916811315516,-10,-1,-100,15022.02295101725,-0.00027471409399839523,0.008415518265566893,0.9999645511639342,24.871215282887537,0.024685350282963456,-40.49008761317528,14.37217422579531,-146.41627502441406,5356.25390625,True
1599561638.197064,0.0,10,0.5,0.5,8.425274757385255,-0.1005,-0.03,-0.2505,0.07615805881368026,10,1,100,-0.08931678976410676,-10,-1,-100,15022.857909200015,0.0005868222327737018,0.008265078266359227,0.999965671471235,24.484671295655428,0.02370817340333485,-38.318158034810345,13.81501257952786,-150.56166076660156,5356.25390625,True
1599561638.230963,0.0,10,0.5,0.5,8.331012702941894,-0.1005,-0.03,-0.2505,0.07845342422196305,10,1,100,-0.06225041972364534,-10,-1,-100,15023.416501845117,0.0011186712445809708,0.008149417188558217,0.9999661672147381,24.207509274417664,0.02299899696792916,-36.867608593757595,13.443597777744287,-152.98072814941406,5356.25390625,True
1599561638.2608604,0.0,10,0.5,0.5,8.208288459777833,-0.1005,-0.03,-0.2505,0.0849159111500119,10,1,100,-0.03700294663662269,-10,-1,-100,15023.693844834692,0.0013672019968725545,0.008103402931547175,0.9999662322396836,24.063919498871105,0.022633864397354445,-36.14353567300171,13.257898132542882,-154.08663940429688,5356.25390625,True
1599561638.2958002,0.0,10,0.5,0.5,8.029652709960938,-0.1005,-0.03,-0.2505,0.08947068284457736,10,1,100,-0.01277376982432352,-10,-1,-100,15023.693844834692,0.0013672019968725545,0.008103402931547175,0.9999662322396836,24.063919498871105,0.022633864397354445,-36.14353567300171,13.257898132542882,-154.08663940429688,5356.25390625,True
1599561638.331672,0.0,10,0.5,0.5,8.804933166503906,-0.1005,-0.03,-0.2505,0.0783399879834969,10,1,100,-0.06526353404046567,-10,-1,-100,15024.188961865962,0.0018401211655699752,0.008002700339899135,0.9999662848023256,23.77322838345032,0.021896760609492163,-34.70833666651246,12.88651372154542,-156.09176635742188,5356.25390625,True
1599561638.3635857,0.0,10,0.5,0.5,8.97497836303711,-0.1005,-0.03,-0.2505,0.07630881892838548,10,1,100,-0.06659728855846221,-10,-1,-100,15024.746579200379,0.0022781661905096505,0.00789323719552148,0.9999662528132555,23.486748073458976,0.021167265925816317,-33.303491133632,12.515147960487008,-157.82125854492188,5356.25390625,True
1599561638.3985329,0.0,10,0.5,0.5,9.116674942016601,-0.1005,-0.03,-0.2505,0.07489054392438427,10,1,100,-0.06753831937441951,-10,-1,-100,15025.180173702887,0.0026808480182728234,0.007781479022976379,0.9999661302454788,23.213239573304037,0.02046054356691808,-31.940511189149884,12.143799194755184,-159.27500915527344,5356.25390625,True
1599561638.4364018,0.0,10,0.5,0.5,9.02933182525635,-0.1005,-0.03,-0.2505,0.08111645458316948,10,1,100,-0.04820231328431762,-10,-1,-100,15025.458494315972,0.002867298383962103,0.007737191867529719,0.9999659566515164,23.08375529016103,0.02011924247912927,-31.277465802291694,11.958130607990652,-159.89828491210938,5356.25390625,True
1599561638.4773278,0.0,10,0.5,0.5,9.298090713500978,-0.1005,-0.03,-0.2505,0.0755195059604638,10,1,100,-0.06835195245642237,-10,-1,-100,15025.890135840513,0.003215965604362731,0.007646801722482132,0.9999655914023484,22.843318523960107,0.019465560269406736,-29.991972153761008,11.586803849084408,-160.93807983398438,5356.25390625,True
1599561638.5121965,0.0,10,0.5,0.5,9.35389128112793,-0.1005,-0.03,-0.2505,0.07524619341171093,10,1,100,-0.06841709684918369,-10,-1,-100,15026.379394891672,0.003530080900104354,0.007562877660788413,0.9999651700986023,22.631981571086854,0.018854346865677274,-28.763585946472247,11.215489336292151,-161.7020263671875,5356.25390625,True
1599561638.5441408,0.0,10,0.5,0.5,9.429045684814454,-0.1005,-0.03,-0.2505,0.07137790171016695,10,1,100,-0.08199812086144524,-10,-1,-100,15027.025880748522,0.0039356452099862955,0.007452191898875339,0.99996448713576,22.378176769487546,0.01802130350307405,-27.030478427821397,10.658535719323998,-162.33070373535156,5356.25390625,True
1599561638.5810487,0.0,10,0.5,0.5,9.306869132995605,-0.1005,-0.03,-0.2505,0.08236518926472591,10,1,100,-0.04177657217097235,-10,-1,-100,15027.025880748522,0.0039356452099862955,0.007452191898875339,0.99996448713576,22.378176769487546,0.01802130350307405,-27.030478427821397,10.658535719323998,-162.33070373535156,5356.25390625,True
1599561638.6169186,0.0,10,0.5,0.5,9.290106788635253,-0.1005,-0.03,-0.2505,0.07233595009354554,10,1,100,-0.08822513084459695,-10,-1,-100,15027.822758541442,0.004355343948868878,0.007361650838491593,0.9999634178688834,22.16930223103322,0.01706253456516148,-24.914673326940328,9.915954980522741,-162.20303344726562,5356.25390625,True
1599561638.6528206,0.0,10,0.5,0.5,9.274733459472657,-0.1005,-0.03,-0.2505,0.07898831273050384,10,1,100,-0.055751735291951335,-10,-1,-100,15028.03662658378,0.004438959077418087,0.0073404911276542225,0.9999632057392482,22.14061825097657,0.0168479855984527,-24.41709871793756,9.730312488933617,-161.99874877929688,5356.25390625,True
1599561638.6837783,0.0,10,0.5,0.5,9.253730804443359,-0.1005,-0.03,-0.2505,0.07916588139555143,10,1,100,-0.05594891667017133,-10,-1,-100,15028.18994756136,0.004513972882191599,0.007323562843669675,0.9999629940533268,22.121298744960153,0.016642891571314912,-23.9308339289101,9.5446706896044,-161.72549438476562,5356.25390625,True
1599561638.720649,0.0,10,0.5,0.5,9.074503967285157,-0.1005,-0.03,-0.2505,0.08048255988764712,10,1,100,-0.062169216090652166,-10,-1,-100,15028.618659555097,0.004636284652429507,0.0073207606967902565,0.999962454958906,22.10889025168774,0.01625895293656082,-22.987934269887564,9.173388342067321,-160.97171020507812,5356.25390625,True
1599561638.7565842,0.0,10,0.5,0.5,9.104224777221681,-0.1005,-0.03,-0.2505,0.08010233795377361,10,1,100,-0.05553578546846366,-10,-1,-100,15028.768074367661,0.0046850295120241464,0.00731527716068169,0.9999622678974112,22.115187081179812,0.016079471175424506,-22.529570698734023,8.987747369724977,-160.4915008544922,5356.25390625,True
1599561638.7929723,0.0,10,0.5,0.5,8.311815467834473,-0.1005,-0.03,-0.2505,0.08261043606344602,10,1,100,-0.06258663385921989,-10,-1,-100,15029.43897440855,0.004791619659304556,0.0073335168396366475,0.9999616292197433,22.211655107365907,0.015437808315943085,-20.759824049791128,8.245181320909323,-157.8808135986328,5356.25390625,True
1599561638.8229265,0.0,10,0.5,0.5,8.959740211486817,-0.1005,-0.03,-0.2505,0.080746100665161,10,1,100,-0.052120051258713204,-10,-1,-100,15029.43897440855,0.004791619659304556,0.0073335168396366475,0.9999616292197433,22.211655107365907,0.015437808315943085,-20.759824049791128,8.245181320909323,-157.8808135986328,5356.25390625,True
1599561638.8597937,0.0,10,0.5,0.5,8.66097306060791,-0.1005,-0.03,-0.2505,0.08180641555839875,10,1,100,-0.052798905276223246,-10,-1,-100,15029.590341971489,0.004796358646686518,0.007343440870377759,0.9999615336701285,22.250094531708484,0.015295240910340601,-20.32787123947136,8.059538475218993,-157.05575561523438,5356.25390625,True
1599561638.89525,0.0,10,0.5,0.5,7.839712463378906,-0.1005,-0.03,-0.2505,0.0853751061396609,10,1,100,-0.048061630386580484,-10,-1,-100,15030.044444119325,0.004756449520085566,0.007385104846145163,0.999961417462881,22.385625388282733,0.01490740831740082,-19.039353125429706,7.5026058822628325,-154.1668701171875,5356.25390625,True
1599561638.926165,0.0,10,0.5,0.5,8.152500778198243,-0.1005,-0.03,-0.2505,0.08296898952911003,10,1,100,-0.04875032102730256,-10,-1,-100,15030.19288126973,0.004725683134172993,0.007401168388613003,0.9999614445694388,22.434029418847274,0.014791081149122923,-18.608674849686693,7.316960083283905,-153.06605529785156,5356.25390625,True
1599561638.9620414,0.0,10,0.5,0.5,7.55510131072998,-0.1005,-0.03,-0.2505,0.08525218635281348,10,1,100,-0.04212065335767739,-10,-1,-100,15030.492685617413,0.004636725770052073,0.007436574328808583,0.9999615983308485,22.52835167616733,0.0145783404112653,-17.73918393595108,6.945666132869716,-150.65762329101562,5356.25390625,True
1599561639.0004444,0.0,10,0.5,0.5,6.674327682495117,-0.1005,-0.03,-0.2505,0.0874692788390742,10,1,100,-0.02909695751865963,-10,-1,-100,15030.881356252241,0.004437202402477272,0.0074888488211430106,0.9999621134713921,22.64199464914785,0.014310023274860261,-16.399742067018803,6.388719767443851,-146.52813720703125,5356.25390625,True
1599561639.0363855,0.0,10,0.5,0.5,7.130839050292969,-0.1005,-0.03,-0.2505,0.08392536314066042,10,1,100,-0.039866880271417646,-10,-1,-100,15031.031745951273,0.004353727508502473,0.007504018800831011,0.9999623666711756,22.66581919027886,0.01423367711130326,-15.940148957230146,6.203069773013458,-145.01385498046875,5356.25390625,True
1599561639.0663016,0.0,10,0.5,0.5,6.904337173461914,-0.1005,-0.03,-0.2505,0.0840032858999016,10,1,100,-0.038012725880965235,-10,-1,-100,15031.121589141781,0.004261130969860987,0.007518354029306694,0.9999626578605563,22.679432104088352,0.014163115229966142,-15.47256855392403,6.017419418611303,-143.43067932128906,5356.25390625,True
1599561639.1022067,0.0,10,0.5,0.5,6.668439399719238,-0.1005,-0.03,-0.2505,0.08375022447385612,10,1,100,-0.036276224983684484,-10,-1,-100,15031.265142882476,0.0041615069753776004,0.007528905866472795,0.9999629980335012,22.680820132304,0.014097565332782197,-14.996314480597446,5.831768607461621,-141.77865600585938,5356.25390625,True
1599561639.1380758,0.0,10,0.5,0.5,4.46495100402832,-0.1005,-0.03,-0.2505,0.08519509004082632,10,1,100,0.006964725547237448,-10,-1,-100,15031.681154241087,0.003678316086963092,0.007551439379318261,0.9999647222547727,22.51893777800317,0.013857727311962128,-12.993926995902063,5.089159905271377,-134.48184204101562,5356.25390625,True
1599561639.1740153,0.0,10,0.5,0.5,5.521902099609376,-0.1005,-0.03,-0.2505,0.08265387486603809,10,1,100,-0.02586688145100085,-10,-1,-100,15031.76611375669,0.003538532891636016,0.007548624323461808,0.9999652479240457,22.424943449607202,0.013793875976546447,-12.467786582510536,4.903505652579311,-132.48553466796875,5356.25390625,True
1599561639.2049372,0.0,10,0.5,0.5,4.471913681030274,-0.1005,-0.03,-0.2505,0.08034112813453415,10,1,100,-0.007183424925868848,-10,-1,-100,15031.938962340704,0.0032427468245353544,0.007524844659229701,0.9999664300894738,22.157110323563913,0.013646225927065202,-11.386288529229946,4.532192875899361,-128.2864532470703,5356.25390625,True
1599561639.2398436,0.0,10,0.5,0.5,5.43747566986084,-0.1005,-0.03,-0.2505,0.08273723493663002,10,1,100,-0.03660667045371989,-10,-1,-100,15031.938962340704,0.0032427468245353544,0.007524844659229701,0.9999664300894738,22.157110323563913,0.013646225927065202,-11.386288529229946,4.532192875899361,-128.2864532470703,5356.25390625,True
1599561639.2767406,0.0,10,0.5,0.5,2.122229507446289,-0.1005,-0.03,-0.2505,0.07075330539876093,10,1,100,0.03622348782062495,-10,-1,-100,15032.284658392891,0.002582030569946356,0.00741577280905536,0.9999691692406223,21.22589706128692,0.013190003172265574,-9.120735276183224,3.7895391012018473,-119.06250762939453,5356.25390625,True
1599561639.3086603,0.0,10,0.5,0.5,4.330817241668702,-0.1005,-0.03,-0.2505,0.0816619508582393,10,1,100,-0.02963377238185222,-10,-1,-100,15032.284658392891,0.002582030569946356,0.00741577280905536,0.9999691692406223,21.22589706128692,0.013190003172265574,-9.120735276183224,3.7895391012018473,-119.06250762939453,5356.25390625,True
1599561639.3445272,0.0,10,0.5,0.5,1.5542769584655767,-0.1005,-0.03,-0.2505,0.06535020314183852,10,1,100,0.030229596406359194,-10,-1,-100,15032.47996429773,0.0020396860311445303,0.00726750310392422,0.9999715111339565,20.11936070400415,0.012615541122993856,-7.374655241534488,3.232507805219606,-111.42218017578125,5356.25390625,True
1599561639.3804312,0.0,10,0.5,0.5,1.4542879028320312,-0.1005,-0.03,-0.2505,0.06574419474071562,10,1,100,0.019231940638754757,-10,-1,-100,15032.586405216949,0.0016488037904586678,0.007136495428083174,0.9999731755797581,19.351251785544473,0.012195703330833108,-6.278270378495452,2.8611254980418113,-105.98464965820312,5356.25390625,True
1599561639.4193616,0.0,10,0.5,0.5,2.6993016815185547,-0.1005,-0.03,-0.2505,0.07880820998754545,10,1,100,-0.01958579105802711,-10,-1,-100,15032.586405216949,0.0016488037904586678,0.007136495428083174,0.9999731755797581,19.351251785544473,0.012195703330833108,-6.278270378495452,2.8611254980418113,-105.98464965820312,5356.25390625,True
1599561639.4562275,0.0,10,0.5,0.5,-1.519890655517578,-0.1005,-0.03,-0.2505,0.04038125118342548,10,1,100,0.06373695652706138,-10,-1,-100,15032.803193159518,0.000893699109848229,0.006787506583137741,0.9999765652535488,17.232029151163726,0.010905262973909433,-4.13924829887242,2.1182690510090314,-94.28421020507812,5356.25390625,True
1599561639.486182,0.0,10,0.5,0.5,1.2685860900878907,-0.1005,-0.03,-0.2505,0.07520599574963525,10,1,100,-0.011446730747429553,-10,-1,-100,15032.803193159518,0.000893699109848229,0.006787506583137741,0.9999765652535488,17.232029151163726,0.010905262973909433,-4.13924829887242,2.1182690510090314,-94.28421020507812,5356.25390625,True
1599561639.5200884,0.0,10,0.5,0.5,-2.156589111328125,-0.1005,-0.03,-0.2505,0.03830237843201516,10,1,100,0.05125846323490553,-10,-1,-100,15032.934046070906,0.0003261833618061963,0.006452713637337722,0.9999791278277408,16.113346407466047,0.01018922868534359,-2.8524466670678357,1.561067328089115,-84.86944580078125,5356.25390625,True
1599561639.5549982,0.0,10,0.5,0.5,0.05896110534667964,-0.1005,-0.03,-0.2505,0.0716720819434046,10,1,100,-0.005171876616314758,-10,-1,-100,15032.934046070906,0.0003261833618061963,0.006452713637337722,0.9999791278277408,16.113346407466047,0.01018922868534359,-2.8524466670678357,1.561067328089115,-84.86944580078125,5356.25390625,True
1599561639.5858817,0.0,10,0.5,0.5,-2.328506561279297,-0.1005,-0.03,-0.2505,0.04246390864208121,10,1,100,0.037078636964336276,-10,-1,-100,15032.981893262942,-5.526079486996843e-05,0.006188159453709229,0.99998085163108,17.340296970165543,0.010959918782336946,-2.3392173958805356,1.189594941485602,-78.43862915039062,5356.25390625,True
1599561639.621786,0.0,10,0.5,0.5,-1.9987755432128909,-0.1005,-0.03,-0.2505,0.05437050679481881,10,1,100,0.018339021453937576,-10,-1,-100,15033.001422153437,-0.0002286698802815797,0.006057112620167778,0.9999816293796563,17.906381441460773,0.011324409098446776,-2.038445689618636,1.003861211984935,-75.21456909179688,5356.25390625,True
1599561639.6557267,0.0,10,0.5,0.5,-3.5454495162963866,-0.1005,-0.03,-0.2505,0.035344768202950766,10,1,100,0.03992067992693063,-10,-1,-100,15033.043410258135,-0.0005799562163645923,0.0057662530208302835,0.9999832068474385,18.84974275465105,0.011943717667391293,-1.3518240522140845,0.6323989892961812,-68.88192749023438,5356.25390625,True
1599561639.6876411,0.0,10,0.5,0.5,-4.271193832397461,-0.1005,-0.03,-0.2505,0.03121694477140874,10,1,100,0.041255127223902996,-10,-1,-100,15033.025827969774,-0.0009085642366067971,0.005465809099135111,0.9999846496031425,19.54944250136653,0.01239743033013499,-0.5784967843100735,0.2609374586816253,-62.723724365234375,5356.25390625,True
1599561639.7225502,0.0,10,0.5,0.5,-3.9216929168701173,-0.1005,-0.03,-0.2505,0.0433892645842673,10,1,100,0.026325183658062246,-10,-1,-100,15033.046334123239,-0.001068891813257748,0.005304973617715295,0.9999853572553986,19.797870484903434,0.012556007894840213,-0.16884598924309657,0.07520360022128925,-59.74072265625,5356.25390625,True
1599561639.7594504,0.0,10,0.5,0.5,-7.2619434814453125,-0.1005,-0.03,-0.2505,-0.01261644067708096,10,1,100,0.0749939541488754,-10,-1,-100,15033.008241771953,-0.0016546168913989898,0.004651281788421721,0.9999878138360824,20.389733337711256,0.01294627831292193,1.544131370780553,-0.6677650265437838,-48.490692138671875,5356.25390625,True
1599561639.7943623,0.0,10,0.5,0.5,-5.543077102661133,-0.1005,-0.03,-0.2505,0.033712541293113754,10,1,100,0.031557340391291384,-10,-1,-100,15032.969177560532,-0.001789212818565848,0.004480448337556299,0.9999883620823715,20.44050311084361,0.012984804097185755,1.978590592753793,-0.8535149062954754,-45.85028076171875,5356.25390625,True
1599561639.8262734,0.0,10,0.5,0.5,-5.929553283691406,-0.1005,-0.03,-0.2505,0.03172269653643579,10,1,100,0.03253241552586962,-10,-1,-100,15032.98480135051,-0.0019179980609151449,0.004309153028295734,0.9999888761799387,20.45027711724967,0.012998629735188767,2.410373459911575,-1.0392679123630129,-43.278778076171875,5356.25390625,True
1599561639.8621442,0.0,10,0.5,0.5,-7.171192153930664,-0.1005,-0.03,-0.2505,0.014318095269963024,10,1,100,0.04713886488364153,-10,-1,-100,15032.90569723933,-0.0021653053688753744,0.003997459420686234,0.9999896658320223,20.366999831395734,0.012963884810071045,3.2587701951784944,-1.4107818115009059,-38.342071533203125,5356.25390625,True
1599561639.8966632,0.0,10,0.5,0.5,-8.491699630737305,-0.1005,-0.03,-0.2505,-0.009351488163136482,10,1,100,0.05910088362161799,-10,-1,-100,15032.778741151444,-0.002496610829429295,0.003501155613664558,0.9999907543791268,20.035951751151423,0.012792669807714006,4.472307411139522,-1.9680670943523946,-31.45440673828125,5356.25390625,True
1599561639.9325364,0.0,10,0.5,0.5,-6.926584716796875,-0.1005,-0.03,-0.2505,0.039983736736663805,10,1,100,0.026252616985349485,-10,-1,-100,15032.778741151444,-0.002496610829429295,0.003501155613664558,0.9999907543791268,20.035951751151423,0.012792669807714006,4.472307411139522,-1.9680670943523946,-31.45440673828125,5356.25390625,True
1599561639.964483,0.0,10,0.5,0.5,-8.55840902709961,-0.1005,-0.03,-0.2505,0.005808126244251879,10,1,100,0.04892994816601264,-10,-1,-100,15032.696708540898,-0.0027005489764948152,0.0031929109763153994,0.999991256139134,19.702208198226714,0.012618866499908666,5.228149699936264,-2.3395948319439404,-27.2069091796875,5356.25390625,True
1599561640.000425,0.0,10,0.5,0.5,-8.347610687255859,-0.1005,-0.03,-0.2505,0.02009426821007023,10,1,100,0.03973936318710765,-10,-1,-100,15032.651786486967,-0.0028001493566586853,0.0030451664162725605,0.9999914430259279,19.50777101453299,0.012519198558177106,5.587644480947545,-2.525358933773076,-25.18646240234375,5356.25390625,True
1599561640.0363,0.0,10,0.5,0.5,-9.318335815429688,-0.1005,-0.03,-0.2505,0.0017567326146520415,10,1,100,0.05007457134078018,-10,-1,-100,15032.5658480532,-0.00298263323716805,0.002746622025915776,0.9999917799494249,19.077726541185665,0.012302945425511295,6.2685583167367165,-2.8968870298915665,-21.352386474609375,5356.25390625,True
1599561640.0682108,0.0,10,0.5,0.5,-10.319386550903321,-0.1005,-0.03,-0.2505,-0.014302220237454536,10,1,100,0.06034358504715169,-10,-1,-100,15032.374441282358,-0.0032399968267794307,0.0023316995424570203,0.9999920327671646,18.52630469396497,0.012057819873095904,7.258746213484257,-3.45418036867691,-16.117706298828125,5356.25390625,True
1599561640.106143,0.0,10,0.5,0.5,-10.242998611450195,-0.1005,-0.03,-0.2505,-0.0018379124145480527,10,1,100,0.05236808685689488,-10,-1,-100,15032.227956706425,-0.0033994854655933315,0.0020705121504984454,0.9999920782076246,18.143852930875397,0.011892655990602638,7.873769093923104,-3.8257126920030053,-12.972320556640625,5356.25390625,True
1599561640.1420174,0.0,10,0.5,0.5,-10.569002883911134,-0.1005,-0.03,-0.2505,-0.002373778089754131,10,1,100,0.0541657523166155,-10,-1,-100,15032.020925209741,-0.003559231306354161,0.0018305437149777977,0.9999919904590314,17.7584921647877,0.011725659094642635,8.455233238921943,-4.197251093654346,-10.102325439453125,5356.25390625,True
1599561640.176956,0.0,10,0.5,0.5,-9.957312973022463,-0.1005,-0.03,-0.2505,0.021358075000052785,10,1,100,0.03836817008931137,-10,-1,-100,15032.020925209741,-0.003559231306354161,0.0018305437149777977,0.9999919904590314,17.7584921647877,0.011725659094642635,8.455233238921943,-4.197251093654346,-10.102325439453125,5356.25390625,True
1599561640.211831,0.0,10,0.5,0.5,-10.96749494934082,-0.1005,-0.03,-0.2505,-0.003932399731698063,10,1,100,0.05507906387503251,-10,-1,-100,15031.868582042167,-0.0037096564923648633,0.0016028835895194426,0.9999918345731166,17.415751364529147,0.011578987594697809,9.026373375158766,-4.568797773851449,-7.50787353515625,5356.25390625,True
1599561640.2437792,0.0,10,0.5,0.5,-11.224067138671877,-0.1005,-0.03,-0.2505,-0.004206146722956133,10,1,100,0.056747097774572895,-10,-1,-100,15031.655692106578,-0.003860166650439969,0.0013956081172105618,0.9999915756602222,17.122727415544865,0.011450547217518803,9.596562895779112,-4.94035413571217,-5.1888427734375,5356.25390625,True
1599561640.2797432,0.0,10,0.5,0.5,-11.09265609741211,-0.1005,-0.03,-0.2505,0.00524671348097298,10,1,100,0.04949199255569412,-10,-1,-100,15031.551200826769,-0.003929798968681158,0.001295025096507711,0.9999914397583937,16.98583028934436,0.011385442913291952,9.87801715197499,-5.126136240634262,-4.1326904296875,5356.25390625,True
1599561640.3152034,0.0,10,0.5,0.5,-11.57899887084961,-0.1005,-0.03,-0.2505,-0.005060537418416139,10,1,100,0.05858774103429622,-10,-1,-100,15031.340263682767,-0.004074486800397483,0.0011118892790717247,0.9999910810899988,16.736483643611447,0.011254408128673963,10.438927926509898,-5.4977082405693265,-2.22686767578125,5356.25390625,True
1599561640.34512,0.0,10,0.5,0.5,-11.998651062011719,-0.1005,-0.03,-0.2505,-0.013502456465607023,10,1,100,0.06795838887557315,-10,-1,-100,15031.017022889922,-0.004289959866129476,0.000870549291607496,0.9999904191482425,16.436832921127007,0.011061042121556768,11.292143069321066,-6.055086254318098,0.1153564453125,5356.25390625,True
1599561640.381026,0.0,10,0.5,0.5,-11.487829376220704,-0.1005,-0.03,-0.2505,0.010414080568349339,10,1,100,0.04656006335332097,-10,-1,-100,15031.017022889922,-0.004289959866129476,0.000870549291607496,0.9999904191482425,16.436832921127007,0.011061042121556768,11.292143069321066,-6.055086254318098,0.1153564453125,5356.25390625,True
1599561640.4159396,0.0,10,0.5,0.5,-11.979456848144531,-0.1005,-0.03,-0.2505,-0.004984712807692167,10,1,100,0.062414028430434226,-10,-1,-100,15030.743587011471,-0.004432898342622359,0.0007322657815837626,0.9999899065486157,16.600030742234267,0.01114509777355282,12.10469409680091,-6.426682364442947,1.33251953125,5356.25390625,True
1599561640.446857,0.0,10,0.5,0.5,-12.057481018066408,-0.1005,-0.03,-0.2505,-0.0038950497343547873,10,1,100,0.06476720052793379,-10,-1,-100,15030.468197700335,-0.004583150429851482,0.0006179135583751387,0.9999893064003094,16.942059864932137,0.011326859367407472,13.069085781829132,-6.7982837136895276,2.274322509765625,5356.25390625,True
1599561640.4817328,0.0,10,0.5,0.5,-11.996299942016602,-0.1005,-0.03,-0.2505,0.001405496990710525,10,1,100,0.057575648028880426,-10,-1,-100,15030.358823912917,-0.0046532894273736015,0.0005634643244061863,0.9999890146423911,17.09212240658085,0.01139639055451665,13.545549393655863,-6.984085975467957,2.641845703125,5356.25390625,True
1599561640.5171883,0.0,10,0.5,0.5,-12.184551635742187,-0.1005,-0.03,-0.2505,-0.006897574293520829,10,1,100,0.07533089157169491,-10,-1,-100,15029.910583970137,-0.004877468859036551,0.00043963444493282794,0.9999880084376431,17.462047853097246,0.011528710859498218,14.944450677340553,-7.541497993399494,3.33154296875,5356.25390625,True
1599561640.5520616,0.0,10,0.5,0.5,-12.084433319091797,-0.1005,-0.03,-0.2505,0.0019827763971151536,10,1,100,0.06143601774170189,-10,-1,-100,15029.740663328557,-0.004953752909773222,0.0004090567510265065,0.9999876464260364,17.559073280494164,0.011549758042931336,15.398181566262066,-7.727303306909072,3.4237060546875,5356.25390625,True
1599561640.5835588,0.0,10,0.5,0.5,-12.086364532470704,-0.1005,-0.03,-0.2505,-0.00040282005556806135,10,1,100,0.07065384938827192,-10,-1,-100,15029.400821400457,-0.005105769519577733,0.0003606569041222695,0.9999869004363058,17.714351828547418,0.011561701608997232,16.282402396273326,-8.098915501165159,3.40155029296875,5356.25390625,True
1599561640.6194615,0.0,10,0.5,0.5,-12.077559814453124,-0.1005,-0.03,-0.2505,0.002992784442942008,10,1,100,0.06430853926950725,-10,-1,-100,15029.231876896461,-0.005185149433893848,0.00034846703984404406,0.9999864963068602,17.772549937393002,0.011554010889376692,16.71120567477169,-8.284722306937017,3.2872314453125,5356.25390625,True
1599561640.6563663,0.0,10,0.5,0.5,-11.863096252441407,-0.1005,-0.03,-0.2505,0.003310492421184738,10,1,100,0.0827001489577578,-10,-1,-100,15028.719185566413,-0.005423368216378764,0.0003411341067175582,0.9999852352433564,17.8679239529517,0.011484929453077667,17.933083738140056,-8.84214444152131,2.531219482421875,5356.25390625,True
1599561640.6932673,0.0,10,0.5,0.5,-11.583944412231444,-0.1005,-0.03,-0.2505,0.008893759011010109,10,1,100,0.08568779331914829,-10,-1,-100,15028.205516554764,-0.005665864893363164,0.0003859254593940327,0.9999838743882573,17.839707428608875,0.01136274986778367,19.035536015222515,-9.39956965552588,1.15570068359375,5356.25390625,True
1599561640.7231522,0.0,10,0.5,0.5,-11.931632904052734,-0.1005,-0.03,-0.2505,0.0043661613601413095,10,1,100,0.06157571612343166,-10,-1,-100,15028.205516554764,-0.005665864893363164,0.0003859254593940327,0.9999838743882573,17.839707428608875,0.01136274986778367,19.035536015222515,-9.39956965552588,1.15570068359375,5356.25390625,True
1599561640.764075,0.0,10,0.5,0.5,-11.492147735595704,-0.1005,-0.03,-0.2505,0.011755911880551298,10,1,100,0.07961236119695342,-10,-1,-100,15027.802199066151,-0.005828583571279513,0.0004535455766997721,0.9999829108089611,17.747852106238106,0.011262588605673005,19.687697217589673,-9.771187818531914,-0.10528564453125,5356.25390625,True
1599561640.8009775,0.0,10,0.5,0.5,-11.54616000366211,-0.1005,-0.03,-0.2505,0.009699765020086912,10,1,100,0.07230698984774944,-10,-1,-100,15027.568802098278,-0.005908828370548288,0.0004965795484324808,0.9999824194234813,17.715750510156948,0.011232940463335277,20.02655899000403,-9.956997073240332,-0.83905029296875,5356.25390625,True
1599561640.8364322,0.0,10,0.5,0.5,-10.8030234375,-0.1005,-0.03,-0.2505,0.023109571703912805,10,1,100,0.09083369746823014,-10,-1,-100,15026.99165752274,-0.006148997641032728,0.0006577189780514901,0.9999808784340609,18.370707727033217,0.01167804735179643,21.93216444042062,-10.514417129406157,-3.45330810546875,5356.25390625,True
1599561640.8663862,0.0,10,0.5,0.5,-11.085449615478517,-0.1005,-0.03,-0.2505,0.014623651215320811,10,1,100,0.07548317848231843,-10,-1,-100,15026.758260736242,-0.006226423434134242,0.0007269789508509847,0.9999803513833778,18.608463285685982,0.011861133169456665,22.609536008754436,-10.700220466331217,-4.462310791015625,5356.25390625,True
1599561640.9002955,0.0,10,0.5,0.5,-10.936497756958008,-0.1005,-0.03,-0.2505,0.015859665298417966,10,1,100,0.07638765736112274,-10,-1,-100,15026.524863605271,-0.00630380673169284,0.0008009178318733011,0.9999798100718413,18.85461985436671,0.012062296878905665,23.307394419201557,-10.886021730196035,-5.5401611328125,5356.25390625,True
1599561640.9371655,0.0,10,0.5,0.5,-9.424821899414063,-0.1005,-0.03,-0.2505,0.04889607050077337,10,1,100,0.10045988386271265,-10,-1,-100,15025.648892959696,-0.006591766285104275,0.001168109715477868,0.9999775918174043,19.902292586995234,0.013048879534486996,26.286697437079315,-11.629199936826517,-10.53955078125,5356.25390625,True
1599561640.9681122,0.0,10,0.5,0.5,-10.136267578125,-0.1005,-0.03,-0.2505,0.024170739128783196,10,1,100,0.07909685323430897,-10,-1,-100,15025.413542771712,-0.006657987421796885,0.0012764107309990586,0.999977020725545,20.17822184718949,0.013342360220316395,27.078147790453617,-11.814986199619854,-11.96142578125,5356.25390625,True
1599561641.0060134,0.0,10,0.5,0.5,-10.446701293945313,-0.1005,-0.03,-0.2505,0.013433431945779643,10,1,100,0.07262202336383823,-10,-1,-100,15025.413542771712,-0.006657987421796885,0.0012764107309990586,0.999977020725545,20.17822184718949,0.013342360220316395,27.078147790453617,-11.814986199619854,-11.96142578125,5356.25390625,True
1599561641.0399227,0.0,10,0.5,0.5,-8.761102935791016,-0.1005,-0.03,-0.2505,0.05398371561250069,10,1,100,0.09161793751438328,-10,-1,-100,15024.644016048405,-0.006829555169342369,0.0016441994219471758,0.9999753265878364,21.105933916060884,0.014380004847056142,29.66328133705646,-12.37231949805624,-16.63983154296875,5356.25390625,True
1599561641.0757928,0.0,10,0.5,0.5,-8.020175354003905,-0.1005,-0.03,-0.2505,0.0638636741122587,10,1,100,0.09039888573317112,-10,-1,-100,15023.878396092914,-0.006973385659758172,0.002067226696477307,0.999973548883282,22.003615476159663,0.015513172817815805,32.322512201699645,-12.929607855928737,-21.9375,5356.25390625,True
1599561641.1057463,0.0,10,0.5,0.5,-9.277961700439453,-0.1005,-0.03,-0.2505,0.021729076782953917,10,1,100,0.07614658876823034,-10,-1,-100,15023.878396092914,-0.006973385659758172,0.002067226696477307,0.999973548883282,22.003615476159663,0.015513172817815805,32.322512201699645,-12.929607855928737,-21.9375,5356.25390625,True
1599561641.3870602,0.0,10,0.5,0.5,-8.544335357666016,-0.1005,-0.03,-0.2505,0.03877831589817601,10,1,100,0.07947535830951298,-10,-1,-100,15023.642069147201,-0.0070026064718712155,0.002220752796506801,0.9999730155157274,22.300711971711554,0.015906966832038162,33.23116814101826,-13.11535927033092,-23.84100341796875,5356.25390625,True
1599561641.420005,0.0,10,0.5,0.5,-6.038111572265626,-0.1005,-0.03,-0.2505,0.09685708168728856,10,1,100,0.08499389358074921,-10,-1,-100,15022.573715845356,-0.007078345005256745,0.0028867433280272965,0.9999707814456102,23.44536811504766,0.017461521935887805,36.923124259075365,-13.858302921974552,-32.14312744140625,5356.25390625,True
1599561641.458009,0.0,10,0.5,0.5,-6.429772521972657,-0.1005,-0.03,-0.2505,0.0700747793166429,10,1,100,0.07684939357693285,-10,-1,-100,15021.980945168063,-0.007072312447059602,0.0032466874039037176,0.9999697202503446,23.903790352468267,0.01810767869337137,38.65784066102635,-14.229737760930862,-36.70709228515625,5356.25390625,True
1599561641.4869483,0.0,10,0.5,0.5,-6.639065826416015,-0.1005,-0.03,-0.2505,0.05402479988854764,10,1,100,0.07488677846675942,-10,-1,-100,15021.681141947745,-0.0070482173576852354,0.0034257097431240956,0.9999692931009605,24.094638090970793,0.01837548588168476,39.4769678608531,-14.41544670962471,-39.0924072265625,5356.25390625,True
1599561641.5567145,0.0,10,0.5,0.5,-5.388964233398438,-0.1005,-0.03,-0.2505,0.07686158331821354,10,1,100,0.07032972826663726,-10,-1,-100,15021.081535039004,-0.006984208264956526,0.0037936782718566283,0.9999684139212005,24.38428391144906,0.01876737801552004,40.98489531888933,-14.786849681560875,-44.06951904296875,5356.25390625,True
1599561641.5910525,0.0,10,0.5,0.5,-6.535140838623048,-0.1005,-0.03,-0.2505,0.04032728730059813,10,1,100,0.07676988173749344,-10,-1,-100,15021.081535039004,-0.006984208264956526,0.0037936782718566283,0.9999684139212005,24.38428391144906,0.01876737801552004,40.98489531888933,-14.786849681560875,-44.06951904296875,5356.25390625,True
1599561641.6269565,0.0,10,0.5,0.5,-2.6548656005859375,-0.1005,-0.03,-0.2505,0.1224931537248859,10,1,100,0.050949462268897176,-10,-1,-100,15019.88622632483,-0.006749180614475506,0.004538352268858465,0.9999669254128942,24.50718939820689,0.01882815117299838,43.26930675308153,-15.529617965596982,-54.850006103515625,5356.25390625,True
1599561641.6551802,0.0,10,0.5,0.5,-5.226711868286133,-0.1005,-0.03,-0.2505,0.048351948178488195,10,1,100,0.07446134663626706,-10,-1,-100,15019.88622632483,-0.006749180614475506,0.004538352268858465,0.9999669254128942,24.50718939820689,0.01882815117299838,43.26930675308153,-15.529617965596982,-54.850006103515625,5356.25390625,True
1599561641.690083,0.0,10,0.5,0.5,-4.105687820434571,-0.1005,-0.03,-0.2505,0.06949986794381112,10,1,100,0.06565142686756692,-10,-1,-100,15019.588375604711,-0.006669163502537202,0.0047279750368642084,0.9999665836967889,24.42506050577754,0.018675569983893303,43.6422059232868,-15.715307472403694,-57.71722412109375,5356.25390625,True
1599561641.7180107,0.0,10,0.5,0.5,-1.5522523498535157,-0.1005,-0.03,-0.2505,0.10963310983108018,10,1,100,0.040588444878753585,-10,-1,-100,15018.626463526045,-0.006368851948292459,0.005262788162807888,0.999965869810372,23.941255940109468,0.017881116827064867,44.301269716413984,-16.272385510174598,-66.732421875,5356.25390625,True
1599561641.7528832,0.0,10,0.5,0.5,-1.4457371520996092,-0.1005,-0.03,-0.2505,0.09451007341327892,10,1,100,0.04390002348695146,-10,-1,-100,15017.96630861389,-0.006126496280609461,0.005608594708534557,0.9999655042593815,23.42175311298332,0.017133449818368656,44.33416642749572,-16.643786481269363,-73.08694458007812,5356.25390625,True
1599561641.7867904,0.0,10,0.5,0.5,-0.5625148773193358,-0.1005,-0.03,-0.2505,0.09349917113324065,10,1,100,0.038632602710711006,-10,-1,-100,15017.301269276533,-0.005859083766742061,0.00591069441854752,0.9999653668147238,22.65906143491047,0.0162343036888493,43.85279681902228,-17.015206493330734,-79.7174072265625,5356.25390625,True
1599561641.8177364,0.0,10,0.5,0.5,-2.080722930908203,-0.1005,-0.03,-0.2505,0.06359159524099642,10,1,100,0.06525192797359962,-10,-1,-100,15017.301269276533,-0.005859083766742061,0.00591069441854752,0.9999653668147238,22.65906143491047,0.0162343036888493,43.85279681902228,-17.015206493330734,-79.7174072265625,5356.25390625,True
1599561641.8506558,0.0,10,0.5,0.5,1.714283317565918,-0.1005,-0.03,-0.2505,0.10921399482993091,10,1,100,0.01600508071052241,-10,-1,-100,15016.215331963613,-0.005412488090423466,0.0063230216811608845,0.9999653615848353,21.0399584016566,0.014786675537995342,42.06043408033163,-17.572376792036536,-90.16178131103516,5356.25390625,True
1599561641.8865619,0.0,10,0.5,0.5,1.8015707817077637,-0.1005,-0.03,-0.2505,0.0946381031311902,10,1,100,0.023999049853931045,-10,-1,-100,15015.488769094343,-0.005080651494407787,0.006562722620877176,0.9999655582329791,20.965106778827003,0.014790967959430305,42.80214642103168,-17.943835334812164,-97.42786407470703,5356.25390625,True
1599561641.9184384,0.0,10,0.5,0.5,0.14149208450317396,-0.1005,-0.03,-0.2505,0.07094491359446309,10,1,100,0.05699235377844407,-10,-1,-100,15015.488769094343,-0.005080651494407787,0.006562722620877176,0.9999655582329791,20.965106778827003,0.014790967959430305,42.80214642103168,-17.943835334812164,-97.42786407470703,5356.25390625,True
1599561641.9543433,0.0,10,0.5,0.5,2.8481488151550294,-0.1005,-0.03,-0.2505,0.09188767819910075,10,1,100,0.02144187051477671,-10,-1,-100,15014.765135259833,-0.004759195789074946,0.006750594076965682,0.9999658891857508,22.499963083381118,0.01614504187899491,46.892493877787636,-18.315255592189267,-104.6830825805664,5356.25390625,True
1599561641.9892747,0.0,10,0.5,0.5,3.657436763763428,-0.1005,-0.03,-0.2505,0.09123018984736203,10,1,100,0.015526592403387114,-10,-1,-100,15014.037594910129,-0.004414997151237368,0.0069133980140229645,0.999966355798061,23.737077132397484,0.017435544536945315,50.48027595277826,-18.68663090765403,-111.74069213867188,5356.25390625,True
1599561642.025186,0.0,10,0.5,0.5,4.497452087402344,-0.1005,-0.03,-0.2505,0.08871685936483054,10,1,100,0.012310837976081984,-10,-1,-100,15013.312007953646,-0.004074977152467012,0.00703639400173824,0.9999669413138913,24.691052790001287,0.018570362056555774,53.5591472516524,-19.057962971810326,-118.68449401855469,5356.25390625,True
1599561642.0551004,0.0,10,0.5,0.5,5.295602943420411,-0.1005,-0.03,-0.2505,0.08639775429384082,10,1,100,0.00973393711948764,-10,-1,-100,15012.521966701257,-0.0037448000424795307,0.007125027199956881,0.9999676047052933,25.459453331286614,0.019521792873168044,56.30878678157928,-19.429257003631417,-125.39295959472656,5356.25390625,True
1599561642.0900052,0.0,10,0.5,0.5,4.933224311828614,-0.1005,-0.03,-0.2505,0.08124819091415678,10,1,100,0.024642957864138615,-10,-1,-100,15012.095208082348,-0.0035825610873566594,0.007157095677579291,0.9999679701058014,25.7665432400424,0.01989692115003966,57.53598008562925,-19.614892222022398,-128.64683532714844,5356.25390625,True
1599561642.1228938,0.0,10,0.5,0.5,5.402940422058106,-0.1005,-0.03,-0.2505,0.08090420277228622,10,1,100,0.023192477484911034,-10,-1,-100,15011.730948960641,-0.0034241976112458464,0.007181713945974436,0.9999683484268477,26.007813559790257,0.020183938642496978,58.627912236581714,-19.80052125812353,-131.8323974609375,5356.25390625,True
1599561642.163244,0.0,10,0.5,0.5,7.970920074462891,-0.1005,-0.03,-0.2505,0.0817856686197435,10,1,100,-0.010740135424785774,-10,-1,-100,15010.512196110212,-0.002973966048471042,0.007210952043558337,0.9999695783855468,26.42232392890172,0.020549977951729904,61.248777356292536,-20.357384938333595,-140.9766082763672,5356.25390625,True
1599561642.202111,0.0,10,0.5,0.5,7.882992347717286,-0.1005,-0.03,-0.2505,0.07723828096185702,10,1,100,0.0036277473443786096,-10,-1,-100,15009.66063112521,-0.0026979045781393243,0.007195010192085633,0.9999704761337823,26.46861585758914,0.02040425457371131,62.48288517744584,-20.7286182600797,-146.728515625,5356.25390625,True
1599561642.2415497,0.0,10,0.5,0.5,6.61183975982666,-0.1005,-0.03,-0.2505,0.0789196649602199,10,1,100,0.030962436026321972,-10,-1,-100,15009.66063112521,-0.0026979045781393243,0.007195010192085633,0.9999704761337823,26.46861585758914,0.02040425457371131,62.48288517744584,-20.7286182600797,-146.728515625,5356.25390625,True
1599561642.2824416,0.0,10,0.5,0.5,8.681870544433593,-0.1005,-0.03,-0.2505,0.07596717432603374,10,1,100,0.0036765189309502823,-10,-1,-100,15008.868636701605,-0.002452016919923462,0.007167594561255569,0.9999713061889476,26.34070258819372,0.01998638546586731,63.302819449899346,-21.099853361198953,-152.2046661376953,5356.25390625,True
1599561642.3223345,0.0,10,0.5,0.5,10.17626188659668,-0.1005,-0.03,-0.2505,0.06896418645477391,10,1,100,-0.00819632819220973,-10,-1,-100,15007.584453142597,-0.0021229373791298457,0.007078457850816441,0.999972693912858,25.886103856122574,0.019009352690991656,63.86526360338231,-21.656721403378725,-159.90220642089844,5356.25390625,True
1599561642.3602657,0.0,10,0.5,0.5,10.897753807067872,-0.1005,-0.03,-0.2505,0.06483065739719429,10,1,100,-0.004661015651616526,-10,-1,-100,15006.244606174529,-0.0018583099636955373,0.006959548882826646,0.9999740553451507,25.20000191026117,0.01784938027771404,63.78508275325696,-22.213616754602135,-166.9793243408203,5356.25390625,True
1599561642.3991652,0.0,10,0.5,0.5,10.8256714553833,-0.1005,-0.03,-0.2505,0.06705887339227196,10,1,100,0.005757817808320492,-10,-1,-100,15005.325658166199,-0.0017147805149251769,0.006871664374728626,0.9999749195637392,24.656032675208067,0.017092528667068542,63.46082622690762,-22.584896456332377,-171.35260009765625,5356.25390625,True
1599561642.442421,0.0,10,0.5,0.5,10.619380920410157,-0.1005,-0.03,-0.2505,0.07058899442275167,10,1,100,0.013036425040445235,-10,-1,-100,15004.898899245658,-0.0016526139878237486,0.0068240111309411594,0.9999753505657487,24.366597347104374,0.016740273388805037,63.23621571276596,-22.770540895993182,-173.43582153320312,5356.25390625,True
1599561642.4842713,0.0,10,0.5,0.5,11.631458862304688,-0.1005,-0.03,-0.2505,0.06444064615029552,10,1,100,0.007784759541841135,-10,-1,-100,15003.977998092188,-0.0015502585368848273,0.006725069575992966,0.9999761847852512,23.765721555557597,0.01611371538372462,62.69226223409864,-23.141837006127947,-177.39535522460938,5356.25390625,True
1599561642.5261898,0.0,10,0.5,0.5,-114.28118522644043,-0.1005,-0.03,-0.2505,0.06295549078087503,10,1,100,0.009696933698381921,-10,-1,-100,15002.995574283064,-0.0014764390761366076,0.00662201404641041,0.9999769842639497,23.150664770874226,0.01561385615440812,62.05942231174146,-23.513141145115377,178.92095947265625,5356.25390625,True
1599561642.5692163,0.0,10,0.5,0.5,-24.760063064575196,-0.1005,-0.03,-0.2505,0.061682190745425136,10,1,100,0.011696769159152222,-10,-1,-100,15002.07760353142,-0.001429281487404419,0.0065172605645581454,0.9999777409868499,23.306590637906133,0.01577407251847552,63.474126459795116,-23.884441831349623,175.5131378173828,5356.25390625,True
1599561642.6151288,0.0,10,0.5,0.5,-26.00143416595459,-0.1005,-0.03,-0.2505,0.06634144159590805,10,1,100,0.014718688200118415,-10,-1,-100,15001.583462250535,-0.0014152872021667281,0.006465017581041386,0.9999781000151015,23.67197313753475,0.016097455128612242,64.9755363679808,-24.070082819689773,173.91268920898438,5356.25390625,True
1599561642.659654,0.0,10,0.5,0.5,-25.610528778076176,-0.1005,-0.03,-0.2505,0.05383299309524273,10,1,100,0.01584229778807671,-10,-1,-100,15000.112756324117,-0.0014139457730920596,0.006304474421121051,0.9999791269619702,24.67776924225235,0.017185865733665904,69.32026961958826,-24.62696739591068,168.91627502441406,5356.25390625,True
1599561642.7025003,0.0,10,0.5,0.5,-26.53132871246338,-0.1005,-0.03,-0.2505,0.058163931134394865,10,1,100,0.019550774011245282,-10,-1,-100,14999.12740296952,-0.0014476069476030272,0.006198707835886643,0.9999797400224121,25.39331892386355,0.01808647461490279,72.41725954106636,-24.998188567122536,165.2760009765625,5356.25390625,True
1599561642.7443893,0.0,10,0.5,0.5,-26.2993212890625,-0.1005,-0.03,-0.2505,0.05151006523759773,10,1,100,0.026644350046649334,-10,-1,-100,14997.59126820881,-0.001543608170182417,0.006042947510907543,0.9999805498404443,26.45515038695525,0.019610144604666264,77.14454901209649,-25.554960644053118,159.30352783203125,5356.25390625,True
1599561642.7892694,0.0,10,0.5,0.5,-28.75304301452637,-0.1005,-0.03,-0.2505,0.06698254670151688,10,1,100,0.016986294867815624,-10,-1,-100,14997.59126820881,-0.001543608170182417,0.006042947510907543,0.9999805498404443,26.45515038695525,0.019610144604666264,77.14454901209649,-25.554960644053118,159.30352783203125,5356.25390625,True
1599561642.8341916,0.0,10,0.5,0.5,-27.418272628784177,-0.1005,-0.03,-0.2505,0.05030308947691972,10,1,100,0.03399252955429122,-10,-1,-100,14996.054157058243,-0.0016984963962353888,0.005892149355567495,0.9999811986662367,27.447940520598525,0.021212558193972445,81.80289313327731,-26.11165836409648,152.71202087402344,5356.25390625,True
1599561642.8780503,0.0,10,0.5,0.5,-29.222110542297365,-0.1005,-0.03,-0.2505,0.05988569562373007,10,1,100,0.025486918702888946,-10,-1,-100,14995.498493023217,-0.0017619949431968787,0.005843065192974056,0.9999813768080736,27.778023617268303,0.02175066065658438,83.38155291649025,-26.297207250473807,150.37718200683594,5356.25390625,True
1599561642.9199407,0.0,10,0.5,0.5,-29.06695891571045,-0.1005,-0.03,-0.2505,0.05515474851012786,10,1,100,0.035547969350027686,-10,-1,-100,14994.449664162239,-0.0019110855545400643,0.005756326385890879,0.9999816060601028,28.373872003304335,0.022743236427106083,86.38558478140651,-26.668280672885402,145.50120544433594,5356.25390625,True
1599561642.9620636,0.0,10,0.5,0.5,-29.448961555480956,-0.1005,-0.03,-0.2505,0.053820836889211646,10,1,100,0.03958129607124945,-10,-1,-100,14993.399859428639,-0.002082961055938017,0.005666227131252482,0.9999817774056368,28.863709826567206,0.023557636083686474,89.11355838393216,-27.03932436780947,140.34986877441406,5356.25390625,True
1599561643.0059125,0.0,10,0.5,0.5,-27.73047356414795,-0.1005,-0.03,-0.2505,0.05051432543249712,10,1,100,0.05623560285814681,-10,-1,-100,14991.735796594294,-0.002390062917108131,0.005555128420079406,0.9999817139065537,29.344250658828166,0.024280150172361407,92.48357429443647,-27.595846541859803,132.107177734375,5356.25390625,True
1599561643.049334,0.0,10,0.5,0.5,-26.55463792419434,-0.1005,-0.03,-0.2505,0.05132516376803954,10,1,100,0.06570837576546588,-10,-1,-100,14990.066852421965,-0.002754489106938677,0.005462375514921975,0.999981287446667,29.442416282007127,0.02424074978392865,94.68678977551069,-28.152339983019893,123.24560546875,5356.25390625,True
1599561643.0932243,0.0,10,0.5,0.5,-28.622460525512697,-0.1005,-0.03,-0.2505,0.06050019007717066,10,1,100,0.029399676972888478,-10,-1,-100,14990.066852421965,-0.002754489106938677,0.005462375514921975,0.999981287446667,29.442416282007127,0.02424074978392865,94.68678977551069,-28.152339983019893,123.24560546875,5356.25390625,True
1599561643.1345882,0.0,10,0.5,0.5,-26.291205780029298,-0.1005,-0.03,-0.2505,0.05473874796520098,10,1,100,0.06025690386968452,-10,-1,-100,14988.953572555794,-0.003033790675696962,0.005410764312909704,0.9999807596867483,29.253564348835905,0.023765421566987997,95.33483386992894,-28.523335408175498,116.99420166015625,5356.25390625,True
1599561643.178507,0.0,10,0.5,0.5,-24.240106384277343,-0.1005,-0.03,-0.2505,0.05446062639406919,10,1,100,0.08392006924453951,-10,-1,-100,14987.163536713808,-0.003501378892768545,0.00536203297272733,0.9999794942638817,28.532082989937155,0.022484269149077335,94.82207261011727,-29.079852915378837,107.101806640625,5356.25390625,True
1599561643.22734,0.0,10,0.5,0.5,-22.872350646972656,-0.1005,-0.03,-0.2505,0.057958852699152436,10,1,100,0.09530635258592401,-10,-1,-100,14985.430143238045,-0.0040281909652802195,0.005350152824915183,0.9999775745196975,27.229674292919423,0.020812754626953523,92.25069371744634,-29.636424999513842,96.59127807617188,5356.25390625,True
1599561643.2722213,0.0,10,0.5,0.5,-24.039177658081055,-0.1005,-0.03,-0.2505,0.059786185431287706,10,1,100,0.06414248023805522,-10,-1,-100,14984.809051518794,-0.0042215443891328456,0.005356594619638091,0.9999767424580691,26.658666506116695,0.020240159675601024,90.89008165758614,-29.821964523035877,92.95046997070312,5356.25390625,True
1599561643.3191252,0.0,10,0.5,0.5,-23.46990660095215,-0.1005,-0.03,-0.2505,0.0604783164210443,10,1,100,0.06692412057915187,-10,-1,-100,14984.249483910273,-0.004420314188469841,0.005369229764507548,0.9999758158046679,26.01789004570364,0.01968459962193619,89.26572423408437,-30.007512169990605,89.24104309082031,5356.25390625,True
1599561643.367002,0.0,10,0.5,0.5,-21.539436378479003,-0.1005,-0.03,-0.2505,0.06435278322745258,10,1,100,0.0937103957033952,-10,-1,-100,14983.014137670398,-0.004842108944228165,0.005416369444836645,0.9999736081132389,26.06100263065866,0.019822889261285098,90.53656851771227,-30.378611380856164,81.6163330078125,5356.25390625,True
1599561643.4088578,0.0,10,0.5,0.5,-17.616299285888672,-0.1005,-0.03,-0.2505,0.07992579192192754,10,1,100,0.15075714120869083,-10,-1,-100,14980.535637620836,-0.005741500932793248,0.005601105557759282,0.9999678308743585,29.060509952918565,0.02312986833816935,103.46184755042701,-31.120635159992908,65.54376220703125,5356.25390625,True
