Timestamp,Input Throttle,horizon,dT,dt,Input Roll,Roll P,Roll I,Roll D,Input Pitch,Pitch P,Pitch I,Pitch D,Input Yaw,Yaw P,Yaw I,Yaw D,Altitude,Direction X,Direction Y,Direction Z,Drag X,Drag Y,Drag Z,Vertical Velocity,Roll,Mass,Has Fuel
1599561885.2335143,0.0,10,0.5,0.5,-8.746086463928222,-0.15025,-0.001,-0.2505,-0.00026616367398402563,10,1,100,0.17497232613723623,-10,-1,-100,14994.519322799752,-0.016809888759026257,-7.488244093024017e-05,0.9998587010335657,28.576450129582536,0.02719960583415088,-86.69248197567343,26.823330602209495,-31.791656494140625,5356.25390625,True
1599561885.2813883,0.0,10,0.5,0.5,-8.75186904449463,-0.15025,-0.001,-0.2505,-0.0005187054745852925,10,1,100,0.1737111887935073,-10,-1,-100,14995.057410538895,-0.016845627962002094,-7.272237566832987e-05,0.9998580996971631,28.503885378691937,0.02736331362073565,-85.87442389626088,26.637367020594926,-31.791046142578125,5356.25390625,True
1599561885.3243058,0.0,10,0.5,0.5,-8.702575788879395,-0.15025,-0.001,-0.2505,0.007638629544090248,10,1,100,0.18411121056374075,-10,-1,-100,14997.150189643959,-0.016957349591744067,3.46502235379197e-06,0.9998562138041734,28.217420963154748,0.02800583018862575,-82.64374556386292,25.89355211045523,-31.928192138671875,5356.25390625,True
1599561885.3691542,0.0,10,0.5,0.5,-8.585595806884765,-0.15025,-0.001,-0.2505,0.009456673189186332,10,1,100,0.1781069008748526,-10,-1,-100,14998.165816455847,-0.016988914303799837,8.925081276354551e-05,0.9998556739975378,28.093472996799218,0.0283314138479008,-81.10208616813526,25.521667104604834,-32.3203125,5356.25390625,True
1599561885.4250312,0.0,10,0.5,0.5,-8.68958992614746,-0.15025,-0.001,-0.2505,0.0008870192294873319,10,1,100,0.1766493210996556,-10,-1,-100,14998.165816455847,-0.016988914303799837,8.925081276354551e-05,0.9998556739975378,28.093472996799218,0.0283314138479008,-81.10208616813526,25.521667104604834,-32.3203125,5356.25390625,True
1599561885.471414,0.0,10,0.5,0.5,-8.255276473999022,-0.15025,-0.001,-0.2505,0.02510440516853786,10,1,100,0.1771657486440551,-10,-1,-100,14999.656050652498,-0.016978164632109105,0.0003093277296524016,0.9998558127260553,27.94509930815635,0.028822689181205664,-78.91506371802161,24.963865236540133,-33.41845703125,5356.25390625,True
1599561885.5273001,0.0,10,0.5,0.5,-8.105135311889649,-0.15025,-0.001,-0.2505,0.026242846752463675,10,1,100,0.17489138162307896,-10,-1,-100,15000.667767306208,-0.016932281444352194,0.0005194659160146397,0.9998565037045322,27.867878208185857,0.029138713738591896,-77.52771207213259,24.59201300192694,-34.49365234375,5356.25390625,True
1599561885.5651534,0.0,10,0.5,0.5,-7.527193400573731,-0.15025,-0.001,-0.2505,0.04991004849677384,10,1,100,0.16568234342751312,-10,-1,-100,15002.096472698613,-0.016791457943300447,0.0009251847686412988,0.999858585487609,27.773609680234518,0.029563372702233272,-75.51734169323663,24.034256290696312,-36.621734619140625,5356.25390625,True
1599561885.609053,0.0,10,0.5,0.5,-7.726272262573242,-0.15025,-0.001,-0.2505,0.02687287712728538,10,1,100,0.1741139918583,-10,-1,-100,15002.573033011751,-0.016724822966312104,0.0010837501815168745,0.9998595430270641,27.745056789462797,0.029683867309290287,-74.85756306597624,23.848342955004917,-37.468505859375,5356.25390625,True
1599561885.6609094,0.0,10,0.5,0.5,-7.1823046630859375,-0.15025,-0.001,-0.2505,0.04908172652147596,10,1,100,0.16412892637714854,-10,-1,-100,15003.521269041114,-0.016558268007433766,0.0014288139602768423,0.9998618815872825,27.686979662084113,0.029879414206150336,-73.53896761389437,23.47652462860165,-39.3682861328125,5356.25390625,True
1599561885.7272756,0.0,10,0.5,0.5,-6.791758734130859,-0.15025,-0.001,-0.2505,0.05716327896486363,10,1,100,0.15919995631131356,-10,-1,-100,15004.472433328861,-0.016346992618757293,0.0018146780413982675,0.9998647322392807,27.620656151002347,0.029997059415385097,-72.20362509133267,23.10471775958178,-41.54296875,5356.25390625,True
1599561885.7721186,0.0,10,0.5,0.5,-5.821709941101074,-0.15025,-0.001,-0.2505,0.08983875941177023,10,1,100,0.13554244985024666,-10,-1,-100,15005.834724543965,-0.01594027665771468,0.0024607956096784154,0.9998699175718024,27.484513152818213,0.02997895696775059,-70.11743817104447,22.54703068249269,-45.320465087890625,5356.25390625,True
1599561886.249879,0.0,10,0.5,0.5,-6.766619831848144,-0.15025,-0.001,-0.2505,0.025480354382290116,10,1,100,0.17612351082407915,-10,-1,-100,15005.834724543965,-0.01594027665771468,0.0024607956096784154,0.9998699175718024,27.484513152818213,0.02997895696775059,-70.11743817104447,22.54703068249269,-45.320465087890625,5356.25390625,True
1599561886.2997117,0.0,10,0.5,0.5,-2.993353312683105,-0.15025,-0.001,-0.2505,0.1830242015423173,10,1,100,0.04792595849410959,-10,-1,-100,15008.435275639175,-0.014775768975564076,0.003890778465144731,0.9998832624332282,26.936147607826733,0.028980982185900398,-65.32689330181142,21.431760905589762,-54.732635498046875,5356.25390625,True
1599561886.3565578,0.0,10,0.5,0.5,-5.348860768127441,-0.15025,-0.001,-0.2505,0.040406068760923855,10,1,100,0.16415541217634655,-10,-1,-100,15008.435275639175,-0.014775768975564076,0.003890778465144731,0.9998832624332282,26.936147607826733,0.028980982185900398,-65.32689330181142,21.431760905589762,-54.732635498046875,5356.25390625,True
1599561886.411411,0.0,10,0.5,0.5,-2.2801996063232424,-0.15025,-0.001,-0.2505,0.14624090296594927,10,1,100,0.049198591783517515,-10,-1,-100,15010.144232749357,-0.013732718922291299,0.004849457387324616,0.9998939419728725,26.217772012485824,0.02745778264089956,-61.38422089586978,20.68835488738743,-62.38433837890625,5356.25390625,True
1599561886.4552925,0.0,10,0.5,0.5,-2.495526689147949,-0.15025,-0.001,-0.2505,0.10741655314929974,10,1,100,0.08608180018721712,-10,-1,-100,15010.906913199578,-0.013122743900904059,0.005363907654920722,0.9998995059940676,25.706570547872428,0.026440208636104454,-59.10877216896092,20.31669512711386,-66.62271118164062,5356.25390625,True
1599561886.5071535,0.0,10,0.5,0.5,-1.7445729003906252,-0.15025,-0.001,-0.2505,0.10257386851087254,10,1,100,0.07713123807761954,-10,-1,-100,15011.730140247266,-0.012490315623686089,0.005783161272623384,0.9999052690436808,25.07254074641352,0.025278090632235153,-56.5991191728402,19.94507015843732,-71.13787841796875,5356.25390625,True
1599561886.5575304,0.0,10,0.5,0.5,-2.8721706787109373,-0.15025,-0.001,-0.2505,0.06113430439100454,10,1,100,0.1399439515674551,-10,-1,-100,15011.730140247266,-0.012490315623686089,0.005783161272623384,0.9999052690436808,25.07254074641352,0.025278090632235153,-56.5991191728402,19.94507015843732,-71.13787841796875,5356.25390625,True
1599561886.616411,0.0,10,0.5,0.5,1.081350166320801,-0.15025,-0.001,-0.2505,0.14983058778759634,10,1,100,-0.015691548435872227,-10,-1,-100,15013.312140622991,-0.011079296993967319,0.0065852189297823036,0.999916938585284,23.368149517791444,0.022665935829604186,-50.79152354566025,19.20193723848806,-80.99478149414062,5356.25390625,True
1599561886.6702847,0.0,10,0.5,0.5,-1.383641404724121,-0.15025,-0.001,-0.2505,0.07014046256865493,10,1,100,0.12486241743465816,-10,-1,-100,15013.312140622991,-0.011079296993967319,0.0065852189297823036,0.999916938585284,23.368149517791444,0.022665935829604186,-50.79152354566025,19.20193723848806,-80.99478149414062,5356.25390625,True
1599561886.7371125,0.0,10,0.5,0.5,0.7611267135620117,-0.15025,-0.001,-0.2505,0.11024801635791034,10,1,100,0.03829992989974573,-10,-1,-100,15014.075797225581,-0.010297154103308833,0.006945496199786095,0.999922861374772,22.295801883023465,0.021333949908911753,-47.52585424080905,18.830431734598207,-86.33682250976562,5356.25390625,True
1599561886.8099625,0.0,10,0.5,0.5,2.6350864139556887,-0.15025,-0.001,-0.2505,0.12176669967915163,10,1,100,-0.012939143522606625,-10,-1,-100,15015.181243765517,-0.009125435464829194,0.0073736592930825455,0.9999311754196919,21.557913358502123,0.020528105745908118,-44.59707431574367,18.273233025369397,-94.34191131591797,5356.25390625,True
1599561886.863818,0.0,10,0.5,0.5,1.7240571964263918,-0.15025,-0.001,-0.2505,0.09374469811721463,10,1,100,0.05709417674745065,-10,-1,-100,15015.532799108769,-0.008703098560659938,0.0075036867603495245,0.999933973200454,21.986158560664204,0.020995439534280465,-45.02199900634991,18.087500881895203,-97.06017303466797,5356.25390625,True
1599561886.9086637,0.0,10,0.5,0.5,3.2027419307708738,-0.15025,-0.001,-0.2505,0.10415291344257883,10,1,100,0.009303896345058127,-10,-1,-100,15016.230050678598,-0.00789021943540696,0.007713229226008994,0.9999391234131048,22.87411579358296,0.022078398617076864,-45.88094302698357,17.716028372217234,-102.43852996826172,5356.25390625,True
1599561886.9625628,0.0,10,0.5,0.5,5.895927130126953,-0.15025,-0.001,-0.2505,0.11587121601965766,10,1,100,-0.09205629895192234,-10,-1,-100,15017.620651308564,-0.006236041682059117,0.008006777444799352,0.9999485003234363,24.13329860828053,0.024026457394319068,-46.38148421332369,16.973046748916833,-112.50888061523438,5356.25390625,True
1599561887.0104334,0.0,10,0.5,0.5,4.3196505886077885,-0.15025,-0.001,-0.2505,0.0918704223082415,10,1,100,0.028072875025914816,-10,-1,-100,15017.96927853499,-0.005831142285396173,0.008052580137180007,0.9999505756450074,24.34671043273676,0.024429718680175367,-46.280712265341805,16.78729495188114,-114.8578109741211,5356.25390625,True
1599561887.0598488,0.0,10,0.5,0.5,4.649871336364746,-0.15025,-0.001,-0.2505,0.09148021024590033,10,1,100,0.023334960305870407,-10,-1,-100,15018.255405980977,-0.005426608701534464,0.008088227318339084,0.9999525651233898,24.575568163662535,0.02484231754901661,-46.19995910092396,16.60154088173213,-117.13804626464844,5356.25390625,True
1599561887.1007075,0.0,10,0.5,0.5,5.828093616104125,-0.15025,-0.001,-0.2505,0.09435004733914928,10,1,100,-0.02077224455430992,-10,-1,-100,15018.951685735607,-0.004664297860133226,0.008144627760198949,0.9999559537120222,24.92675468091299,0.025521286838683915,-45.81367565411766,16.230028976126796,-121.49193572998047,5356.25390625,True
1599561887.145619,0.0,10,0.5,0.5,6.377084880065918,-0.15025,-0.001,-0.2505,0.08926801279410887,10,1,100,-0.031827427310231235,-10,-1,-100,15019.584490020992,-0.003877900904499683,0.008147553787400662,0.9999592887972273,25.15021186136721,0.02599269634670954,-45.16832393012374,15.858515388162505,-125.57080078125,5356.25390625,True
1599561887.1875088,0.0,10,0.5,0.5,6.884013875579834,-0.15025,-0.001,-0.2505,0.08632110554577138,10,1,100,-0.0359473938729459,-10,-1,-100,15020.218271361431,-0.0031320870634349357,0.008122003441819499,0.9999621108275644,25.264371885430783,0.0262574826841709,-44.31235962255811,15.487004567258118,-129.37423706054688,5356.25390625,True
1599561887.2263684,0.0,10,0.5,0.5,7.349894179534912,-0.15025,-0.001,-0.2505,0.08379332757992188,10,1,100,-0.04039141984085398,-10,-1,-100,15020.788577777217,-0.002420898980877394,0.008074398978408866,0.9999644710334772,25.286179246038238,0.026327673017770097,-43.288595412623835,15.115500530391342,-132.90213012695312,5356.25390625,True
1599561887.2662935,0.0,10,0.5,0.5,7.774211045837402,-0.15025,-0.001,-0.2505,0.08066981972450657,10,1,100,-0.04573830082458634,-10,-1,-100,15021.419431606657,-0.0017329165833569996,0.008001700392278495,0.9999664843338237,25.231833730913433,0.0262213325653892,-42.13575240968872,14.744006799547224,-136.15452575683594,5356.25390625,True
1599561887.3021655,0.0,10,0.5,0.5,8.711707931518555,-0.15025,-0.001,-0.2505,0.0722394480218266,10,1,100,-0.08458015518402653,-10,-1,-100,15022.273917624028,-0.0007610907449630684,0.007858400079318161,0.9999688326588341,25.040232542286894,0.025785031461804716,-40.23806168532708,14.186792547108304,-140.51644897460938,5356.25390625,True
1599561887.353035,0.0,10,0.5,0.5,8.65066222076416,-0.15025,-0.001,-0.2505,0.07446258704426609,10,1,100,-0.0547736262207257,-10,-1,-100,15022.844227207475,-0.00015580116228559038,0.007748014955631882,0.9999699715442685,24.85932240268299,0.025351044295373944,-38.9030899097727,13.815336553807729,-143.07981872558594,5356.25390625,True
1599561887.3979452,0.0,10,0.5,0.5,8.929289723205565,-0.15025,-0.001,-0.2505,0.07417836991428924,10,1,100,-0.05697872416928788,-10,-1,-100,15023.352037430624,0.0004074771503416628,0.007645049427708545,0.9999706931613646,24.664578571476834,0.02485007560455328,-37.562220608632515,13.443897758847283,-145.36724853515625,5356.25390625,True
1599561887.4617405,0.0,10,0.5,0.5,8.359574392700194,-0.15025,-0.001,-0.2505,0.08443874990491386,10,1,100,-0.0013152447898026397,-10,-1,-100,15023.352037430624,0.0004074771503416628,0.007645049427708545,0.9999706931613646,24.664578571476834,0.02485007560455328,-37.562220608632515,13.443897758847283,-145.36724853515625,5356.25390625,True
1599561887.5086517,0.0,10,0.5,0.5,9.53052760772705,-0.15025,-0.001,-0.2505,0.06550884654447742,10,1,100,-0.08833559996394337,-10,-1,-100,15024.141098574037,0.0011928998160740895,0.007473329879622279,0.9999713627552238,24.3894917645936,0.0240458383146503,-35.6063961701709,12.886771537292422,-148.2815399169922,5356.25390625,True
1599561887.5694838,0.0,10,0.5,0.5,9.722922779846192,-0.15025,-0.001,-0.2505,0.06211394214982291,10,1,100,-0.08858998480549413,-10,-1,-100,15024.868637445616,0.001903215275738022,0.007286917429991283,0.9999716389008154,24.101168364113633,0.023178046844166047,-33.66666042585499,12.329682347310149,-150.5755157470703,5356.25390625,True
1599561887.6143694,0.0,10,0.5,0.5,9.625747756195066,-0.15025,-0.001,-0.2505,0.07007734851603517,10,1,100,-0.06478515482213093,-10,-1,-100,15025.374496748787,0.002326578590914776,0.007190625906683406,0.9999714405577445,23.91519745117174,0.02259293074972688,-32.402087957238635,11.95830850391246,-151.7596893310547,5356.25390625,True
1599561887.666227,0.0,10,0.5,0.5,9.69579140396118,-0.15025,-0.001,-0.2505,0.06869752024356944,10,1,100,-0.06625326879271361,-10,-1,-100,15025.815903707757,0.002719160386721291,0.007091414199272663,0.9999711585898095,23.741715078936256,0.022017595602810733,-31.169475624785015,11.58694815893006,-152.6681365966797,5356.25390625,True
1599561887.7150629,0.0,10,0.5,0.5,9.724087098693847,-0.15025,-0.001,-0.2505,0.06790715418254345,10,1,100,-0.06704344497747435,-10,-1,-100,15026.320787309902,0.00307791703236126,0.006994973491292249,0.9999707979599194,23.585514150382046,0.021461378390528762,-29.973332795019246,11.21559989722052,-153.30078125,5356.25390625,True
1599561887.762934,0.0,10,0.5,0.5,9.710580546569824,-0.15025,-0.001,-0.2505,0.06851661244228316,10,1,100,-0.0672419651640226,-10,-1,-100,15026.761218565167,0.003400865242808726,0.006913821945932339,0.9999703161502845,23.450215359705382,0.02093106941932983,-28.815923537981572,10.84426224835954,-153.65744018554688,5356.25390625,True
1599561887.811809,0.0,10,0.5,0.5,9.622987774658203,-0.15025,-0.001,-0.2505,0.07652297913363952,10,1,100,-0.03546052230189254,-10,-1,-100,15026.761218565167,0.003400865242808726,0.006913821945932339,0.9999703161502845,23.450215359705382,0.02093106941932983,-28.815923537981572,10.84426224835954,-153.65744018554688,5356.25390625,True
1599561887.8616714,0.0,10,0.5,0.5,9.57847636566162,-0.15025,-0.001,-0.2505,0.061994186220666186,10,1,100,-0.09574198504783366,-10,-1,-100,15027.583487199736,0.00394509494414658,0.006782600717753841,0.9999692158028592,23.250192643128756,0.019964933880823342,-26.61574978193702,10.101611508837363,-153.5430908203125,5356.25390625,True
1599561887.9225097,0.0,10,0.5,0.5,9.527657649230957,-0.15025,-0.001,-0.2505,0.07135141839482584,10,1,100,-0.05452800359178565,-10,-1,-100,15027.742667420069,0.004061448572029254,0.006749252088482002,0.9999689756346158,23.21526318896049,0.01974479242099305,-26.08784444914624,9.91595285233834,-153.34219360351562,5356.25390625,True
1599561887.9674187,0.0,10,0.5,0.5,9.334756314086915,-0.15025,-0.001,-0.2505,0.06951859720487294,10,1,100,-0.06575884719154657,-10,-1,-100,15028.12157534645,0.0042660013833552505,0.006703087503180055,0.9999684344268683,23.16259325002183,0.019330890888145633,-25.05495984211202,9.544639067962049,-152.7332763671875,5356.25390625,True
1599561888.0172718,0.0,10,0.5,0.5,8.914755326080321,-0.15025,-0.001,-0.2505,0.06761213586209043,10,1,100,-0.0725704941161532,-10,-1,-100,15028.720209759893,0.004510374798208931,0.006644644560629833,0.9999677520889574,23.121405747739335,0.018775658912063,-23.552276510713085,8.98767525035788,-151.3027801513672,5356.25390625,True
1599561888.078128,0.0,10,0.5,0.5,9.273396752166747,-0.15025,-0.001,-0.2505,0.07337356158521334,10,1,100,-0.048464900128998595,-10,-1,-100,15028.720209759893,0.004510374798208931,0.006644644560629833,0.9999677520889574,23.121405747739335,0.018775658912063,-23.552276510713085,8.98767525035788,-151.3027801513672,5356.25390625,True
1599561888.1289954,0.0,10,0.5,0.5,8.753098636627197,-0.15025,-0.001,-0.2505,0.07056543447280006,10,1,100,-0.06192178963566283,-10,-1,-100,15029.035640545422,0.004630340012339996,0.006619700016761859,0.9999673692291454,23.11346019512085,0.018449308791121295,-22.572308600305057,8.61636890658991,-150.00428771972656,5356.25390625,True
1599561888.1828394,0.0,10,0.5,0.5,8.090415432739258,-0.15025,-0.001,-0.2505,0.0701278225798286,10,1,100,-0.06293392743725615,-10,-1,-100,15029.568845137255,0.004746506222090517,0.006593563892300253,0.9999669972523503,23.11681985458767,0.018025751414940016,-21.117389969086613,8.059412185994839,-147.53945922851562,5356.25390625,True
1599561888.2257226,0.0,10,0.5,0.5,8.32283955001831,-0.15025,-0.001,-0.2505,0.07176717630250368,10,1,100,-0.05403140285343018,-10,-1,-100,15029.72900125885,0.004769336783978601,0.0065851595860021775,0.9999669440035844,23.11839424754733,0.017902035204746067,-20.6326829823688,7.873760377421345,-146.5800018310547,5356.25390625,True
1599561888.2736332,0.0,10,0.5,0.5,7.710599822235106,-0.15025,-0.001,-0.2505,0.07173067488267112,10,1,100,-0.053858643239611786,-10,-1,-100,15029.979001364089,0.004786983643977039,0.006577560034555713,0.999966909698308,23.115779934711732,0.017680086551131246,-19.658104978327255,7.502457551349643,-144.45420837402344,5356.25390625,True
1599561888.315511,0.0,10,0.5,0.5,7.279793939971924,-0.15025,-0.001,-0.2505,0.07172605368249083,10,1,100,-0.050496142403953226,-10,-1,-100,15030.292477124953,0.004771197946923116,0.006570915033158539,0.9999670288293401,23.09671643803585,0.017489848437304008,-18.67036768141814,7.131155662289823,-142.05271911621094,5356.25390625,True
1599561888.3571217,0.0,10,0.5,0.5,5.624055449676513,-0.15025,-0.001,-0.2505,0.07036652566549008,10,1,100,-0.03803634864749779,-10,-1,-100,15030.7963818094,0.004642330703902578,0.006552826510745442,0.9999677540952787,22.96086827650549,0.017182779362818656,-16.628701139901636,6.388554137032052,-136.4228973388672,5356.25390625,True
1599561888.3979986,0.0,10,0.5,0.5,7.032613785552978,-0.15025,-0.001,-0.2505,0.072152400486099,10,1,100,-0.0509927965255272,-10,-1,-100,15030.7963818094,0.004642330703902578,0.006552826510745442,0.9999677540952787,22.96086827650549,0.017182779362818656,-16.628701139901636,6.388554137032052,-136.4228973388672,5356.25390625,True
1599561888.438868,0.0,10,0.5,0.5,5.737179828643798,-0.15025,-0.001,-0.2505,0.0705757794097604,10,1,100,-0.03864713679937044,-10,-1,-100,15031.04930996627,0.00452956935899945,0.00653867216057667,0.9999683638834773,22.815681882222876,0.01704544010628,-15.563626022869604,6.01725392640603,-133.19459533691406,5356.25390625,True
1599561888.4787953,0.0,10,0.5,0.5,3.625233109283447,-0.15025,-0.001,-0.2505,0.0659645349674914,10,1,100,-0.015419648296291076,-10,-1,-100,15031.485829039826,0.004215660451808935,0.006484033633986798,0.9999700923101592,22.290866345023602,0.016724082596443222,-13.329712116598824,5.274648358167252,-125.91154479980469,5356.25390625,True
1599561888.5286627,0.0,10,0.5,0.5,4.6484416015625,-0.15025,-0.001,-0.2505,0.06905536267096721,10,1,100,-0.036355913049066914,-10,-1,-100,15031.642077625962,0.004120886319703157,0.006462606689779098,0.9999706260739429,22.097836438719792,0.016619218711666092,-12.74931784412954,5.0889943716872486,-123.91864013671875,5356.25390625,True
1599561888.5788317,0.0,10,0.5,0.5,3.4648559108734127,-0.15025,-0.001,-0.2505,0.06511775467790212,10,1,100,-0.02314327855189472,-10,-1,-100,15031.82859772991,0.003914967239158617,0.006407496702263188,0.9999718081113721,21.61977772354936,0.016357009330841055,-11.563632027442964,4.717680828037785,-119.72632598876953,5356.25390625,True
1599561888.632721,0.0,10,0.5,0.5,2.721573178482055,-0.15025,-0.001,-0.2505,0.06285802454585915,10,1,100,-0.018352730557130336,-10,-1,-100,15031.955547301215,0.0036848679775958867,0.00633704662451606,0.9999731314330732,21.008815654956695,0.01600592254375548,-10.352612254851506,4.346357437815946,-115.25862884521484,5356.25390625,True
1599561888.705011,0.0,10,0.5,0.5,0.9450141571044921,-0.15025,-0.001,-0.2505,0.05421762957875946,10,1,100,0.00047032729819328906,-10,-1,-100,15032.23386198841,0.0033055332486218217,0.006194685251652114,0.9999753493584606,19.954489424294113,0.015360120876803584,-8.573114990596219,3.789343963995032,-108.04093933105469,5356.25390625,True
1599561888.7479277,0.0,10,0.5,0.5,0.6829741031646728,-0.15025,-0.001,-0.2505,0.055093870329905585,10,1,100,-0.007634612660994883,-10,-1,-100,15032.35885778442,0.0030356954978519794,0.00607358662345381,0.9999769477834834,19.140852101511953,0.014817639990781305,-7.417722282667547,3.4179760244145467,-102.88506317138672,5356.25390625,True
1599561888.797277,0.0,10,0.5,0.5,-0.20524677619934084,-0.15025,-0.001,-0.2505,0.051392215002816946,10,1,100,-0.00389834384629785,-10,-1,-100,15032.484829990426,0.002758014451696809,0.005930303707037366,0.9999786121983942,18.133958190079888,0.014094175790838525,-6.263989610422144,3.046581174332052,-97.45621490478516,5356.25390625,True
1599561888.850137,0.0,10,0.5,0.5,0.02712516021728517,-0.15025,-0.001,-0.2505,0.056906365144998514,10,1,100,-0.01590393020512948,-10,-1,-100,15032.576624724083,0.002616548997995329,0.005850757521884177,0.9999794609429542,17.553421666301062,0.013658836531838494,-5.693878969659584,2.8608720755836967,-94.65373229980469,5356.25390625,True
1599561888.9000268,0.0,10,0.5,0.5,-2.7121447662353515,-0.15025,-0.001,-0.2505,0.034957422719339035,10,1,100,0.017341637453193715,-10,-1,-100,15032.670367937884,0.002187553226560052,0.005579545212410612,0.9999820414817977,16.183851217277834,0.01259304396335957,-4.227306409797182,2.3037095244304093,-86.0770263671875,5356.25390625,True
1599561888.968819,0.0,10,0.5,0.5,-2.861017236328125,-0.15025,-0.001,-0.2505,0.03873803641550615,10,1,100,0.006634459621288218,-10,-1,-100,15032.790480322088,0.0018971266668883434,0.005368242584034648,0.9999837913096237,17.30397870996475,0.013441079573043871,-3.791126313666566,1.932252147308855,-80.35699462890625,5356.25390625,True
1599561889.0356464,0.0,10,0.5,0.5,-3.6700407119750977,-0.15025,-0.001,-0.2505,0.035475906602176824,10,1,100,0.008215027938637879,-10,-1,-100,15032.851999313803,0.0016211268485673488,0.00514755758682309,0.9999854371932779,18.260812871690824,0.014174287829172651,-3.2316899362355858,1.5607958123908876,-74.77593994140625,5356.25390625,True
1599561889.08853,0.0,10,0.5,0.5,-3.357955892944336,-0.15025,-0.001,-0.2505,0.044304844540473606,10,1,100,-0.0037579443474982897,-10,-1,-100,15032.880317565636,0.0014814217923342658,0.005028412912476338,0.9999862601321354,18.67044577714236,0.014493334840662992,-2.9110234095408156,1.3750699157279942,-72.078857421875,5356.25390625,True
1599561889.1364088,0.0,10,0.5,0.5,-5.7670511032104494,-0.15025,-0.001,-0.2505,0.014404050079488397,10,1,100,0.026858878505312243,-10,-1,-100,15032.90765503014,0.0010784819557580663,0.004649577980495155,0.9999886090857606,19.620345187577918,0.015234454627073653,-1.8196215481785791,0.817897986902743,-64.39443969726562,5356.25390625,True
1599561889.1932206,0.0,10,0.5,0.5,-3.847637651824951,-0.15025,-0.001,-0.2505,0.05211175140542989,10,1,100,-0.013151456623967654,-10,-1,-100,15032.90765503014,0.0010784819557580663,0.004649577980495155,0.9999886090857606,19.620345187577918,0.015234454627073653,-1.8196215481785791,0.817897986902743,-64.39443969726562,5356.25390625,True
1599561889.2391317,0.0,10,0.5,0.5,-5.767941683959961,-0.15025,-0.001,-0.2505,0.02179176934974479,10,1,100,0.01560912299612242,-10,-1,-100,15032.968197936076,0.0008193915828680091,0.004375475842392582,0.9999900918552075,20.00591983250072,0.01553290676404963,-1.0127651383218956,0.4464453615068167,-59.6153564453125,5356.25390625,True
1599561889.2829823,0.0,10,0.5,0.5,-6.380417558288574,-0.15025,-0.001,-0.2505,0.019450256634468706,10,1,100,0.016824679711959896,-10,-1,-100,15032.96428805741,0.0005750644934292108,0.00410665942798706,0.9999914022876252,20.22171588561915,0.01570598357810883,-0.17193285234548272,0.07498112000120027,-55.11181640625,5356.25390625,True
1599561889.3348434,0.0,10,0.5,0.5,-7.75680471572876,-0.15025,-0.001,-0.2505,-0.002998159406030057,10,1,100,0.031433417612160286,-10,-1,-100,15032.927173920558,0.0002223791866688659,0.0036599924756097486,0.9999932774786918,20.39877944304197,0.015858598724542376,1.1155005389920556,-0.48224222189374855,-48.8741455078125,5356.25390625,True
1599561889.3877318,0.0,10,0.5,0.5,-8.45023871307373,-0.15025,-0.001,-0.2505,-0.008019678075171122,10,1,100,0.03246361446698254,-10,-1,-100,15032.890060184174,-0.00010530412246162457,0.003210345359394026,0.9999948412835513,20.440749761157555,0.015914136282899873,2.409525629414746,-1.0394932828713057,-43.25689697265625,5356.25390625,True
1599561889.4365711,0.0,10,0.5,0.5,-7.048257638549805,-0.15025,-0.001,-0.2505,0.0366809923301521,10,1,100,-3.253113402081455e-05,-10,-1,-100,15032.890060184174,-0.00010530412246162457,0.003210345359394026,0.9999948412835513,20.440749761157555,0.015914136282899873,2.409525629414746,-1.0394932828713057,-43.25689697265625,5356.25390625,True
1599561889.4964406,0.0,10,0.5,0.5,-9.055091119384764,-0.15025,-0.001,-0.2505,-0.011974708688623992,10,1,100,0.03427115477020669,-10,-1,-100,15032.790447653504,-0.0004150713967282185,0.0027701746227260767,0.9999960769164523,20.32764548915998,0.015857232100843572,3.680916639527491,-1.5967679799244112,-38.2598876953125,5356.25390625,True
1599561889.5503001,0.0,10,0.5,0.5,-8.419828692626954,-0.15025,-0.001,-0.2505,0.01588144771194508,10,1,100,0.01448395262277382,-10,-1,-100,15032.757243554457,-0.0005146923555724446,0.00262561907299794,0.9999964206017251,20.271814403855153,0.015826889171387373,4.097903129003911,-1.782530494357974,-36.7320556640625,5356.25390625,True
1599561889.6081421,0.0,10,0.5,0.5,-10.21378871307373,-0.15025,-0.001,-0.2505,-0.03398519442069653,10,1,100,0.04585194581214117,-10,-1,-100,15032.558021915844,-0.000888478784239499,0.002043164497960915,0.9999975180390621,19.985668647842566,0.01567746014470886,5.724484340509989,-2.525595786104998,-31.310028076171875,5356.25390625,True
1599561889.6589725,0.0,10,0.5,0.5,-8.859647685241699,-0.15025,-0.001,-0.2505,0.023961738241554422,10,1,100,0.00871029300309311,-10,-1,-100,15032.558021915844,-0.000888478784239499,0.002043164497960915,0.9999975180390621,19.985668647842566,0.01567746014470886,5.724484340509989,-2.525595786104998,-31.310028076171875,5356.25390625,True
1599561889.7303276,0.0,10,0.5,0.5,-9.783697840881347,-0.15025,-0.001,-0.2505,-0.007486511894798414,10,1,100,0.028408967995868298,-10,-1,-100,15032.491614828585,-0.001065769501682912,0.001759640781705466,0.9999978838976052,19.81848414117495,0.015601797418351177,6.5118579189117325,-2.8971348244065753,-29.012481689453125,5356.25390625,True
1599561889.7711856,0.0,10,0.5,0.5,-10.721936727905273,-0.15025,-0.001,-0.2505,-0.03789237150679387,10,1,100,0.049037892818718946,-10,-1,-100,15032.230871702312,-0.0014125292418778925,0.001228102258817635,0.9999982482614571,19.49388555946134,0.015502308801376083,8.048564795835516,-3.6402241056251583,-25.24395751953125,5356.25390625,True
1599561889.8779457,0.0,10,0.5,0.5,-10.089870510864257,-0.15025,-0.001,-0.2505,0.0005060440202720312,10,1,100,0.023596800643451998,-10,-1,-100,15032.134191601304,-0.0014944536942574972,0.001096823173332547,0.999998281792065,19.424884795234803,0.015496314518011894,8.429508320476366,-3.82599889326506,-24.47412109375,5356.25390625,True
1599561889.9327974,0.0,10,0.5,0.5,-10.660118598937988,-0.15025,-0.001,-0.2505,-0.025778252876676115,10,1,100,0.04411722852988495,-10,-1,-100,15031.906652622158,-0.0017535984333995403,0.000741266611332624,0.9999981877065304,19.314505235470257,0.015576592931616427,9.60304856283636,-4.383329448323407,-22.577606201171875,5356.25390625,True
1599561889.979705,0.0,10,0.5,0.5,-10.814540252685546,-0.15025,-0.001,-0.2505,-0.039099912037201784,10,1,100,0.05561180344247089,-10,-1,-100,15031.517005642178,-0.0020918843521702986,0.0002995807679318037,0.9999977671331174,19.280244988538126,0.015821118248051,11.21203309075912,-5.126453149677788,-21.01336669921875,5356.25390625,True
1599561890.034558,0.0,10,0.5,0.5,-10.572757876586914,-0.15025,-0.001,-0.2505,-0.016775332545374794,10,1,100,0.04104794039209255,-10,-1,-100,15031.262123340392,-0.0022652122685678133,0.0001036450553035416,0.9999974290322355,19.318830628185967,0.016007623100957172,12.049261883573163,-5.498021919164231,-20.64447021484375,5356.25390625,True
1599561890.0744176,0.0,10,0.5,0.5,-10.520107482910156,-0.15025,-0.001,-0.2505,-0.01651783476437899,10,1,100,0.04369035940016914,-10,-1,-100,15031.066812167643,-0.002444841539778881,-6.931315789119798e-05,0.9999970089682927,19.398123026669726,0.016240289335436545,12.91696349789975,-5.869594858737102,-20.5509033203125,5356.25390625,True
1599561890.1252825,0.0,10,0.5,0.5,-10.475802293395995,-0.15025,-0.001,-0.2505,-0.00840478904889926,10,1,100,0.03592399260228103,-10,-1,-100,15030.905680027674,-0.002535692297132641,-0.00015021158358149343,0.9999967738453232,19.453351112304706,0.016374435312756595,13.364071378577739,-6.055382690291376,-20.607391357421875,5356.25390625,True
1599561890.1718273,0.0,10,0.5,0.5,-10.36344437713623,-0.15025,-0.001,-0.2505,-0.017547746845609714,10,1,100,0.046646779983811976,-10,-1,-100,15030.64786881744,-0.0027139265073394675,-0.0003043499226731485,0.9999962709800659,19.595215085698914,0.016679116657046786,14.288270165913573,-6.426960244644588,-20.927093505859375,5356.25390625,True
1599561890.6161098,0.0,10,0.5,0.5,-10.206072399902343,-0.15025,-0.001,-0.2505,-0.017142208719455595,10,1,100,0.04903859637840351,-10,-1,-100,15030.390057671117,-0.0028960418950027783,-0.00043865487122722103,0.9999957102524222,19.777990825919503,0.017032371963623536,15.256125467057235,-6.798539404625297,-21.522216796875,5356.25390625,True
1599561890.6689687,0.0,10,0.5,0.5,-10.00728334350586,-0.15025,-0.001,-0.2505,-0.01674842495408424,10,1,100,0.05119018267528294,-10,-1,-100,15030.132246824796,-0.0030793361563858164,-0.0005549142271646491,0.9999951048675371,19.999340042337877,0.017433205978832127,16.270921897233386,-7.170118799994771,-22.3927001953125,5356.25390625,True
1599561890.7068667,0.0,10,0.5,0.5,-9.495752923583986,-0.15025,-0.001,-0.2505,-0.020811066850407622,10,1,100,0.0633272463509145,-10,-1,-100,15029.64982742595,-0.0033544737304627716,-0.0006954335179753688,0.9999941319218897,20.395076120528493,0.01811766717528909,17.884280479732098,-7.727485241400845,-24.21490478515625,5356.25390625,True
1599561890.771658,0.0,10,0.5,0.5,-9.32754041442871,-0.15025,-0.001,-0.2505,-0.014745619384965374,10,1,100,0.05610200103735629,-10,-1,-100,15029.329516825266,-0.003537149345419852,-0.0007662892274112818,0.9999934506662171,20.694099644009693,0.018622658811641876,19.02022875484452,-8.099058562663611,-25.77392578125,5356.25390625,True
1599561890.8145473,0.0,10,0.5,0.5,-9.364182543945313,-0.15025,-0.001,-0.2505,-0.010642750693728952,10,1,100,0.047942490371898495,-10,-1,-100,15029.168384973775,-0.0036271837205574336,-0.000791710963886559,0.9999931083422561,20.851694074554228,0.018886801573481223,19.60532677448967,-8.284843270144426,-26.65667724609375,5356.25390625,True
1599561890.8723898,0.0,10,0.5,0.5,-8.794606484985351,-0.15025,-0.001,-0.2505,-0.012159994673281814,10,1,100,0.05885745611941218,-10,-1,-100,15028.84514435695,-0.0038065568544897615,-0.0008272211445189106,0.9999924128862637,21.17811551946736,0.019431373568105648,20.8066355604323,-8.65640770646021,-28.62872314453125,5356.25390625,True
1599561890.922259,0.0,10,0.5,0.5,-7.895490579223633,-0.15025,-0.001,-0.2505,-0.010991939740066473,10,1,100,0.06991165080487002,-10,-1,-100,15028.301201852271,-0.004068557225657568,-0.0008478600803259537,0.9999913639504022,21.67649985961057,0.020258794799699803,22.669733928601286,-9.213738269583919,-32.10308837890625,5356.25390625,True
1599561890.9761124,0.0,10,0.5,0.5,-7.698517752075196,-0.15025,-0.001,-0.2505,-0.007253023368448096,10,1,100,0.06226572714851164,-10,-1,-100,15027.915461604134,-0.004235591579882234,-0.0008317675957397989,0.999990683919923,21.99846097789947,0.020789311516107235,23.935877605220483,-9.585279195393783,-34.76348876953125,5356.25390625,True
1599561891.0299678,0.0,10,0.5,0.5,-7.789087475585939,-0.15025,-0.001,-0.2505,-0.007073225999380489,10,1,100,0.054485223382585504,-10,-1,-100,15027.692806479638,-0.004315081185814326,-0.0008148104023628177,0.9999903580327003,22.15178207009254,0.021039487542400037,24.57071346738484,-9.771045354481638,-36.1968994140625,5356.25390625,True
1599561891.0838482,0.0,10,0.5,0.5,-6.914934934997559,-0.15025,-0.001,-0.2505,-0.0037156411017025825,10,1,100,0.06354983902369618,-10,-1,-100,15027.308042382472,-0.0044681324344093415,-0.0007682670922059616,0.9999897227263006,22.434370099051293,0.021492221392035753,25.83224025439013,-10.142568527272086,-39.270294189453125,5356.25390625,True
1599561891.133695,0.0,10,0.5,0.5,-7.025786825561522,-0.15025,-0.001,-0.2505,-0.005073347213256998,10,1,100,0.056407569699091865,-10,-1,-100,15027.084410429583,-0.004540745479338344,-0.0007378760320142846,0.9999894185287428,22.5596586797256,0.021686976178588398,26.45325108239466,-10.328325377040214,-40.91021728515625,5356.25390625,True
1599561891.2015345,0.0,10,0.5,0.5,-6.037466075134277,-0.15025,-0.001,-0.2505,6.960063227282823e-05,10,1,100,0.064542207976593,-10,-1,-100,15026.696716410457,-0.004679213410356233,-0.0006632217049163189,0.9999888324870585,22.767495721549576,0.02199269271036215,27.659357645418364,-10.699830176324824,-44.396636962890625,5356.25390625,True
1599561891.2563674,0.0,10,0.5,0.5,-3.783282359313964,-0.15025,-0.001,-0.2505,0.014967786847180574,10,1,100,0.07642644151360943,-10,-1,-100,15025.801211466547,-0.004911677400478127,-0.00045981761698468714,0.9999878319224054,23.02372374298136,0.022230080363079455,29.9176254336947,-11.442807943759302,-52.195343017578125,5356.25390625,True
1599561891.3172038,0.0,10,0.5,0.5,-4.883762803649902,-0.15025,-0.001,-0.2505,0.0013234574599527062,10,1,100,0.05876244750927215,-10,-1,-100,15025.574649656075,-0.004961010897213132,-0.00039915836411344864,0.9999876144450379,23.027938942617862,0.022178755400515265,30.41006176713623,-11.628547776242337,-54.317108154296875,5356.25390625,True
1599561891.3760445,0.0,10,0.5,0.5,-2.69599878692627,-0.15025,-0.001,-0.2505,0.017164937917781925,10,1,100,0.06599817446350549,-10,-1,-100,15024.84027593024,-0.005070344446963628,-0.0002003338853986915,0.9999871256538875,22.855515857695767,0.02172321493991432,31.632652044625424,-12.18576409695098,-61.095428466796875,5356.25390625,True
1599561891.4289014,0.0,10,0.5,0.5,-3.429888438415527,-0.15025,-0.001,-0.2505,0.0052471350676457935,10,1,100,0.0585902926517146,-10,-1,-100,15024.614690616378,-0.005101082238696519,-0.00012846563709422972,0.9999869811435418,22.72842939811911,0.021469603302805215,31.937632767374332,-12.371504021466459,-63.492523193359375,5356.25390625,True
1599561891.482272,0.0,10,0.5,0.5,-2.0228185394287106,-0.15025,-0.001,-0.2505,0.014760104372798996,10,1,100,0.06030218557026068,-10,-1,-100,15024.102972472785,-0.005143411507363924,2.2715440949924027e-05,0.9999867723135516,22.356208713347215,0.020814626756862034,32.36080561018557,-12.742988987247173,-68.4932861328125,5356.25390625,True
1599561891.535159,0.0,10,0.5,0.5,-0.058850662231445305,-0.15025,-0.001,-0.2505,0.02535289050557787,10,1,100,0.05824434383792944,-10,-1,-100,15023.303167561302,-0.0051622078683297296,0.0002556594080868937,0.9999866430348913,21.527741410243145,0.019560948147756187,32.52890257709382,-13.300238174015249,-76.51080322265625,5356.25390625,True
1599561891.578017,0.0,10,0.5,0.5,-0.9368718307495117,-0.15025,-0.001,-0.2505,0.010962313049288366,10,1,100,0.055986899972244625,-10,-1,-100,15023.018011568114,-0.0051579308738029205,0.0003356146495143918,0.9999866414667288,21.182484045754713,0.019098720967428883,32.45583879865291,-13.48599522020191,-79.32101440429688,5356.25390625,True
1599561891.63993,0.0,10,0.5,0.5,-0.48272226104736327,-0.15025,-0.001,-0.2505,0.011701721984642836,10,1,100,0.0553803935274745,-10,-1,-100,15022.791449080221,-0.0051477627750188305,0.0004139772910863605,0.9999866644916893,20.78973881487708,0.018614733040175583,32.2944680949292,-13.671756309013192,-82.20010375976562,5356.25390625,True
1599561891.6887605,0.0,10,0.5,0.5,3.626168860626221,-0.15025,-0.001,-0.2505,0.03781104763486446,10,1,100,0.04636060234216046,-10,-1,-100,15021.6381278435,-0.0050559031014026125,0.0007214987944417175,0.9999869585566199,19.21676114615832,0.017019147003032663,31.480049314436528,-14.414834098677755,-94.24205017089844,5356.25390625,True
1599561891.7376633,0.0,10,0.5,0.5,3.157606948089599,-0.15025,-0.001,-0.2505,0.02315942257798976,10,1,100,0.04715773674953993,-10,-1,-100,15021.064885103144,-0.0049791726585258055,0.0008665405016782211,0.9999872283920408,20.562402155621264,0.018362195300338648,34.55633017829983,-14.786356997316997,-100.58668518066406,5356.25390625,True
1599561891.8014565,0.0,10,0.5,0.5,2.844818938064575,-0.15025,-0.001,-0.2505,0.01589424161572643,10,1,100,0.050254778141010537,-10,-1,-100,15020.714298710576,-0.004937299941971014,0.0009309588065939263,0.9999873781128358,21.217202770452868,0.019075985513486077,36.106660306657794,-14.972105844348869,-103.75804901123047,5356.25390625,True
1599561891.8395414,0.0,10,0.5,0.5,5.731519913101197,-0.15025,-0.001,-0.2505,0.029696010597712,10,1,100,0.03768446779211208,-10,-1,-100,15019.850039664656,-0.004784934994166224,0.0011137271868775465,0.9999879319316083,22.820452224359354,0.021041491548073374,40.286870329145735,-15.529297278588302,-112.93077850341797,5356.25390625,True
1599561891.8843863,0.0,10,0.5,0.5,4.611938986968994,-0.15025,-0.001,-0.2505,0.017477960037640017,10,1,100,0.04655699836441998,-10,-1,-100,15019.497499977471,-0.004727240843094712,0.0011674317224520097,0.9999881450783229,23.23467662005432,0.0216081092024829,41.51092094414298,-15.715009723880819,-115.85610961914062,5356.25390625,True
1599561891.9422333,0.0,10,0.5,0.5,7.236657078552245,-0.15025,-0.001,-0.2505,0.027407272147753018,10,1,100,0.031886545677373514,-10,-1,-100,15018.569763758569,-0.004541735775514613,0.0013052770779681392,0.9999888343816119,24.305125449505468,0.023102581444424182,44.97000262715467,-16.27209801571285,-124.22052001953125,5356.25390625,True
1599561891.9980817,0.0,10,0.5,0.5,7.244191380310059,-0.15025,-0.001,-0.2505,0.021773416135246366,10,1,100,0.035192159841122214,-10,-1,-100,15017.869567041169,-0.004403654339624223,0.0013780707622190488,0.9999893543180505,24.806719448954482,0.023798317981307934,46.95060543212237,-16.64345570996938,-129.45257568359375,5356.25390625,True
1599561892.0559564,0.0,10,0.5,0.5,7.925985845184326,-0.15025,-0.001,-0.2505,0.020561754341784064,10,1,100,0.033698680842731546,-10,-1,-100,15017.227964290767,-0.004265221186254625,0.0014319995903963375,0.9999898785814813,25.135309811651606,0.02421178693333987,48.63920022992248,-17.014793434133246,-134.4091033935547,5356.25390625,True
1599561892.1008458,0.0,10,0.5,0.5,7.6419039291381825,-0.15025,-0.001,-0.2505,0.017692824437808508,10,1,100,0.03969311816040833,-10,-1,-100,15016.87737747992,-0.004194683192153939,0.001453875216719268,0.9999901453913292,25.241555233941824,0.024315125919170025,49.380488642264204,-17.200456919889007,-136.78399658203125,5356.25390625,True
1599561892.1686301,0.0,10,0.5,0.5,8.873383129882813,-0.15025,-0.001,-0.2505,0.01901189067714917,10,1,100,0.030664955678776088,-10,-1,-100,15016.17425092461,-0.004049359218303612,0.0014847370604912065,0.9999906990796376,25.352053948556744,0.024330157363968184,50.67297131024255,-17.571777281247066,-141.32708740234375,5356.25390625,True
1599561892.2085588,0.0,10,0.5,0.5,9.451459051513671,-0.15025,-0.001,-0.2505,0.017586843990649453,10,1,100,0.028975802501346196,-10,-1,-100,15015.470147992135,-0.0039028891255146023,0.0014988648942526033,0.9999912603920611,25.358533141782836,0.024130436708835384,51.76287101724359,-17.943093016467998,-145.5946044921875,5356.25390625,True
1599561892.2693608,0.0,10,0.5,0.5,9.987322002410888,-0.15025,-0.001,-0.2505,0.016029038484622834,10,1,100,0.02733179721162271,-10,-1,-100,15014.704521502485,-0.0037558371875960964,0.0014968398147992576,0.999991826545392,25.3183279416652,0.02378944098289108,52.756453225117006,-18.314407322810062,-149.5864715576172,5356.25390625,True
1599561892.319225,0.0,10,0.5,0.5,11.184759742736816,-0.15025,-0.001,-0.2505,0.013128021083210387,10,1,100,0.018161350240098538,-10,-1,-100,15013.589284582762,-0.0035398980310844437,0.0014680529486350838,0.9999926569442746,25.12811252377174,0.02302707528560703,53.962292496340176,-18.871381931541702,-155.05746459960938,5356.25390625,True
1599561892.3790655,0.0,10,0.5,0.5,9.81940592727661,-0.15025,-0.001,-0.2505,0.01606041711383189,10,1,100,0.039615525700175146,-10,-1,-100,15013.589284582762,-0.0035398980310844437,0.0014680529486350838,0.9999926569442746,25.12811252377174,0.02302707528560703,53.962292496340176,-18.871381931541702,-155.05746459960938,5356.25390625,True
1599561892.4309266,0.0,10,0.5,0.5,12.360293450164795,-0.15025,-0.001,-0.2505,0.007051440764672432,10,1,100,0.008793319395529513,-10,-1,-100,15012.055102173937,-0.003260828007372285,0.0013858310493138546,0.9999937232168056,24.728376991163024,0.021771923255142288,55.20780358534459,-19.614027053132002,-161.3872833251953,5356.25390625,True
1599561892.4807918,0.0,10,0.5,0.5,10.779226976776123,-0.15025,-0.001,-0.2505,0.015295470629481535,10,1,100,0.03655368048317314,-10,-1,-100,15012.055102173937,-0.003260828007372285,0.0013858310493138546,0.9999937232168056,24.728376991163024,0.021771923255142288,55.20780358534459,-19.614027053132002,-161.3872833251953,5356.25390625,True
1599561892.5426629,0.0,10,0.5,0.5,12.395489105224609,-0.15025,-0.001,-0.2505,0.004698574740766353,10,1,100,0.014356668045010158,-10,-1,-100,15010.87443619105,-0.003060201446814569,0.001289422401260675,0.9999944862632874,24.38770434202322,0.02081201535461534,56.00470584105642,-20.17102034518962,-165.41110229492188,5356.25390625,True
1599561892.6017628,0.0,10,0.5,0.5,12.328040203857423,-0.15025,-0.001,-0.2505,0.005879370879230169,10,1,100,0.020198772841203465,-10,-1,-100,15010.044356980012,-0.0029321450289027753,0.0012125932755265086,0.9999949660588685,24.16543297552891,0.020213474553474838,56.52372054740586,-20.542352150680784,-167.7490234375,5356.25390625,True
1599561892.658651,0.0,10,0.5,0.5,12.943969651031493,-0.15025,-0.001,-0.2505,-0.0009034737914249864,10,1,100,0.01252359957673901,-10,-1,-100,15008.798261312186,-0.0027471676885399694,0.0010812858517757376,0.9999956419358025,23.86566077224868,0.0194197740248938,57.3484129143395,-21.099351221108996,-170.73902893066406,5356.25390625,True
1599561892.7214797,0.0,10,0.5,0.5,12.542549285888672,-0.15025,-0.001,-0.2505,0.006820285134929327,10,1,100,0.02436151046836693,-10,-1,-100,15008.322674773051,-0.0026879397649555033,0.0010324701743918427,0.9999958544839868,23.779155154637802,0.0191880363153826,57.64754432176704,-21.28501714994911,-171.59786987304688,5356.25390625,True
1599561892.7708585,0.0,10,0.5,0.5,12.646995942687989,-0.15025,-0.001,-0.2505,0.0060312020653627745,10,1,100,0.023701152141523827,-10,-1,-100,15007.905681821285,-0.002629330594592277,0.00098132995512506,0.9999960617983169,23.700983163129393,0.018973919804349895,57.96347648724905,-21.470682543741017,-172.38778686523438,5356.25390625,True
1599561892.8276696,0.0,10,0.5,0.5,13.002043474578857,-0.15025,-0.001,-0.2505,-0.00027215276665193064,10,1,100,0.016635772339386724,-10,-1,-100,15007.074626315502,-0.0025129765856343905,0.0008780061072634215,0.9999964570207015,23.572776568536842,0.01859935993237856,58.655671659647005,-21.84201109194568,-173.7608184814453,5356.25390625,True
1599561892.8725562,0.0,10,0.5,0.5,13.100322737121582,-0.15025,-0.001,-0.2505,-0.002783444109318335,10,1,100,0.01604107712315299,-10,-1,-100,15006.181071104249,-0.002402923766981425,0.0007618079912809064,0.9999968227979299,23.486929566020127,0.018295912233505258,59.44455529662995,-22.213335269755316,-174.8582763671875,5356.25390625,True
1599561892.9304223,0.0,10,0.5,0.5,13.156729118347167,-0.15025,-0.001,-0.2505,-0.004717636121707803,10,1,100,0.015085844989308896,-10,-1,-100,15005.28849180974,-0.002295225434502058,0.0006392318175090377,0.9999971616574159,23.44791675772367,0.018060186881951414,60.347058044212716,-22.584653773608956,-175.68008422851562,5356.25390625,True
1599561892.975274,0.0,10,0.5,0.5,13.171795149230956,-0.15025,-0.001,-0.2505,-0.00656719435961772,10,1,100,0.014088191874166486,-10,-1,-100,15004.333413100103,-0.0021893798062891413,0.0005117382402182723,0.9999974723668241,23.459338920733767,0.01788657869323586,61.378594716374465,-22.9559652111194,-176.22622680664062,5356.25390625,True
1599561893.0700572,0.0,10,0.5,0.5,13.142870626831053,-0.15025,-0.001,-0.2505,-0.02440600599302251,10,1,100,0.0020726115577432425,-10,-1,-100,15002.482825449668,-0.0019848980034018085,0.00023445860311307445,0.999998002602545,23.642376276956956,0.017694068490187533,63.87863707887491,-23.69856099760146,-176.49172973632812,5356.25390625,True
1599561893.1158986,0.0,10,0.5,0.5,12.867750341796874,-0.15025,-0.001,-0.2505,-0.021271814366174698,10,1,100,0.0058087091505875516,-10,-1,-100,15001.044348039897,-0.0018341299152609728,1.192555912169356e-05,0.9999983179112029,23.92319284013622,0.017646420656228796,66.1723176565932,-24.255478654488925,-175.9674072265625,5356.25390625,True
1599561893.170797,0.0,10,0.5,0.5,12.722003703308104,-0.15025,-0.001,-0.2505,-0.015829211072986068,10,1,100,0.008923756329001675,-10,-1,-100,15000.026769466233,-0.0017265012381472084,-0.00013973763562135697,0.9999984998323088,24.177834141276094,0.017639635573294062,67.91137654951343,-24.62674058768172,-175.27334594726562,5356.25390625,True
1599561893.2156436,0.0,10,0.5,0.5,12.716135449981689,-0.15025,-0.001,-0.2505,-0.009190441701613702,10,1,100,0.013643458279593026,-10,-1,-100,14999.546300671063,-0.0016726594074043945,-0.00021603142663788335,0.9999985777694533,24.32473197036044,0.017639172165725032,68.84464269375785,-24.81236600787649,-174.82298278808594,5356.25390625,True
1599561893.2635155,0.0,10,0.5,0.5,12.38556661529541,-0.15025,-0.001,-0.2505,-0.01889832270836738,10,1,100,0.006824872519287355,-10,-1,-100,14998.526769021759,-0.001562701970981908,-0.0003724635028248375,0.999998709615912,24.65596680696231,0.01763627276735745,70.83791618474113,-25.183604658734243,-173.715576171875,5356.25390625,True
1599561893.3054283,0.0,10,0.5,0.5,11.444356087493897,-0.15025,-0.001,-0.2505,-0.038787548633643476,10,1,100,-0.0074374771491421895,-10,-1,-100,14996.486729709548,-0.0013341058843339005,-0.0006942084135180179,0.9999988691174446,25.454222734455136,0.017579526989353292,75.31256060887561,-25.926027440121374,-170.67420959472656,5356.25390625,True
1599561893.3490279,0.0,10,0.5,0.5,11.431006488037108,-0.15025,-0.001,-0.2505,-0.024607779016379,10,1,100,0.0018717913100770311,-10,-1,-100,14995.464268517913,-0.0012120984503833942,-0.000856273573656102,0.9999988988058504,25.91072944415762,0.0175033749410449,77.77400905523922,-26.297207707049196,-168.740234375,5356.25390625,True
1599561893.391882,0.0,10,0.5,0.5,11.029494595336914,-0.15025,-0.001,-0.2505,-0.02583469127886219,10,1,100,-0.0005303737075056311,-10,-1,-100,14994.379307900788,-0.0010805273540278651,-0.0010131826673670079,0.9999989029601581,26.39642345240663,0.017383661383924436,80.36383021533415,-26.668365147564806,-166.53070068359375,5356.25390625,True
1599561893.431812,0.0,10,0.5,0.5,10.586322722625733,-0.15025,-0.001,-0.2505,-0.02808943108147444,10,1,100,-0.002000079256017027,-10,-1,-100,14993.296299978974,-0.0009487584854572384,-0.00117471130471099,0.9999988599546935,26.902791415659717,0.017215741193683944,83.05948210246939,-27.0394976858315,-164.04579162597656,5356.25390625,True
1599561893.471494,0.0,10,0.5,0.5,11.207629012298584,-0.15025,-0.001,-0.2505,-0.012117961659298217,10,1,100,0.011042160906141166,-10,-1,-100,14993.296299978974,-0.0009487584854572384,-0.00117471130471099,0.9999988599546935,26.902791415659717,0.017215741193683944,83.05948210246939,-27.0394976858315,-164.04579162597656,5356.25390625,True
1599561893.5113866,0.0,10,0.5,0.5,9.505651107788085,-0.15025,-0.001,-0.2505,-0.03793563012156155,10,1,100,-0.012537085178159157,-10,-1,-100,14991.669347239542,-0.0007355295404370826,-0.0014078842456907211,0.9999987384283272,27.678810056971066,0.01687524279127548,87.23690017449344,-27.596146796059223,-159.80184936523438,5356.25390625,True
1599561893.5507312,0.0,10,0.5,0.5,9.295312564086913,-0.15025,-0.001,-0.2505,-0.03178359484793757,10,1,100,-0.007671894510062172,-10,-1,-100,14990.522863264894,-0.0005870498405496088,-0.001562439014231346,0.9999986070774358,28.18999534106412,0.016600269316691948,90.05800700277415,-27.967211299158773,-156.62835693359375,5356.25390625,True
1599561893.590619,0.0,10,0.5,0.5,9.411070034790038,-0.15025,-0.001,-0.2505,-0.02506806477283901,10,1,100,-0.0012543899205984662,-10,-1,-100,14989.979894927237,-0.0005115429551694949,-0.0016404618353370608,0.9999985236032961,28.43872542269048,0.01645377847718862,91.4630374097511,-28.15273290115579,-154.9383544921875,5356.25390625,True
1599561893.6324868,0.0,10,0.5,0.5,8.395011946105956,-0.15025,-0.001,-0.2505,-0.032699132665564734,10,1,100,-0.011479042179543646,-10,-1,-100,14988.831457785214,-0.0003510534554544148,-0.0017794007224582028,0.9999983552459175,28.913149082848598,0.016155965050364606,94.23022658486816,-28.52375484863902,-151.35165405273438,5356.25390625,True
1599561893.6798763,0.0,10,0.5,0.5,6.08543902130127,-0.15025,-0.001,-0.2505,-0.048928186049945754,10,1,100,-0.032053636463109575,-10,-1,-100,14986.536537082982,-1.931360400096985e-05,-0.0020518244057937773,0.9999978948195803,29.71197827895397,0.015636233527387675,99.38573121901713,-29.265717804831223,-143.3524169921875,5356.25390625,True
1599561893.769639,0.0,10,0.5,0.5,6.3178386184692386,-0.15025,-0.001,-0.2505,-0.03496844330241243,10,1,100,-0.018121639254485775,-10,-1,-100,14985.325600449694,0.0001542104787265083,-0.002171048855754934,0.9999976313801919,30.000143991209058,0.015473430898596437,101.63846680912575,-29.63666385367069,-138.93975830078125,5356.25390625,True
1599561893.8195395,0.0,10,0.5,0.5,5.541282067108154,-0.15025,-0.001,-0.2505,-0.034043059685966534,10,1,100,-0.020283579147105022,-10,-1,-100,14984.17618734017,0.0003302606289906994,-0.002269679558804444,0.9999973697378494,30.18816733605464,0.015409586217325428,103.57276862950705,-30.00759155158118,-134.2516632080078,5356.25390625,True
1599561893.8843327,0.0,10,0.5,0.5,3.6872099533081046,-0.15025,-0.001,-0.2505,-0.03780647916773282,10,1,100,-0.032237126809301735,-10,-1,-100,14982.359781923587,0.0005975726906332304,-0.0023922718241517387,0.9999969599665786,30.23751121631906,0.015521534201784103,105.6921814385792,-30.563961647146016,-126.70333862304688,5356.25390625,True
1599561893.9341962,0.0,10,0.5,0.5,4.510599306488036,-0.15025,-0.001,-0.2505,-0.02930933286592615,10,1,100,-0.01549425942885986,-10,-1,-100,14981.691813532845,0.0006868502249909133,-0.0024252188361266872,0.999996823270137,30.181461352355807,0.015609295750008124,106.1454454209391,-30.74941606659028,-124.04960632324219,5356.25390625,True
1599561893.9710991,0.0,10,0.5,0.5,1.8153963569641114,-0.15025,-0.001,-0.2505,-0.03366410307446249,10,1,100,-0.03553339434723671,-10,-1,-100,14979.872478915611,0.0009486986566554617,-0.0024936226602438657,0.9999964409021099,29.760039552160094,0.015952812627495764,106.58502140227917,-31.305786653850014,-115.67539978027344,5356.25390625,True
1599561894.0180058,0.0,10,0.5,0.5,0.3041897193908687,-0.15025,-0.001,-0.2505,-0.030501056698761592,10,1,100,-0.03699756714283918,-10,-1,-100,14977.930096848402,0.0011983283861813348,-0.002525853977520808,0.9999960920277454,29.023219690228395,0.016278790519375138,105.82255118008871,-31.862186315721956,-106.68199157714844,5356.25390625,True
1599561894.0628557,0.0,10,0.5,0.5,1.2952123359680177,-0.15025,-0.001,-0.2505,-0.02752452249221301,10,1,100,-0.020705608222244987,-10,-1,-100,14977.326581713976,0.001275397733811619,-0.002527079437047741,0.9999959936070442,28.7047170326605,0.01633188907225314,105.2804302450806,-32.0476622198563,-103.54658508300781,5356.25390625,True
1599561894.1177385,0.0,10,0.5,0.5,0.7912492095947266,-0.15025,-0.001,-0.2505,-0.027259175002261007,10,1,100,-0.021339979791096857,-10,-1,-100,14976.653730068472,0.001349534657215657,-0.0025249042954155563,0.9999959017988564,28.33116862325047,0.016325741254532556,104.52177016280167,-32.23314386032374,-100.3424072265625,5356.25390625,True
1599561894.1596258,0.0,10,0.5,0.5,-3.7133806655883785,-0.15025,-0.001,-0.2505,-0.02318234395642769,10,1,100,-0.04382805985262421,-10,-1,-100,14974.041426194832,0.0016196770630401355,-0.002485060754915014,0.9999956005499503,26.33620374136041,0.015493218466442788,99.43745584217555,-32.975135489164984,-87.1126708984375,5356.25390625,True
1599561894.2074673,0.0,10,0.5,0.5,-1.7898522857666015,-0.15025,-0.001,-0.2505,-0.025314066866697047,10,1,100,-0.02351014261359026,-10,-1,-100,14973.375410836772,0.0016787611565998123,-0.0024675771445238272,0.9999955464020903,26.72836398387561,0.015636175169331044,101.49593422139432,-33.160634912005015,-83.65890502929688,5356.25390625,True
1599561894.2673075,0.0,10,0.5,0.5,-3.7389852264404295,-0.15025,-0.001,-0.2505,-0.022693977869060016,10,1,100,-0.029159304719531452,-10,-1,-100,14972.034590898897,0.0017822862837438922,-0.0024274860053362934,0.9999954653733669,28.229138337326233,0.01613487372420255,108.41552926701208,-33.53158995072745,-76.65121459960938,5356.25390625,True
1599561894.3181725,0.0,10,0.5,0.5,-4.727614082336426,-0.15025,-0.001,-0.2505,-0.021484717432458347,10,1,100,-0.028772483834657935,-10,-1,-100,14970.695723861922,0.0018714034132805534,-0.0023798131137879918,0.9999954171589029,29.509620928522057,0.016305737411995095,114.60937882379109,-33.90248627146257,-69.8194580078125,5356.25390625,True
1599561894.3750176,0.0,10,0.5,0.5,-5.656219747924805,-0.15025,-0.001,-0.2505,-0.020317367478427356,10,1,100,-0.02812776952190034,-10,-1,-100,14969.356856612256,0.001945156907484913,-0.00232576172774836,0.9999954035879318,30.53267760680847,0.016257810214852463,119.90295069095394,-34.273328629858156,-63.24798583984375,5356.25390625,True
1599561894.4238913,0.0,10,0.5,0.5,-6.540153219604492,-0.15025,-0.001,-0.2505,-0.01962871970682058,10,1,100,-0.026943933047772966,-10,-1,-100,14967.953536509653,0.0020002183122542166,-0.002270424133512636,0.9999954221400001,31.30654320135889,0.016125955651474004,124.2955827776903,-34.644125207323434,-56.950439453125,5356.25390625,True
1599561894.4817321,0.0,10,0.5,0.5,-8.547459754943848,-0.15025,-0.001,-0.2505,-0.015612139490584766,10,1,100,-0.02732961049107569,-10,-1,-100,14965.820723639918,0.0020525863223588236,-0.002183743586516756,0.9999955090665846,32.04178462349939,0.016008213788303756,129.29312567001588,-35.20025560070076,-48.0218505859375,5356.25390625,True
1599561894.5335937,0.0,10,0.5,0.5,-8.56454331665039,-0.15025,-0.001,-0.2505,-0.017953237937443443,10,1,100,-0.02381375631473689,-10,-1,-100,14964.419356114464,0.002067227759336565,-0.0021265075106498776,0.9999956022579289,32.281661272692915,0.016076399152689016,131.65763332168544,-35.57098128211969,-42.4150390625,5356.25390625,True
1599561894.5964658,0.0,10,0.5,0.5,-9.302578143310548,-0.15025,-0.001,-0.2505,-0.01764915497604791,10,1,100,-0.022389736045569174,-10,-1,-100,14963.017988497624,0.0020668026092573915,-0.0020720733660917296,0.9999957174102996,32.350181143758974,0.016282446781404687,133.33739496567583,-35.94169563279605,-37.084747314453125,5356.25390625,True
1599561895.0780492,0.0,10,0.5,0.5,-9.999309822082521,-0.15025,-0.001,-0.2505,-0.017226409746547443,10,1,100,-0.020737861017495612,-10,-1,-100,14961.551191384904,0.002050679604497978,-0.00201915828356246,0.9999958588479182,32.27273220424994,0.01660639284718424,134.41613916200237,-36.312406688820595,-32.030914306640625,5356.25390625,True
1599561895.1259594,0.0,10,0.5,0.5,-12.458405978393555,-0.15025,-0.001,-0.2505,-0.012129183663198068,10,1,100,-0.014160899324749385,-10,-1,-100,14958.617596479482,0.0019755943621032885,-0.0019251750132434507,0.9999961953568046,31.779453702405,0.017430917520950533,135.11842745573557,-37.05384209872392,-22.752685546875,5356.25390625,True
1599561895.1807725,0.0,10,0.5,0.5,-11.833596730041503,-0.15025,-0.001,-0.2505,-0.01694260887381488,10,1,100,-0.015265958359410673,-10,-1,-100,14957.091228728998,0.0019170574808786162,-0.0018840030746332965,0.9999963877049906,31.443240825585132,0.017846878220596753,135.05468201195256,-37.42457340780321,-18.528228759765625,5356.25390625,True
1599561895.2381866,0.0,10,0.5,0.5,-12.364080279541017,-0.15025,-0.001,-0.2505,-0.01685434699241708,10,1,100,-0.013584610987816376,-10,-1,-100,14955.62443168764,0.001848340525183258,-0.001846302180674895,0.9999965873969574,31.10032519091971,0.01822085387223305,134.93392331305068,-37.7953139233888,-14.58013916015625,5356.25390625,True
1599561895.3259494,0.0,10,0.5,0.5,-12.852721469116211,-0.15025,-0.001,-0.2505,-0.01692414102550206,10,1,100,-0.011249557092280631,-10,-1,-100,14954.095134021132,0.001764582753463117,-0.0018131914808540855,0.9999967992870576,30.71809703291249,0.01849101212287128,134.6122808653125,-38.16606408533193,-10.908447265625,5356.25390625,True
1599561895.3688362,0.0,10,0.5,0.5,-12.6330484375,-0.15025,-0.001,-0.2505,-0.018572131869562487,10,1,100,-0.014559635048825834,-10,-1,-100,14953.301188603276,0.0017186280521041429,-0.001798587690174748,0.9999969056951823,30.517766345926375,0.018579827818097427,134.3988211561333,-38.35144277311504,-9.17620849609375,5356.25390625,True
1599561895.408728,0.0,10,0.5,0.5,-14.120970408630372,-0.15025,-0.001,-0.2505,-0.015763837232636222,10,1,100,-0.0019540682570007503,-10,-1,-100,14950.974039192428,0.0015624609244479209,-0.0017602608147101785,0.9999972300950256,29.969840367463256,0.018685039873799155,133.94479804882897,-38.907589834052764,-4.394073486328125,5356.25390625,True
1599561895.4605908,0.0,10,0.5,0.5,-13.51175399169922,-0.15025,-0.001,-0.2505,-0.018384980348819052,10,1,100,-0.011166666484733578,-10,-1,-100,14950.178140614182,0.0015046396626378414,-0.001749710559270234,0.9999973372826771,29.80535237209988,0.01866276798193992,133.85953717458537,-39.0929746464865,-2.93817138671875,5356.25390625,True
1599561895.5184362,0.0,10,0.5,0.5,-14.735847106933594,-0.15025,-0.001,-0.2505,-0.016387020260986502,10,1,100,0.004165886654403117,-10,-1,-100,14947.850991435698,0.0013131861657817274,-0.0017223507199147583,0.9999976545222952,29.328879874765075,0.01839872550491463,133.6393511846427,-39.64913322363115,1.01513671875,5356.25390625,True
1599561895.5762796,0.0,10,0.5,0.5,-13.749886444091796,-0.15025,-0.001,-0.2505,-0.019082588517460565,10,1,100,-0.014904058871852803,-10,-1,-100,14947.850991435698,0.0013131861657817274,-0.0017223507199147583,0.9999976545222952,29.328879874765075,0.01839872550491463,133.6393511846427,-39.64913322363115,1.01513671875,5356.25390625,True
1599561895.629169,0.0,10,0.5,0.5,-15.478628729248046,-0.15025,-0.001,-0.2505,-0.01640844526866071,10,1,100,0.017846445361836574,-10,-1,-100,14944.603919883259,0.0010161394149695291,-0.0016983582564221932,0.9999980415180433,30.32208464825045,0.018616707609795044,140.81384432751034,-40.390619009975254,5.31939697265625,5356.25390625,True
