Timestamp,Input Throttle,horizon,dT,dt,Input Roll,Roll P,Roll I,Roll D,Input Pitch,Pitch P,Pitch I,Pitch D,Input Yaw,Yaw P,Yaw I,Yaw D,Altitude,Direction X,Direction Y,Direction Z,Drag X,Drag Y,Drag Z,Vertical Velocity,Roll,Mass,Has Fuel
1599388056.2983198,0.0,10,0.5,0.5,-11.215427490234376,-0.2,-0.00825,-0.001,-0.0001524570916311167,10,1,100,0.4981651522383063,-10,-1,-100,19349.72230188502,-0.0488468793248286,-0.00017492671790156407,0.9988062633868838,61.07661363831449,3.686302819808453,233.73185484724155,-68.66499553058723,-33.9228515625,4761.76025390625,True
1599388056.3302364,0.0,10,0.5,0.5,-11.26146024169922,-0.2,-0.00825,-0.001,-0.0008143496252457458,10,1,100,0.4989748407815707,-10,-1,-100,19348.34535281011,-0.048897982593926796,-0.00016626844312374542,0.9988037643366432,61.166446099317916,3.6923978298517186,234.72122088743765,-68.84745215341454,-33.92401123046875,4761.76025390625,True
1599388056.3631458,0.0,10,0.5,0.5,-11.307478730773928,-0.2,-0.00825,-0.001,-0.0007346008648536444,10,1,100,0.5045808510473049,-10,-1,-100,19346.96475464804,-0.04895095112952826,-0.0001575211423738696,0.9988011711900444,61.25638943611989,3.6985032537984055,235.71308591660554,-69.02990543816365,-33.92523193359375,4761.76025390625,True
1599388056.398052,0.0,10,0.5,0.5,-11.353490139770507,-0.2,-0.00825,-0.001,-0.0006194441547534084,10,1,100,0.510213459169466,-10,-1,-100,19345.58050741104,-0.04900580900743149,-0.00014837897056182227,0.9987984825114665,61.346756493982056,3.7046380009903546,236.70866160120454,-69.21235526236316,-33.926483154296875,4761.76025390625,True
1599388056.4339564,0.0,10,0.5,0.5,-11.28447515640259,-0.2,-0.00825,-0.001,0.04982214576606558,10,1,100,0.5039058269551493,-10,-1,-100,19340.00703008077,-0.04895378695902479,0.00031862689306617686,0.9988009938017048,61.728198032761455,3.730402154415047,240.789694037168,-69.94211881674204,-34.5,4761.76025390625,True
1599388056.46986,0.0,10,0.5,0.5,-11.330836173248292,-0.2,-0.00825,-0.001,0.003153422092572286,10,1,100,0.5140034104917219,-10,-1,-100,19340.00703008077,-0.04895378695902479,0.00031862689306617686,0.9988009938017048,61.728198032761455,3.730402154415047,240.789694037168,-69.94211881674204,-34.5,4761.76025390625,True
1599388056.501775,0.0,10,0.5,0.5,-11.23336332778931,-0.2,-0.00825,-0.001,0.046393465711156386,10,1,100,0.5051188295047342,-10,-1,-100,19337.1983993178,-0.04882851459827124,0.0007114285378777903,0.9988069232997746,61.93818331853282,3.7444273497408327,242.91880767385885,-70.30697652830808,-35.212738037109375,4761.76025390625,True
1599388056.5376792,0.0,10,0.5,0.5,-10.953920301818847,-0.2,-0.00825,-0.001,0.10116404464982705,10,1,100,0.4791093155791823,-10,-1,-100,19332.958090077736,-0.04843379094862821,0.001565788543023647,0.99882516798516,62.264135937048884,3.7660377815339925,246.1735643812769,-70.85422985409366,-36.8314208984375,4761.76025390625,True
1599388056.5745802,0.0,10,0.5,0.5,-10.999403062438965,-0.2,-0.00825,-0.001,0.015884622989543747,10,1,100,0.5234250596383485,-10,-1,-100,19332.958090077736,-0.04843379094862821,0.001565788543023647,0.99882516798516,62.264135937048884,3.7660377815339925,246.1735643812769,-70.85422985409366,-36.8314208984375,4761.76025390625,True
1599388056.6184626,0.0,10,0.5,0.5,-10.75261211090088,-0.2,-0.00825,-0.001,0.09788986090663572,10,1,100,0.48347364971885265,-10,-1,-100,19330.11297627841,-0.04802656559395222,0.0023098672617762796,0.9988433878794426,62.47592551447159,3.7800114058939114,248.3336167517102,-71.21904203702704,-38.2774658203125,4761.76025390625,True
1599388056.6553636,0.0,10,0.5,0.5,-10.447028013610842,-0.2,-0.00825,-0.001,0.11793686339062975,10,1,100,0.4697691453596362,-10,-1,-100,19327.25327049475,-0.047488113808623035,0.0031664480584406404,0.9988667842378144,62.669539958011924,3.7927704097596613,250.43048014417775,-71.58383563535826,-40.01727294921875,4761.76025390625,True
1599388056.6914635,0.0,10,0.5,0.5,-10.03513970336914,-0.2,-0.00825,-0.001,0.14512167302074286,10,1,100,0.4518535413123224,-10,-1,-100,19324.378973575076,-0.04683697829927202,0.004189254893158049,0.9988937619222745,62.82999582941085,3.803375094088558,252.40281087933113,-71.94861192287735,-42.05010986328125,4761.76025390625,True
1599388056.7263963,0.0,10,0.5,0.5,-9.562742343139648,-0.2,-0.00825,-0.001,0.16395594218403037,10,1,100,0.4281865526527136,-10,-1,-100,19321.490086029284,-0.04603175612504252,0.005286340350443505,0.998925989267345,62.94085384668583,3.8107969365432672,254.18214006580118,-72.31337265917128,-44.377105712890625,4761.76025390625,True
1599388056.7652674,0.0,10,0.5,0.5,-9.029698709869384,-0.2,-0.00825,-0.001,0.18708170423464635,10,1,100,0.40438420355275595,-10,-1,-100,19318.58660835738,-0.04508600478847471,0.006488976001624232,0.9989620339946177,62.98186563743553,3.81377919762202,255.68317729269666,-72.67812132914595,-46.99774169921875,4761.76025390625,True
1599388056.8041623,0.0,10,0.5,0.5,-8.736002445983887,-0.2,-0.00825,-0.001,0.13666402171555858,10,1,100,0.44026502960951075,-10,-1,-100,19317.12939818541,-0.044555983632309885,0.007117904611640288,0.99898153123894,62.96939272913769,3.813186308181712,256.30035530696784,-72.86049247209084,-48.418304443359375,4761.76025390625,True
1599388056.843059,0.0,10,0.5,0.5,-7.436008431243897,-0.2,-0.00825,-0.001,0.36503951229500314,10,1,100,0.21711178452646201,-10,-1,-100,19311.264084181283,-0.042049478356247526,0.009759617555360223,0.9990678611761769,62.627934691249656,3.79253529711289,257.5693185170003,-73.58997433363184,-54.83587646484375,4761.76025390625,True
1599388056.8819537,0.0,10,0.5,0.5,-7.425648905181885,-0.2,-0.00825,-0.001,0.10181231698923905,10,1,100,0.4670718812724202,-10,-1,-100,19311.264084181283,-0.042049478356247526,0.009759617555360223,0.9990678611761769,62.627934691249656,3.79253529711289,257.5693185170003,-73.58997433363184,-54.83587646484375,4761.76025390625,True
1599388056.9203205,0.0,10,0.5,0.5,-6.675853981018068,-0.2,-0.00825,-0.001,0.2566719404824196,10,1,100,0.30188393751313164,-10,-1,-100,19308.309542540228,-0.04055393253683765,0.011159206688009607,0.9991150337483127,62.23635891121744,3.7684705744415057,257.28149032953434,-73.95472721955164,-58.48565673828125,4761.76025390625,True
1599388056.9592175,0.0,10,0.5,0.5,-5.016540383911132,-0.2,-0.00825,-0.001,0.41355043829733296,10,1,100,0.07172195845116747,-10,-1,-100,19302.356685882783,-0.037109127308094264,0.013849007317694636,0.9992152509178122,60.87181486605876,3.684601081090623,254.2318081281726,-74.68430380568725,-66.67022705078125,4761.76025390625,True
1599388056.9981105,0.0,10,0.5,0.5,-5.0001079391479495,-0.2,-0.00825,-0.001,0.14579869720629712,10,1,100,0.4150700149614528,-10,-1,-100,19302.356685882783,-0.037109127308094264,0.013849007317694636,0.9992152509178122,60.87181486605876,3.684601081090623,254.2318081281726,-74.68430380568725,-66.67022705078125,4761.76025390625,True
1599388057.036009,0.0,10,0.5,0.5,-4.065142041015625,-0.2,-0.00825,-0.001,0.2854508023062222,10,1,100,0.20163121675724652,-10,-1,-100,19299.3583682616,-0.03517869954104317,0.015108081782188575,0.9992668337153314,59.841588990455506,3.621498705851779,251.20516734349366,-75.04914905202176,-71.20526123046875,4761.76025390625,True
1599388057.074905,0.0,10,0.5,0.5,-2.0429272094726563,-0.2,-0.00825,-0.001,0.41691700201646376,10,1,100,-0.07309095299159707,-10,-1,-100,19293.31794472097,-0.030937481313523214,0.01743698617116367,0.9993692129354607,56.94930308449985,3.445371527970044,241.49775609370104,-75.77900519555934,-81.16058349609375,4761.76025390625,True
1599388057.1128037,0.0,10,0.5,0.5,-0.9309237945556641,-0.2,-0.00825,-0.001,0.2934802921968247,10,1,100,0.10225725976685052,-10,-1,-100,19290.275833768537,-0.028690357129023458,0.01841997667980067,0.9994186149291621,55.039934469252294,3.3297812804478784,234.57935060940304,-76.14403280328041,-86.58193969726562,4761.76025390625,True
1599388057.1457157,0.0,10,0.5,0.5,-0.9015261627197266,-0.2,-0.00825,-0.001,0.1964946049660604,10,1,100,0.3252355383172241,-10,-1,-100,19290.275833768537,-0.028690357129023458,0.01841997667980067,0.9994186149291621,55.039934469252294,3.3297812804478784,234.57935060940304,-76.14403280328041,-86.58193969726562,4761.76025390625,True
1599388057.1846116,0.0,10,0.5,0.5,-0.30168581924438476,-0.2,-0.00825,-0.001,0.2450677921713126,10,1,100,0.20189738803422233,-10,-1,-100,19288.749302200973,-0.02758400635159567,0.01885070474468644,0.9994417309299345,53.96104560255298,3.2646563663058994,230.55920810351245,-76.32657390466308,-89.40374755859375,4761.76025390625,True
1599388057.2225099,0.0,10,0.5,0.5,0.9075243270874025,-0.2,-0.00825,-0.001,0.2924974496136237,10,1,100,0.05671084191851547,-10,-1,-100,19285.685285558342,-0.025273784295864632,0.01966278823484629,0.999487173797742,52.683145349285404,3.188076292696061,226.22830612666687,-76.69169132951471,-95.26553344726562,4761.76025390625,True
1599388057.2614098,0.0,10,0.5,0.5,2.8000805381774905,-0.2,-0.00825,-0.001,0.32123157961979654,10,1,100,-0.11735521155440554,-10,-1,-100,19281.061881437898,-0.021606414390046572,0.020653262434430008,0.9995532029902261,55.43547214151321,3.3568857752162105,239.8291106626879,-77.23922411918132,-104.5444564819336,4761.76025390625,True
1599388057.3012998,0.0,10,0.5,0.5,3.4693933393478398,-0.2,-0.00825,-0.001,0.2515255157065971,10,1,100,0.11336238843343933,-10,-1,-100,19279.5134476237,-0.020388459079161654,0.02091009872131424,0.9995734482807366,56.34857611256191,3.4131473261332608,244.38278781029172,-77.42168536788058,-107.71650695800781,4761.76025390625,True
1599388057.3382063,0.0,10,0.5,0.5,4.760274286079407,-0.2,-0.00825,-0.001,0.27354916367728577,10,1,100,-0.03213401906321897,-10,-1,-100,19276.405634359224,-0.017976864613349085,0.02133493678909407,0.9996107506479103,57.896934490513,3.5090571356298508,252.33683091421167,-77.7865345234397,-113.9525146484375,4761.76025390625,True
1599388057.3761046,0.0,10,0.5,0.5,7.1410313951492315,-0.2,-0.00825,-0.001,0.28732309172560766,10,1,100,-0.3163924949448832,-10,-1,-100,19270.146237045177,-0.01321773101159048,0.021839565351631934,0.9996741093837315,60.23317563242608,3.6547912634145505,265.09273276880936,-78.51597734122264,-125.634033203125,4761.76025390625,True
1599388057.4150007,0.0,10,0.5,0.5,7.728377279853821,-0.2,-0.00825,-0.001,0.24481913049121629,10,1,100,0.03180296066097854,-10,-1,-100,19268.5722709978,-0.012078378603041858,0.021904654799050127,0.9996871004811736,60.57393819979232,3.6763217157795522,267.238928036189,-78.6982987002724,-128.37225341796875,4761.76025390625,True
1599388057.4528992,0.0,10,0.5,0.5,8.308379602241518,-0.2,-0.00825,-0.001,0.24336307149350805,10,1,100,0.019389604051663317,-10,-1,-100,19266.994658582495,-0.010950755281492974,0.02194441142125399,0.9996992166477574,60.827265488436254,3.6924536052013424,269.0055973369157,-78.88060953172072,-131.0368194580078,4761.76025390625,True
1599388057.4868085,0.0,10,0.5,0.5,9.373313644981383,-0.2,-0.00825,-0.001,0.2501860649804002,10,1,100,-0.10251707471405404,-10,-1,-100,19263.828495991067,-0.008835570387698404,0.02203848335927462,0.9997180792339143,61.099393647059486,3.71017459837826,271.5128675969787,-79.24520956297494,-136.14353942871094,4761.76025390625,True
1599388057.5295625,0.0,10,0.5,0.5,9.90021968021393,-0.2,-0.00825,-0.001,0.23770725541641435,10,1,100,-0.012791933317848003,-10,-1,-100,19262.23994574463,-0.00774640793943369,0.022007270028093984,0.9997277995684357,61.133006219004024,3.7126580990979896,272.3145709508259,-79.4275031290815,-138.58694458007812,4761.76025390625,True
1599388057.5674603,0.0,10,0.5,0.5,10.87832565250397,-0.2,-0.00825,-0.001,0.23205194884802433,10,1,100,-0.132592479440731,-10,-1,-100,19259.051907861023,-0.005686204339157368,0.021924221218809593,0.9997434648969517,61.02052012632236,3.706415675411846,273.116220634386,-79.7920871197946,-143.25184631347656,4761.76025390625,True
1599388057.6043613,0.0,10,0.5,0.5,11.7961876203537,-0.2,-0.00825,-0.001,0.2314524562283014,10,1,100,-0.1398262502734793,-10,-1,-100,19255.849286503508,-0.0037674375149833986,0.02184047826248619,0.9997543697948194,60.70597946466407,3.687556133284374,273.00528614366584,-80.15667770577741,-147.62051391601562,4761.76025390625,True
1599388057.6422603,0.0,10,0.5,0.5,12.653843903923036,-0.2,-0.00825,-0.001,0.22117119809605554,10,1,100,-0.15462649878247797,-10,-1,-100,19252.632080981042,-0.001908107549089694,0.021668902600964823,0.999763380898526,60.23621518589877,3.6590028344636045,272.18067871174,-80.52128448167517,-151.69430541992188,4761.76025390625,True
1599388057.683151,0.0,10,0.5,0.5,13.447927099609375,-0.2,-0.00825,-0.001,0.22137245644135456,10,1,100,-0.16149992602053811,-10,-1,-100,19249.40029080934,-0.00017322942960483123,0.021513831038933087,0.9997685357449456,59.650983064364766,3.6232583966985223,270.81305862773735,-80.88591401524195,-155.47171020507812,4761.76025390625,True
1599388057.7210543,0.0,10,0.5,0.5,14.18337345161438,-0.2,-0.00825,-0.001,0.21709808617115234,10,1,100,-0.17045155213034288,-10,-1,-100,19246.153914497234,0.0014669334348800358,0.021333450132522743,0.9997713398631413,58.99051419691159,3.5828502142332206,269.07854317391843,-81.25057009721192,-158.95343017578125,4761.76025390625,True
1599388057.7589555,0.0,10,0.5,0.5,14.857312408828736,-0.2,-0.00825,-0.001,0.2163956626388006,10,1,100,-0.17746005092932274,-10,-1,-100,19242.892951044603,0.00300402802981316,0.02116308317336157,0.9997715237624012,58.28940488003989,3.539951707086786,267.1307874017496,-81.61525418346669,-162.13897705078125,4761.76025390625,True
1599388057.7988787,0.0,10,0.5,0.5,15.464995302200318,-0.2,-0.00825,-0.001,0.21661669132185127,10,1,100,-0.18279276925231874,-10,-1,-100,19239.617399265873,0.004435118956287415,0.021010828455041212,0.9997694108180528,57.57806499738212,3.496465935424995,265.1070827951785,-81.97996577063576,-165.02828979492188,4761.76025390625,True
1599388057.8363233,0.0,10,0.5,0.5,16.251771200180055,-0.2,-0.00825,-0.001,0.21325729742425242,10,1,100,-0.25640557519632345,-10,-1,-100,19234.676716692164,0.006390305763882845,0.020842687699629995,0.9997623449408863,56.548562721682366,3.433660236562985,262.190216540272,-82.5270807459666,-168.8065185546875,4761.76025390625,True
1599388057.8712685,0.0,10,0.5,0.5,16.502505390167236,-0.2,-0.00825,-0.001,0.22591552064921477,10,1,100,-0.12874033619803837,-10,-1,-100,19233.02252741973,0.006991390633489393,0.020805908791048204,0.9997590882889681,56.22659164991885,3.4140618811278203,261.3021729798416,-82.70946360498237,-169.917724609375,4761.76025390625,True
1599388057.9091668,0.0,10,0.5,0.5,16.737707670211794,-0.2,-0.00825,-0.001,0.22674900454880403,10,1,100,-0.1335749873820207,-10,-1,-100,19231.364690170973,0.007567394652057742,0.020781171068304866,0.9997554088211825,55.919041726989185,3.3953662279571275,260.47459913229403,-82.89185136853713,-170.9547882080078,4761.76025390625,True
1599388057.9473388,0.0,10,0.5,0.5,17.135528939056396,-0.2,-0.00825,-0.001,0.2294077964302107,10,1,100,-0.1960876606691443,-10,-1,-100,19228.038072224008,0.008645410060101463,0.020783967700150792,0.9997466096824393,55.35576655596713,3.361203570524644,259.04272792024113,-83.25663952356214,-172.80630493164062,4761.76025390625,True
1599388057.9852326,0.0,10,0.5,0.5,17.47075446128845,-0.2,-0.00825,-0.001,0.23050160443977008,10,1,100,-0.19758721052961525,-10,-1,-100,19224.69686245499,0.009626027598509801,0.02079749039602368,0.9997373675050363,54.87376163377313,3.332080772465758,257.96940209958274,-83.6214409790338,-174.36199951171875,4761.76025390625,True
1599388058.023099,0.0,10,0.5,0.5,17.74434763526917,-0.2,-0.00825,-0.001,0.23740022465651217,10,1,100,-0.19796928817498302,-10,-1,-100,19221.34106037242,0.010508795643735731,0.02087344665593893,0.9997268949262194,54.482287394089994,3.3085499835071097,257.30351829720536,-83.9862515837652,-175.6211395263672,4761.76025390625,True
1599388058.0600374,0.0,10,0.5,0.5,18.090204552459717,-0.2,-0.00825,-0.001,0.2678616099600379,10,1,100,-0.2729057688572675,-10,-1,-100,19214.585678295,0.01198126468815023,0.02122014262766214,0.9997030333270644,54.005120319467196,3.280280765423144,257.3802001785284,-84.71588207483123,-177.2498779296875,4761.76025390625,True
1599388058.0998936,0.0,10,0.5,0.5,18.1065428024292,-0.2,-0.00825,-0.001,0.2331626439465898,10,1,100,-0.12687431382759307,-10,-1,-100,19214.585678295,0.01198126468815023,0.02122014262766214,0.9997030333270644,54.005120319467196,3.280280765423144,257.3802001785284,-84.71588207483123,-177.2498779296875,4761.76025390625,True
1599388058.1378245,0.0,10,0.5,0.5,18.210758740234375,-0.2,-0.00825,-0.001,0.2811624182437261,10,1,100,-0.22004221680596492,-10,-1,-100,19209.48083647131,0.012818687141359728,0.02165660721900416,0.999683286158038,53.9377392671867,3.27684652949555,258.8060037613046,-85.26309578591011,-177.69326782226562,4761.76025390625,True
1599388058.1757205,0.0,10,0.5,0.5,18.178341594696047,-0.2,-0.00825,-0.001,0.2996171512800606,10,1,100,-0.20496576738284691,-10,-1,-100,19204.343162756646,0.013433999232147702,0.022220714853240273,0.9996628269051729,54.130679254663946,3.2892612763451745,261.4861712173284,-85.81028407865463,-177.47035217285156,4761.76025390625,True
1599388058.210639,0.0,10,0.5,0.5,18.188829211807253,-0.2,-0.00825,-0.001,0.24332737649626926,10,1,100,-0.14433444633163553,-10,-1,-100,19204.343162756646,0.013433999232147702,0.022220714853240273,0.9996628269051729,54.130679254663946,3.2892612763451745,261.4861712173284,-85.81028407865463,-177.47035217285156,4761.76025390625,True
1599388058.247541,0.0,10,0.5,0.5,18.017093131256107,-0.2,-0.00825,-0.001,0.32672019441115335,10,1,100,-0.18312239836781877,-10,-1,-100,19199.172659159638,0.013780213620232764,0.02297757862778139,0.9996410038573772,54.57632937474938,3.3170029288106084,265.40899014660863,-86.35743114425925,-176.58038330078125,4761.76025390625,True
1599388058.285398,0.0,10,0.5,0.5,17.8299725151062,-0.2,-0.00825,-0.001,0.3117365626978728,10,1,100,-0.16190080252723085,-10,-1,-100,19195.707419372862,0.01389585871722589,0.023527447525573737,0.9996266124525908,55.00955565697415,3.3437256973008123,268.70585173915737,-86.72216527267182,-175.61766052246094,4761.76025390625,True
1599388058.326287,0.0,10,0.5,0.5,17.58175630493164,-0.2,-0.00825,-0.001,0.3259841996669684,10,1,100,-0.14649057093139997,-10,-1,-100,19192.2275915239,0.013855144459925571,0.024154355699233767,0.9996122258519798,55.54233002512164,3.376446441008364,272.5103693180357,-87.08686949060113,-174.35882568359375,4761.76025390625,True
1599388058.366181,0.0,10,0.5,0.5,17.58429596939087,-0.2,-0.00825,-0.001,0.2636304211008737,10,1,100,-0.15108297010141425,-10,-1,-100,19192.2275915239,0.013855144459925571,0.024154355699233767,0.9996122258519798,55.54233002512164,3.376446441008364,272.5103693180357,-87.08686949060113,-174.35882568359375,4761.76025390625,True
1599388058.406074,0.0,10,0.5,0.5,17.271905442047117,-0.2,-0.00825,-0.001,0.3371742882025654,10,1,100,-0.13504034324782016,-10,-1,-100,19188.733176351176,0.013705457745927975,0.024819884613518955,0.9995979860702733,56.16877921083491,3.414797607253681,276.80003355409934,-87.45153914322535,-172.80465698242188,4761.76025390625,True
1599388058.4469647,0.0,10,0.5,0.5,16.89939519844055,-0.2,-0.00825,-0.001,0.34862090585754496,10,1,100,-0.11864968383123153,-10,-1,-100,19185.224175403942,0.01341746686386827,0.02552538338886205,0.9995841267176108,56.877821576625315,3.4580996110773365,281.52603304938964,-87.81616985107962,-170.9552001953125,4761.76025390625,True
1599388058.4848628,0.0,10,0.5,0.5,15.974658418655395,-0.2,-0.00825,-0.001,0.445279331517057,10,1,100,-0.04239812052737628,-10,-1,-100,19178.162423872272,0.01246115530271011,0.02704154501720479,0.9995566389412879,58.48678118945898,3.5561069434129537,292.0241048097366,-88.54529806200014,-166.37115478515625,4761.76025390625,True
1599388058.5237916,0.0,10,0.5,0.5,15.970267517471314,-0.2,-0.00825,-0.001,0.29424530892173717,10,1,100,-0.13807726570464823,-10,-1,-100,19178.162423872272,0.01246115530271011,0.02704154501720479,0.9995566389412879,58.48678118945898,3.5561069434129537,292.0241048097366,-88.54529806200014,-166.37115478515625,4761.76025390625,True
1599388058.56465,0.0,10,0.5,0.5,14.802913315963746,-0.2,-0.00825,-0.001,0.462086931794564,10,1,100,0.03342060341946776,-10,-1,-100,19171.04235166125,0.010902408794162374,0.028562482554413942,0.9995325517824889,60.232433629099255,3.662274753004294,303.3505914313917,-89.2742270209507,-160.60989379882812,4761.76025390625,True
1599388058.6025484,0.0,10,0.5,0.5,14.794764698791504,-0.2,-0.00825,-0.001,0.3106273548437662,10,1,100,-0.12220088839150738,-10,-1,-100,19171.04235166125,0.010902408794162374,0.028562482554413942,0.9995325517824889,60.232433629099255,3.662274753004294,303.3505914313917,-89.2742270209507,-160.60989379882812,4761.76025390625,True
1599388058.6394498,0.0,10,0.5,0.5,13.386687218093872,-0.2,-0.00825,-0.001,0.4698912290410464,10,1,100,0.11293045969088839,-10,-1,-100,19163.86397583445,0.008767152530175126,0.030004570712842696,0.9995113119784341,61.93419721888861,3.765947312029509,314.6053434435496,-90.0029444522284,-153.67373657226562,4761.76025390625,True
1599388058.6773808,0.0,10,0.5,0.5,12.589084553146362,-0.2,-0.00825,-0.001,0.4044199211170768,10,1,100,0.0402496855498133,-10,-1,-100,19160.252929384355,0.007491302110642,0.03071397806475542,0.9995001410425737,62.69592247145296,3.8125895996369734,319.8331432713485,-90.3672269337815,-149.76507568359375,4761.76025390625,True
1599388058.715247,0.0,10,0.5,0.5,11.72765866699219,-0.2,-0.00825,-0.001,0.3896364132796523,10,1,100,0.07069960525783285,-10,-1,-100,19156.627312656026,0.006060442965181329,0.03121796510384569,0.9994942269397262,63.35343165948385,3.853152433876936,324.56014601243515,-90.7314643180697,-145.5660400390625,4761.76025390625,True
1599388058.7491596,0.0,10,0.5,0.5,11.263965913391113,-0.2,-0.00825,-0.001,0.36775976773283026,10,1,100,0.011839660230958726,-10,-1,-100,19154.809041264234,0.005301838425456615,0.031470835080406996,0.9994906087846209,63.630703322963896,3.8704250125477184,326.67013576282665,-90.91356857817487,-143.3563995361328,4761.76025390625,True
1599388058.790047,0.0,10,0.5,0.5,11.240598552322387,-0.2,-0.00825,-0.001,0.3432044180148169,10,1,100,-0.06316546313806577,-10,-1,-100,19154.809041264234,0.005301838425456615,0.031470835080406996,0.9994906087846209,63.630703322963896,3.8704250125477184,326.67013576282665,-90.91356857817487,-143.3563995361328,4761.76025390625,True
1599388058.8279803,0.0,10,0.5,0.5,10.284093244934082,-0.2,-0.00825,-0.001,0.3889422706445467,10,1,100,0.11442768670988274,-10,-1,-100,19151.161572756828,0.0036949948989484205,0.031880587422071005,0.999484854891919,64.05866957953972,3.897558075790157,330.2560097298402,-91.2777545966384,-138.71853637695312,4761.76025390625,True
1599388058.8665104,0.0,10,0.5,0.5,9.271287075042725,-0.2,-0.00825,-0.001,0.38203099969345233,10,1,100,0.1444364760056482,-10,-1,-100,19147.4995372009,0.001970259492129394,0.03218448235672542,0.9994800033882435,64.2826092225561,3.912700762500664,332.8051202127184,-91.64192134630675,-133.7889404296875,4761.76025390625,True
1599388058.9044082,0.0,10,0.5,0.5,8.199837000274659,-0.2,-0.00825,-0.001,0.37499600125242305,10,1,100,0.17577929454166186,-10,-1,-100,19143.822935093776,0.00012692067724886472,0.03239212055027506,0.9994752295166691,64.26018243697645,3.913282825098409,334.08464420227943,-92.00608452564859,-128.5675506591797,4761.76025390625,True
1599388058.9423068,0.0,10,0.5,0.5,7.066010347366333,-0.2,-0.00825,-0.001,0.35727875389787983,10,1,100,0.19999998606677744,-10,-1,-100,19140.13176617876,-0.0017578170459386113,0.03241495249979427,0.9994729515768144,63.9472262834475,3.8965625103980757,333.8486062273279,-92.3702625308296,-123.0558090209961,4761.76025390625,True
1599388058.979209,0.0,10,0.5,0.5,5.874148954963685,-0.2,-0.00825,-0.001,0.3443071861057344,10,1,100,0.22703461905186645,-10,-1,-100,19136.426029225113,-0.003705475070664307,0.03231428322856916,0.9994708882973654,63.29618894029154,3.859514149595329,331.8293636587859,-92.7344760612402,-117.25286865234375,4761.76025390625,True
1599388059.0161102,0.0,10,0.5,0.5,4.619380004310608,-0.2,-0.00825,-0.001,0.32617415205772526,10,1,100,0.2504918861231784,-10,-1,-100,19132.705721758655,-0.005676041263004297,0.0320545092173152,0.9994700050498853,62.32371177368345,3.802942843445273,328.0928375600434,-93.09874551478126,-111.1593246459961,4761.76025390625,True
1599388059.051606,0.0,10,0.5,0.5,3.3072038841247564,-0.2,-0.00825,-0.001,0.3060963098674073,10,1,100,0.2709067733423217,-10,-1,-100,19128.9708418753,-0.007639924781857246,0.03163396160671374,0.9994703217316623,61.12835689795286,3.732600177473791,323.1390701157923,-93.46308344937755,-104.7752685546875,4761.76025390625,True
1599388059.0895045,0.0,10,0.5,0.5,1.9349092155456544,-0.2,-0.00825,-0.001,0.28420391381516713,10,1,100,0.2881073724422292,-10,-1,-100,19125.221385987476,-0.009567886857274995,0.03105178746610844,0.9994719816164163,59.634627950527054,3.643588384275578,316.55231057460827,-93.82750348770834,-98.100830078125,4761.76025390625,True
1599388059.1303964,0.0,10,0.5,0.5,1.2097468238830567,-0.2,-0.00825,-0.001,0.3042692415813284,10,1,100,0.20033310920262953,-10,-1,-100,19123.341190919746,-0.010508424232910719,0.03070510138855758,0.9994732461496204,58.77165399173108,3.591733864578638,312.61771553666443,-94.00974602455767,-94.65467071533203,4761.76025390625,True
1599388059.1692913,0.0,10,0.5,0.5,-0.25614973850250244,-0.2,-0.00825,-0.001,0.2512502407515904,10,1,100,0.308058966309671,-10,-1,-100,19119.569866233738,-0.012328411218408693,0.02990863743205177,0.9994766048706633,59.69462493830826,3.6493387431956807,318.84126253156313,-94.37422771762523,-87.54440307617188,4761.76025390625,True
1599388059.5512211,0.0,10,0.5,0.5,-1.7826794301986695,-0.2,-0.00825,-0.001,0.2295920558072846,10,1,100,0.3171602572497034,-10,-1,-100,19115.783966233605,-0.014049656350458177,0.028989106879051305,0.9994809847309698,62.620784009973974,3.8287698436386264,335.8495117904125,-94.7385661858954,-80.1434326171875,4761.76025390625,True
1599388059.588165,0.0,10,0.5,0.5,-4.9361156461715705,-0.2,-0.00825,-0.001,0.08434492567192337,10,1,100,0.4901820479424992,-10,-1,-100,19108.168464222224,-0.017171218521120028,0.026835370175586706,0.9994923772405867,67.3599904482118,4.118635294859035,364.2303620989079,-95.4668218051825,-64.65829467773438,4761.76025390625,True
1599388059.6245458,0.0,10,0.5,0.5,-4.977663290977478,-0.2,-0.00825,-0.001,0.29918368480026936,10,1,100,0.17993997867763908,-10,-1,-100,19108.168464222224,-0.017171218521120028,0.026835370175586706,0.9994923772405867,67.3599904482118,4.118635294859035,364.2303620989079,-95.4668218051825,-64.65829467773438,4761.76025390625,True
1599388059.6774044,0.0,10,0.5,0.5,-6.5642709039688105,-0.2,-0.00825,-0.001,0.17058786971770035,10,1,100,0.33126902251511947,-10,-1,-100,19104.33887250861,-0.01853121152037133,0.02567136890244943,0.999498661839155,68.93281708474444,4.215090192230952,374.2488401741662,-95.83077325129864,-57.02703857421875,4761.76025390625,True
1599388059.734285,0.0,10,0.5,0.5,-9.508511698913575,-0.2,-0.00825,-0.001,0.028555148912537326,10,1,100,0.4483419449345334,-10,-1,-100,19096.636023465195,-0.020816619546708614,0.023328109904638922,0.9995111143148558,70.29822941162311,4.301104442095862,384.74904538687326,-96.55848838672205,-42.61212158203125,4761.76025390625,True
1599388059.7701893,0.0,10,0.5,0.5,-10.242895674133301,-0.2,-0.00825,-0.001,0.20107321987107601,10,1,100,0.27454587332375985,-10,-1,-100,19094.70121536695,-0.021298743333757253,0.022774389800183294,0.9995137271201592,70.30078542844538,4.302355186098452,385.5357839772562,-96.74040525679735,-39.193115234375,4761.76025390625,True
1599388059.8070576,0.0,10,0.5,0.5,-10.971102025413513,-0.2,-0.00825,-0.001,0.194886557046126,10,1,100,0.27780768491452834,-10,-1,-100,19092.762768520974,-0.021752488061835044,0.022223201969921478,0.9995163623259621,70.183097144113,4.296411761623223,385.6625488731311,-96.92232587614004,-35.84857177734375,4761.76025390625,True
1599388059.8419647,0.0,10,0.5,0.5,-12.324491116905213,-0.2,-0.00825,-0.001,0.13793563323055247,10,1,100,0.32700365486876604,-10,-1,-100,19088.874959540437,-0.022599389756689764,0.021212941689211697,0.9995195239151237,69.61764705016084,4.264694350265063,384.0899422879257,-97.28619339805452,-29.381561279296875,4761.76025390625,True
1599388059.8779097,0.0,10,0.5,0.5,-13.002100285148622,-0.2,-0.00825,-0.001,0.17881203789357714,10,1,100,0.2841468178941008,-10,-1,-100,19086.925596430665,-0.02296784595869763,0.0206750713362093,0.9995223956856897,69.18598718733699,4.239830747949346,382.4724785436567,-97.46814653713915,-26.26025390625,4761.76025390625,True
1599388059.9147694,0.0,10,0.5,0.5,-14.265544844055176,-0.2,-0.00825,-0.001,0.1237357237601346,10,1,100,0.3214171970959396,-10,-1,-100,19083.015951764188,-0.023630301024425326,0.019694522732314323,0.9995267553436684,68.0649798911021,4.1743459486519,377.78195779225155,-97.83210438705045,-20.239654541015625,4761.76025390625,True
1599388059.9517107,0.0,10,0.5,0.5,-16.55665335388184,-0.2,-0.00825,-0.001,0.03834556097738018,10,1,100,0.3760403326302906,-10,-1,-100,19075.152977898833,-0.02471883241648459,0.01803612626229361,0.9995317290978893,65.48039185627773,4.021485083446784,366.3474039026289,-98.56024546647893,-9.08740234375,4761.76025390625,True
1599388059.9885712,0.0,10,0.5,0.5,-17.63560908203125,-0.2,-0.00825,-0.001,0.12815852343931305,10,1,100,0.3178519366837239,-10,-1,-100,19071.199642601307,-0.025169721740600563,0.017354931839762132,0.9995325364630898,64.12860469082345,3.9405273554920486,360.21448633901457,-98.92442659612136,-3.95562744140625,4761.76025390625,True
1599388060.0224829,0.0,10,0.5,0.5,-17.68055700759888,-0.2,-0.00825,-0.001,0.19532992185887843,10,1,100,0.27356285459407464,-10,-1,-100,19071.199642601307,-0.025169721740600563,0.017354931839762132,0.9995325364630898,64.12860469082345,3.9405273554920486,360.21448633901457,-98.92442659612136,-3.95562744140625,4761.76025390625,True
1599388060.0623744,0.0,10,0.5,0.5,-18.224089009094236,-0.2,-0.00825,-0.001,0.1623647473719133,10,1,100,0.2987975343858631,-10,-1,-100,19069.21751162084,-0.025391856553962748,0.01706386701564047,0.999531929486605,63.39640997115565,3.896311402784941,356.80934176542473,-99.10654381252891,-1.500640869140625,4761.76025390625,True
1599388060.1003067,0.0,10,0.5,0.5,-20.092440859222414,-0.2,-0.00825,-0.001,0.0880518464428439,10,1,100,0.3569220956296856,-10,-1,-100,19061.2525660987,-0.026115965445568948,0.016131515805162703,0.9995287542370522,65.68334319858845,4.038314342477698,372.61603251575104,-99.83492052833063,7.578948974609375,4761.76025390625,True
1599388060.138172,0.0,10,0.5,0.5,-20.543876721191406,-0.2,-0.00825,-0.001,0.16332061795012814,10,1,100,0.30356559423292656,-10,-1,-100,19059.252227188437,-0.026284369565332356,0.01597472771306684,0.9995268580638773,66.5743489543781,4.093101960724067,378.4145716443849,-100.01694926012671,9.6640625,4761.76025390625,True
1599388060.177067,0.0,10,0.5,0.5,-20.986337701416016,-0.2,-0.00825,-0.001,0.16410186199940702,10,1,100,0.30482315362909296,-10,-1,-100,19057.248247840675,-0.026444364190326444,0.015845476813506877,0.9995246952762709,67.4013470322976,4.1438508556118085,383.86839934761514,-100.19895352090431,11.675201416015625,4761.76025390625,True
1599388060.2149656,0.0,10,0.5,0.5,-22.49202429122925,-0.2,-0.00825,-0.001,0.15334560837949093,10,1,100,0.3582573587497575,-10,-1,-100,19049.19593937113,-0.027071314008573936,0.01563598980386805,0.9995112104327306,70.13451680826063,4.310808090131034,402.56751677687913,-100.92674624391483,18.981124877929688,4761.76025390625,True
1599388060.2568538,0.0,10,0.5,0.5,-22.524617583847046,-0.2,-0.00825,-0.001,0.17373661415483915,10,1,100,0.2960095693501967,-10,-1,-100,19049.19593937113,-0.027071314008573936,0.01563598980386805,0.9995112104327306,70.13451680826063,4.310808090131034,402.56751677687913,-100.92674624391483,18.981124877929688,4761.76025390625,True
1599388060.296748,0.0,10,0.5,0.5,-23.207119333648684,-0.2,-0.00825,-0.001,0.18172275491871692,10,1,100,0.32946869007148843,-10,-1,-100,19045.147955692024,-0.027371757407813065,0.015713172066750887,0.9995018174670861,71.19941147336587,4.3755466973081045,410.26916291679754,-101.29052341673751,22.190963745117188,4761.76025390625,True
1599388060.3346484,0.0,10,0.5,0.5,-24.351312475204466,-0.2,-0.00825,-0.001,0.233825071400966,10,1,100,0.36836207434158375,-10,-1,-100,19037.008344061673,-0.02799506266741006,0.016260614592542605,0.9994757970452914,72.8489167996114,4.4756465744755385,423.0245227556626,-102.01788400294129,27.72528076171875,4761.76025390625,True
1599388060.3725781,0.0,10,0.5,0.5,-24.376148621749877,-0.2,-0.00825,-0.001,0.17890326765481912,10,1,100,0.3063591714069768,-10,-1,-100,19037.008344061673,-0.02799506266741006,0.016260614592542605,0.9994757970452914,72.8489167996114,4.4756465744755385,423.0245227556626,-102.01788400294129,27.72528076171875,4761.76025390625,True
1599388060.412438,0.0,10,0.5,0.5,-24.86956375236511,-0.2,-0.00825,-0.001,0.23116483490015918,10,1,100,0.3427356596254356,-10,-1,-100,19032.916720357724,-0.028323189523098948,0.016736714583179532,0.9994586931535488,73.48094402669629,4.514070938258155,428.3336323932114,-102.38148354193203,30.050048828125,4761.76025390625,True
1599388060.453328,0.0,10,0.5,0.5,-25.652132152938844,-0.2,-0.00825,-0.001,0.3338503590659794,10,1,100,0.3861541577103057,-10,-1,-100,19024.689846765483,-0.029013333494694486,0.018103599537317452,0.9994150720112831,74.46870709049178,4.5745876908242415,437.41416720153995,-103.10855469878217,33.81541442871094,4761.76025390625,True
1599388060.4922614,0.0,10,0.5,0.5,-25.677502532958986,-0.2,-0.00825,-0.001,0.1972658369043551,10,1,100,0.3175019082448251,-10,-1,-100,19024.689846765483,-0.029013333494694486,0.018103599537317452,0.9994150720112831,74.46870709049178,4.5745876908242415,437.41416720153995,-103.10855469878217,33.81541442871094,4761.76025390625,True
1599388060.5302022,0.0,10,0.5,0.5,-26.11149266395569,-0.2,-0.00825,-0.001,0.3555958559749687,10,1,100,0.3774895175886599,-10,-1,-100,19018.481524398434,-0.029556041426866506,0.019541170543657435,0.9993720944017584,75.04157693459922,4.610277672509776,443.29175028519063,-103.65376585896561,35.86688232421875,4761.76025390625,True
1599388060.5700953,0.0,10,0.5,0.5,-26.131058522415163,-0.2,-0.00825,-0.001,0.21219539962402945,10,1,100,0.32354589155761126,-10,-1,-100,19018.481524398434,-0.029556041426866506,0.019541170543657435,0.9993720944017584,75.04157693459922,4.610277672509776,443.29175028519063,-103.65376585896561,35.86688232421875,4761.76025390625,True
1599388060.6089907,0.0,10,0.5,0.5,-26.49393671836853,-0.2,-0.00825,-0.001,0.48481509383102117,10,1,100,0.4067491287668073,-10,-1,-100,19010.15287966968,-0.030309605694916888,0.02201617167851177,0.9992980616348862,75.67731660989826,4.650800570045045,450.4290496876295,-104.38061307225368,37.57295227050781,4761.76025390625,True
1599388060.647889,0.0,10,0.5,0.5,-26.55632526893616,-0.2,-0.00825,-0.001,0.31508018332392873,10,1,100,0.3545119625410366,-10,-1,-100,19008.06163360062,-0.03051683688955901,0.022717327903883373,0.9992760607955959,75.82303613828674,4.660252204144149,452.1441390571688,-104.56230873200529,37.815521240234375,4761.76025390625,True
1599388060.7017431,0.0,10,0.5,0.5,-26.629685835266113,-0.2,-0.00825,-0.001,0.5175675167460654,10,1,100,0.39451757038089946,-10,-1,-100,19001.766092304024,-0.031065783935158794,0.025189099014331515,0.9991998930941397,76.24902416173187,4.688201757291198,457.24384206548484,-105.1073589685643,38.104400634765625,4761.76025390625,True
1599388060.739642,0.0,10,0.5,0.5,-26.60740206718445,-0.2,-0.00825,-0.001,0.4724122471174888,10,1,100,0.38316845532328886,-10,-1,-100,18997.55089771608,-0.031458294724700915,0.02701704672998133,0.9991398575169563,76.52794955015466,4.706731418401146,460.63069753318894,-105.47069608876043,37.929656982421875,4761.76025390625,True
1599388060.7795355,0.0,10,0.5,0.5,-26.52219991950989,-0.2,-0.00825,-0.001,0.5221056103827313,10,1,100,0.37794023852650543,-10,-1,-100,18993.321170273004,-0.031764445078807275,0.02912079665376751,0.9990710681583594,76.80890251079971,4.7255279726146435,464.0437043485702,-105.83400984847542,37.4630126953125,4761.76025390625,True
1599388060.8175383,0.0,10,0.5,0.5,-26.530700192642215,-0.2,-0.00825,-0.001,0.31301663621023557,10,1,100,0.3477021413570091,-10,-1,-100,18993.321170273004,-0.031764445078807275,0.02912079665376751,0.9990710681583594,76.80890251079971,4.7255279726146435,464.0437043485702,-105.83400984847542,37.4630126953125,4761.76025390625,True
1599388060.8554378,0.0,10,0.5,0.5,-26.172638336563114,-0.2,-0.00825,-0.001,0.8413017459856742,10,1,100,0.4055779854796097,-10,-1,-100,18984.81812094245,-0.03228746070214391,0.033912130304389144,0.9989031421011877,77.37174903843211,4.763520184827952,470.9176953552897,-106.56056796417221,35.65118408203125,4761.76025390625,True
1599388060.8943336,0.0,10,0.5,0.5,-26.175964675140385,-0.2,-0.00825,-0.001,0.36374923400021786,10,1,100,0.35360383586669125,-10,-1,-100,18984.81812094245,-0.03228746070214391,0.033912130304389144,0.9989031421011877,77.37174903843211,4.763520184827952,470.9176953552897,-106.56056796417221,35.65118408203125,4761.76025390625,True
1599388060.9322329,0.0,10,0.5,0.5,-25.907091001510626,-0.2,-0.00825,-0.001,0.6582364055346696,10,1,100,0.38019688277248026,-10,-1,-100,18980.544800531818,-0.03252623919473522,0.03657491501764137,0.9988014414062983,77.6519355069315,4.782569575001828,474.368441753655,-106.92381276133949,34.30596923828125,4761.76025390625,True
1599388060.9711292,0.0,10,0.5,0.5,-25.578440958786015,-0.2,-0.00825,-0.001,0.7266516415128963,10,1,100,0.35529166650693805,-10,-1,-100,18976.256951022428,-0.032514199314887963,0.03960209986178728,0.9986863874757925,77.92937543074464,4.801506501467614,477.8166454983931,-107.28703555998985,32.67060852050781,4761.76025390625,True
1599388061.010023,0.0,10,0.5,0.5,-24.743447038269046,-0.2,-0.00825,-0.001,1.142181680475408,10,1,100,0.34895637202048657,-10,-1,-100,18967.63766802789,-0.03244297114888815,0.04611339468401719,0.9984092389665413,78.4271382267744,4.835966378643649,484.40331826555195,-108.01342019624283,28.521392822265625,4761.76025390625,True
1599388061.048919,0.0,10,0.5,0.5,-24.740128717422486,-0.2,-0.00825,-0.001,0.4934619205529675,10,1,100,0.3562925251658648,-10,-1,-100,18967.63766802789,-0.03244297114888815,0.04611339468401719,0.9984092389665413,78.4271382267744,4.835966378643649,484.40331826555195,-108.01342019624283,28.521392822265625,4761.76025390625,True
1599388061.0888133,0.0,10,0.5,0.5,-23.664347993850708,-0.2,-0.00825,-0.001,1.3213925018515082,10,1,100,0.26130121397098294,-10,-1,-100,18958.960277865408,-0.03157766274324438,0.05361876718056744,0.998062061708444,78.78489511468388,4.861860072880221,490.17250742158586,-108.73973932054346,23.2073974609375,4761.76025390625,True
1599388061.1292377,0.0,10,0.5,0.5,-23.65737196159363,-0.2,-0.00825,-0.001,0.5736982190131069,10,1,100,0.3478832424161685,-10,-1,-100,18958.960277865408,-0.03157766274324438,0.05361876718056744,0.998062061708444,78.78489511468388,4.861860072880221,490.17250742158586,-108.73973932054346,23.2073974609375,4761.76025390625,True
1599388061.169131,0.0,10,0.5,0.5,-22.342823631668093,-0.2,-0.00825,-0.001,1.4907042428291484,10,1,100,0.1671636437079853,-10,-1,-100,18950.224783974,-0.029934648784062223,0.061931002196667286,0.9976314288198278,78.87103876040122,4.871100105669733,494.28235964743783,-109.46602497728483,16.727783203125,4761.76025390625,True
1599388061.208027,0.0,10,0.5,0.5,-21.593205165481567,-0.2,-0.00825,-0.001,1.1511526560548972,10,1,100,0.2120398803805194,-10,-1,-100,18945.83524855296,-0.028850628969369428,0.06637091941740768,0.9973778332526544,78.77169857243084,4.8670339010704895,495.44909360992546,-109.82916895122537,13.05120849609375,4761.76025390625,True
1599388061.248501,0.0,10,0.5,0.5,-21.1852496006012,-0.2,-0.00825,-0.001,0.959997602057209,10,1,100,0.2362052060033519,-10,-1,-100,18943.635033665574,-0.028087490112683036,0.0686355708337712,0.9972463343204088,78.68212170778543,4.862585341002945,495.7805798152096,-110.0107442217309,11.103485107421875,4761.76025390625,True
1599388061.2873964,0.0,10,0.5,0.5,-19.904641181564333,-0.2,-0.00825,-0.001,1.5065040015784594,10,1,100,0.01871783238864383,-10,-1,-100,18937.012598714326,-0.025420387728824843,0.07563101808017723,0.9968117941677216,78.19662747904752,4.836150072058119,495.3949207092738,-110.55549488002455,4.8233642578125,4761.76025390625,True
1599388061.324298,0.0,10,0.5,0.5,-19.435428200912476,-0.2,-0.00825,-0.001,1.0735594601617582,10,1,100,0.16947575999158082,-10,-1,-100,18934.797856741352,-0.02437251860622893,0.07801672984787109,0.9966540875352057,77.95263493175236,4.822399620534467,494.73934467880326,-110.73709031714971,2.584259033203125,4761.76025390625,True
1599388061.3641913,0.0,10,0.5,0.5,-18.94677640571594,-0.2,-0.00825,-0.001,1.1033770661226874,10,1,100,0.1476170635545767,-10,-1,-100,18932.57948278857,-0.023228607364067615,0.08041895349557374,0.9964904534006347,77.6638635108215,4.805970751707245,493.79437360558643,-110.91869354255753,0.272216796875,4761.76025390625,True
1599388061.4020905,0.0,10,0.5,0.5,-17.439984774780275,-0.2,-0.00825,-0.001,1.6579463314791494,10,1,100,-0.1819347396911987,-10,-1,-100,18925.90256669058,-0.019201204016187388,0.08760722572069508,0.9959700235277424,76.500184821537,4.738975371028245,489.0238921310221,-111.4635607288951,-7.102783203125,4761.76025390625,True
1599388061.4407208,0.0,10,0.5,0.5,-16.35629136276245,-0.2,-0.00825,-0.001,1.4694317926228078,10,1,100,-0.1289596563077411,-10,-1,-100,18921.433125106967,-0.01603355788263016,0.09239052845298713,0.9955937501178894,75.44999004128157,4.678031169358662,484.0421087198583,-111.82686428802374,-12.384765625,4761.76025390625,True
1599388061.4796162,0.0,10,0.5,0.5,-16.32782576446533,-0.2,-0.00825,-0.001,0.9957292327704999,10,1,100,0.18616401572135585,-10,-1,-100,18921.433125106967,-0.01603355788263016,0.09239052845298713,0.9955937501178894,75.44999004128157,4.678031169358662,484.0421087198583,-111.82686428802374,-12.384765625,4761.76025390625,True
1599388061.516517,0.0,10,0.5,0.5,-13.997647715759276,-0.2,-0.00825,-0.001,1.9945654125365344,10,1,100,-0.6294148695036844,-10,-1,-100,18912.450638088863,-0.00863333538500308,0.10143561030424889,0.9948046453863866,72.59256581174874,4.511274960616516,469.0461255559843,-112.55364678910603,-23.83160400390625,4761.76025390625,True
1599388061.5554144,0.0,10,0.5,0.5,-13.358331689453125,-0.2,-0.00825,-0.001,1.3384344809985362,10,1,100,-0.12305570249536393,-10,-1,-100,18910.195930294227,-0.006529984021197958,0.10365011547948351,0.9945923852864411,71.70363065197779,4.459193979791877,464.12578898232715,-112.73538410249924,-26.87615966796875,4761.76025390625,True
1599388061.596305,0.0,10,0.5,0.5,-11.399604866027834,-0.2,-0.00825,-0.001,1.77530868704187,10,1,100,-0.6409846490022351,-10,-1,-100,18903.409996482427,6.932158253928625e-05,0.10959695922710637,0.993976107219228,70.79431857263923,4.413481802114137,460.67439980269324,-113.28063770804945,-36.457244873046875,4761.76025390625,True
1599388061.6358078,0.0,10,0.5,0.5,-11.368341477203371,-0.2,-0.00825,-0.001,1.184946916260554,10,1,100,0.016053916316298527,-10,-1,-100,18903.409996482427,6.932158253928625e-05,0.10959695922710637,0.993976107219228,70.79431857263923,4.413481802114137,460.67439980269324,-113.28063770804945,-36.457244873046875,4761.76025390625,True
1599388061.6757374,0.0,10,0.5,0.5,-8.553202355194092,-0.2,-0.00825,-0.001,1.9414874429375097,10,1,100,-1.0509329857903695,-10,-1,-100,18894.31121158495,0.009743605409240613,0.11643736275290294,0.9931502417604188,73.90688178723643,4.6252068899088945,484.2996420582392,-114.00724297036923,-50.2677001953125,4761.76025390625,True
1599388061.7165923,0.0,10,0.5,0.5,-8.52156268234253,-0.2,-0.00825,-0.001,1.2615277248251255,10,1,100,-0.08702100243404352,-10,-1,-100,18894.31121158495,0.009743605409240613,0.11643736275290294,0.9931502417604188,73.90688178723643,4.6252068899088945,484.2996420582392,-114.00724297036923,-50.2677001953125,4761.76025390625,True
1599388061.7562664,0.0,10,0.5,0.5,-6.239129707336426,-0.2,-0.00825,-0.001,1.7133906669225794,10,1,100,-0.9346278181022041,-10,-1,-100,18887.448990810663,0.01741810725711892,0.12051027983296612,0.9925592586813946,75.92693015650113,4.7657138269134425,500.118343214985,-114.55186248770953,-61.406158447265625,4761.76025390625,True
1599388061.7962997,0.0,10,0.5,0.5,-4.631861991119385,-0.2,-0.00825,-0.001,1.546336770591899,10,1,100,-0.736259624278448,-10,-1,-100,18882.856027578004,0.022554628343500336,0.12265781327880157,0.9921926978072098,77.10413773669175,4.8486811824774705,509.61379370028004,-114.91480578248816,-69.20477294921875,4761.76025390625,True
1599388061.8371904,0.0,10,0.5,0.5,-2.1245018730163574,-0.2,-0.00825,-0.001,1.5920802396460945,10,1,100,-1.0498420561936923,-10,-1,-100,18875.93936724786,0.0300369825009314,0.12499410195954638,0.9917027045226634,78.1246405758667,4.9252836750545494,519.0003962592735,-115.4590848178107,-81.46310424804688,4761.76025390625,True
1599388061.8764994,0.0,10,0.5,0.5,-2.079770574951172,-0.2,-0.00825,-0.001,1.361711728922269,10,1,100,-0.306213694488942,-10,-1,-100,18875.93936724786,0.0300369825009314,0.12499410195954638,0.9917027045226634,78.1246405758667,4.9252836750545494,519.0003962592735,-115.4590848178107,-81.46310424804688,4761.76025390625,True
1599388061.9153962,0.0,10,0.5,0.5,1.472153479766846,-0.2,-0.00825,-0.001,1.5492667840338936,10,1,100,-1.324863368861494,-10,-1,-100,18866.66635804565,0.03925555177669682,0.12666950830282792,0.9911679158048987,77.79135800049671,4.918045257250464,520.2972543416383,-116.18473623657069,-98.85083770751953,4761.76025390625,True
1599388061.9552894,0.0,10,0.5,0.5,2.4278565118789674,-0.2,-0.00825,-0.001,1.4014215359917988,10,1,100,-0.653342347010442,-10,-1,-100,18864.339034421253,0.04148779738587245,0.12682561736179337,0.9910570243174046,77.35681263981493,4.89366805018528,518.2661701274285,-116.36617302449855,-103.38417053222656,4761.76025390625,True
1599388061.9971776,0.0,10,0.5,0.5,3.4126107603073126,-0.2,-0.00825,-0.001,1.394798196318833,10,1,100,-0.668165404177616,-10,-1,-100,18862.008081660024,0.043608214112636365,0.12688625387120564,0.9909582242660073,76.76292963708008,4.85912999051747,515.1572138256084,-116.54762915552445,-107.99197387695312,4761.76025390625,True
1599388062.036626,0.0,10,0.5,0.5,5.303053326225282,-0.2,-0.00825,-0.001,1.3939957254062234,10,1,100,-0.8623540374834315,-10,-1,-100,18857.335286987014,0.04726163608290179,0.12691836523997116,0.9907865896950667,75.09010778928244,4.759266250578353,505.63620103452394,-116.91061610647427,-117.12647247314453,4761.76025390625,True
1599388062.0765195,0.0,10,0.5,0.5,7.146773484039307,-0.2,-0.00825,-0.001,1.3618801017954234,10,1,100,-0.8808631298732335,-10,-1,-100,18852.64796956943,0.05070829115532278,0.12663985044601175,0.990651814457087,72.88558910650343,4.625817550906042,492.44982926200043,-117.27372006319145,-126.0135498046875,4761.76025390625,True
1599388062.114419,0.0,10,0.5,0.5,8.928603783416749,-0.2,-0.00825,-0.001,1.3441577631925594,10,1,100,-0.8657712890913424,-10,-1,-100,18847.94612385356,0.05366717477246459,0.12621626802084707,0.9905499927004349,70.25348455766859,4.4654375733183285,476.2646460374962,-117.63695263158905,-134.6116943359375,4761.76025390625,True
1599388062.153824,0.0,10,0.5,0.5,10.65805873336792,-0.2,-0.00825,-0.001,1.3384596385626049,10,1,100,-0.8447700682712278,-10,-1,-100,18843.229744750424,0.05612621826298954,0.12577050204199963,0.9904704076546651,67.295225860542,4.284415081097201,457.738342101187,-118.0003183617464,-142.91253662109375,4761.76025390625,True
1599388062.1937168,0.0,10,0.5,0.5,13.873564938354495,-0.2,-0.00825,-0.001,1.294922868758888,10,1,100,-0.992867822182014,-10,-1,-100,18833.753392125596,0.05967286637083221,0.12496468940645997,0.9903650717895073,70.95480155938277,4.533140980777198,485.8380363186563,-118.7267752121546,-158.61683654785156,4761.76025390625,True
1599388062.2276263,0.0,10,0.5,0.5,13.931625590896608,-0.2,-0.00825,-0.001,1.3757348199256207,10,1,100,-0.6419148352004801,-10,-1,-100,18833.753392125596,0.05967286637083221,0.12496468940645997,0.9903650717895073,70.95480155938277,4.533140980777198,485.8380363186563,-118.7267752121546,-158.61683654785156,4761.76025390625,True
1599388062.2658045,0.0,10,0.5,0.5,14.746613677978516,-0.2,-0.00825,-0.001,1.3620672628714858,10,1,100,-0.7107159898429867,-10,-1,-100,18831.375226158765,0.060271389700427815,0.12484046562647064,0.9903444944693464,71.8672482706579,4.5953437802481485,492.8952144669436,-118.9082962851114,-162.35482788085938,4761.76025390625,True
1599388062.307692,0.0,10,0.5,0.5,16.26654852294922,-0.2,-0.00825,-0.001,1.368193771458119,10,1,100,-0.7487254386559998,-10,-1,-100,18826.608005096787,0.06113355643726985,0.12478337011938889,0.9902988431877414,73.49616609388761,4.707175796344338,505.721095405539,-119.27125048848856,-169.603271484375,4761.76025390625,True
1599388062.3451738,0.0,10,0.5,0.5,17.71411416606903,-0.2,-0.00825,-0.001,1.3815325820934927,10,1,100,-0.7159228667742076,-10,-1,-100,18821.826269059675,0.06159925008578216,0.12485444169889383,0.9902610265868927,74.9093036456438,4.804986517862831,517.1302927965601,-119.6341041613585,-176.55075073242188,4761.76025390625,True
1599388062.382075,0.0,10,0.5,0.5,-53.25728814525604,-0.2,-0.00825,-0.001,1.4187312528066534,10,1,100,-0.6800060061876837,-10,-1,-100,18817.030020840117,0.061677807894825035,0.12525901393734787,0.9902050431303269,75.96380362002277,4.879514260975966,526.1209721240164,-119.99688738144168,176.80654907226562,4761.76025390625,True
1599388062.420971,0.0,10,0.5,0.5,-50.652011483573915,-0.2,-0.00825,-0.001,1.57081342110135,10,1,100,-0.5843083484238403,-10,-1,-100,18807.39399623056,0.06086281847448163,0.1270108513567432,0.9900323029906538,77.16320847899323,4.969483946990195,537.9163055320045,-120.72234443341063,164.43402099609375,4761.76025390625,True
1599388062.4598672,0.0,10,0.5,0.5,-49.68461406097413,-0.2,-0.00825,-0.001,1.5499250117146688,10,1,100,-0.5762191187034803,-10,-1,-100,18802.55422078888,0.06003601583817382,0.12841345211984478,0.9899018446881199,77.38738131433345,4.990270844887785,541.2365202446854,-121.0850572248376,158.4038848876953,4761.76025390625,True
1599388062.4987628,0.0,10,0.5,0.5,-48.66515880470276,-0.2,-0.00825,-0.001,1.603875428966191,10,1,100,-0.5424572955792635,-10,-1,-100,18797.699936788995,0.058968971663416705,0.13017738969615658,0.9897355745818445,77.34267558099052,4.993959782828979,542.6865313949198,-121.44778132844895,152.13458251953125,4761.76025390625,True
1599388062.5396528,0.0,10,0.5,0.5,-48.25717899665833,-0.2,-0.00825,-0.001,1.5417220812625063,10,1,100,-0.5830312630508988,-10,-1,-100,18795.267353630275,0.05836296593893333,0.1312123378576108,0.9896348248726653,77.19793409447796,4.988062784471411,542.5529611459145,-121.62915325509618,148.89669799804688,4761.76025390625,True
1599388062.5945075,0.0,10,0.5,0.5,-47.83617509422302,-0.2,-0.00825,-0.001,1.563764704183645,10,1,100,-0.5726632000614835,-10,-1,-100,18792.831142776646,0.05771576311888472,0.1323486401802017,0.9895214642088651,76.96006565305218,4.976291314971761,541.7619738512388,-121.81053468291196,145.58831787109375,4761.76025390625,True
1599388062.6343994,0.0,10,0.5,0.5,-45.28802764739991,-0.2,-0.00825,-0.001,2.0642767034076095,10,1,100,-0.3183493214932841,-10,-1,-100,18783.05001783115,0.05481723175299503,0.13792503869298062,0.9889245445454766,74.90562474665121,4.859693978869269,530.7388860292752,-122.53619982513315,131.64590454101562,4761.76025390625,True
1599388062.673295,0.0,10,0.5,0.5,-45.5414368221283,-0.2,-0.00825,-0.001,1.5079328870583701,10,1,100,-0.6077168946204693,-10,-1,-100,18783.05001783115,0.05481723175299503,0.13792503869298062,0.9889245445454766,74.90562474665121,4.859693978869269,530.7388860292752,-122.53619982513315,131.64590454101562,4761.76025390625,True
1599388062.710197,0.0,10,0.5,0.5,-44.297315536117566,-0.2,-0.00825,-0.001,1.886933658034271,10,1,100,-0.43813382156874625,-10,-1,-100,18778.13768173603,0.053280525777931576,0.1413586051808829,0.9885236114095315,73.1015341248297,4.752224250341278,519.6353891636304,-122.89914528509975,124.24952697753906,4761.76025390625,True
1599388062.7441058,0.0,10,0.5,0.5,-43.003342330932625,-0.2,-0.00825,-0.001,1.9657631186939843,10,1,100,-0.41288140101097415,-10,-1,-100,18773.210828795447,0.051661092005220816,0.14518159232582645,0.9880553814551923,74.9437615697212,4.882944551270247,534.4479853561749,-123.26202554618213,116.56893920898438,4761.76025390625,True
1599388062.7839997,0.0,10,0.5,0.5,-42.45973457183838,-0.2,-0.00825,-0.001,1.8171776095166456,10,1,100,-0.4940379540148569,-10,-1,-100,18770.741961186868,0.05093570101922866,0.14728777860086575,0.9877812838055304,76.62318623362623,4.998289075346339,547.3002170339346,-123.44337411262255,112.62310791015625,4761.76025390625,True
1599388062.822932,0.0,10,0.5,0.5,-39.94577088851929,-0.2,-0.00825,-0.001,2.3667618763951106,10,1,100,-0.3319656340837689,-10,-1,-100,18763.31360897934,0.048812635493385534,0.15417868785464797,0.9868364904215943,81.75690539817442,5.3526571579738205,586.7638961424578,-123.9870497250907,100.35963439941406,4761.76025390625,True
1599388062.8647835,0.0,10,0.5,0.5,-38.19072298088074,-0.2,-0.00825,-0.001,2.2417937075654413,10,1,100,-0.4109945138859329,-10,-1,-100,18758.343261205242,0.04761197499807609,0.159282378517364,0.9860842883499532,85.0372287644996,5.5807280113653395,612.2406740907622,-124.34921746759906,91.83003234863281,4761.76025390625,True
1599388063.2506719,0.0,10,0.5,0.5,-35.46584528312683,-0.2,-0.00825,-0.001,2.653553465019386,10,1,100,-0.37695676612205414,-10,-1,-100,18750.86058895872,0.046222325968886875,0.16763730516359848,0.98476455587085,88.9302653366551,5.855987762041679,643.3100206156147,-124.89214879356685,78.50424194335938,4761.76025390625,True
1599388063.2843406,0.0,10,0.5,0.5,-34.49707892036439,-0.2,-0.00825,-0.001,2.1465408797701824,10,1,100,-0.4814609897325357,-10,-1,-100,18748.359127486125,0.04592063492580518,0.1705894332347576,0.9842715786593937,89.86239716813058,5.923778287332598,651.0820997629949,-125.07307186145282,73.92042541503906,4761.76025390625,True
1599388063.3182461,0.0,10,0.5,0.5,-33.504186294555666,-0.2,-0.00825,-0.001,2.1880985791072836,10,1,100,-0.48611138254780906,-10,-1,-100,18745.854047736735,0.04569995784951805,0.17361518593398756,0.9837526523804951,90.57624190216413,5.9772734909340945,657.2951646414323,-125.25398225569637,69.26559448242188,4761.76025390625,True
1599388063.354151,0.0,10,0.5,0.5,-31.531786621856693,-0.2,-0.00825,-0.001,2.5778945734749756,10,1,100,-0.4871477771629681,-10,-1,-100,18740.833033831208,0.04551968755418517,0.17987195511321766,0.9826362693330213,91.26439281478201,6.0360227062458565,664.3997538640323,-125.61579967249129,59.742767333984375,4761.76025390625,True
1599388063.4060073,0.0,10,0.5,0.5,-29.510566295623782,-0.2,-0.00825,-0.001,2.6659359035954497,10,1,100,-0.5329346006025103,-10,-1,-100,18735.79754590208,0.04578050162987731,0.18632216926232184,0.981421517449001,90.83208110774099,6.02207481301108,663.3705825470803,-125.97766645010034,49.9346923828125,4761.76025390625,True
1599388063.4498973,0.0,10,0.5,0.5,-26.388099064636233,-0.2,-0.00825,-0.001,3.1167064447155934,10,1,100,-0.6425271896740241,-10,-1,-100,18728.217166642542,0.047022116808541306,0.19623991692571846,0.9794278000627871,87.76743681188827,5.844794291031736,644.0770716328095,-126.52067588491619,34.686614990234375,4761.76025390625,True
1599388063.4863775,0.0,10,0.5,0.5,-25.27901068763733,-0.2,-0.00825,-0.001,2.49668901830582,10,1,100,-0.5902062093977519,-10,-1,-100,18725.68313144648,0.04768090206751464,0.19956963700531305,0.9787228880350125,86.04581613429997,5.740124912225075,632.4511735283372,-126.70175470134369,29.46051025390625,4761.76025390625,True
1599388063.5202854,0.0,10,0.5,0.5,-23.06801247520447,-0.2,-0.00825,-0.001,2.896653801522878,10,1,100,-0.7109287528136234,-10,-1,-100,18720.6041951261,0.04938089377939623,0.20618325506630003,0.9772665924198028,85.6058763495747,5.732676028558381,631.2096516005719,-127.06392326238269,18.79205322265625,4761.76025390625,True
1599388063.5587332,0.0,10,0.5,0.5,-21.907234820175173,-0.2,-0.00825,-0.001,2.598430207669326,10,1,100,-0.6553087542014577,-10,-1,-100,18718.059298015083,0.05042211790030511,0.2094309701990146,0.9765225439015461,88.51610559505919,5.93953128626409,653.6889925098343,-127.24485284775162,13.349090576171875,4761.76025390625,True
1599388063.5972207,0.0,10,0.5,0.5,-19.60917945404053,-0.2,-0.00825,-0.001,2.980793800759854,10,1,100,-0.8192689046432822,-10,-1,-100,18712.95865713479,0.05285776893932348,0.21580924181835595,0.9750038089200181,94.27817302122057,6.351732451848785,698.4006782457367,-127.60637532163086,2.24603271484375,4761.76025390625,True
1599388063.636116,0.0,10,0.5,0.5,-17.255982920455935,-0.2,-0.00825,-0.001,3.0170485343201583,10,1,100,-0.8935045756286291,-10,-1,-100,18707.843566823052,0.05574209798926038,0.22188587099257723,0.9734780319892283,99.39529171329154,6.7221598811251955,738.5732008011237,-127.9675226268112,-9.148956298828125,4761.76025390625,True
1599388063.6735234,0.0,10,0.5,0.5,-14.84599306755066,-0.2,-0.00825,-0.001,3.048272537428239,10,1,100,-0.9672360338687462,-10,-1,-100,18702.714038421982,0.05902584695318556,0.22764461702846187,0.9719536397017216,103.19651423170797,7.004055966316029,769.1797928448918,-128.3284194550907,-20.83587646484375,4761.76025390625,True
1599388063.710425,0.0,10,0.5,0.5,-9.90362438583374,-0.2,-0.00825,-0.001,3.587458457648239,10,1,100,-1.4454442562065535,-10,-1,-100,18692.411682871752,0.06634650693070908,0.23772966253236272,0.969062819723439,105.00703355210746,7.177486198967495,787.5683004619028,-129.05008195375632,-45.093994140625,4761.76025390625,True
1599388063.7485907,0.0,10,0.5,0.5,-9.833535842895508,-0.2,-0.00825,-0.001,2.5853653549179914,10,1,100,-0.7154429133623207,-10,-1,-100,18692.411682871752,0.06634650693070908,0.23772966253236272,0.969062819723439,105.00703355210746,7.177486198967495,787.5683004619028,-129.05008195375632,-45.093994140625,4761.76025390625,True
1599388063.787149,0.0,10,0.5,0.5,-4.633789044952393,-0.2,-0.00825,-0.001,3.4802274712649126,10,1,100,-1.5514471829333156,-10,-1,-100,18682.051568140392,0.07392761227283037,0.2458121747651355,0.9664942228905834,97.35749957561741,6.715502669237104,734.8024460772158,-129.77235879630814,-70.5330810546875,4761.76025390625,True
1599388063.8230531,0.0,10,0.5,0.5,-4.559842218780518,-0.2,-0.00825,-0.001,2.6779252485379157,10,1,100,-0.7961513597854813,-10,-1,-100,18682.051568140392,0.07392761227283037,0.2458121747651355,0.9664942228905834,97.35749957561741,6.715502669237104,734.8024460772158,-129.77235879630814,-70.5330810546875,4761.76025390625,True
1599388063.8615844,0.0,10,0.5,0.5,-3.1577274978637697,-0.2,-0.00825,-0.001,2.8734431600359316,10,1,100,-1.0070335585295278,-10,-1,-100,18679.452506055706,0.07582026362917235,0.24754454463526346,0.9659052676347318,93.84481094394313,6.490508479135904,709.3852731485928,-129.95308984204044,-77.076904296875,4761.76025390625,True
1599388063.8994827,0.0,10,0.5,0.5,2.332742872619629,-0.2,-0.00825,-0.001,3.3520361209684504,10,1,100,-1.576869816063306,-10,-1,-100,18669.02016571327,0.08269560414746153,0.25342665788237545,0.9638134498590772,106.16563833891817,7.419482852503518,807.3447918453328,-130.67467583805447,-103.98795318603516,4761.76025390625,True
1599388063.9383793,0.0,10,0.5,0.5,5.199544266700745,-0.2,-0.00825,-0.001,3.0468181744872993,10,1,100,-1.2130755434743257,-10,-1,-100,18663.782372580143,0.08560840694930819,0.25595637640917945,0.9628901983274541,110.8376692149319,7.780100670165724,845.3766210837491,-131.03485811265296,-117.88058471679688,4761.76025390625,True
1599388063.9762769,0.0,10,0.5,0.5,5.293916117286683,-0.2,-0.00825,-0.001,2.7984988624279157,10,1,100,-0.9253138921945608,-10,-1,-100,18663.782372580143,0.08560840694930819,0.25595637640917945,0.9628901983274541,110.8376692149319,7.780100670165724,845.3766210837491,-131.03485811265296,-117.88058471679688,4761.76025390625,True
