Timestamp,Input Throttle,horizon,dT,dt,Input Roll,Roll P,Roll I,Roll D,Input Pitch,Pitch P,Pitch I,Pitch D,Input Yaw,Yaw P,Yaw I,Yaw D,Altitude,Direction X,Direction Y,Direction Z,Drag X,Drag Y,Drag Z,Vertical Velocity,Roll,Mass,Has Fuel
1599387497.576058,0.0,10,0.5,0.5,-8.42454027557373,-0.15025,-0.0155,-0.5,-0.00016993329161854869,10,1,100,0.4980633335924254,-10,-1,-100,19351.094166806084,-0.048843696785651224,-0.0001745888294286893,0.9988064190838244,60.98677549407768,3.6806964937106783,232.7550079362041,-68.48187403332751,-33.922637939453125,4761.76025390625,True
1599387497.6096065,0.0,10,0.5,0.5,-8.511789486694335,-0.15025,-0.0155,-0.5,-0.0008256884064062644,10,1,100,0.4989364745175138,-10,-1,-100,19349.720880211564,-0.048894743485491554,-0.00016606465878483932,0.9988039229408427,61.07646032797333,3.686779893999758,233.7417925940401,-68.6643341239795,-33.923797607421875,4761.76025390625,True
1599387497.6444979,0.0,10,0.5,0.5,-8.597699909973144,-0.15025,-0.0155,-0.5,0.00026248020955645384,10,1,100,0.5104758663776188,-10,-1,-100,19346.963359314483,-0.04900160337181509,-0.00014827200291005568,0.998798688866983,61.25662164850941,3.6990055746007977,235.72460937991335,-69.02924391456342,-33.926239013671875,4761.76025390625,True
1599387497.6784413,0.0,10,0.5,0.5,-8.657001530456544,-0.15025,-0.0155,-0.5,0.01014702339646396,10,1,100,0.5037663520578219,-10,-1,-100,19345.57912531984,-0.04899320622613668,-4.210258495844773e-05,0.9987991109182344,61.34708429144229,3.705147119254931,236.72061059711694,-69.21169374946847,-33.9705810546875,4761.76025390625,True
1599387497.7113516,0.0,10,0.5,0.5,-8.58265908050537,-0.15025,-0.0155,-0.5,0.02356255038019217,10,1,100,0.5076960024926715,-10,-1,-100,19342.799710744526,-0.048976757273813,0.00017641267901777818,0.9987999029462852,61.53736271660069,3.71799911181739,238.75514584404672,-69.5765825334022,-34.2525634765625,4761.76025390625,True
1599387497.742244,0.0,10,0.5,0.5,-8.441395960998536,-0.15025,-0.0155,-0.5,0.036912041824801185,10,1,100,0.5055296323232773,-10,-1,-100,19340.005701047485,-0.04889758508172988,0.0004962615569662312,0.9988036743512921,61.741295829071625,3.731666089983108,240.85163073378104,-69.94145556486346,-34.81951904296875,4761.76025390625,True
1599387497.777695,0.0,10,0.5,0.5,-8.554911279296874,-0.15025,-0.0155,-0.5,0.028340587894909283,10,1,100,0.509974374345551,-10,-1,-100,19338.60322313686,-0.04882156475723705,0.0007086598088685655,0.9988072649995745,61.84751885902,3.7387462619351988,241.9199771682449,-70.12388570419424,-35.212432861328125,4761.76025390625,True
1599387497.8118567,0.0,10,0.5,0.5,-8.182308235168456,-0.15025,-0.0155,-0.5,0.06612299551646506,10,1,100,0.49707912658676345,-10,-1,-100,19335.7873220942,-0.04859084260556619,0.0012445813255131323,0.9988179919445812,62.06477678489887,3.7531614569566467,244.08274858091372,-70.48873272992866,-36.218170166015625,4761.76025390625,True
1599387497.8427627,0.0,10,0.5,0.5,-7.429799229431152,-0.15025,-0.0155,-0.5,0.13059544689546285,10,1,100,0.46372581060999574,-10,-1,-100,19331.53610819613,-0.04803370973825337,0.0023167644610667974,0.998843028373935,62.38598808630269,3.77436096759419,247.3265574991697,-71.03596843829018,-38.2769775390625,4761.76025390625,True
1599387497.8766737,0.0,10,0.5,0.5,-7.997730114746094,-0.15025,-0.0155,-0.5,0.07076724855453151,10,1,100,0.4975164243745499,-10,-1,-100,19330.11174072756,-0.04779074570243016,0.0027454775407788744,0.9988535963684961,62.48631772179613,3.780967622005222,248.3858036186492,-71.21837103664322,-39.109954833984375,4761.76025390625,True
1599387497.911586,0.0,10,0.5,0.5,-7.903650517272949,-0.15025,-0.0155,-0.5,0.07816407238937476,10,1,100,0.4959368863412392,-10,-1,-100,19328.683725167997,-0.047512063737104024,0.003199964668524084,0.9988655385113463,62.58050257088337,3.787169904592751,249.42279978249465,-71.40076910050018,-40.016448974609375,4761.76025390625,True
1599387497.9454887,0.0,10,0.5,0.5,-7.710200036621094,-0.15025,-0.0155,-0.5,0.08499029125174393,10,1,100,0.48892373949991796,-10,-1,-100,19327.25206206704,-0.04719617119102148,0.0036721235438613104,0.998878890023003,62.666607216580665,3.792846542880387,250.4296171168663,-71.5831628064004,-40.9964599609375,4761.76025390625,True
1599387497.9794042,0.0,10,0.5,0.5,-5.991335195922852,-0.15025,-0.0155,-0.5,0.21678177157978715,10,1,100,0.39518731721562184,-10,-1,-100,19322.93518524873,-0.04605839101226599,0.00529597398969314,0.9989247105146923,62.85383631217247,3.805312273980815,253.17541620316595,-72.13031998698075,-44.376556396484375,4761.76025390625,True
1599387498.0143127,0.0,10,0.5,0.5,-6.837073155212402,-0.15025,-0.0155,-0.5,0.12022137483824588,10,1,100,0.4590015413275364,-10,-1,-100,19321.48893127148,-0.04560685035292345,0.005889430564623879,0.9989421053336925,62.884662007164806,3.8074550771061286,253.96603969061564,-72.31269914485324,-45.65008544921875,4761.76025390625,True
1599387498.0472174,0.0,10,0.5,0.5,-5.656235838317871,-0.15025,-0.0155,-0.5,0.199568390787545,10,1,100,0.3921977386327199,-10,-1,-100,19318.58548042213,-0.044592130052543914,0.007144880747600378,0.9989797258285473,62.8833007330462,3.8077541608234546,255.29389006686515,-72.67745051547818,-48.41748046875,4761.76025390625,True
1599387498.0821273,0.0,10,0.5,0.5,-6.0463135650634765,-0.15025,-0.0155,-0.5,0.14352650522062468,10,1,100,0.43070750535176283,-10,-1,-100,19317.128283931175,-0.044023731865300425,0.007770392437817389,0.999000266283255,62.84538372735303,3.8055582529198433,255.80648985752916,-72.859824021651,-49.911773681640625,4761.76025390625,True
1599387498.1180348,0.0,10,0.5,0.5,-4.683683059692383,-0.15025,-0.0155,-0.5,0.22885680402505754,10,1,100,0.34973051528672017,-10,-1,-100,19314.202948370134,-0.042775282561048164,0.009108156571799652,0.9990432006103068,62.67897592550359,3.7954939979828346,256.4593009672121,-73.22457107161003,-53.120361328125,4761.76025390625,True
1599387498.149945,0.0,10,0.5,0.5,-2.771793446350097,-0.15025,-0.0155,-0.5,0.3222057994077592,10,1,100,0.23509629740237423,-10,-1,-100,19309.787588685518,-0.04060369601477586,0.011165297109114514,0.9991129445715359,62.153533989025064,3.763236700031906,256.2897931519133,-73.77170613063994,-58.485107421875,4761.76025390625,True
1599387498.185813,0.0,10,0.5,0.5,-5.419652740478515,-0.15025,-0.0155,-0.5,0.11748381725463314,10,1,100,0.4514562373705253,-10,-1,-100,19309.787588685518,-0.04060369601477586,0.011165297109114514,0.9991129445715359,62.153533989025064,3.763236700031906,256.2897931519133,-73.77170613063994,-58.485107421875,4761.76025390625,True
1599387498.22072,0.0,10,0.5,0.5,-1.4687323608398435,-0.15025,-0.0155,-0.5,0.3419986685039882,10,1,100,0.17432496404662762,-10,-1,-100,19305.33939896559,-0.03809107536067086,0.013198297090792243,0.9991871070684263,61.21392853740487,3.705457640134307,254.368691952079,-74.31888671203096,-64.512939453125,4761.76025390625,True
1599387498.2556596,0.0,10,0.5,0.5,-3.0407753067016596,-0.15025,-0.0155,-0.5,0.21125003013184115,10,1,100,0.32518301911311664,-10,-1,-100,19303.84937290463,-0.037187129512399636,0.01384835234388883,0.9992123600796716,60.79215348241239,3.6795655924447273,253.26344308048658,-74.50129644311247,-66.6697998046875,4761.76025390625,True
1599387498.2865462,0.0,10,0.5,0.5,-1.130098080444336,-0.15025,-0.0155,-0.5,0.299766498477243,10,1,100,0.19713917828035682,-10,-1,-100,19300.858375593205,-0.03521071194660498,0.015234326479229959,0.9992637895275389,59.76387300981918,3.6165865503954358,250.2537307902157,-74.86614826509361,-71.203125,4761.76025390625,True
1599387498.3224854,0.0,10,0.5,0.5,-1.8033939071655274,-0.15025,-0.0155,-0.5,0.2273517812515848,10,1,100,0.284064057459644,-10,-1,-100,19299.357403550996,-0.03421509075137101,0.015825476261183757,0.9992891883063592,59.15082092038466,3.579135985693713,248.31785224823693,-75.04859304162294,-73.58151245117188,4761.76025390625,True
1599387498.3573942,0.0,10,0.5,0.5,0.2891263839721683,-0.15025,-0.0155,-0.5,0.30104932086032743,10,1,100,0.1486898615674326,-10,-1,-100,19296.34451177891,-0.032090072702375384,0.017023290511883515,0.9993399996067928,57.71088207206999,3.49143549351425,243.50588308702362,-75.41352632591817,-78.55874633789062,4761.76025390625,True
1599387498.3942945,0.0,10,0.5,0.5,1.2801935623168945,-0.15025,-0.0155,-0.5,0.30234022589526305,10,1,100,0.11556874351161406,-10,-1,-100,19293.31702084921,-0.029869425018826962,0.018113826367430655,0.9993896671185747,55.96592875564366,3.3855907233187454,237.34046818844638,-75.7785248919668,-83.83160400390625,4761.76025390625,True
1599387498.4282038,0.0,10,0.5,0.5,2.319224331665039,-0.15025,-0.0155,-0.5,0.30614071340851967,10,1,100,0.07701039066051554,-10,-1,-100,19290.274927879218,-0.027513508194258154,0.019129800717485088,0.9994383710821563,53.89670184581956,3.2605771028909527,229.7195036817881,-76.14359445839969,-89.39956665039062,4761.76025390625,True
1599387498.4641013,0.0,10,0.5,0.5,1.4418718036651612,-0.15025,-0.0155,-0.5,0.25450417772239314,10,1,100,0.18131671685869893,-10,-1,-100,19288.748404631042,-0.026335014249789124,0.01957366397649736,0.9994615243734991,52.73535261160727,3.1906057539528008,225.3345498377877,-76.32615683115034,-92.23758697509766,4761.76025390625,True
1599387498.4990113,0.0,10,0.5,0.5,3.7361141620635987,-0.15025,-0.0155,-0.5,0.30005569602650256,10,1,100,0.03217719166553712,-10,-1,-100,19285.68440479017,-0.023922787951526043,0.020381766644359787,0.9995060198943683,53.47941339334443,3.2366642590876147,229.65991316790107,-76.69125796000334,-97.85484313964844,4761.76025390625,True
1599387498.5358794,0.0,10,0.5,0.5,4.483940269088745,-0.15025,-0.0155,-0.5,0.2953701895875419,10,1,100,0.0032944401813421176,-10,-1,-100,19282.605803568615,-0.021482448946942605,0.021065431311575764,0.9995472735148145,55.06833374051998,3.334398691582255,237.6630864744738,-77.0562723202772,-103.23036193847656,4761.76025390625,True
1599387498.569788,0.0,10,0.5,0.5,6.758187038040161,-0.15025,-0.0155,-0.5,0.3144413706729188,10,1,100,-0.16436053238304024,-10,-1,-100,19277.9605316167,-0.017757205780434035,0.02185131889690966,0.9996035221553278,57.077512546724634,3.45904435937327,248.16699675874213,-77.60363710234968,-110.75462341308594,4761.76025390625,True
1599387498.6067152,0.0,10,0.5,0.5,4.6032142902374265,-0.15025,-0.0155,-0.5,0.25850738880132695,10,1,100,0.07183723744082643,-10,-1,-100,19276.404810529086,-0.016536358872534337,0.022049405028556804,0.9996201141299257,57.62665017834978,3.49338883903753,251.1708894654527,-77.78605334405499,-113.11599731445312,4761.76025390625,True
1599387498.6436136,0.0,10,0.5,0.5,7.81342872428894,-0.15025,-0.0155,-0.5,0.2892979709855166,10,1,100,-0.1989206894896038,-10,-1,-100,19271.715760403313,-0.012983835775657851,0.022501942211106234,0.9996624843442306,59.089553598671195,3.5852769120012735,259.44150649414473,-78.3331975170289,-119.75791931152344,4761.76025390625,True
1599387498.680515,0.0,10,0.5,0.5,4.567727656936645,-0.15025,-0.0155,-0.5,0.24477101430376122,10,1,100,0.15410893258095007,-10,-1,-100,19271.715760403313,-0.012983835775657851,0.022501942211106234,0.9996624843442306,59.089553598671195,3.5852769120012735,259.44150649414473,-78.3331975170289,-119.75791931152344,4761.76025390625,True
1599387498.7164197,0.0,10,0.5,0.5,9.727192809295655,-0.15025,-0.0155,-0.5,0.27363467619688864,10,1,100,-0.34806899562860316,-10,-1,-100,19265.412635986926,-0.008437883023730743,0.022758269622907463,0.9997053882488824,60.19899873739437,3.656336919537844,266.88359752350334,-79.06253884000536,-127.58243560791016,4761.76025390625,True
1599387498.7493305,0.0,10,0.5,0.5,7.043389688873291,-0.15025,-0.0155,-0.5,0.24645373200904405,10,1,100,-0.020606864352656573,-10,-1,-100,19263.827738849446,-0.007303629160558927,0.022738981432736335,0.9997147571805104,60.356718596680786,3.6667017108580424,268.22701361134745,-79.2448511409333,-129.3547821044922,4761.76025390625,True
1599387498.785235,0.0,10,0.5,0.5,6.2277773666381835,-0.15025,-0.0155,-0.5,0.24884506653268743,10,1,100,0.09056194237869825,-10,-1,-100,19263.827738849446,-0.007303629160558927,0.022738981432736335,0.9997147571805104,60.356718596680786,3.6667017108580424,268.22701361134745,-79.2448511409333,-129.3547821044922,4761.76025390625,True
1599387498.8231359,0.0,10,0.5,0.5,9.45850590133667,-0.15025,-0.0155,-0.5,0.24178927564184338,10,1,100,-0.2549830207915996,-10,-1,-100,19259.05117104156,-0.004180683930859582,0.022671556805805706,0.9997342258789941,60.60298475108232,3.683633005168124,271.2618482691709,-79.79175266168888,-134.2279815673828,4761.76025390625,True
1599387498.8591106,0.0,10,0.5,0.5,8.047532850265503,-0.15025,-0.0155,-0.5,0.24107034457241627,10,1,100,-0.05680386203389758,-10,-1,-100,19257.451690075686,-0.0031634118292201323,0.02260090968721097,0.9997395619394629,60.62458232622255,3.6854750353307373,272.0056375021557,-79.97404470459288,-135.70516967773438,4761.76025390625,True
1599387498.8950098,0.0,10,0.5,0.5,9.145108277511596,-0.15025,-0.0155,-0.5,0.22494375721767174,10,1,100,-0.17552916841918623,-10,-1,-100,19254.24179080804,-0.0011781702025201045,0.022388062291588216,0.9997486617054318,60.59636325467601,3.6846419990461614,273.1729196007601,-80.33862089728534,-138.43873596191406,4761.76025390625,True
1599387498.9279234,0.0,10,0.5,0.5,9.417475687026977,-0.15025,-0.0155,-0.5,0.2294796433778465,10,1,100,-0.17735458997272727,-10,-1,-100,19251.017308639595,0.0006247312188353642,0.022234597596132742,0.9997525855833744,60.494013454293466,3.679088703378024,274.0036840901,-80.7031904578052,-140.8756103515625,4761.76025390625,True
1599387498.9659758,0.0,10,0.5,0.5,10.263796979141235,-0.15025,-0.0155,-0.5,0.20059718359650597,10,1,100,-0.28619210242915605,-10,-1,-100,19246.15324298397,0.003236453590581262,0.02183216798525265,0.9997564112368672,60.26359458157581,3.665752937271046,274.8919462866777,-81.25003936628438,-143.97914123535156,4761.76025390625,True
1599387499.0013921,0.0,10,0.5,0.5,8.759869410324097,-0.15025,-0.0155,-0.5,0.24081842098018477,10,1,100,-0.02699714650087787,-10,-1,-100,19246.15324298397,0.003236453590581262,0.02183216798525265,0.9997564112368672,60.26359458157581,3.665752937271046,274.8919462866777,-81.25003936628438,-143.97914123535156,4761.76025390625,True
1599387499.036299,0.0,10,0.5,0.5,9.902418594741821,-0.15025,-0.0155,-0.5,0.21223161588833178,10,1,100,-0.20290702566385965,-10,-1,-100,19242.89230422862,0.004820888592639061,0.021572896824622944,0.9997556547255793,60.08628286115907,3.6552489105234596,275.36808953051275,-81.6146041178925,-145.67849731445312,4761.76025390625,True
1599387499.0692108,0.0,10,0.5,0.5,10.005337186050415,-0.15025,-0.0155,-0.5,0.21386611748524448,10,1,100,-0.20699034344279243,-10,-1,-100,19239.616782769444,0.006282219006710724,0.021352899461646493,0.9997522630176602,59.911838596814796,3.6448170995947087,275.85050334374046,-81.97916826188538,-147.08168029785156,4761.76025390625,True
1599387499.1061127,0.0,10,0.5,0.5,10.343347312164306,-0.15025,-0.0155,-0.5,0.1889549118260796,10,1,100,-0.2852757314089034,-10,-1,-100,19234.676158597693,0.008309004635531025,0.02092771396218573,0.999746463474757,59.684413169220875,3.6311189593272264,276.7200851162784,-82.52601181948204,-148.63397216796875,4761.76025390625,True
1599387499.1410196,0.0,10,0.5,0.5,9.597084121704102,-0.15025,-0.0155,-0.5,0.23129233502510077,10,1,100,-0.08415843190648226,-10,-1,-100,19234.676158597693,0.008309004635531025,0.02092771396218573,0.999746463474757,59.684413169220875,3.6311189593272264,276.7200851162784,-82.52601181948204,-148.63397216796875,4761.76025390625,True
1599387499.1769605,0.0,10,0.5,0.5,10.299075093078613,-0.15025,-0.0155,-0.5,0.18518899272096612,10,1,100,-0.3361514930024653,-10,-1,-100,19228.037621613475,0.010585657342043517,0.02051023927530319,0.9997336014876695,59.48990327917114,3.6193272213392476,278.3676427370032,-83.25512387672553,-149.66758728027344,4761.76025390625,True
1599387499.21183,0.0,10,0.5,0.5,9.80619892578125,-0.15025,-0.0155,-0.5,0.22672032965617,10,1,100,-0.10996285647850647,-10,-1,-100,19228.037621613475,0.010585657342043517,0.02051023927530319,0.9997336014876695,59.48990327917114,3.6193272213392476,278.3676427370032,-83.25512387672553,-149.66758728027344,4761.76025390625,True
1599387499.2487314,0.0,10,0.5,0.5,9.876151025390625,-0.15025,-0.0155,-0.5,0.21223449202468403,10,1,100,-0.1677255603097912,-10,-1,-100,19226.36887340981,0.011098273677626775,0.02038045045175505,0.9997306965181973,59.46742418733789,3.6179590212212114,278.89990448758965,-83.43739796583625,-149.74188232421875,4761.76025390625,True
1599387499.2843952,0.0,10,0.5,0.5,9.808242794036865,-0.15025,-0.0155,-0.5,0.2063654880149619,10,1,100,-0.2184947056417115,-10,-1,-100,19223.020441184985,0.012014665809465242,0.020210931131931845,0.9997235448204004,59.453991866200404,3.617140368804464,280.1118843874086,-83.80193937007267,-149.66763305664062,4761.76025390625,True
1599387499.3222904,0.0,10,0.5,0.5,9.619179656219481,-0.15025,-0.0155,-0.5,0.20084571837915594,10,1,100,-0.21886764246837853,-10,-1,-100,19219.65742747474,0.012840785414478431,0.02000848263218906,0.9997173474801248,59.484743258102895,3.6190201045255685,281.53286416730987,-84.16647004373313,-149.298828125,4761.76025390625,True
1599387499.357214,0.0,10,0.5,0.5,8.755528579711914,-0.15025,-0.0155,-0.5,0.1894007870889681,10,1,100,-0.28033836270464607,-10,-1,-100,19212.88765812572,0.01414189675588931,0.019722051607378513,0.9997054803473578,59.6651208594482,3.6300979991541933,284.94772055361403,-84.8954900515492,-147.67437744140625,4761.76025390625,True
1599387499.3891473,0.0,10,0.5,0.5,9.189459381866456,-0.15025,-0.0155,-0.5,0.21117120170650483,10,1,100,-0.17964672961309752,-10,-1,-100,19211.186103254324,0.014399432726189388,0.019661490914417327,0.9997029969506874,59.73217847081889,3.634232707257869,285.9092113063182,-85.07773505234336,-147.08380126953125,4761.76025390625,True
1599387499.424053,0.0,10,0.5,0.5,9.486925688934326,-0.15025,-0.0155,-0.5,0.21703613041160288,10,1,100,-0.15485098699644476,-10,-1,-100,19211.186103254324,0.014399432726189388,0.019661490914417327,0.9997029969506874,59.73217847081889,3.634232707257869,285.9092113063182,-85.07773505234336,-147.08380126953125,4761.76025390625,True
1599387499.4599578,0.0,10,0.5,0.5,7.471110319519042,-0.15025,-0.0155,-0.5,0.19627370675068923,10,1,100,-0.23777442527054618,-10,-1,-100,19204.343437099247,0.01514590287984533,0.019474279252542866,0.9996956307164437,60.059356108968586,3.65454496617105,290.0551162457077,-85.80667007678832,-143.98373413085938,4761.76025390625,True
1599387499.495445,0.0,10,0.5,0.5,7.7185160980224605,-0.15025,-0.0155,-0.5,0.2059398936759999,10,1,100,-0.1870373468786337,-10,-1,-100,19200.90023667272,0.01535705058120215,0.01939328256353222,0.9996939839715238,60.237443386594656,3.66573511336459,292.20946535919063,-86.17110954963634,-141.99154663085938,4761.76025390625,True
1599387499.5283628,0.0,10,0.5,0.5,7.984570207214356,-0.15025,-0.0155,-0.5,0.21177555451705501,10,1,100,-0.17279521205005322,-10,-1,-100,19199.17317017261,0.015413121769497917,0.019374095609712726,0.9996934930750645,60.32370272027939,3.6712094807003535,293.27611766529344,-86.35332237816606,-140.88467407226562,4761.76025390625,True
1599387499.564229,0.0,10,0.5,0.5,8.524392971038818,-0.15025,-0.0155,-0.5,0.21358063553244527,10,1,100,-0.1676708396632219,-10,-1,-100,19199.17317017261,0.015413121769497917,0.019374095609712726,0.9996934930750645,60.32370272027939,3.6712094807003535,293.27611766529344,-86.35332237816606,-140.88467407226562,4761.76025390625,True
1599387499.6021276,0.0,10,0.5,0.5,6.927839018249511,-0.15025,-0.0155,-0.5,0.20775092521183813,10,1,100,-0.17214906648533873,-10,-1,-100,19195.70810459787,0.015449444318401293,0.01932213110103956,0.9996939381230473,60.48160246374774,3.6813822785042243,295.3439239060915,-86.71773513499481,-138.4503173828125,4761.76025390625,True
1599387499.641061,0.0,10,0.5,0.5,5.394413562011718,-0.15025,-0.0155,-0.5,0.20268808586422024,10,1,100,-0.15308369916339665,-10,-1,-100,19190.483176327776,0.015305187686622366,0.01922982693485899,0.9996979368718998,60.645305753471185,3.6925215988633253,298.09982890523787,-87.26432674153266,-134.24716186523438,4761.76025390625,True
1599387499.6779554,0.0,10,0.5,0.5,4.308728910827637,-0.15025,-0.0155,-0.5,0.19993999909864318,10,1,100,-0.12514066734515245,-10,-1,-100,19185.225453290856,0.014917026348587343,0.019121823362459656,0.9997058758435956,60.65588211153145,3.6947961703824173,300.1103340193017,-87.81089789021365,-129.38232421875,4761.76025390625,True
1599387499.7158566,0.0,10,0.5,0.5,4.362655971527099,-0.15025,-0.0155,-0.5,0.19961984241113379,10,1,100,-0.12221597249160668,-10,-1,-100,19181.70208579162,0.014535676778128625,0.019021533835182656,0.9997134066076931,60.537588036974654,3.6889459200545582,300.82943843854076,-88.17527701188521,-125.77198791503906,4761.76025390625,True
1599387499.7487712,0.0,10,0.5,0.5,4.888527009963989,-0.15025,-0.0155,-0.5,0.20262684405836345,10,1,100,-0.13583167687114084,-10,-1,-100,19179.93493641063,0.01431241649932352,0.01895833475060765,0.9997178283282908,60.430854654566666,3.6831982963184293,300.95056678631414,-88.35746907323892,-123.85680389404297,4761.76025390625,True
1599387499.784676,0.0,10,0.5,0.5,5.8101171745300295,-0.15025,-0.0155,-0.5,0.20887643689948315,10,1,100,-0.15814900312896477,-10,-1,-100,19179.93493641063,0.01431241649932352,0.01895833475060765,0.9997178283282908,60.430854654566666,3.6831982963184293,300.95056678631414,-88.35746907323892,-123.85680389404297,4761.76025390625,True
1599387499.8215408,0.0,10,0.5,0.5,0.315993069458008,-0.15025,-0.0155,-0.5,0.17126370085132592,10,1,100,-0.03425827717271368,-10,-1,-100,19172.829898409895,0.013186216278109297,0.018617040019409684,0.9997397308905867,59.602453929489876,3.636137085999977,299.3992903191362,-89.08628118147743,-115.46292114257812,4761.76025390625,True
1599387499.857478,0.0,10,0.5,0.5,1.4539091804504394,-0.15025,-0.0155,-0.5,0.17889505623245144,10,1,100,-0.06967812475235838,-10,-1,-100,19169.255513627897,0.012486178042821988,0.018376927348360977,0.9997531614849318,58.89736110980107,3.5949828713159704,297.13204137068243,-89.4507325519344,-110.82652282714844,4761.76025390625,True
1599387499.893376,0.0,10,0.5,0.5,3.723802551269531,-0.15025,-0.0155,-0.5,0.202804687815805,10,1,100,-0.13939486102725127,-10,-1,-100,19169.255513627897,0.012486178042821988,0.018376927348360977,0.9997531614849318,58.89736110980107,3.5949828713159704,297.13204137068243,-89.4507325519344,-110.82652282714844,4761.76025390625,True
1599387499.9272864,0.0,10,0.5,0.5,0.5390636093139647,-0.15025,-0.0155,-0.5,0.16994103064569804,10,1,100,-0.059787813655618416,-10,-1,-100,19165.666549273534,0.011765138470104122,0.01807907334523396,0.9997673372458998,58.066422936229316,3.5460932815097026,294.1987116824989,-89.81522705501804,-106.00045776367188,4761.76025390625,True
1599387499.9631643,0.0,10,0.5,0.5,1.282426814651489,-0.15025,-0.0155,-0.5,0.1809606181904963,10,1,100,-0.08779566877917225,-10,-1,-100,19163.866599327303,0.011367581162665091,0.017909652340311638,0.9997749859101094,57.611995845556294,3.5192129259207916,292.5214982414173,-89.99749150164727,-103.51587677001953,4761.76025390625,True
1599387500.0000663,0.0,10,0.5,0.5,-0.892616425704956,-0.15025,-0.0155,-0.5,0.15459673897570292,10,1,100,-0.03428383817620696,-10,-1,-100,19160.255762540735,0.010523405026016957,0.017517245687302976,0.9997911802222448,56.5618782097536,3.4566300725255616,288.41860546167203,-90.36205989443911,-98.34373474121094,4761.76025390625,True
1599387500.0350065,0.0,10,0.5,0.5,-1.8669138401031495,-0.15025,-0.0155,-0.5,0.14372471329657827,10,1,100,-0.023681853377105697,-10,-1,-100,19156.63034155767,0.009663937569672829,0.01706323266134629,0.9998077087129276,55.395092791048576,3.386555092696003,283.67430808778084,-90.72668256578503,-92.95393371582031,4761.76025390625,True
1599387500.0699062,0.0,10,0.5,0.5,-4.729001376724243,-0.15025,-0.0155,-0.5,0.098960210256404,10,1,100,0.041749715028406825,-10,-1,-100,19151.16486085765,0.008292546613654339,0.016245414965294188,0.9998336462448469,55.8658392034713,3.4163720696036424,287.91046958709876,-91.27365441348469,-84.49484252929688,4761.76025390625,True
1599387500.1057808,0.0,10,0.5,0.5,-2.376983561325073,-0.15025,-0.0155,-0.5,0.1469947928237906,10,1,100,-0.04375694269112886,-10,-1,-100,19149.335742019117,0.007828836387601013,0.015941146100286598,0.9998422821534532,56.9301372612806,3.4815842690294687,294.0157861382487,-91.4559350474104,-81.70584106445312,4761.76025390625,True
1599387500.1417174,0.0,10,0.5,0.5,-6.228087580871582,-0.15025,-0.0155,-0.5,0.06890702293599274,10,1,100,0.06285031893220062,-10,-1,-100,19143.826516887522,0.006444018876532923,0.01495739212280001,0.999867366725009,59.70854578031553,3.6514236097535377,310.3165668885213,-92.00262957284056,-73.7392578125,4761.76025390625,True
1599387500.1786115,0.0,10,0.5,0.5,-5.538227136611939,-0.15025,-0.0155,-0.5,0.08404027628028167,10,1,100,0.028904476461587475,-10,-1,-100,19140.135480633704,0.0055008455231336795,0.01420428257605829,0.9998839827975194,61.211902947847115,3.7430906957751877,319.4632005942488,-92.3669804928352,-68.79385375976562,4761.76025390625,True
1599387500.215487,0.0,10,0.5,0.5,-6.160766621780395,-0.15025,-0.0155,-0.5,0.0766243938425673,10,1,100,0.03371946416734625,-10,-1,-100,19136.429872871493,0.004606629287041084,0.013456232018171461,0.9998988492775082,62.460869939528685,3.819169538145834,327.34169183749145,-92.73125385603527,-64.14501953125,4761.76025390625,True
1599387500.2527962,0.0,10,0.5,0.5,-5.347459370040893,-0.15025,-0.0155,-0.5,0.10690137288566691,10,1,100,-0.0053602044731495685,-10,-1,-100,19134.571605462348,0.004156138377103032,0.013055904679875422,0.9999061305276513,62.99808100841635,3.8518950075956644,330.84288480573633,-92.91336486961772,-61.932403564453125,4761.76025390625,True
1599387500.2896984,0.0,10,0.5,0.5,-7.049364448928833,-0.15025,-0.0155,-0.5,0.05631280105119599,10,1,100,0.04742506711480486,-10,-1,-100,19130.844145293813,0.0032743078442376895,0.012236911921718819,0.9999197652285713,63.91571414854134,3.9078605170315615,337.05342714010374,-93.27754266906273,-57.73028564453125,4761.76025390625,True
1599387500.3305888,0.0,10,0.5,0.5,-7.561992518997192,-0.15025,-0.0155,-0.5,0.042760087342188266,10,1,100,0.055183005131106896,-10,-1,-100,19127.102119303774,0.0024098359511445107,0.011374477618243214,0.9999324046902374,64.64810056936118,3.9526890640531978,342.32308291980127,-93.64167056788443,-53.825836181640625,4761.76025390625,True
1599387500.3714812,0.0,10,0.5,0.5,-5.686787350463867,-0.15025,-0.0155,-0.5,0.12835000021754187,10,1,100,-0.030368409657058913,-10,-1,-100,19127.102119303774,0.0024098359511445107,0.011374477618243214,0.9999324046902374,64.64810056936118,3.9526890640531978,342.32308291980127,-93.64167056788443,-53.825836181640625,4761.76025390625,True
1599387500.411375,0.0,10,0.5,0.5,-8.101655075836181,-0.15025,-0.0155,-0.5,0.03367475147553042,10,1,100,0.06256855489149153,-10,-1,-100,19123.34552967432,0.0015723304271348453,0.01051937787337862,0.9999434336332155,65.22407700237585,3.988184705713435,346.79337624697536,-94.0057581592541,-50.21820068359375,4761.76025390625,True
1599387500.4556415,0.0,10,0.5,0.5,-9.520294532775878,-0.15025,-0.0155,-0.5,-0.029348982722734354,10,1,100,0.11413178722438062,-10,-1,-100,19117.683340654825,0.00034956111786573786,0.009175020389688369,0.9999578475155209,65.85470866249831,4.0276231562084615,352.2989455681949,-94.55183257553384,-45.364349365234375,4761.76025390625,True
1599387500.4935408,0.0,10,0.5,0.5,-8.109413174438476,-0.15025,-0.0155,-0.5,0.052720979668858754,10,1,100,0.036204351086922056,-10,-1,-100,19115.788663611864,-4.639521158765609e-05,0.008705395421325902,0.9999621062510531,66.01562058846463,4.037875606655461,353.8795107545584,-94.73384564568047,-43.89508056640625,4761.76025390625,True
1599387500.8467298,0.0,10,0.5,0.5,-9.199942933654786,-0.15025,-0.0155,-0.5,0.0011185438826222666,10,1,100,0.08319481775084792,-10,-1,-100,19111.988389120786,-0.0008263822702180778,0.00781592853446602,0.9999691136997622,66.2818528277083,4.055147252258114,356.75282812414287,-95.0978580752702,-41.1783447265625,4761.76025390625,True
1599387500.8806388,0.0,10,0.5,0.5,-9.465916133117675,-0.15025,-0.0155,-0.5,-0.0070671395429605655,10,1,100,0.09047739578677613,-10,-1,-100,19108.173554557725,-0.0015950572137116714,0.006939399209441132,0.9999746499442359,66.4925125154478,4.069219294387963,359.338735113439,-95.46185559608479,-38.7579345703125,4761.76025390625,True
1599387500.91458,0.0,10,0.5,0.5,-10.871377333068848,-0.15025,-0.0155,-0.5,-0.11584544215721472,10,1,100,0.17756551428732048,-10,-1,-100,19100.500207688892,-0.003079111964404573,0.005160265147804029,0.9999819452035698,66.82439547452886,4.092373667781187,364.05517717300626,-96.18981504102086,-34.806976318359375,4761.76025390625,True
1599387500.96972,0.0,10,0.5,0.5,-8.941372174072265,-0.15025,-0.0155,-0.5,0.06123836731945877,10,1,100,0.029928613343174894,-10,-1,-100,19100.500207688892,-0.003079111964404573,0.005160265147804029,0.9999819452035698,66.82439547452886,4.092373667781187,364.05517717300626,-96.18981504102086,-34.806976318359375,4761.76025390625,True
1599387501.0155969,0.0,10,0.5,0.5,-9.505454145812987,-0.15025,-0.0155,-0.5,0.01362005955557185,10,1,100,0.07078010186377676,-10,-1,-100,19098.572771708947,-0.0034439116324632194,0.004734549294979668,0.9999828616109585,66.90093149614567,4.097847428063512,365.20461899082255,-96.37179823656658,-34.004150390625,4761.76025390625,True
1599387501.0524974,0.0,10,0.5,0.5,-10.04086365814209,-0.15025,-0.0155,-0.5,-0.03322814452049498,10,1,100,0.1155971505942027,-10,-1,-100,19094.706980587333,-0.004176867937814315,0.003928462448653949,0.9999835603433785,67.05848728876857,4.1091405098274745,367.53420889341766,-96.73575650383549,-32.6199951171875,4761.76025390625,True
1599387501.0894325,0.0,10,0.5,0.5,-10.603909965515136,-0.15025,-0.0155,-0.5,-0.1326908283449148,10,1,100,0.19845127230961304,-10,-1,-100,19086.931725577335,-0.005590423227465442,0.002298219112835469,0.9999817325116732,67.42890467672005,4.135320470640618,372.52396429131,-97.46363656417459,-30.740325927734375,4761.76025390625,True
1599387501.1262999,0.0,10,0.5,0.5,-10.023018350219727,-0.15025,-0.0155,-0.5,-0.052150614390677544,10,1,100,0.13574845755002304,-10,-1,-100,19083.02226237126,-0.006298174939171458,0.001556614623953015,0.9999789547502228,67.65727320687076,4.151118649443389,375.27246274359743,-97.82755452955777,-30.24334716796875,4761.76025390625,True
1599387501.1622047,0.0,10,0.5,0.5,-9.805489993286132,-0.15025,-0.0155,-0.5,0.021113558172625307,10,1,100,0.06576033691605211,-10,-1,-100,19083.02226237126,-0.006298174939171458,0.001556614623953015,0.9999789547502228,67.65727320687076,4.151118649443389,375.27246274359743,-97.82755452955777,-30.24334716796875,4761.76025390625,True
1599387501.1991053,0.0,10,0.5,0.5,-9.954143534851074,-0.15025,-0.0155,-0.5,-0.08911061356563967,10,1,100,0.18478712842345896,-10,-1,-100,19077.130774892517,-0.0073741932837323955,0.0005615025224830927,0.9999726526202263,68.06699593968571,4.178966648879216,379.79114360179636,-98.37339751804203,-30.05078125,4761.76025390625,True
1599387501.2360072,0.0,10,0.5,0.5,-9.825085437011719,-0.15025,-0.0155,-0.5,-0.025160855031560053,10,1,100,0.11705365862188805,-10,-1,-100,19075.159667984582,-0.007729971327798835,0.00024562013772828976,0.9999700931598,68.22222217464919,4.189395042415136,381.4082359813617,-98.55533483985128,-30.134185791015625,4761.76025390625,True
1599387501.2679212,0.0,10,0.5,0.5,-9.631331019592286,-0.15025,-0.0155,-0.5,-0.06274372597757405,10,1,100,0.1599149256761948,-10,-1,-100,19071.20653857116,-0.008436777805573314,-0.00037632603119735125,0.9999643389436333,68.55967002680005,4.211899332346083,384.80499343082903,-98.9191920227527,-30.522613525390625,4761.76025390625,True
1599387501.3028278,0.0,10,0.5,0.5,-9.100845011901855,-0.15025,-0.0155,-0.5,-0.0849406442636512,10,1,100,0.20870620129863876,-10,-1,-100,19065.249556979863,-0.009516666454125184,-0.001136871146238964,0.9999540692369814,69.12611195643295,4.249295140921059,390.2701122462904,-99.46492952048892,-31.65673828125,4761.76025390625,True
1599387501.3377352,0.0,10,0.5,0.5,-9.67279025878906,-0.15025,-0.0155,-0.5,-0.009515846388894219,10,1,100,0.10136109189242386,-10,-1,-100,19065.249556979863,-0.009516666454125184,-0.001136871146238964,0.9999540692369814,69.12611195643295,4.249295140921059,390.2701122462904,-99.46492952048892,-31.65673828125,4761.76025390625,True
1599387501.3696492,0.0,10,0.5,0.5,-8.509334535217286,-0.15025,-0.0155,-0.5,-0.07992397703593515,10,1,100,0.2200535337054238,-10,-1,-100,19059.25983367022,-0.0105898363301618,-0.0017712203918538426,0.999942357411078,69.74442998599959,4.289734362180814,396.06925514878657,-100.01060301173374,-33.4534912109375,4761.76025390625,True
1599387501.4045563,0.0,10,0.5,0.5,-9.40856452178955,-0.15025,-0.0155,-0.5,-0.017139629443130654,10,1,100,0.11345113857153194,-10,-1,-100,19059.25983367022,-0.0105898363301618,-0.0017712203918538426,0.999942357411078,69.74442998599959,4.289734362180814,396.06925514878657,-100.01060301173374,-33.4534912109375,4761.76025390625,True
1599387501.439464,0.0,10,0.5,0.5,-8.389034443664551,-0.15025,-0.0155,-0.5,-0.0574115903202879,10,1,100,0.192174059122992,-10,-1,-100,19055.24849682965,-0.011299669273000213,-0.0021321475972457195,0.9999338835247781,70.16839034243613,4.3172868647363,400.02605283143095,-100.37434772661297,-35.0194091796875,4761.76025390625,True
1599387501.4748769,0.0,10,0.5,0.5,-7.956302255249023,-0.15025,-0.0155,-0.5,-0.049679404667296284,10,1,100,0.19875146019619805,-10,-1,-100,19051.222611183533,-0.011999576279841065,-0.00238594303556561,0.9999251559216497,70.58619478337596,4.344315500107003,403.9670956503663,-100.73806213593843,-36.8787841796875,4761.76025390625,True
1599387501.5087872,0.0,10,0.5,0.5,-7.474912973022461,-0.15025,-0.0155,-0.5,-0.05177530069698503,10,1,100,0.2060047053129754,-10,-1,-100,19047.182177967974,-0.012696610876811934,-0.0026321356182540277,0.9999159304333192,70.98096448546433,4.369739726347282,407.7950293014614,-101.10174705295809,-39.03302001953125,4761.76025390625,True
1599387501.5446904,0.0,10,0.5,0.5,-7.766592218017578,-0.15025,-0.0155,-0.5,-0.035853742107155945,10,1,100,0.17426131320536398,-10,-1,-100,19045.156506314874,-0.013035885640409311,-0.0027073976605703183,0.999911363913561,71.16429715849044,4.381502741071528,409.63496108750167,-101.28357917129051,-40.219970703125,4761.76025390625,True
1599387501.5795972,0.0,10,0.5,0.5,-6.657282809448242,-0.15025,-0.0155,-0.5,-0.041196337511318445,10,1,100,0.21408825710162854,-10,-1,-100,19041.094253596617,-0.013701233376957807,-0.002821415020729284,0.9999021531236099,71.4887359993583,4.4022317475348425,413.0836764893162,-101.64722458972997,-42.81439208984375,4761.76025390625,True
1599387501.6155005,0.0,10,0.5,0.5,-5.046140071105956,-0.15025,-0.0155,-0.5,-0.03694673443437424,10,1,100,0.2533927107340663,-10,-1,-100,19034.97360234789,-0.014657979750433911,-0.0028836461973029805,0.9998884078807219,71.82340529697471,4.4233966954754305,417.40248900358324,-102.19265569110394,-47.2568359375,4761.76025390625,True
1599387501.6484132,0.0,10,0.5,0.5,-5.077072540283202,-0.15025,-0.0155,-0.5,-0.026744892248240813,10,1,100,0.22426481491591738,-10,-1,-100,19030.87498774554,-0.015257294489842779,-0.002845196592345032,0.9998795526568193,71.9063507430237,4.428450985047701,419.4781732103525,-102.55626176862609,-50.5853271484375,4761.76025390625,True
1599387501.6883063,0.0,10,0.5,0.5,-6.711978833007812,-0.15025,-0.0155,-0.5,-0.03076068528864628,10,1,100,0.16490740377860238,-10,-1,-100,19030.87498774554,-0.015257294489842779,-0.002845196592345032,0.9998795526568193,71.9063507430237,4.428450985047701,419.4781732103525,-102.55626176862609,-50.5853271484375,4761.76025390625,True
1599387501.7252069,0.0,10,0.5,0.5,-1.781713525390625,-0.15025,-0.0155,-0.5,-0.0018880055016846573,10,1,100,0.28238348686826603,-10,-1,-100,19022.634125569835,-0.01632004012880725,-0.0025811646620580117,0.999863487621776,71.5983607725751,4.408352080044154,420.8612176219793,-103.2834823555924,-58.122314453125,4761.76025390625,True
1599387501.765101,0.0,10,0.5,0.5,-2.775356228637695,-0.15025,-0.0155,-0.5,-0.00620149254139999,10,1,100,0.22963046218925842,-10,-1,-100,19018.49187701184,-0.016801390300057933,-0.0023796128400943107,0.9998560149975178,71.1416539103081,4.379238371360101,419.760367568662,-103.6471215562937,-62.33087158203125,4761.76025390625,True
1599387501.8020024,0.0,10,0.5,0.5,-1.9077378067016602,-0.15025,-0.0155,-0.5,0.0022771098093435638,10,1,100,0.22322848344605295,-10,-1,-100,19014.335081717814,-0.017175134690829506,-0.002118752623803968,0.9998502516055446,70.43935251510077,4.334851488142126,417.1878753386159,-104.0107989656902,-66.83242797851562,4761.76025390625,True
1599387501.840899,0.0,10,0.5,0.5,-0.9913475646972651,-0.15025,-0.0155,-0.5,0.007862406412592234,10,1,100,0.22399270273732794,-10,-1,-100,19010.16373783932,-0.017516508434708138,-0.0018308437262136155,0.9998448979434296,69.4540731227588,4.273049378383178,412.9053248718043,-104.37453056960273,-71.62728881835938,4761.76025390625,True
1599387501.879794,0.0,10,0.5,0.5,-3.334917802429199,-0.15025,-0.0155,-0.5,-0.02087297341550781,10,1,100,0.19040702156495154,-10,-1,-100,19010.16373783932,-0.017516508434708138,-0.0018308437262136155,0.9998448979434296,69.4540731227588,4.273049378383178,412.9053248718043,-104.37453056960273,-71.62728881835938,4761.76025390625,True
1599387501.9316554,0.0,10,0.5,0.5,0.02410341339111355,-0.15025,-0.0155,-0.5,0.014034224914528728,10,1,100,0.2200551347005194,-10,-1,-100,19005.977842650143,-0.01778165501088794,-0.0015142340067515019,0.9998407472395024,68.15457200592286,4.1921093673291026,406.70729327446685,-104.73833233981571,-76.71533203125,4761.76025390625,True
1599387501.9675593,0.0,10,0.5,0.5,2.8551540649414062,-0.15025,-0.0155,-0.5,0.03890426824884495,10,1,100,0.2237778765906125,-10,-1,-100,18999.671708531212,-0.01805222612516999,-0.0010014003802501772,0.9998365438056384,65.55285678601294,4.03141164283828,393.3917095417332,-105.28419904511985,-84.89450073242188,4761.76025390625,True
1599387502.0034626,0.0,10,0.5,0.5,0.6986155761718751,-0.15025,-0.0155,-0.5,0.0075187128565571745,10,1,100,0.2037087187030232,-10,-1,-100,18997.562384320656,-0.018111797527586303,-0.000822165782124752,0.9998356299081097,64.49981835619494,3.9667499019898673,387.7984008339557,-105.4662052101953,-87.7669677734375,4761.76025390625,True
1599387502.0393684,0.0,10,0.5,0.5,4.969595970153809,-0.15025,-0.0155,-0.5,0.04596240260872085,10,1,100,0.20459366299835913,-10,-1,-100,18991.212572910823,-0.01817085846176132,-0.0003116112228230396,0.9998348477629736,66.44014931131953,4.087603179100901,401.7102230848854,-106.01214315013337,-96.44735717773438,4761.76025390625,True
1599387502.0768428,0.0,10,0.5,0.5,0.7004874145507811,-0.15025,-0.0155,-0.5,-0.0048396947844981985,10,1,100,0.19897892597804914,-10,-1,-100,18991.212572910823,-0.01817085846176132,-0.0003116112228230396,0.9998348477629736,66.44014931131953,4.087603179100901,401.7102230848854,-106.01214315013337,-96.44735717773438,4761.76025390625,True
1599387502.1157386,0.0,10,0.5,0.5,4.4089392646789545,-0.15025,-0.0155,-0.5,0.03264035265124828,10,1,100,0.19557079904120175,-10,-1,-100,18986.961172465933,-0.018137226795088238,2.6813221711453896e-05,0.9998355066135803,68.34963582324067,4.206946409727523,414.79547902392727,-106.37595195597984,-102.04115295410156,4761.76025390625,True
1599387502.1536376,0.0,10,0.5,0.5,8.471366423034668,-0.15025,-0.0155,-0.5,0.06379684993919726,10,1,100,0.1710172771499167,-10,-1,-100,18978.41472957458,-0.017881786729404405,0.0006153418031025574,0.9998399187159059,71.61590537553909,4.412817434297583,437.84089802835564,-107.10322778415393,-112.48521423339844,4761.76025390625,True
1599387502.1905382,0.0,10,0.5,0.5,6.474957331085204,-0.15025,-0.0155,-0.5,0.03131894289661795,10,1,100,0.17400242434379237,-10,-1,-100,18974.119695285684,-0.01767572401106402,0.0008523913997590241,0.999843408844398,72.90304110702354,4.494567838564607,447.3482011046597,-107.46671422350504,-117.32624816894531,4761.76025390625,True
1599387502.2284367,0.0,10,0.5,0.5,4.132705784606934,-0.15025,-0.0155,-0.5,0.00791109763332757,10,1,100,0.19465875510985417,-10,-1,-100,18974.119695285684,-0.01767572401106402,0.0008523913997590241,0.999843408844398,72.90304110702354,4.494567838564607,447.3482011046597,-107.46671422350504,-117.32624816894531,4761.76025390625,True
1599387502.262346,0.0,10,0.5,0.5,8.57010444869995,-0.15025,-0.0155,-0.5,0.038825940629565764,10,1,100,0.15285385829273357,-10,-1,-100,18967.649888086948,-0.017295534753111692,0.001130996122337578,0.9998497813798707,74.27817881472518,4.582530906768747,458.2874058797501,-108.0118012211236,-124.04145812988281,4761.76025390625,True
1599387502.3012424,0.0,10,0.5,0.5,7.964503206634522,-0.15025,-0.0155,-0.5,0.02553737911631885,10,1,100,0.15651652286313023,-10,-1,-100,18963.318516148138,-0.01698340599077827,0.001260775456517154,0.9998549766672169,74.8757225229482,4.621019410092256,463.65420552791556,-108.37512307920814,-128.14874267578125,4761.76025390625,True
1599387502.3431304,0.0,10,0.5,0.5,7.253775896453857,-0.15025,-0.0155,-0.5,0.01788655573702333,10,1,100,0.17026645706278132,-10,-1,-100,18961.14738046436,-0.016825377653217538,0.0013066809937202013,0.9998575894854264,75.09193887494447,4.635004235187043,465.8355338658828,-108.55676909361033,-130.09136962890625,4761.76025390625,True
1599387502.3845332,0.0,10,0.5,0.5,9.853505001068115,-0.15025,-0.0155,-0.5,0.020571952719721162,10,1,100,0.12806346311239103,-10,-1,-100,18954.61217803415,-0.01629916726358783,0.0013707277443166153,0.9998662201774617,75.46681111284597,4.659381102773081,470.70196590839754,-109.10166758071101,-135.47543334960938,4761.76025390625,True
1599387502.421435,0.0,10,0.5,0.5,7.235421262359619,-0.15025,-0.0155,-0.5,0.014386567012723906,10,1,100,0.18050323904896215,-10,-1,-100,18954.61217803415,-0.01629916726358783,0.0013707277443166153,0.9998662201774617,75.46681111284597,4.659381102773081,470.70196590839754,-109.10166758071101,-135.47543334960938,4761.76025390625,True
1599387502.4603307,0.0,10,0.5,0.5,9.38949236755371,-0.15025,-0.0155,-0.5,0.01196080335279918,10,1,100,0.13775578501746716,-10,-1,-100,18950.23721379449,-0.015912255582572577,0.0013471459483471726,0.9998724845299368,75.53170333459336,4.663674130935917,472.80352851729964,-109.46491412585196,-138.69508361816406,4761.76025390625,True
1599387502.4982295,0.0,10,0.5,0.5,11.455628218078612,-0.15025,-0.0155,-0.5,-0.0069763289985471984,10,1,100,0.08604821812283836,-10,-1,-100,18941.44369626022,-0.015092502176134077,0.001152044242298012,0.9998854380238406,75.36037195505592,4.652611210945815,475.12205855019374,-110.19139696891745,-144.24752807617188,4761.76025390625,True
1599387502.536128,0.0,10,0.5,0.5,10.261844356536866,-0.15025,-0.0155,-0.5,-0.0056635654991162125,10,1,100,0.12055715230161995,-10,-1,-100,18937.02514254651,-0.014663757321559777,0.0009855903313203418,0.9998919955839796,75.1801053491263,4.640835321377348,475.67993262137753,-110.5546431798661,-146.58050537109375,4761.76025390625,True
1599387502.5770233,0.0,10,0.5,0.5,10.473032221984862,-0.15025,-0.0155,-0.5,-0.01070373950599669,10,1,100,0.11482995347509603,-10,-1,-100,18932.592059158138,-0.014224849309349145,0.0007881122407978938,0.9998985111206148,74.9705543223421,4.62706284774934,476.04580127431933,-110.9178959643421,-148.617919921875,4761.76025390625,True
1599387502.6129267,0.0,10,0.5,0.5,9.502827037811278,-0.15025,-0.0155,-0.5,0.009037641630351999,10,1,100,0.15837566722598773,-10,-1,-100,18932.592059158138,-0.014224849309349145,0.0007881122407978938,0.9998985111206148,74.9705543223421,4.62706284774934,476.04580127431933,-110.9178959643421,-148.617919921875,4761.76025390625,True
1599387502.6448417,0.0,10,0.5,0.5,10.684355225372315,-0.15025,-0.0155,-0.5,-0.019116789723510982,10,1,100,0.10786545721333891,-10,-1,-100,18928.144445218495,-0.01376880274078117,0.0005322213004527404,0.9999050638993547,74.75379277715534,4.612708584717679,476.3583061813692,-111.28115572985,-150.36036682128906,4761.76025390625,True
1599387502.682745,0.0,10,0.5,0.5,10.348430017089845,-0.15025,-0.0155,-0.5,-0.008899122241334477,10,1,100,0.12780582006250268,-10,-1,-100,18925.915189505205,-0.013538697097086617,0.00039302539981501,0.9999082703988142,74.64811227967796,4.605660360154465,476.52886422468947,-111.46278795852209,-151.120849609375,4761.76025390625,True
1599387502.7196455,0.0,10,0.5,0.5,10.849013230895995,-0.15025,-0.0155,-0.5,-0.02999708408392572,10,1,100,0.09911077066095048,-10,-1,-100,18921.44577964698,-0.013071777616344451,7.547288253597302e-05,0.9999145578167131,74.45224828329013,4.592465881095339,476.9635036172451,-111.82605625794008,-152.42068481445312,4761.76025390625,True
1599387502.7545521,0.0,10,0.5,0.5,10.8870120513916,-0.15025,-0.0155,-0.5,-0.03598068178043153,10,1,100,0.09296142013843983,-10,-1,-100,18916.96183901443,-0.012594814538225906,-0.00026648828667576413,0.9999206466668946,74.28753562376701,4.5811414621720195,477.5913070507434,-112.18932749974711,-153.42538452148438,4761.76025390625,True
1599387502.7914534,0.0,10,0.5,0.5,10.874275630187988,-0.15025,-0.0155,-0.5,-0.045592764617967116,10,1,100,0.08682807787938768,-10,-1,-100,18912.46336768905,-0.012108821676422538,-0.0006632562699085829,0.9999264655607075,74.16512939947273,4.572391770219688,478.4861919307058,-112.55259854465672,-154.13555908203125,4761.76025390625,True
1599387502.8243651,0.0,10,0.5,0.5,10.8813527633667,-0.15025,-0.0155,-0.5,-0.07682160582918209,10,1,100,0.05227609054382337,-10,-1,-100,18905.68841532606,-0.011356710413175406,-0.0013060039165728949,0.9999346576063665,74.07794110282607,4.565167274800277,480.4460802057284,-113.09749684781643,-154.64804077148438,4761.76025390625,True
1599387502.8602724,0.0,10,0.5,0.5,10.649839002227784,-0.15025,-0.0155,-0.5,-0.012812156149242887,10,1,100,0.12703166235159688,-10,-1,-100,18905.68841532606,-0.011356710413175406,-0.0013060039165728949,0.9999346576063665,74.07794110282607,4.565167274800277,480.4460802057284,-113.09749684781643,-154.64804077148438,4761.76025390625,True
1599387502.8971741,0.0,10,0.5,0.5,10.64873515701294,-0.15025,-0.0155,-0.5,-0.06462946200871149,10,1,100,0.06980446549319559,-10,-1,-100,18901.15361769381,-0.010839859343338084,-0.0017748357442418177,0.9999396718840081,74.09168666752363,4.564756101201598,482.2186206715399,-113.46075104703507,-154.62155151367188,4761.76025390625,True
1599387502.937067,0.0,10,0.5,0.5,10.065736936950682,-0.15025,-0.0155,-0.5,-0.12947920929737342,10,1,100,0.0024397531036255415,-10,-1,-100,18892.040433340706,-0.009761064529015538,-0.002788080175587254,0.9999484727865707,74.29867376840663,4.574937162017463,486.94467811656824,-114.18721278851682,-153.68544006347656,4761.76025390625,True
1599387502.974479,0.0,10,0.5,0.5,10.54164731826782,-0.15025,-0.0155,-0.5,-0.0285123854044683,10,1,100,0.1098728560578468,-10,-1,-100,18892.040433340706,-0.009761064529015538,-0.002788080175587254,0.9999484727865707,74.29867376840663,4.574937162017463,486.94467811656824,-114.18721278851682,-153.68544006347656,4761.76025390625,True
1599387503.010382,0.0,10,0.5,0.5,9.958010221862791,-0.15025,-0.0155,-0.5,-0.08629349098418898,10,1,100,0.04676713260424852,-10,-1,-100,18887.462048682733,-0.009191434120146766,-0.003310111869569819,0.999952279210476,74.48790066802151,4.585283130739758,489.8795800669103,-114.55041181250982,-152.7758026123047,4761.76025390625,True
1599387503.04429,0.0,10,0.5,0.5,9.633566143798827,-0.15025,-0.0155,-0.5,-0.09054415812460362,10,1,100,0.037688766218838626,-10,-1,-100,18882.869136775844,-0.008595218934599278,-0.0038198355352213544,0.9999557645555877,74.72794757523052,4.598747844017542,493.1588825417319,-114.91358436416375,-151.57164001464844,4761.76025390625,True
1599387503.0807028,0.0,10,0.5,0.5,9.262767054748535,-0.15025,-0.0155,-0.5,-0.10400934737643128,10,1,100,0.030658192732538593,-10,-1,-100,18878.26169889141,-0.007993784896192005,-0.004401801623616605,0.9999583609058429,75.0105834613946,4.614837589321547,496.7313677432544,-115.27672693301088,-150.07440185546875,4761.76025390625,True
1599387503.116607,0.0,10,0.5,0.5,9.449040022277831,-0.15025,-0.0155,-0.5,-0.07569188302458774,10,1,100,0.05554214569884061,-10,-1,-100,18875.952532855794,-0.007677860790715549,-0.004669359960317207,0.9999596229504665,75.16445713949673,4.6236625606850215,498.6057548274431,-115.45828602332989,-149.21517944335938,4761.76025390625,True
1599387503.1545057,0.0,10,0.5,0.5,7.90949874343872,-0.15025,-0.0155,-0.5,-0.13908380323746766,10,1,100,-0.020860033453943716,-10,-1,-100,18869.00325000193,-0.0067005617513911965,-0.005484882385004262,0.9999625085659155,75.65843821295653,4.652199806035626,504.4656252806385,-116.00291176484885,-146.19691467285156,4761.76025390625,True
1599387503.1864202,0.0,10,0.5,0.5,8.65662774734497,-0.15025,-0.0155,-0.5,-0.08779616111922499,10,1,100,0.03910285441139098,-10,-1,-100,18866.6795610626,-0.006362141841622129,-0.005755631818994746,0.9999631972495543,75.82744855912637,4.662019063523455,506.45539453146773,-116.18443584344226,-145.04397583007812,4761.76025390625,True
1599387503.2273111,0.0,10,0.5,0.5,8.420846965026854,-0.15025,-0.0155,-0.5,-0.09169272749682311,10,1,100,0.03481951086221289,-10,-1,-100,18864.352242169785,-0.006020088408268224,-0.0060331458825075126,0.9999636791835577,75.99498727673624,4.671776737798725,508.4391149683323,-116.36595095648369,-143.81773376464844,4761.76025390625,True
1599387503.2652097,0.0,10,0.5,0.5,7.279020384979248,-0.15025,-0.0155,-0.5,-0.1218413745212332,10,1,100,-0.009097396110632344,-10,-1,-100,18859.686713801348,-0.005314737607288724,-0.0065552126023174515,0.9999643907419424,76.31602231835475,4.690541892180924,512.3235768141179,-116.72895478302257,-141.14466857910156,4761.76025390625,True
1599387503.3011146,0.0,10,0.5,0.5,6.665831568145752,-0.15025,-0.0155,-0.5,-0.12807797902252385,10,1,100,-0.019225436465251773,-10,-1,-100,18855.00666626054,-0.004586459350207228,-0.00708216931864906,0.9999644030006122,76.60086917440297,4.7072807321752395,515.9787327789795,-117.09192504216702,-138.17837524414062,4761.76025390625,True
1599387503.338015,0.0,10,0.5,0.5,6.005289609527588,-0.15025,-0.0155,-0.5,-0.13114125971501608,10,1,100,-0.029674877919456652,-10,-1,-100,18850.312100696494,-0.0038340974716211044,-0.0075851651678431236,0.9999638818307162,76.82555074889818,4.720580798313552,519.2402045794269,-117.45486547104498,-134.9186248779297,4761.76025390625,True
1599387503.3759134,0.0,10,0.5,0.5,2.7942996520996095,-0.15025,-0.0155,-0.5,-0.1794381058383022,10,1,100,-0.1260651354164003,-10,-1,-100,18840.879419681733,-0.0022792452111682266,-0.008477135372783731,0.9999614708663224,76.98862949056516,4.730589487457004,523.8470676274491,-118.18068179798625,-127.51873779296875,4761.76025390625,True
1599387503.4128144,0.0,10,0.5,0.5,6.455094744110108,-0.15025,-0.0155,-0.5,-0.09075778769456282,10,1,100,0.02872887173798963,-10,-1,-100,18840.879419681733,-0.0022792452111682266,-0.008477135372783731,0.9999614708663224,76.98862949056516,4.730589487457004,523.8470676274491,-118.18068179798625,-127.51873779296875,4761.76025390625,True
1599387503.444729,0.0,10,0.5,0.5,2.3082676712036134,-0.15025,-0.0155,-0.5,-0.15076215005436713,10,1,100,-0.1023592193245291,-10,-1,-100,18833.766804798273,-0.0010932770867120845,-0.009018395667111441,0.999958735791034,76.74412548627717,4.716574658255787,524.8064287793684,-118.72502484146352,-121.19879150390625,4761.76025390625,True
1599387503.4826279,0.0,10,0.5,0.5,2.445640050888062,-0.15025,-0.0155,-0.5,-0.13086189883930577,10,1,100,-0.07243496600123839,-10,-1,-100,18829.006916312617,-0.000293436101790489,-0.009325342201778351,0.999956474996824,76.34753241786957,4.693355830007439,523.8365072373333,-119.08793458558658,-116.61925506591797,4761.76025390625,True
1599387503.5185316,0.0,10,0.5,0.5,3.1243530490875244,-0.15025,-0.0155,-0.5,-0.11360287677233605,10,1,100,-0.035730678171386684,-10,-1,-100,18826.62152842572,9.330360905874136e-05,-0.00944325159428358,0.9999554071526208,76.06611509662702,4.676760874960167,522.7745012299778,-119.26939953369815,-114.2193603515625,4761.76025390625,True
1599387503.5544355,0.0,10,0.5,0.5,2.6665680046081546,-0.15025,-0.0155,-0.5,-0.11330111077434199,10,1,100,-0.039767034178585535,-10,-1,-100,18824.23251081712,0.0004754030686594404,-0.009544100106389043,0.9999543410301701,75.72409011930405,4.656505141209384,521.2896073792155,-119.45087406973447,-111.74620819091797,4761.76025390625,True
1599387503.5923338,0.0,10,0.5,0.5,0.4925491695404052,-0.15025,-0.0155,-0.5,-0.12273138143106643,10,1,100,-0.08623582647494146,-10,-1,-100,18819.443586082896,0.0012389938301630556,-0.009718066243102964,0.9999520108899144,74.84159991916385,4.60391624858768,516.9282777401772,-119.81386090752571,-106.58052825927734,4761.76025390625,True
1599387503.6242487,0.0,10,0.5,0.5,-0.5315469436645506,-0.15025,-0.0155,-0.5,-0.1190755598771076,10,1,100,-0.0934118396865519,-10,-1,-100,18814.64014014392,0.0019918045677824086,-0.009839632607479089,0.9999496059025743,73.66741690906004,4.533400454737467,510.5087397250978,-120.17691382289033,-101.1222915649414,4761.76025390625,True
1599387503.6611507,0.0,10,0.5,0.5,0.28958317451477056,-0.15025,-0.0155,-0.5,-0.11150071976802545,10,1,100,-0.05904363013333583,-10,-1,-100,18812.23297073634,0.002357097385884337,-0.00987829946500649,0.9999484303160805,73.01957186330718,4.494344704654234,506.8584045196039,-120.35846923430739,-98.28345489501953,4761.76025390625,True
1599387503.6970537,0.0,10,0.5,0.5,-6.0037755832672115,-0.15025,-0.0155,-0.5,-0.1111573585168956,10,1,100,-0.17323519368062526,-10,-1,-100,18802.567972968565,0.003720974564828638,-0.009907787751251713,0.9999439934767167,69.95742815722431,4.308122520677024,488.82603074125626,-121.08490973319111,-86.51730346679688,4761.76025390625,True
1599387503.73595,0.0,10,0.5,0.5,-0.19572191734313954,-0.15025,-0.0155,-0.5,-0.10844079215071414,10,1,100,-0.03760298298984014,-10,-1,-100,18802.567972968565,0.003720974564828638,-0.009907787751251713,0.9999439934767167,69.95742815722431,4.308122520677024,488.82603074125626,-121.08490973319111,-86.51730346679688,4761.76025390625,True
1599387503.7718542,0.0,10,0.5,0.5,-4.0850690700531,-0.15025,-0.0155,-0.5,-0.10299163301915149,10,1,100,-0.10813963877901245,-10,-1,-100,18797.713676021434,0.004356762144933844,-0.009856949347893445,0.9999419279003985,68.2075917023475,4.200636207213391,478.1728152435743,-121.44826915000093,-80.63372802734375,4761.76025390625,True
1599387503.8037682,0.0,10,0.5,0.5,-4.95939521598816,-0.15025,-0.0155,-0.5,-0.09944530189367978,10,1,100,-0.10396470731045829,-10,-1,-100,18792.84484500042,0.0048907641977189,-0.009777238867358814,0.9999402412272912,69.69659830653846,4.291933077232167,490.21943472005273,-121.8115857767953,-74.87680053710938,4761.76025390625,True
1599387503.8626113,0.0,10,0.5,0.5,-3.983066830062866,-0.15025,-0.0155,-0.5,-0.10093387391671682,10,1,100,-0.0818806018800228,-10,-1,-100,18790.404981267406,0.005170015976988237,-0.009717617409627443,0.9999394175882246,70.71361532412445,4.3541545245791635,498.18796793848594,-121.99319068485441,-72.06198120117188,4761.76025390625,True
1599387503.8985152,0.0,10,0.5,0.5,-6.241019367980957,-0.15025,-0.0155,-0.5,-0.0921061358254107,10,1,100,-0.10784873106221228,-10,-1,-100,18785.514359772787,0.005654988357908649,-0.009582807306125369,0.9999380935391979,72.53000410715704,4.464904600217798,512.6556963509563,-122.3563019491419,-66.53134155273438,4761.76025390625,True
1599387503.9344187,0.0,10,0.5,0.5,-6.978172605895995,-0.15025,-0.0155,-0.5,-0.08899277266599864,10,1,100,-0.10558904375182336,-10,-1,-100,18780.609217489953,0.006070273651606533,-0.00943182249629988,0.9999370942725312,74.03879206738223,4.556518371122362,525.0238530979424,-122.71929527416732,-61.2586669921875,4761.76025390625,True
1599387503.9723177,0.0,10,0.5,0.5,-7.65874003944397,-0.15025,-0.0155,-0.5,-0.08474753146335876,10,1,100,-0.10483274902406606,-10,-1,-100,18775.689558275393,0.006435844084185955,-0.009256072546989156,0.9999364504966948,75.24202933018134,4.6293436346162835,535.2858735842589,-123.08218933303016,-56.278045654296875,4761.76025390625,True
1599387504.0042322,0.0,10,0.5,0.5,-8.291448641204834,-0.15025,-0.0155,-0.5,-0.0827880318597971,10,1,100,-0.10121968026399394,-10,-1,-100,18770.755385986064,0.00673061035211748,-0.009078906227307131,0.9999361341335775,76.16930670438204,4.685381582499453,543.6323305099136,-123.44500290567208,-51.59515380859375,4761.76025390625,True
1599387504.0401359,0.0,10,0.5,0.5,-7.476516920852661,-0.15025,-0.0155,-0.5,-0.09032611941974647,10,1,100,-0.08607851854851618,-10,-1,-100,18768.282858211664,0.006856624756656037,-0.00898706557485044,0.9999361076335326,76.54062597121163,4.707833683133941,547.1612955017679,-123.62638492924727,-49.365631103515625,4761.76025390625,True
1599387504.0760443,0.0,10,0.5,0.5,-9.191536172485351,-0.15025,-0.0155,-0.5,-0.07919968436880295,10,1,100,-0.09641071858689712,-10,-1,-100,18763.326920622494,0.007061021918066577,-0.008803234875690468,0.9999363204850577,77.12113428458898,4.743041544500718,553.0819949986079,-123.98911018282979,-45.130401611328125,4761.76025390625,True
1599387504.113941,0.0,10,0.5,0.5,-10.905107806396485,-0.15025,-0.0155,-0.5,-0.06760108061656997,10,1,100,-0.09748416445897111,-10,-1,-100,18755.865812511533,0.0072535597115011615,-0.008531678344957067,0.9999372962021819,77.65274668775814,4.775746527012594,559.5702654640488,-124.53312715597583,-39.337188720703125,4761.76025390625,True
1599387504.149846,0.0,10,0.5,0.5,-9.240324920654297,-0.15025,-0.0155,-0.5,-0.08485178130488724,10,1,100,-0.08228709819391548,-10,-1,-100,18753.371523308102,0.0072872274802623935,-0.008442884331826219,0.9999378050758008,77.75651929516573,4.782331887114535,561.2118055289365,-124.71445335605581,-37.555267333984375,4761.76025390625,True
1599387504.1827579,0.0,10,0.5,0.5,-10.588008148193358,-0.15025,-0.0155,-0.5,-0.07555989280492903,10,1,100,-0.0818626194456334,-10,-1,-100,18748.372065690113,0.007311311585665196,-0.008278976301722252,0.9999389997766327,77.8781563482113,4.790495999243479,563.8813767767813,-125.07709372358639,-34.2152099609375,4761.76025390625,True
1599387504.2186613,0.0,10,0.5,0.5,-9.994222540283202,-0.15025,-0.0155,-0.5,-0.08335854773968601,10,1,100,-0.07888416503685372,-10,-1,-100,18745.86689736205,0.007303928871053432,-0.008202227921548833,0.9999396862212089,77.90368542179743,4.792534308674959,564.9631225840473,-125.25840980493271,-32.657012939453125,4761.76025390625,True
1599387504.2546637,0.0,10,0.5,0.5,-12.02527807006836,-0.15025,-0.0155,-0.5,-0.06695054858991728,10,1,100,-0.06784935475564761,-10,-1,-100,18738.329634763882,0.007194960934400804,-0.007984670665018808,0.9999422371174866,77.88106710117215,4.792971310388741,567.4925991295074,-125.80235016744801,-28.429290771484375,4761.76025390625,True
1599387504.288608,0.0,10,0.5,0.5,-10.789955267333983,-0.15025,-0.0155,-0.5,-0.08142957931994166,10,1,100,-0.07202754275310194,-10,-1,-100,18735.809961384162,0.007132482725987553,-0.00791997174448365,0.9999431992557027,77.85130825722459,4.791867801233918,568.1745248949144,-125.98366261763682,-27.169036865234375,4761.76025390625,True
1599387504.3204901,0.0,10,0.5,0.5,-11.706468182373046,-0.15025,-0.0155,-0.5,-0.07456251084566748,10,1,100,-0.05990047217574169,-10,-1,-100,18730.759735940606,0.006964472613931885,-0.007800101058550846,0.9999453257777079,77.77616930500604,4.788835477861531,569.4239296688909,-126.34628744812719,-24.87176513671875,4761.76025390625,True
1599387504.356391,0.0,10,0.5,0.5,-11.28085273590088,-0.15025,-0.0155,-0.5,-0.08032698928591082,10,1,100,-0.06583621560204855,-10,-1,-100,18728.22918391798,0.006865216880911571,-0.007744855667603635,0.9999464415696802,77.7361597740979,4.7872250380527985,570.0304368582516,-126.52760009200352,-23.834716796875,4761.76025390625,True
1599387504.3913052,0.0,10,0.5,0.5,-12.008938877868651,-0.15025,-0.0155,-0.5,-0.07486056819773218,10,1,100,-0.04926843376786663,-10,-1,-100,18723.1572012892,0.006624245828283455,-0.007646150620995186,0.9999488265645836,77.66249267439554,4.784480797745836,571.2893849173471,-126.89022532896693,-21.9837646484375,4761.76025390625,True
