Timestamp,Input Throttle,horizon,dT,dt,Input Roll,Roll P,Roll I,Roll D,Input Pitch,Pitch P,Pitch I,Pitch D,Input Yaw,Yaw P,Yaw I,Yaw D,Altitude,Direction X,Direction Y,Direction Z,Drag X,Drag Y,Drag Z,Vertical Velocity,Roll,Mass,Has Fuel
1599384997.1867228,0.0,10,0.5,0.5,-0.054994110107421876,-0.001,-0.0155,-0.5,-0.0001948724203409745,10,1,100,0.49812726624490994,-10,-1,-100,19349.722301419126,-0.048845137527195416,-0.0001769529663330275,0.9988063482115024,61.076456846404945,3.6862931325831507,233.73126368975974,-68.66499611746248,-33.922515869140625,4761.76025390625,True
1599384997.2196367,0.0,10,0.5,0.5,-0.14117815704345704,-0.001,-0.0155,-0.5,0.0010590321142459045,10,1,100,0.510764661286534,-10,-1,-100,19345.580506691826,-0.049003580911394146,-0.0001510779020220322,0.9987985914253823,61.346553498543585,3.704625453159209,236.70788840868593,-69.2123559940791,-33.9261474609375,4761.76025390625,True
1599384997.246624,0.0,10,0.5,0.5,-0.22801255035400392,-0.001,-0.0155,-0.5,0.011195764641657573,10,1,100,0.5053152137555381,-10,-1,-100,19342.80106540094,-0.0490535312095554,-3.526565885191039e-05,0.9987961502890399,61.52798422806765,3.7169482823057165,238.7079968856161,-69.57724530923622,-33.929931640625,4761.76025390625,True
1599384997.280618,0.0,10,0.5,0.5,-0.30701280059814456,-0.001,-0.0155,-0.5,0.023997602121689915,10,1,100,0.5037739468285855,-10,-1,-100,19340.00702908798,-0.04904033493472101,0.0001864305989929052,0.9987967815292168,61.70419635079267,3.7289712286288315,240.69613078084834,-69.94212089186847,-33.949493408203125,4761.76025390625,True
1599384997.312709,0.0,10,0.5,0.5,-0.4036719696044922,-0.001,-0.0155,-0.5,0.0018466193971076455,10,1,100,0.5099976078054966,-10,-1,-100,19340.00702908798,-0.04904033493472101,0.0001864305989929052,0.9987967815292168,61.70419635079267,3.7289712286288315,240.69613078084834,-69.94212089186847,-33.949493408203125,4761.76025390625,True
1599384997.3492067,0.0,10,0.5,0.5,-0.47729442596435545,-0.001,-0.0155,-0.5,0.01732453792020834,10,1,100,0.5119711480078869,-10,-1,-100,19338.604537911015,-0.04901369408662026,0.0003269694668401907,0.9987980531033042,61.78850264882767,3.7347596132793988,241.67839586861805,-70.12455358882681,-33.9759521484375,4761.76025390625,True
1599384997.379127,0.0,10,0.5,0.5,-0.48311778411865247,-0.001,-0.0155,-0.5,0.07408539765649587,10,1,100,0.49537742060842554,-10,-1,-100,19334.375173017615,-0.048794065162818465,0.0009704426447886639,0.9988083887542994,62.02895369827708,3.7513964398843425,244.58777449291708,-70.67183092899765,-34.1640625,4761.76025390625,True
1599384997.4129915,0.0,10,0.5,0.5,-0.6067048385620117,-0.001,-0.0155,-0.5,0.04197709945872963,10,1,100,0.5089113985671839,-10,-1,-100,19332.95808789227,-0.04867308042702116,0.0012626424205395932,0.998813965148597,62.10602742200135,3.7567633297971765,245.54913662958268,-70.85424971693696,-34.277862548828125,4761.76025390625,True
1599384997.4498534,0.0,10,0.5,0.5,-0.47972039184570314,-0.001,-0.0155,-0.5,0.13253456793800714,10,1,100,0.46722469947712014,-10,-1,-100,19328.684943022905,-0.04813987605690756,0.0023503804370151975,0.998837838713085,62.33195931967596,3.772556373918213,248.42291061287702,-71.40148445347796,-34.817291259765625,4761.76025390625,True
1599384997.4777784,0.0,10,0.5,0.5,-0.8349679458618164,-0.001,-0.0155,-0.5,0.023995804334148222,10,1,100,0.5253591240941711,-10,-1,-100,19328.684943022905,-0.04813987605690756,0.0023503804370151975,0.998837838713085,62.33195931967596,3.772556373918213,248.42291061287702,-71.40148445347796,-34.817291259765625,4761.76025390625,True
1599384997.4987237,0.0,10,0.5,0.5,-0.6440093231201172,-0.001,-0.0155,-0.5,0.12475587165312146,10,1,100,0.4765369847523087,-10,-1,-100,19325.817939192522,-0.047652274902838895,0.003264244339517668,0.9988586513643841,62.478716053315146,3.7828515293742595,250.33202672924523,-71.76628897866597,-35.369171142578125,4761.76025390625,True
1599384997.5272126,0.0,10,0.5,0.5,-0.7495092864990235,-0.001,-0.0155,-0.5,0.08758464753690633,10,1,100,0.49237971130424324,-10,-1,-100,19324.3789654501,-0.0473541103338162,0.003753981125003548,0.9988711107346162,62.55114384171092,3.7879376021928617,251.28531604117575,-71.94868548476887,-35.70489501953125,4761.76025390625,True
1599384997.711718,0.0,10,0.5,0.5,-0.5164194641113282,-0.001,-0.0155,-0.5,0.16109355254621888,10,1,100,0.44820316986816566,-10,-1,-100,19321.490074264933,-0.04668294623126539,0.004863909103687166,0.9988979151642073,62.69068625780066,3.797772985763583,253.17545884206277,-72.31346657007042,-36.49969482421875,4761.76025390625,True
1599384997.7376492,0.0,10,0.5,0.5,-0.6733718170166015,-0.001,-0.0155,-0.5,0.11557656796190904,10,1,100,0.4722667132810698,-10,-1,-100,19320.040157099254,-0.04629371160995314,0.005454689974667149,0.9989129785034605,62.75830587408018,3.8025492152291136,254.11423626504563,-72.49585097472175,-36.9716796875,4761.76025390625,True
1599384997.7717516,0.0,10,0.5,0.5,-0.35781194000244143,-0.001,-0.0155,-0.5,0.1978596847608042,10,1,100,0.4150916246375147,-10,-1,-100,19317.129380163853,-0.04542258535138674,0.006735002501570112,0.9989451578947163,62.886785106538724,3.8116597830758785,255.96895106317538,-72.86060762958358,-38.063232421875,4761.76025390625,True
1599384997.7996752,0.0,10,0.5,0.5,-0.5888725646972656,-0.001,-0.0155,-0.5,0.14424374167841075,10,1,100,0.4479325374728711,-10,-1,-100,19315.668520271895,-0.044932495005359924,0.00740555206900325,0.9989625762215251,62.946602776514844,3.8159261422105306,256.88048558554567,-73.04297979560089,-38.678680419921875,4761.76025390625,True
1599384997.8340466,0.0,10,0.5,0.5,-0.20969765472412105,-0.001,-0.0155,-0.5,0.23569994436819053,10,1,100,0.3779116867820772,-10,-1,-100,19312.735859000473,-0.043854115320038564,0.008840127534211225,0.9989988331898468,63.05170122871918,3.8235256688156856,258.6480737149229,-73.40771217992956,-40.035186767578125,4761.76025390625,True
1599384997.860936,0.0,10,0.5,0.5,0.27411602783203126,-0.001,-0.0155,-0.5,0.345073336249831,10,1,100,0.2769355293809094,-10,-1,-100,19308.309513000888,-0.041960295947774694,0.011131436351606641,0.9990572679725249,63.16122499261844,3.831845711344589,261.1097155476942,-73.9547820280892,-42.336517333984375,4761.76025390625,True
1599384997.88188,0.0,10,0.5,0.5,-0.45010036315917956,-0.001,-0.0155,-0.5,0.20337525786984906,10,1,100,0.3878549998608297,-10,-1,-100,19306.82677017362,-0.04125310332687886,0.011917308387665304,0.9990776542525087,63.18161639074928,3.8335913837099542,261.86523919231144,-74.13713156520161,-43.16278076171875,4761.76025390625,True
1599384997.9142241,0.0,10,0.5,0.5,-0.42693566741943356,-0.001,-0.0155,-0.5,0.2139640345416524,10,1,100,0.37593435096683214,-10,-1,-100,19305.34038056468,-0.040508092111328144,0.012719301910234437,0.9990982503399836,63.19248471812127,3.8347321103265384,262.5817398059434,-74.31947788474321,-44.0078125,4761.76025390625,True
1599384997.948138,0.0,10,0.5,0.5,0.015873025512695427,-0.001,-0.0155,-0.5,0.312950188073492,10,1,100,0.2735754532820232,-10,-1,-100,19302.356660629157,-0.03890721174000703,0.014338834761520173,0.9991399434975564,63.18339092024571,3.835058632421708,263.88702154536173,-74.68416167935821,-45.706573486328125,4761.76025390625,True
1599384997.9832308,0.0,10,0.5,0.5,-0.8174844940185547,-0.001,-0.0155,-0.5,0.15210436198711863,10,1,100,0.43278898409785116,-10,-1,-100,19302.356660629157,-0.03890721174000703,0.014338834761520173,0.9991399434975564,63.18339092024571,3.835058632421708,263.88702154536173,-74.68416167935821,-45.706573486328125,4761.76025390625,True
1599384998.0142286,0.0,10,0.5,0.5,-0.3590506790161133,-0.001,-0.0155,-0.5,0.2452964254945406,10,1,100,0.3377184241740233,-10,-1,-100,19300.859330388717,-0.03805061292123933,0.015176412744645358,0.9991605613476355,63.16325324122504,3.834233283471024,264.4744188820635,-74.86649962235293,-46.590667724609375,4761.76025390625,True
1599384998.0471303,0.0,10,0.5,0.5,1.1280152252197266,-0.001,-0.0155,-0.5,0.5353178411083643,10,1,100,0.002991057015148735,-10,-1,-100,19294.83354333567,-0.034236758233015314,0.018565030595211234,0.9992413042026899,62.9697410268262,3.8237748508485803,266.343222006767,-75.59583143350056,-50.40997314453125,4761.76025390625,True
1599384998.0812905,0.0,10,0.5,0.5,-0.7608081298828125,-0.001,-0.0155,-0.5,0.19776709011383115,10,1,100,0.3831708304998567,-10,-1,-100,19294.83354333567,-0.034236758233015314,0.018565030595211234,0.9992413042026899,62.9697410268262,3.8237748508485803,266.343222006767,-75.59583143350056,-50.40997314453125,4761.76025390625,True
1599384998.1173623,0.0,10,0.5,0.5,0.329666323852539,-0.001,-0.0155,-0.5,0.38459716537040095,10,1,100,0.14745019746109492,-10,-1,-100,19291.79877005203,-0.03210401232095236,0.020252731253822195,0.9992793199449574,62.7935712776729,3.8135333710070514,266.93470333816936,-75.96048963509863,-52.548370361328125,4761.76025390625,True
1599384998.1483104,0.0,10,0.5,0.5,0.9056289428710937,-0.001,-0.0155,-0.5,0.49091665951032276,10,1,100,-0.021792138680924833,-10,-1,-100,19287.21926095849,-0.02863824796568078,0.02274186618184525,0.9993311054280375,62.424972874361075,3.791598073702704,267.3621482810185,-76.50747522708832,-55.789215087890625,4761.76025390625,True
1599384998.1821887,0.0,10,0.5,0.5,-0.13023563842773445,-0.001,-0.0155,-0.5,0.3282770051073671,10,1,100,0.18987133748839166,-10,-1,-100,19285.68546473456,-0.027425599123658908,0.0235135358594324,0.9993472620386246,62.27177946511911,3.7823860831179643,267.369522462118,-76.68980472853512,-56.907257080078125,4761.76025390625,True
1599384998.2156496,0.0,10,0.5,0.5,-0.666671987915039,-0.001,-0.0155,-0.5,0.2523482472994348,10,1,100,0.30968275200816736,-10,-1,-100,19285.68546473456,-0.027425599123658908,0.0235135358594324,0.9993472620386246,62.27177946511911,3.7823860831179643,267.369522462118,-76.68980472853512,-56.907257080078125,4761.76025390625,True
1599384998.250526,0.0,10,0.5,0.5,1.4871385726928712,-0.001,-0.0155,-0.5,0.5799441864348895,10,1,100,-0.260244464621133,-10,-1,-100,19279.513813578407,-0.02225701306721365,0.026481138735689472,0.9994015082340966,61.544288580891006,3.7383351902956226,266.8707277708961,-77.419135582241,-61.16375732421875,4761.76025390625,True
1599384998.281479,0.0,10,0.5,0.5,-0.6145198348999023,-0.001,-0.0155,-0.5,0.2845600824917277,10,1,100,0.2547890331189814,-10,-1,-100,19279.513813578407,-0.02225701306721365,0.026481138735689472,0.9994015082340966,61.544288580891006,3.7383351902956226,266.8707277708961,-77.419135582241,-61.16375732421875,4761.76025390625,True
1599384998.3155866,0.0,10,0.5,0.5,0.5093209411621094,-0.001,-0.0155,-0.5,0.44171793785288427,10,1,100,-0.054543619247540365,-10,-1,-100,19276.406107737334,-0.01946003458994781,0.02789880805354165,0.99942131434293,61.11374360965793,3.712148894061904,266.308076168103,-77.78381181249782,-63.359130859375,4761.76025390625,True
1599384998.350081,0.0,10,0.5,0.5,1.0278450942993165,-0.001,-0.0155,-0.5,0.48983554488886805,10,1,100,-0.24212627972143996,-10,-1,-100,19271.71719753684,-0.015229709221898013,0.0296127038852871,0.9994454180822577,60.3732697355576,3.6670379490849987,265.01556439236265,-78.33084639818962,-66.53048706054688,4761.76025390625,True
1599384998.384038,0.0,10,0.5,0.5,-0.526926286315918,-0.001,-0.0155,-0.5,0.31988959082838725,10,1,100,0.1786241667136056,-10,-1,-100,19271.71719753684,-0.015229709221898013,0.0296127038852871,0.9994454180822577,60.3732697355576,3.6670379490849987,265.01556439236265,-78.33084639818962,-66.53048706054688,4761.76025390625,True
1599384998.4152222,0.0,10,0.5,0.5,0.9759707580566406,-0.001,-0.0155,-0.5,0.4739687209466727,10,1,100,-0.3005913251475463,-10,-1,-100,19266.995463884552,-0.010890483885897648,0.031003379910644172,0.9994599480693799,59.57481859765118,3.618369624937395,263.42091665325773,-78.87790769565649,-69.48040771484375,4761.76025390625,True
1599384998.44822,0.0,10,0.5,0.5,0.4806318298339844,-0.001,-0.0155,-0.5,0.42827799425584306,10,1,100,-0.20526194122030716,-10,-1,-100,19263.82940585492,-0.007833588229187779,0.0318409530098563,0.9994622497157557,59.03254269808682,3.5853286101679904,262.2859117616351,-79.24263061692417,-71.37673950195312,4761.76025390625,True
1599384998.4812875,0.0,10,0.5,0.5,0.026628302001953097,-0.001,-0.0155,-0.5,0.3767916492536559,10,1,100,-0.06025928167078437,-10,-1,-100,19262.240905798622,-0.006394862195439709,0.03212379067116014,0.9994634399568685,58.74347377661993,3.5677272949393193,261.63010089454144,-79.42499706079795,-72.30484008789062,4761.76025390625,True
1599384998.517201,0.0,10,0.5,0.5,-0.41182277221679686,-0.001,-0.0155,-0.5,0.3494460755722034,10,1,100,0.0813889831269985,-10,-1,-100,19262.240905798622,-0.006394862195439709,0.03212379067116014,0.9994634399568685,58.74347377661993,3.5677272949393193,261.63010089454144,-79.42499706079795,-72.30484008789062,4761.76025390625,True
1599384998.54725,0.0,10,0.5,0.5,0.4635049682617187,-0.001,-0.0155,-0.5,0.4046126557931029,10,1,100,-0.24364759711230288,-10,-1,-100,19259.052963512368,-0.003459103045017168,0.03261747753243038,0.9994619226191388,58.17222974932089,3.532967714055044,260.3312354536683,-79.7897393193122,-74.00436401367188,4761.76025390625,True
1599384998.5811868,0.0,10,0.5,0.5,0.8562785247802734,-0.001,-0.0155,-0.5,0.41269400092845065,10,1,100,-0.44918556493421763,-10,-1,-100,19254.243693589233,0.0010565081664037832,0.033131474233294676,0.9994504435966913,57.333723011993094,3.482017908860171,258.4208821561895,-80.33687510681122,-76.43157958984375,4761.76025390625,True
1599384998.6140716,0.0,10,0.5,0.5,0.08780088806152342,-0.001,-0.0155,-0.5,0.37227292556410996,10,1,100,-0.16625759117798097,-10,-1,-100,19252.633308275952,0.002568342668790117,0.03322523388031584,0.9994445894843467,57.041768055096234,3.4643014979323374,257.71612742629736,-80.51925969537025,-77.2728271484375,4761.76025390625,True
1599384998.6509614,0.0,10,0.5,0.5,0.10867274780273439,-0.001,-0.0155,-0.5,0.3667369139304571,10,1,100,-0.1761636452997626,-10,-1,-100,19251.01927526272,0.004010224203215704,0.03325401154898858,0.9994388869849621,56.73711526506178,3.4458271548789665,256.9477400970242,-80.70164762093852,-78.10421752929688,4761.76025390625,True
1599384998.6809785,0.0,10,0.5,0.5,0.47985438385009765,-0.001,-0.0155,-0.5,0.35793760633693406,10,1,100,-0.34352163237170924,-10,-1,-100,19247.78026550298,0.006821125245353787,0.033195310993754085,0.999425606825448,56.129506750328126,3.4090233447975584,255.39945682330756,-81.06643336068362,-79.62921142578125,4761.76025390625,True
1599384998.7156703,0.0,10,0.5,0.5,0.7859411895751953,-0.001,-0.0155,-0.5,0.32784544245836095,10,1,100,-0.5354909978739151,-10,-1,-100,19242.89439128188,0.011101619665983685,0.03286512481090982,0.9993981376868556,55.271981455112076,3.357192700948105,253.27590685799453,-81.61363367683605,-81.72158813476562,4761.76025390625,True
1599384998.748584,0.0,10,0.5,0.5,-0.23670095825195311,-0.001,-0.0155,-0.5,0.3611893028353496,10,1,100,-0.11007468869971336,-10,-1,-100,19242.89439128188,0.011101619665983685,0.03286512481090982,0.9993981376868556,55.271981455112076,3.357192700948105,253.27590685799453,-81.61363367683605,-81.72158813476562,4761.76025390625,True
1599384998.783579,0.0,10,0.5,0.5,0.7549174026489258,-0.001,-0.0155,-0.5,0.2851429617829706,10,1,100,-0.5479068178462296,-10,-1,-100,19237.975684018573,0.015061918927723031,0.0321721019423425,0.9993688480510218,54.418606709453876,3.305736426201329,251.11717706318353,-82.16085845709658,-83.66299438476562,4761.76025390625,True
1599384998.8145037,0.0,10,0.5,0.5,-0.19674202728271484,-0.001,-0.0155,-0.5,0.35447836353295153,10,1,100,-0.15416644238798602,-10,-1,-100,19237.975684018573,0.015061918927723031,0.0321721019423425,0.9993688480510218,54.418606709453876,3.305736426201329,251.11717706318353,-82.16085845709658,-83.66299438476562,4761.76025390625,True
1599384998.8485422,0.0,10,0.5,0.5,0.3743818801879883,-0.001,-0.0155,-0.5,0.2840445706159076,10,1,100,-0.4379051142582143,-10,-1,-100,19234.678304745466,0.01762185523461314,0.031531750814668295,0.9993473965086674,53.893817454235766,3.274176026484916,249.85248823268472,-82.52568704490793,-84.767822265625,4761.76025390625,True
1599384998.8814244,0.0,10,0.5,0.5,0.32850989685058596,-0.001,-0.0155,-0.5,0.26400637056047294,10,1,100,-0.4369913811455878,-10,-1,-100,19231.366331939586,0.019918930014916587,0.030767986188875517,0.9993280578733601,53.39710503566991,3.2443654005249503,248.6963391826126,-82.89052367687668,-85.74032592773438,4761.76025390625,True
1599384998.917561,0.0,10,0.5,0.5,0.5381167449951172,-0.001,-0.0155,-0.5,0.18509002476890252,10,1,100,-0.5820298769719828,-10,-1,-100,19226.371009662515,0.02330445883810519,0.029357914741271036,0.9992972605988206,52.71410505542212,3.203490073423036,247.21373050844832,-83.43779095006518,-87.09295654296875,4761.76025390625,True
1599384998.9483356,0.0,10,0.5,0.5,0.29101553649902345,-0.001,-0.0155,-0.5,0.20784644965591426,10,1,100,-0.46705920090423236,-10,-1,-100,19223.022552135517,0.02531679893977737,0.028286338705596183,0.9992792115990782,52.268850365103816,3.176895088390508,246.24869942678208,-83.80264385306545,-87.91668701171875,4761.76025390625,True
1599384998.9813092,0.0,10,0.5,0.5,-0.10435171508789062,-0.001,-0.0155,-0.5,0.31451016370592766,10,1,100,-0.2681000363641132,-10,-1,-100,19223.022552135517,0.02531679893977737,0.028286338705596183,0.9992792115990782,52.268850365103816,3.176895088390508,246.24869942678208,-83.80264385306545,-87.91668701171875,4761.76025390625,True
1599384999.0145817,0.0,10,0.5,0.5,0.09524665069580078,-0.001,-0.0155,-0.5,0.25209290335681234,10,1,100,-0.3720772644121382,-10,-1,-100,19221.342850604677,0.026242676854089812,0.027723425132280037,0.9992711011584727,52.0567753759803,3.1642503772351507,245.8089382845153,-83.9850723924727,-88.28472900390625,4761.76025390625,True
1599384999.051449,0.0,10,0.5,0.5,0.5438892044067383,-0.001,-0.0155,-0.5,0.026930652995001525,10,1,100,-0.658638411331362,-10,-1,-100,19214.587558327592,0.029671829428540672,0.025169730413122964,0.9992427468885098,51.32077627822671,3.1205556002676063,244.54011151171756,-84.71479669531662,-89.520751953125,4761.76025390625,True
1599384999.082401,0.0,10,0.5,0.5,0.23403621215820314,-0.001,-0.0155,-0.5,0.12708504792176983,10,1,100,-0.4772411427454549,-10,-1,-100,19211.18802017148,0.031123292772930883,0.02376568007176696,0.9992329723831659,50.971333491399655,3.0998664344928413,243.9712195003414,-85.07966432704725,-90.11170959472656,4761.76025390625,True
1599384999.1154408,0.0,10,0.5,0.5,-0.04843792037963868,-0.001,-0.0155,-0.5,0.26658013758345583,10,1,100,-0.33409697561712853,-10,-1,-100,19211.18802017148,0.031123292772930883,0.02376568007176696,0.9992329723831659,50.971333491399655,3.0998664344928413,243.9712195003414,-85.07966432704725,-90.11170959472656,4761.76025390625,True
1599384999.1485057,0.0,10,0.5,0.5,0.21120520935058595,-0.001,-0.0155,-0.5,0.11154993697597498,10,1,100,-0.4669639144510872,-10,-1,-100,19207.773887373973,0.03231657278610759,0.022363956813399477,0.9992274478611007,50.6380121714167,3.0801761436529773,243.46510790532363,-85.44453546701433,-90.6100082397461,4761.76025390625,True
1599384999.1843717,0.0,10,0.5,0.5,0.07736821479797364,-0.001,-0.0155,-0.5,0.16756048917257596,10,1,100,-0.4132554641389157,-10,-1,-100,19206.06134777062,0.03289742810992269,0.021607766275878994,0.9992251316196561,50.49267523129544,3.0716333944849317,243.3095452466982,-85.6269719493081,-90.81867980957031,4761.76025390625,True
1599384999.214372,0.0,10,0.5,0.5,0.0835729564666748,-0.001,-0.0155,-0.5,0.1545021558314078,10,1,100,-0.4180384109726814,-10,-1,-100,19204.34515962482,0.033455072854720366,0.02081063001552138,0.9992235364414924,50.35847900990855,3.0637713648506257,243.20474393996992,-85.80940889153388,-91.02059936523438,4761.76025390625,True
1599384999.2482884,0.0,10,0.5,0.5,0.3691735408782959,-0.001,-0.0155,-0.5,-0.12029472501387459,10,1,100,-0.5480153566774542,-10,-1,-100,19197.443918714765,0.03513132563563455,0.017596859367669485,0.9992277720817598,49.88395555231558,3.036141727677838,243.06091188425535,-86.53915966889,-91.77584075927734,4761.76025390625,True
1599384999.2815654,0.0,10,0.5,0.5,-0.0011886856079101561,-0.001,-0.0155,-0.5,0.1999062342339547,10,1,100,-0.3815727652657887,-10,-1,-100,19197.443918714765,0.03513132563563455,0.017596859367669485,0.9992277720817598,49.88395555231558,3.036141727677838,243.06091188425535,-86.53915966889,-91.77584075927734,4761.76025390625,True
1599384999.3177855,0.0,10,0.5,0.5,0.17469924507141113,-0.001,-0.0155,-0.5,0.012864208523203108,10,1,100,-0.4477280283925543,-10,-1,-100,19193.971406203927,0.03572381482160891,0.015906195024242585,0.9992351084777006,50.063713120834066,3.0477309413633793,245.01515724012472,-86.90402428395953,-92.11497497558594,4761.76025390625,True
1599384999.3487031,0.0,10,0.5,0.5,0.08524220542907715,-0.001,-0.0155,-0.5,0.09267771959146326,10,1,100,-0.41230396302679284,-10,-1,-100,19192.22967720602,0.03593094347291338,0.015106059488730818,0.9992400984087203,50.211515758425485,3.057059540755645,246.27944419255434,-87.08644921505856,-92.26188659667969,4761.76025390625,True
1599384999.382581,0.0,10,0.5,0.5,0.1579475254058838,-0.001,-0.0155,-0.5,-0.02517239730950141,10,1,100,-0.43224775889252387,-10,-1,-100,19188.735273891478,0.036291741966861524,0.013318769180660031,0.9992524805335852,50.50878239413954,3.0758319866177817,248.8260827297771,-87.45128409624127,-92.54132080078125,4761.76025390625,True
1599384999.4160063,0.0,10,0.5,0.5,0.0873834888458252,-0.001,-0.0155,-0.5,0.05861548711925123,10,1,100,-0.4077432732057339,-10,-1,-100,19186.982599902665,0.036390954443717816,0.012466441451068398,0.9992598692393396,50.664124516817694,3.0856335390492107,250.1375023929342,-87.63369404290279,-92.67000579833984,4761.76025390625,True
1599384999.452905,0.0,10,0.5,0.5,0.23489887390136718,-0.001,-0.0155,-0.5,-0.24185453216396718,10,1,100,-0.3987914695332263,-10,-1,-100,19179.935424070805,0.03639497878777275,0.008970324465792835,0.999297222450866,51.30827146474253,3.126264389257862,255.5313542389529,-88.3632829595546,-93.0849609375,4761.76025390625,True
1599384999.4828234,0.0,10,0.5,0.5,0.03202984390258789,-0.001,-0.0155,-0.5,0.1062776308029917,10,1,100,-0.39891620372921693,-10,-1,-100,19179.935424070805,0.03639497878777275,0.008970324465792835,0.999297222450866,51.30827146474253,3.126264389257862,255.5313542389529,-88.3632829595546,-93.0849609375,4761.76025390625,True
1599384999.5151787,0.0,10,0.5,0.5,0.11274065437316894,-0.001,-0.0155,-0.5,-0.09135489188416947,10,1,100,-0.3732762198323937,-10,-1,-100,19176.38994963013,0.03615818038325466,0.0071858411980437395,0.9993202438045817,51.643652493234676,3.147408370317804,258.3164988651584,-88.72804707598608,-93.2384033203125,4761.76025390625,True
1599384999.5483906,0.0,10,0.5,0.5,0.0691293254852295,-0.001,-0.0155,-0.5,-0.004402890865685488,10,1,100,-0.3781378657191508,-10,-1,-100,19174.61174104712,0.035984141566960254,0.006367167259419721,0.9993320773080285,51.81628918281102,3.1582853270506925,259.7395144205728,-88.91042149234224,-93.29700469970703,4761.76025390625,True
1599384999.5844107,0.0,10,0.5,0.5,0.08326979904174804,-0.001,-0.0155,-0.5,-0.1131978549859041,10,1,100,-0.3438427894246028,-10,-1,-100,19171.044381886604,0.03551185188700377,0.004647003516628718,0.999358451074424,52.16005954272058,3.1799528175790575,262.5896248769159,-89.27515510596314,-93.37667083740234,4761.76025390625,True
1599384999.6153495,0.0,10,0.5,0.5,0.059728083038330076,-0.001,-0.0155,-0.5,-0.03450704114075969,10,1,100,-0.3595104041398759,-10,-1,-100,19169.255231513875,0.03522458456059003,0.003810361927093702,0.9993721577993447,52.33453033878054,3.1909463501799107,264.03353763108754,-89.45751438838482,-93.40423583984375,4761.76025390625,True
1599384999.6492636,0.0,10,0.5,0.5,0.06777616615295409,-0.001,-0.0155,-0.5,-0.31058346719414115,10,1,100,-0.22206701534213966,-10,-1,-100,19162.062160101603,0.03371386231212088,0.0005525261519771064,0.9994313734333392,53.05571434378882,3.236350907298108,269.96721048468805,-90.18690132975352,-93.4427719116211,4761.76025390625,True
1599384999.6812844,0.0,10,0.5,0.5,0.05056621551513672,-0.001,-0.0155,-0.5,0.013664743430291854,10,1,100,-0.37293824493810557,-10,-1,-100,19162.062160101603,0.03371386231212088,0.0005525261519771064,0.9994313734333392,53.05571434378882,3.236350907298108,269.96721048468805,-90.18690132975352,-93.4427719116211,4761.76025390625,True
1599384999.7182608,0.0,10,0.5,0.5,0.049980877304077145,-0.001,-0.0155,-0.5,-0.07668997225079043,10,1,100,-0.3211653393703072,-10,-1,-100,19160.254775250214,0.0332452150625598,-0.0002556498693629565,0.9994471923611513,53.241585440961515,3.2480438135369054,271.4892693898111,-90.36923548795174,-93.43795013427734,4761.76025390625,True
1599384999.7491865,0.0,10,0.5,0.5,0.02027502593994141,-0.001,-0.0155,-0.5,-0.33816346171221406,10,1,100,-0.12765086579723067,-10,-1,-100,19152.98877130705,0.031062719191298393,-0.00335504668473048,0.9995118064025986,54.01030911242686,3.2963596996596225,277.749559175922,-91.09852060370632,-93.3710708618164,4761.76025390625,True
1599384999.7824507,0.0,10,0.5,0.5,0.041186185455322266,-0.001,-0.0155,-0.5,-0.11177496565509537,10,1,100,-0.2771714313748742,-10,-1,-100,19151.163154630456,0.030442753754723346,-0.004100219745330969,0.9995281021271334,54.20967961903121,3.3088781554720943,279.3626253893938,-91.28082909482168,-93.3438949584961,4761.76025390625,True
1599384999.8154194,0.0,10,0.5,0.5,0.05517548484802246,-0.001,-0.0155,-0.5,-0.03856471401615884,10,1,100,-0.33857275252907393,-10,-1,-100,19151.163154630456,0.030442753754723346,-0.004100219745330969,0.9995281021271334,54.20967961903121,3.3088781554720943,279.3626253893938,-91.28082909482168,-93.3438949584961,4761.76025390625,True
1599384999.8513691,0.0,10,0.5,0.5,-0.015159144592285158,-0.001,-0.0155,-0.5,-0.35269115352160146,10,1,100,-0.03685144789221506,-10,-1,-100,19143.824228375568,0.027705243917145583,-0.006944032337006699,0.9995920167120154,55.029458091270484,3.360314706631425,285.97631916345534,-92.01001067662362,-93.20270538330078,4761.76025390625,True
1599384999.8814247,0.0,10,0.5,0.5,0.010116318893432619,-0.001,-0.0155,-0.5,-0.22283639826121301,10,1,100,-0.13727470438967804,-10,-1,-100,19140.13289093715,0.026137221793384652,-0.008335973396585603,0.999623607756667,55.45056552839004,3.386718395336663,289.3698699404868,-92.3745700232055,-93.11235809326172,4761.76025390625,True
1599384999.9153686,0.0,10,0.5,0.5,0.05500376167297363,-0.001,-0.0155,-0.5,-0.08511260636892314,10,1,100,-0.29309222478841357,-10,-1,-100,19140.13289093715,0.026137221793384652,-0.008335973396585603,0.999623607756667,55.45056552839004,3.386718395336663,289.3698699404868,-92.3745700232055,-93.11235809326172,4761.76025390625,True
1599384999.949339,0.0,10,0.5,0.5,0.029813933181762696,-0.001,-0.0155,-0.5,-0.15324794675376896,10,1,100,-0.20976515452670513,-10,-1,-100,19138.281753923045,0.025388225363817865,-0.008943582875617643,0.999637659523801,55.66569537590989,3.4001998111808405,291.0978288861365,-92.55684178079133,-93.06289672851562,4761.76025390625,True
1599384999.9838188,0.0,10,0.5,0.5,0.004734282302856448,-0.001,-0.0155,-0.5,-0.22812646409482684,10,1,100,-0.10611280238983284,-10,-1,-100,19134.568543993635,0.023773967553146286,-0.010165074428017559,0.9996656789790548,56.094357563749675,3.427065064005078,294.5602004156148,-92.92136938634503,-92.96453094482422,4761.76025390625,True
1599385000.0158224,0.0,10,0.5,0.5,-0.029887080001831053,-0.001,-0.0155,-0.5,-0.3033071787504975,10,1,100,0.02566809916244664,-10,-1,-100,19128.971391267958,0.02111748852456865,-0.011949239062905402,0.9997055903435932,56.74097383422212,3.467585447908215,299.80997609714507,-93.46812135027038,-92.79873657226562,4761.76025390625,True
1599385000.0497284,0.0,10,0.5,0.5,0.05201185150146485,-0.001,-0.0155,-0.5,-0.1261408917832014,10,1,100,-0.23872016631656176,-10,-1,-100,19128.971391267958,0.02111748852456865,-0.011949239062905402,0.9997055903435932,56.74097383422212,3.467585447908215,299.80997609714507,-93.46812135027038,-92.79873657226562,4761.76025390625,True
1599385000.0826612,0.0,10,0.5,0.5,-0.04249979591369629,-0.001,-0.0155,-0.5,-0.29924168068693446,10,1,100,0.061526445888044984,-10,-1,-100,19123.341435198323,0.01839899907410676,-0.01351225206276339,0.9997394139860964,57.40053898440136,3.508898305309798,305.17352689631656,-94.01482555208221,-92.61206817626953,4761.76025390625,True
1599385000.1185637,0.0,10,0.5,0.5,0.019098446273803707,-0.001,-0.0155,-0.5,-0.19643514156891362,10,1,100,-0.10779016138236151,-10,-1,-100,19121.457494116272,0.01747839938534255,-0.013989334247581343,0.9997493706335783,57.620046407956075,3.5226483511274598,306.9697386114605,-94.19704976460766,-92.55107116699219,4761.76025390625,True
1599385000.1485686,0.0,10,0.5,0.5,-0.048688444519042966,-0.001,-0.0155,-0.5,-0.30099731296908583,10,1,100,0.12306374625949579,-10,-1,-100,19115.783805076266,0.014554604466421277,-0.015364620415142638,0.9997760208808393,58.27677186352078,3.5637906611311383,312.379428794598,-94.74369078709212,-92.35734558105469,4761.76025390625,True
1599385000.1816838,0.0,10,0.5,0.5,0.013455934524536133,-0.001,-0.0155,-0.5,-0.21032807306557222,10,1,100,-0.0589486993908344,-10,-1,-100,19113.88528700825,0.013565711454485213,-0.015780374385921135,0.9997834521820081,58.495731415395596,3.5775086277796406,314.1931658802822,-94.92589399649056,-92.29109954833984,4761.76025390625,True
1599385000.215344,0.0,10,0.5,0.5,-0.02193880500793456,-0.001,-0.0155,-0.5,-0.25281661311893455,10,1,100,0.059440028607199935,-10,-1,-100,19110.077319325646,0.011603310764072715,-0.016536558957978596,0.9997959318766713,58.9322612243449,3.60486120826514,317.82854498792415,-95.29028466859936,-92.15715789794922,4761.76025390625,True
1599385000.2507486,0.0,10,0.5,0.5,0.04355145988464356,-0.001,-0.0155,-0.5,-0.1780182144693278,10,1,100,-0.13534664933111862,-10,-1,-100,19110.077319325646,0.011603310764072715,-0.016536558957978596,0.9997959318766713,58.9322612243449,3.60486120826514,317.82854498792415,-95.29028466859936,-92.15715789794922,4761.76025390625,True
1599385000.2816868,0.0,10,0.5,0.5,-0.09116776313781738,-0.001,-0.0155,-0.5,-0.3198293019620545,10,1,100,0.3066117729265395,-10,-1,-100,19102.41765961575,0.007598719571757015,-0.017818295584674845,0.9998123662984605,59.79197542147021,3.65875763887264,325.0883664025138,-96.01900396453887,-91.8912124633789,4761.76025390625,True
1599385000.315799,0.0,10,0.5,0.5,0.03998884353637696,-0.001,-0.0155,-0.5,-0.19254311056333534,10,1,100,-0.09206839572582434,-10,-1,-100,19102.41765961575,0.007598719571757015,-0.017818295584674845,0.9998123662984605,59.79197542147021,3.65875763887264,325.0883664025138,-96.01900396453887,-91.8912124633789,4761.76025390625,True
1599385000.349334,0.0,10,0.5,0.5,-0.06428515930175782,-0.001,-0.0155,-0.5,-0.27534413565535576,10,1,100,0.24180855643463114,-10,-1,-100,19096.63465936994,0.004578179323008683,-0.018564074702641705,0.9998171909926941,60.424066279169345,3.698412204454386,330.5171670979497,-96.56548970599864,-91.6864013671875,4761.76025390625,True
1599385000.384593,0.0,10,0.5,0.5,0.002327871704101564,-0.001,-0.0155,-0.5,-0.22527160863110213,10,1,100,0.056009497077023254,-10,-1,-100,19094.699706389336,0.003536351735762598,-0.018780837440900422,0.9998173705039433,60.631488629919886,3.7114319242703657,332.318840981046,-96.74764150104751,-91.61840057373047,4761.76025390625,True
1599385000.4164762,0.0,10,0.5,0.5,-0.03510582084655761,-0.001,-0.0155,-0.5,-0.243354527350289,10,1,100,0.17432246089600117,-10,-1,-100,19090.81887186435,0.0015296462006289088,-0.019136074101875504,0.9998157184453885,61.04209075330036,3.737215007846013,335.9136941289588,-97.11193013764311,-91.4794692993164,4761.76025390625,True
1599385000.4496648,0.0,10,0.5,0.5,-0.03559748649597168,-0.001,-0.0155,-0.5,-0.23894304657483836,10,1,100,0.1972345345397916,-10,-1,-100,19086.923466395587,-0.0004875873618239234,-0.019413799584767744,0.9998114155400742,61.444216030717854,3.7624840619307616,339.4813860791294,-97.47619920186571,-91.34333801269531,4761.76025390625,True
1599385000.4844673,0.0,10,0.5,0.5,-0.03530838584899902,-0.001,-0.0155,-0.5,-0.23225506617176706,10,1,100,0.2109426820892729,-10,-1,-100,19083.013490537996,-0.002429722862915268,-0.019600546142517144,0.9998049384943668,61.83699907031816,3.7871865711764543,343.01659948562536,-97.84044880827133,-91.2117919921875,4761.76025390625,True
1599385000.5195053,0.0,10,0.5,0.5,-0.002642595291137695,-0.001,-0.0155,-0.5,-0.22100792947080303,10,1,100,0.1237355235038283,-10,-1,-100,19081.05303912412,-0.0033870679428312333,-0.019664218201619312,0.9998009033268922,62.029246843876784,3.799286365312225,344.7682872774423,-98.02256646290972,-91.14925384521484,4761.76025390625,True
1599385000.5504777,0.0,10,0.5,0.5,0.026856617355346682,-0.001,-0.0155,-0.5,-0.215029107942156,10,1,100,0.02969629345196341,-10,-1,-100,19081.05303912412,-0.0033870679428312333,-0.019664218201619312,0.9998009033268922,62.029246843876784,3.799286365312225,344.7682872774423,-98.02256646290972,-91.14925384521484,4761.76025390625,True
1599385000.5834951,0.0,10,0.5,0.5,-0.03384849433898926,-0.001,-0.0155,-0.5,-0.22247461202551985,10,1,100,0.23764782638047044,-10,-1,-100,19077.121209678706,-0.005263908806993203,-0.019729061275792038,0.999791505967743,62.40449933247996,3.8229250192429634,348.2340566963556,-98.38678756919647,-91.03120422363281,4761.76025390625,True
1599385000.6161969,0.0,10,0.5,0.5,-0.03338397521972656,-0.001,-0.0155,-0.5,-0.2148207031777357,10,1,100,0.25577784411422977,-10,-1,-100,19073.174811821315,-0.007119612281473654,-0.019715526260680283,0.9997802804342693,62.767305251379334,3.8458089858905544,351.6483409811565,-98.75098990702539,-90.91780090332031,4761.76025390625,True
1599385000.6520677,0.0,10,0.5,0.5,-0.06634542274475097,-0.001,-0.0155,-0.5,-0.19756065856976432,10,1,100,0.369047783534604,-10,-1,-100,19067.22790113464,-0.009822961860410893,-0.01954458744989167,0.9997607306359368,63.29049156386196,3.8788624876000632,356.68454694181355,-99.29725912264814,-90.7418441772461,4761.76025390625,True
1599385000.6834195,0.0,10,0.5,0.5,-0.03639411735534668,-0.001,-0.0155,-0.5,-0.1917342783904416,10,1,100,0.2877458256641445,-10,-1,-100,19063.24508603406,-0.011525605786593144,-0.01933465208221253,0.9997466337228208,63.624238882073364,3.8999870739834015,359.9783628050019,-99.66141626430942,-90.62957763671875,4761.76025390625,True
1599385000.7174826,0.0,10,0.5,0.5,-0.007665227890014649,-0.001,-0.0155,-0.5,-0.19852464554357419,10,1,100,0.20802210712915756,-10,-1,-100,19061.248216145555,-0.012334063019068399,-0.01920483183355127,0.9997394887287822,63.78575270515542,3.910224333081334,361.6010822607866,-99.84348826926384,-90.5781478881836,4761.76025390625,True
1599385000.750617,0.0,10,0.5,0.5,0.01643725471496582,-0.001,-0.0155,-0.5,-0.21154906984896535,10,1,100,0.12876342535711519,-10,-1,-100,19061.248216145555,-0.012334063019068399,-0.01920483183355127,0.9997394887287822,63.78575270515542,3.910224333081334,361.6010822607866,-99.84348826926384,-90.5781478881836,4761.76025390625,True
1599385000.7866108,0.0,10,0.5,0.5,-0.030560150527954105,-0.001,-0.0155,-0.5,-0.17679916656679068,10,1,100,0.30353905403417725,-10,-1,-100,19057.243552353117,-0.013910328998660147,-0.01888886111486634,0.9997248189741677,64.09682633892768,3.929973775481865,364.7905319523865,-100.20761950586174,-90.48712921142578,4761.76025390625,True
1599385000.8169923,0.0,10,0.5,0.5,-0.04946543731689453,-0.001,-0.0155,-0.5,-0.14075495079736217,10,1,100,0.39678423530630513,-10,-1,-100,19051.209248273633,-0.016178779044729412,-0.01827441753494878,0.9997021020145852,64.53456077782829,3.9578488642749297,369.43851004179214,-100.75378470147528,-90.3612060546875,4761.76025390625,True
1599385000.8498278,0.0,10,0.5,0.5,0.012177732849121095,-0.001,-0.0155,-0.5,-0.2020666959283611,10,1,100,0.1713141363175601,-10,-1,-100,19051.209248273633,-0.016178779044729412,-0.01827441753494878,0.9997021020145852,64.53456077782829,3.9578488642749297,369.43851004179214,-100.75378470147528,-90.3612060546875,4761.76025390625,True
1599385000.8837345,0.0,10,0.5,0.5,-0.06972159004211426,-0.001,-0.0155,-0.5,-0.08805804880312938,10,1,100,0.4642478966000451,-10,-1,-100,19043.11253652617,-0.018830184400841186,-0.017239238743507284,0.9996740632841159,65.06670610354662,3.991898972919952,375.3901076003177,-101.48194795303284,-90.2001724243164,4761.76025390625,True
1599385000.919826,0.0,10,0.5,0.5,0.009324148941040038,-0.001,-0.0155,-0.5,-0.19133343000146788,10,1,100,0.20065167263466865,-10,-1,-100,19043.11253652617,-0.018830184400841186,-0.017239238743507284,0.9996740632841159,65.06670610354662,3.991898972919952,375.3901076003177,-101.48194795303284,-90.2001724243164,4761.76025390625,True
1599385000.9507465,0.0,10,0.5,0.5,-0.044769393157958984,-0.001,-0.0155,-0.5,-0.08713156248813139,10,1,100,0.40046575372529875,-10,-1,-100,19037.00177601911,-0.020634343069307053,-0.01629421251386994,0.9996543015086019,65.42359343553012,4.014879493930591,379.64436424535387,-102.02802926636325,-90.09477233886719,4761.76025390625,True
1599385000.9837475,0.0,10,0.5,0.5,-0.026266744232177737,-0.001,-0.0155,-0.5,-0.10211368837246365,10,1,100,0.34488775880336164,-10,-1,-100,19032.909733407665,-0.021756946695178563,-0.015574409189281564,0.9996419724325845,65.64154239411447,4.028990533952145,382.37952644179137,-102.39206482099172,-90.02906036376953,4761.76025390625,True
1599385001.0167842,0.0,10,0.5,0.5,-0.009915725708007812,-0.001,-0.0155,-0.5,-0.13457970830250912,10,1,100,0.2863124662000256,-10,-1,-100,19030.858251742786,-0.022234143708818002,-0.015218797419256736,0.9996369496265368,65.74434722485938,4.035672350976532,383.71536691421306,-102.57407709084086,-89.99832153320312,4761.76025390625,True
1599385001.052689,0.0,10,0.5,0.5,0.004475242614746093,-0.001,-0.0155,-0.5,-0.16972929983869628,10,1,100,0.2396636186283042,-10,-1,-100,19030.858251742786,-0.022234143708818002,-0.015218797419256736,0.9996369496265368,65.74434722485938,4.035672350976532,383.71536691421306,-102.57407709084086,-89.99832153320312,4761.76025390625,True
1599385001.0838058,0.0,10,0.5,0.5,-0.04785671577453613,-0.001,-0.0155,-0.5,0.00489348798277478,10,1,100,0.4328495930737948,-10,-1,-100,19022.615924278274,-0.023981379766786326,-0.013634941197619994,0.9996194184803627,66.115911478016,4.059999564164846,388.85253029382494,-103.30209066303516,-89.89566040039062,4761.76025390625,True
1599385001.1167412,0.0,10,0.5,0.5,0.0024159950256347654,-0.001,-0.0155,-0.5,-0.15293514511730627,10,1,100,0.25929071895173417,-10,-1,-100,19022.615924278274,-0.023981379766786326,-0.013634941197619994,0.9996194184803627,66.115911478016,4.059999564164846,388.85253029382494,-103.30209066303516,-89.89566040039062,4761.76025390625,True
1599385001.1494899,0.0,10,0.5,0.5,-0.0331004825592041,-0.001,-0.0155,-0.5,-0.01008563994497827,10,1,100,0.3749319118197786,-10,-1,-100,19016.395959403133,-0.025023507837615706,-0.012341085623250873,0.999610685047504,66.35125098902003,4.075620694652697,392.4750385732592,-103.84806514096418,-89.82659912109375,4761.76025390625,True
1599385001.1854584,0.0,10,0.5,0.5,-0.020650619888305664,-0.001,-0.0155,-0.5,-0.03470362011875408,10,1,100,0.33846068507359545,-10,-1,-100,19012.231117618852,-0.02563129972359267,-0.01139404704077845,0.9996065286734135,66.48832306460388,4.084834515095775,394.78305414186326,-104.21203175572549,-89.7841796875,4761.76025390625,True
1599385001.217375,0.0,10,0.5,0.5,-0.009906399917602539,-0.001,-0.0155,-0.5,-0.07889848982888048,10,1,100,0.3046784684035422,-10,-1,-100,19010.143237416865,-0.025868133540499553,-0.010941129299981187,0.9996054878584711,66.55040526298014,4.089049950953822,395.9015321470017,-104.39401040301826,-89.76507568359375,4761.76025390625,True
1599385001.2500987,0.0,10,0.5,0.5,-0.009590809631347657,-0.001,-0.0155,-0.5,-0.07256261750739104,10,1,100,0.30516047388989165,-10,-1,-100,19008.05171766982,-0.026081420742891114,-0.010477512614009704,0.9996049125636866,66.60885398970036,4.093045514351945,397.000114941737,-104.57598595520459,-89.74798583984375,4761.76025390625,True
1599385001.291024,0.0,10,0.5,0.5,-0.009498455429077148,-0.001,-0.0155,-0.5,-0.06544866229727722,10,1,100,0.30640919292461954,-10,-1,-100,19005.956558329635,-0.026280078157797288,-0.009997517603152319,0.9996046254063627,66.66404429417905,4.096844334900486,398.0809124796527,-104.75795841625957,-89.73251342773438,4761.76025390625,True
1599385001.3199444,0.0,10,0.5,0.5,-0.016298176956176757,-0.001,-0.0155,-0.5,-0.003824069142857725,10,1,100,0.3231117528216788,-10,-1,-100,19001.755321581964,-0.02660738477487754,-0.009006659196342444,0.9996053857225672,66.76348088841168,4.103779373380168,400.18168351893655,-105.1218942786271,-89.70462036132812,4761.76025390625,True
1599385001.3492556,0.0,10,0.5,0.5,-0.015101260375976562,-0.001,-0.0155,-0.5,0.008030811102630583,10,1,100,0.3145982358099487,-10,-1,-100,18997.539527936373,-0.026823131146589584,-0.0080040778697317,0.9996081504134248,66.84747698113448,4.10977848382238,402.19539553948493,-105.48581834246318,-89.68017578125,4761.76025390625,True
1599385001.3831131,0.0,10,0.5,0.5,-0.008937403869628905,-0.001,-0.0155,-0.5,-0.03548347533363699,10,1,100,0.30120821767787204,-10,-1,-100,18995.426172227133,-0.02689336496745641,-0.00749478355818757,0.9996102116025742,66.88372751563611,4.112429450514304,403.16952282809063,-105.66777605815963,-89.6690673828125,4761.76025390625,True
1599385001.417247,0.0,10,0.5,0.5,-0.013693994140625,-0.001,-0.0155,-0.5,0.0269634187052447,10,1,100,0.3015489325554895,-10,-1,-100,18991.188543734257,-0.02695607564780583,-0.006471111523576771,0.9996156734972292,66.94474989216046,4.1170350826086555,405.0517464504274,-106.03168331268057,-89.64950561523438,4761.76025390625,True
1599385001.4534507,0.0,10,0.5,0.5,-0.008331027221679688,-0.001,-0.0155,-0.5,-0.018440312772416617,10,1,100,0.2949401431761296,-10,-1,-100,18989.064271055395,-0.02695030118478292,-0.005959774350703915,0.9996190086006459,66.96994632245695,4.119015623720139,405.9621437114956,-106.21363287583262,-89.64144897460938,4761.76025390625,True
1599385001.4841979,0.0,10,0.5,0.5,-0.0156285888671875,-0.001,-0.0155,-0.5,0.1588440946019294,10,1,100,0.26656192679087465,-10,-1,-100,18980.53079100419,-0.026684368868152508,-0.0038902233690953692,0.9996363391855294,67.03908418274928,4.1250210769211275,409.4191435227677,-106.9414045169705,-89.61962890625,4761.76025390625,True
1599385001.5181086,0.0,10,0.5,0.5,-0.0066294464111328125,-0.001,-0.0155,-0.5,0.010435543521483126,10,1,100,0.27938070398356885,-10,-1,-100,18978.388324120664,-0.026557636681121592,-0.0033656646340499805,0.9996416178988771,67.04884734378888,4.126066790446549,410.2390681965893,-107.12334105214258,-89.616455078125,4761.76025390625,True
1599385001.5500407,0.0,10,0.5,0.5,-0.005302505493164062,-0.001,-0.0155,-0.5,-0.0412174917423829,10,1,100,0.2921465563824134,-10,-1,-100,18978.388324120664,-0.026557636681121592,-0.0033656646340499805,0.9996416178988771,67.04884734378888,4.126066790446549,410.2390681965893,-107.12334105214258,-89.616455078125,4761.76025390625,True
1599385001.586029,0.0,10,0.5,0.5,-0.007153533935546875,-0.001,-0.0155,-0.5,0.183221230993791,10,1,100,0.21151491123481098,-10,-1,-100,18969.782070283545,-0.02582399490419737,-0.0013321993952356097,0.9996656173601047,67.05938191286285,4.128520824961931,413.34786708995256,-107.85106210537523,-89.61322021484375,4761.76025390625,True
1599385001.617168,0.0,10,0.5,0.5,-0.005744989013671875,-0.001,-0.0155,-0.5,-0.019210761565768664,10,1,100,0.28485334634336396,-10,-1,-100,18969.782070283545,-0.02582399490419737,-0.0013321993952356097,0.9996656173601047,67.05938191286285,4.128520824961931,413.34786708995256,-107.85106210537523,-89.61322021484375,4761.76025390625,True
1599385001.6511214,0.0,10,0.5,0.5,-0.005562950134277344,-0.001,-0.0155,-0.5,0.03866586696270414,10,1,100,0.25803069111143423,-10,-1,-100,18967.621410440304,-0.025580567205046735,-0.0008139257888021449,0.9996724324028738,67.055587259023,4.128745118763385,414.0861595556078,-108.03298630170084,-89.61395263671875,4761.76025390625,True
1599385001.6851072,0.0,10,0.5,0.5,-0.00284365234375,-0.001,-0.0155,-0.5,0.15116781289262113,10,1,100,0.1895022347517239,-10,-1,-100,18961.117600360187,-0.024737216800339547,0.0006725290587661228,0.999693762013967,67.02538601408189,4.1282727441095854,416.1850985733506,-108.57874492350847,-89.62039184570312,4761.76025390625,True
1599385001.7204719,0.0,10,0.5,0.5,-0.004657569885253906,-0.001,-0.0155,-0.5,0.05947085665986855,10,1,100,0.23724173654179648,-10,-1,-100,18958.94238716981,-0.024406426370830264,0.0011823551299590719,0.999701419618954,67.01065603497892,4.127832445475907,416.85573826390134,-108.76065990659343,-89.62338256835938,4761.76025390625,True
1599385001.7521396,0.0,10,0.5,0.5,-0.0042972900390625,-0.001,-0.0155,-0.5,0.06308957999061889,10,1,100,0.23226215052671476,-10,-1,-100,18956.763535620878,-0.024062699688045287,0.0016708425534248045,0.9997090550599632,66.99251947548929,4.127184191081537,417.50502859731415,-108.94257267917015,-89.62722778320312,4761.76025390625,True
1599385001.7850509,0.0,10,0.5,0.5,0.003989407348632812,-0.001,-0.0155,-0.5,0.22397159829485563,10,1,100,0.0945850724338817,-10,-1,-100,18948.01174778957,-0.022501241426451154,0.003570084055634894,0.9997404406315192,66.89764282770952,4.123233826544919,419.9599321801444,-109.67020208216829,-89.64767456054688,4761.76025390625,True
1599385001.8180265,0.0,10,0.5,0.5,-0.006224331665039062,-0.001,-0.0155,-0.5,0.035000433914480565,10,1,100,0.25028599261746187,-10,-1,-100,18948.01174778957,-0.022501241426451154,0.003570084055634894,0.9997404406315192,66.89764282770952,4.123233826544919,419.9599321801444,-109.67020208216829,-89.64767456054688,4761.76025390625,True
1599385001.8533192,0.0,10,0.5,0.5,0.004169999694824219,-0.001,-0.0155,-0.5,0.18220999251189363,10,1,100,0.10321730100821919,-10,-1,-100,18941.40970740805,-0.021168056164041403,0.004901570672497985,0.9997639161337932,66.80677343618571,4.119073401355933,421.67301553369595,-110.21590204942825,-89.6683349609375,4761.76025390625,True
1599385001.8842037,0.0,10,0.5,0.5,-0.006079786682128906,-0.001,-0.0155,-0.5,0.049888054356239296,10,1,100,0.23599686919748625,-10,-1,-100,18941.40970740805,-0.021168056164041403,0.004901570672497985,0.9997639161337932,66.80677343618571,4.119073401355933,421.67301553369595,-110.21590204942825,-89.6683349609375,4761.76025390625,True
1599385001.9173048,0.0,10,0.5,0.5,0.005926286315917969,-0.001,-0.0155,-0.5,0.19226088048599163,10,1,100,0.07113095568112446,-10,-1,-100,18934.774925715523,-0.01967417475072637,0.006188353423398872,0.9997872929427465,66.70529622034088,4.114271165274447,423.3141130132513,-110.76158335744229,-89.692138671875,4761.76025390625,True
1599385001.9512892,0.0,10,0.5,0.5,-0.0015263717651367182,-0.001,-0.0155,-0.5,0.10692135751337424,10,1,100,0.16443698783386856,-10,-1,-100,18932.556056211353,-0.019169928140149894,0.006575505212813489,0.999794617202102,66.66913966981761,4.112528994403147,423.84510471706534,-110.94347311643614,-89.70077514648438,4761.76025390625,True
1599385001.9863539,0.0,10,0.5,0.5,0.0031588989257812505,-0.001,-0.0155,-0.5,0.15431526201729706,10,1,100,0.09603438799498001,-10,-1,-100,18928.107403842732,-0.01809572946542143,0.00735112623994603,0.9998092345633334,66.59657922026454,4.109032568277187,424.9034907796676,-111.30724632045309,-89.71847534179688,4761.76025390625,True
1599385002.0174367,0.0,10,0.5,0.5,-0.0009882644653320307,-0.001,-0.0155,-0.5,0.11617642322944385,10,1,100,0.14420499572410783,-10,-1,-100,18925.8776211855,-0.017563904229332735,0.007702096773787177,0.9998160765728414,66.55986780711595,4.10725911558858,425.42890542220897,-111.48912991248372,-89.7275390625,4761.76025390625,True
1599385002.0503507,0.0,10,0.5,0.5,-0.000843701171875,-0.001,-0.0155,-0.5,0.12141930846756709,10,1,100,0.1344001725053856,-10,-1,-100,18923.64420085738,-0.01699781317869191,0.00806243297243023,0.9998230200999112,66.52414894825162,4.10554782989212,425.95997949265643,-111.67101133450406,-89.73654174804688,4761.76025390625,True
1599385002.084165,0.0,10,0.5,0.5,0.0043555908203125005,-0.001,-0.0155,-0.5,0.1591301431774675,10,1,100,0.06552093141299531,-10,-1,-100,18919.166447609197,-0.015863745134716827,0.00872658248870258,0.9998360807394223,66.4517239509033,4.102066706167534,427.01375682367495,-112.03476801766028,-89.75555419921875,4761.76025390625,True
1599385002.1201074,0.0,10,0.5,0.5,0.010322288513183593,-0.001,-0.0155,-0.5,0.19361226930495673,10,1,100,-0.016975409345997117,-10,-1,-100,18912.42253646301,-0.014090261046524392,0.009637414341077094,0.9998542817773295,66.39034234846797,4.099768193129652,428.89448222740305,-112.580385639305,-89.78604125976562,4761.76025390625,True
1599385002.1511862,0.0,10,0.5,0.5,-0.004706773376464844,-0.001,-0.0155,-0.5,0.10313581709604958,10,1,100,0.15953190143525367,-10,-1,-100,18912.42253646301,-0.014090261046524392,0.009637414341077094,0.9998542817773295,66.39034234846797,4.099768193129652,428.89448222740305,-112.580385639305,-89.78604125976562,4761.76025390625,True
1599385002.1842158,0.0,10,0.5,0.5,0.011913121032714843,-0.001,-0.0155,-0.5,0.18933877334375643,10,1,100,-0.039049029580013966,-10,-1,-100,18905.645889445208,-0.012292626201276437,0.010415561824887664,0.9998701952818413,66.47556529305083,4.106533440533082,431.72421731330144,-113.12597136739522,-89.81878662109375,4761.76025390625,True
1599385002.2181177,0.0,10,0.5,0.5,0.0010484512329101562,-0.001,-0.0155,-0.5,0.13717187267706885,10,1,100,0.07402724223103638,-10,-1,-100,18903.37973289378,-0.011694447385663087,0.010643711357607031,0.9998749678379191,66.50184618277264,4.108660123098991,432.6551531670356,-113.30782541944558,-89.82931518554688,4761.76025390625,True
1599385002.2550387,0.0,10,0.5,0.5,0.0012626312255859373,-0.001,-0.0155,-0.5,0.1407382947271621,10,1,100,0.06222406639234067,-10,-1,-100,18901.10993932956,-0.011051959235461333,0.010878321914457204,0.9998797509247714,66.52617047799548,4.110667342757011,433.57405222108827,-113.4896755883658,-89.83975219726562,4761.76025390625,True
1599385002.2859566,0.0,10,0.5,0.5,0.0073882522583007815,-0.001,-0.0155,-0.5,0.16172292042470254,10,1,100,-0.009852852778719709,-10,-1,-100,18896.559441451565,-0.009820472756918521,0.011278109955670404,0.9998881750229164,66.56615573643597,4.11415036813526,435.3571960858519,-113.85336499584092,-89.8619384765625,4761.76025390625,True
1599385002.3190057,0.0,10,0.5,0.5,0.0076908203125,-0.001,-0.0155,-0.5,0.161026618800228,10,1,100,-0.026021607417263365,-10,-1,-100,18891.994396277354,-0.008562450420968506,0.011630948519511856,0.9998956973001358,66.5966726311982,4.11705299574913,437.08045524846364,-114.21703992961265,-89.88418579101562,4761.76025390625,True
1599385002.4960146,0.0,10,0.5,0.5,0.014223245239257812,-0.001,-0.0155,-0.5,0.1724388020022778,10,1,100,-0.10763409956814468,-10,-1,-100,18885.11955401965,-0.0066855286224099825,0.012051567222768568,0.9999050272073414,66.62411312176647,4.120281152397294,439.5477790299772,-114.76252640785384,-89.91891479492188,4761.76025390625,True
1599385002.5169983,0.0,10,0.5,0.5,0.008545909118652344,-0.001,-0.0155,-0.5,0.15372811790755847,10,1,100,-0.05660888168750125,-10,-1,-100,18880.51814331708,-0.005452991127732559,0.012259896669914512,0.9999099758585289,66.63204407330456,4.121796769625862,441.1256063222697,-115.12616748147241,-89.941650390625,4761.76025390625,True
1599385002.5388997,0.0,10,0.5,0.5,-0.0025039703369140625,-0.001,-0.0155,-0.5,0.13331491956271252,10,1,100,0.0654903855751452,-10,-1,-100,18880.51814331708,-0.005452991127732559,0.012259896669914512,0.9999099758585289,66.63204407330456,4.121796769625862,441.1256063222697,-115.12616748147241,-89.941650390625,4761.76025390625,True
1599385002.5728781,0.0,10,0.5,0.5,0.013700646972656251,-0.001,-0.0155,-0.5,0.15581808746124992,10,1,100,-0.13368158854028409,-10,-1,-100,18873.588755395263,-0.0036518011394168237,0.012461258819736478,0.9999156871342033,66.63328502113413,4.123415891812149,443.42287702081836,-115.67160542962567,-89.97341918945312,4761.76025390625,True
1599385002.6218958,0.0,10,0.5,0.5,-0.0018933166503906252,-0.001,-0.0155,-0.5,0.1359642569269193,10,1,100,0.04539356430057866,-10,-1,-100,18873.588755395263,-0.0036518011394168237,0.012461258819736478,0.9999156871342033,66.63328502113413,4.123415891812149,443.42287702081836,-115.67160542962567,-89.97341918945312,4761.76025390625,True
1599385002.6468322,0.0,10,0.5,0.5,0.00332027587890625,-0.001,-0.0155,-0.5,0.140605938203344,10,1,100,-0.02047982198411532,-10,-1,-100,18871.271687111002,-0.0030624416821987944,0.012500888790905194,0.9999171711848839,66.63185822842146,4.123842688360874,444.1765943423842,-115.85341188237656,-89.98324584960938,4761.76025390625,True
1599385002.692711,0.0,10,0.5,0.5,0.01846533203125,-0.001,-0.0155,-0.5,0.13944860558292957,10,1,100,-0.21882925800337874,-10,-1,-100,18861.967053517466,-0.0007318747432064436,0.012524499079994788,0.9999212975440395,66.6140997134623,4.1248066161077075,447.1113261974971,-116.58060868101309,-90.02277374267578,4761.76025390625,True
1599385002.719668,0.0,10,0.5,0.5,-0.00099875373840332,-0.001,-0.0155,-0.5,0.13727565544620887,10,1,100,0.01313117863161067,-10,-1,-100,18861.967053517466,-0.0007318747432064436,0.012524499079994788,0.9999212975440395,66.6140997134623,4.1248066161077075,447.1113261974971,-116.58060868101309,-90.02277374267578,4761.76025390625,True
1599385002.7527108,0.0,10,0.5,0.5,0.009696947479248047,-0.001,-0.0155,-0.5,0.1297416984645068,10,1,100,-0.11072975970983637,-10,-1,-100,18857.292921483633,0.00038475189217738873,0.012454512037283372,0.9999223655343923,66.5953453233194,4.12467778690655,448.5122272989284,-116.94419018874098,-90.0435562133789,4761.76025390625,True
1599385002.7887716,0.0,10,0.5,0.5,0.009055122756958007,-0.001,-0.0155,-0.5,0.12365935982325797,10,1,100,-0.11181971864166186,-10,-1,-100,18852.60424664314,0.001400498255861926,0.01233452400891472,0.9999229460924021,66.57243340528397,4.124291142499899,449.88461032117556,-117.30776106931003,-90.06245422363281,4761.76025390625,True
1599385002.818996,0.0,10,0.5,0.5,0.008666140365600586,-0.001,-0.0155,-0.5,0.11710168292431615,10,1,100,-0.12748539154503374,-10,-1,-100,18847.901029220782,0.0024572620231723134,0.012165189124507925,0.9999229820525751,66.55185251257365,4.124048179903978,451.27222043888105,-117.67132135675878,-90.07998657226562,4761.76025390625,True
1599385002.8522615,0.0,10,0.5,0.5,0.00014962730407714844,-0.001,-0.0155,-0.5,0.13404653355516952,10,1,100,-0.022723293878553253,-10,-1,-100,18847.901029220782,0.0024572620231723134,0.012165189124507925,0.9999229820525751,66.55185251257365,4.124048179903978,451.27222043888105,-117.67132135675878,-90.07998657226562,4761.76025390625,True
1599385002.8862085,0.0,10,0.5,0.5,0.00847502555847168,-0.001,-0.0155,-0.5,0.11016578294716492,10,1,100,-0.12947386928743096,-10,-1,-100,18843.183269590023,0.003420530660388561,0.011948177489476434,0.9999227675299134,66.53012634985569,4.123733096524147,452.65159022571015,-118.03487143777137,-90.09617614746094,4761.76025390625,True
1599385002.9221132,0.0,10,0.5,0.5,0.008035066604614258,-0.001,-0.0155,-0.5,0.10307830590119683,10,1,100,-0.13414713284633067,-10,-1,-100,18838.450968255638,0.004330646797676855,0.011686745956466677,0.9999223297172951,66.50929138457442,4.1234718240984325,454.0365712835115,-118.3984113194808,-90.11097717285156,4761.76025390625,True
1599385002.952992,0.0,10,0.5,0.5,0.004532491683959961,-0.001,-0.0155,-0.5,0.11244740236702824,10,1,100,-0.09446653861652882,-10,-1,-100,18836.079364700592,0.004790035658634293,0.01153495863329561,0.9999219971016325,66.49952764829726,4.123381093771267,454.7333800310314,-118.58017754471521,-90.11833190917969,4761.76025390625,True
1599385002.9856682,0.0,10,0.5,0.5,0.00854474220275879,-0.001,-0.0155,-0.5,0.09107114214014243,10,1,100,-0.14299706054419759,-10,-1,-100,18831.325251632254,0.005641174061757997,0.011203482610337897,0.9999213264715404,66.47763380671807,4.12305147242075,456.11051313173897,-118.94370287168582,-90.13323211669922,4761.76025390625,True
1599385003.0197477,0.0,10,0.5,0.5,0.008348731231689454,-0.001,-0.0155,-0.5,0.08344127738469892,10,1,100,-0.1454263404352391,-10,-1,-100,18826.55659782351,0.00642910823111269,0.010833957824581915,0.9999206428138224,66.45505781149116,4.122677431656758,457.4825200469267,-119.30721854098553,-90.14724731445312,4761.76025390625,True
1599385003.0554228,0.0,10,0.5,0.5,0.004932114791870117,-0.001,-0.0155,-0.5,0.09785007256624181,10,1,100,-0.10991656124788449,-10,-1,-100,18824.16681827046,0.006816085862482534,0.01063055210395906,0.9999202629887446,66.44467472481341,4.122545735538463,458.17460318841927,-119.48897288770377,-90.1540298461914,4761.76025390625,True
1599385003.0859776,0.0,10,0.5,0.5,0.008326342391967773,-0.001,-0.0155,-0.5,0.07057404739117112,10,1,100,-0.15088599248572626,-10,-1,-100,18819.376354242908,0.007533471301703054,0.010199395717234036,0.9999196063370043,66.42462848212948,4.122325276908216,459.56350669068513,-119.85247465116056,-90.16716766357422,4761.76025390625,True
1599385003.1191928,0.0,10,0.5,0.5,0.007904216384887695,-0.001,-0.0155,-0.5,0.06256523699614862,10,1,100,-0.1516118595774561,-10,-1,-100,18814.57135015051,0.008185739838728775,0.009736678104183855,0.9999190921083506,66.40730889603986,4.1222719037588105,460.97108008893537,-120.215967078396,-90.1790542602539,4761.76025390625,True
1599385003.1521194,0.0,10,0.5,0.5,0.007760468292236328,-0.001,-0.0155,-0.5,0.05304686338213295,10,1,100,-0.1540923146889654,-10,-1,-100,18809.75180677406,0.008795092426508727,0.009231856737560575,0.9999187062808588,66.44297259779434,4.125506051023106,462.74755338640756,-120.57944858957327,-90.19026947021484,4761.76025390625,True
1599385003.1881518,0.0,10,0.5,0.5,0.004915339279174804,-0.001,-0.0155,-0.5,0.07486788394256652,10,1,100,-0.12362008094801652,-10,-1,-100,18807.336583037628,0.009066267353751569,0.008973967802440579,0.999918632038703,66.50344211913428,4.129770638741434,463.93412197861113,-120.76118339361192,-90.19544219970703,4761.76025390625,True
1599385003.2191527,0.0,10,0.5,0.5,0.00934225082397461,-0.001,-0.0155,-0.5,0.01050432939536379,10,1,100,-0.17705049121424865,-10,-1,-100,18800.0691046617,0.009792512830637555,0.008157301203104254,0.9999187792663681,66.72319832388555,4.1449489542744145,467.7721606219709,-121.30636046297388,-90.2090835571289,4761.76025390625,True
1599385003.252264,0.0,10,0.5,0.5,0.0046383205413818365,-0.001,-0.0155,-0.5,0.060531795229668284,10,1,100,-0.12810365586606542,-10,-1,-100,18797.639342931798,0.010001972049941105,0.007873118417007066,0.9999189839989557,66.80324322208547,4.150431555110444,469.10298349088254,-121.48807684604294,-90.21295928955078,4761.76025390625,True
1599385003.2853088,0.0,10,0.5,0.5,0.004735289001464844,-0.001,-0.0155,-0.5,0.05608248194324253,10,1,100,-0.1296779781184899,-10,-1,-100,18795.205946905073,0.010201545792282496,0.007577789061168897,0.9999192495278768,66.88665373799526,4.1561239539767785,470.45953223830406,-121.66978837386411,-90.21670532226562,4761.76025390625,True
1599385003.3212128,0.0,10,0.5,0.5,0.005954120635986328,-0.001,-0.0155,-0.5,0.0218300547363321,10,1,100,-0.14582772543199307,-10,-1,-100,18790.328253053827,0.010524872797139564,0.007001519553591491,0.9999200996962431,67.06351167520745,4.168134248575965,473.2498775886489,-122.03319681640268,-90.22257232666016,4761.76025390625,True
1599385003.3523886,0.0,10,0.5,0.5,0.0045007324218750006,-0.001,-0.0155,-0.5,0.045193572032808826,10,1,100,-0.1303263521748744,-10,-1,-100,18787.883955091238,0.010673445136730927,0.006693853761267952,0.999920631795712,67.15668643760324,4.174435317087462,474.68198920193373,-122.2148935035954,-90.22525024414062,4761.76025390625,True
1599385003.3851917,0.0,10,0.5,0.5,0.005652520751953125,-0.001,-0.0155,-0.5,0.007149849343515535,10,1,100,-0.14252677391327698,-10,-1,-100,18782.984457756393,0.010915565336794355,0.0060720692929469,0.9999219871609385,67.35302898776894,4.187660828936817,477.62423470646553,-122.57827157226335,-90.22998046875,4761.76025390625,True
