Timestamp,Input Throttle,horizon,dT,dt,Input Roll,Roll P,Roll I,Roll D,Input Pitch,Pitch P,Pitch I,Pitch D,Input Yaw,Yaw P,Yaw I,Yaw D,Altitude,Direction X,Direction Y,Direction Z,Drag X,Drag Y,Drag Z,Vertical Velocity,Roll,Mass,Has Fuel
1599388164.4234092,0.0,10,0.5,0.5,-11.213986892700195,-0.2,-0.00825,-0.37525,0.0007920497485307111,10,1,100,0.5037178940514893,-10,-1,-100,19348.345353257493,-0.0488967043360799,-0.00016497188473527729,0.998803827129906,61.16626553089948,3.6923873340593816,234.72053055984276,-68.84745252127281,-33.92376708984375,4761.76025390625,True
1599388164.4583178,0.0,10,0.5,0.5,-11.260105055236815,-0.2,-0.00825,-0.37525,0.00031720159703282707,10,1,100,0.5057000307934206,-10,-1,-100,19345.580507685547,-0.04900437085425275,-0.00014694081534564885,0.9987985532856841,61.34657013279274,3.704627215779936,236.7079445762694,-69.21235552970825,-33.92620849609375,4761.76025390625,True
1599388164.502199,0.0,10,0.5,0.5,-11.281019436645508,-0.2,-0.00825,-0.37525,0.0113622656869405,10,1,100,0.505237487919163,-10,-1,-100,19342.801066711894,-0.049053495143867316,-3.0005677978329942e-05,0.9987961522321909,61.528000610612715,3.716950150200071,238.70805188261647,-69.57724488577351,-33.97186279296875,4761.76025390625,True
1599388164.5410976,0.0,10,0.5,0.5,-11.344374424743652,-0.2,-0.00825,-0.37525,-0.00033424861758922503,10,1,100,0.5052304084720931,-10,-1,-100,19342.801066711894,-0.049053495143867316,-3.0005677978329942e-05,0.9987961522321909,61.528000610612715,3.716950150200071,238.70805188261647,-69.57724488577351,-33.97186279296875,4761.76025390625,True
1599388164.580988,0.0,10,0.5,0.5,-11.228352139282228,-0.2,-0.00825,-0.37525,0.02405513603291433,10,1,100,0.508542396463521,-10,-1,-100,19340.007030311623,-0.049039010039113144,0.00019174327855168267,0.9987968455741633,61.718869002902935,3.729851166482066,240.75334092774466,-69.94212002467572,-34.25390625,4761.76025390625,True
1599388164.6198537,0.0,10,0.5,0.5,-10.55971792602539,-0.2,-0.00825,-0.37525,0.08820263584341131,10,1,100,0.48725899049709354,-10,-1,-100,19334.37517461658,-0.04878777533506082,0.000976318016148438,0.9988086902810702,62.137728278631194,3.757844719707669,245.01639167164285,-70.67182147029774,-35.68017578125,4761.76025390625,True
1599388164.6587458,0.0,10,0.5,0.5,-10.476748348999024,-0.2,-0.00825,-0.37525,0.07693087690641351,10,1,100,0.48583634093840655,-10,-1,-100,19331.537356853718,-0.048502094448720584,0.0015862096799762822,0.9988218213339847,62.35619862620273,3.7723150833917383,247.19788426964757,-71.03664534685254,-36.83270263671875,4761.76025390625,True
1599388164.7006333,0.0,10,0.5,0.5,-10.953097071838378,-0.2,-0.00825,-0.37525,0.016100331491626704,10,1,100,0.5192546390173021,-10,-1,-100,19331.537356853718,-0.048502094448720584,0.0015862096799762822,0.9988218213339847,62.35619862620273,3.7723150833917383,247.19788426964757,-71.03664534685254,-36.83270263671875,4761.76025390625,True
1599388164.7405665,0.0,10,0.5,0.5,-10.164999864196776,-0.2,-0.00825,-0.37525,0.09659145640119698,10,1,100,0.4789121699242758,-10,-1,-100,19328.68494672759,-0.04809125191655787,0.0023165051703542155,0.998840260148185,62.56871524118653,3.786340653724878,249.3653960518861,-71.40145045712327,-38.278961181640625,4761.76025390625,True
1599388164.779451,0.0,10,0.5,0.5,-9.749571744537354,-0.2,-0.00825,-0.37525,0.11916555717572844,10,1,100,0.4669175751780693,-10,-1,-100,19325.817944971146,-0.04756499761515666,0.003183523345765937,0.9988630717876085,62.76266131414608,3.799127042579474,251.46797812700143,-71.76623707422425,-40.01873779296875,4761.76025390625,True
1599388164.8183565,0.0,10,0.5,0.5,-9.274162693023683,-0.2,-0.00825,-0.37525,0.14443354112706402,10,1,100,0.4529557849890439,-10,-1,-100,19322.936352279154,-0.04691641834160518,0.004198536519928947,0.9988899949349208,62.92366825133101,3.8097711962646623,253.4465762115353,-72.13100610874075,-42.0517578125,4761.76025390625,True
1599388164.8602414,0.0,10,0.5,0.5,-7.958987915802004,-0.2,-0.00825,-0.37525,0.22798118887795144,10,1,100,0.3800687805507541,-10,-1,-100,19318.58660632267,-0.04566599194893255,0.005876833013808238,0.9989394776526994,63.06604851313508,3.8193864822675194,256.025791537576,-72.67813167413806,-45.652557373046875,4761.76025390625,True
1599388164.904128,0.0,10,0.5,0.5,-7.708394175720214,-0.2,-0.00825,-0.37525,0.1969714081231571,10,1,100,0.3931913021579061,-10,-1,-100,19315.66853864526,-0.04465157122375455,0.007115173843355687,0.998977282768947,63.06466429849949,3.819688741374938,257.3580364432436,-73.04286871187135,-48.420257568359375,4761.76025390625,True
1599388164.943024,0.0,10,0.5,0.5,-6.029440650177002,-0.2,-0.00825,-0.37525,0.28686262836162874,10,1,100,0.2948110917446316,-10,-1,-100,19311.264082179987,-0.042839006764308525,0.009051635527365534,0.9990409838408668,62.859537565539505,3.807380762646879,258.52262669519473,-73.58996789272045,-53.123626708984375,4761.76025390625,True
1599388164.9839187,0.0,10,0.5,0.5,-5.763326304626466,-0.2,-0.00825,-0.37525,0.24195950184744375,10,1,100,0.3209248534697809,-10,-1,-100,19308.30954122136,-0.041434268260840366,0.010395588961604309,0.9990871499242848,62.54923267470807,3.7883504477912275,258.5754981761729,-73.9547070554753,-56.62689208984375,4761.76025390625,True
1599388165.023772,0.0,10,0.5,0.5,-7.059468925476074,-0.2,-0.00825,-0.37525,0.10858454299187148,10,1,100,0.46063822963876944,-10,-1,-100,19308.30954122136,-0.041434268260840366,0.010395588961604309,0.9990871499242848,62.54923267470807,3.7883504477912275,258.5754981761729,-73.9547070554753,-56.62689208984375,4761.76025390625,True
1599388165.0636973,0.0,10,0.5,0.5,-4.85703489227295,-0.2,-0.00825,-0.37525,0.2513546127723293,10,1,100,0.2894570023601061,-10,-1,-100,19305.340410172706,-0.0398847602920109,0.01168493571329442,0.9991359608050473,62.068199989201254,3.758754022394803,257.90696960957087,-74.31946157554133,-60.425506591796875,4761.76025390625,True
1599388165.1055923,0.0,10,0.5,0.5,-2.667899083709717,-0.2,-0.00825,-0.37525,0.3399494871940747,10,1,100,0.15429950300618106,-10,-1,-100,19300.859355269815,-0.03725524608454544,0.0136532964131801,0.9992125069955008,60.963120185043714,3.6908314793950177,255.26262173853246,-74.86664460977258,-66.67514038085938,4761.76025390625,True
1599388165.144487,0.0,10,0.5,0.5,-3.7054121139526366,-0.2,-0.00825,-0.37525,0.2164333640048228,10,1,100,0.31017333229548105,-10,-1,-100,19299.358374065137,-0.03629203784253791,0.014308871305234606,0.9992387823694624,60.4780790586446,3.6610887804455934,253.87649398289003,-75.04905805843063,-68.90554809570312,4761.76025390625,True
1599388165.184375,0.0,10,0.5,0.5,-1.8231668090820314,-0.2,-0.00825,-0.37525,0.28353620598134444,10,1,100,0.18660614098034686,-10,-1,-100,19296.345465794904,-0.034303782441551675,0.015503972164948098,0.999291187471055,59.31245753609801,3.589800342168554,250.24951316304555,-75.4139216098208,-73.588623046875,4761.76025390625,True
1599388165.225264,0.0,10,0.5,0.5,2.3443245117187494,-0.2,-0.00825,-0.37525,0.40705894950624477,10,1,100,-0.09440503491320051,-10,-1,-100,19290.275857858243,-0.02995368612814431,0.017702161115987474,0.9993945217876473,56.110310350618306,3.3951535325982936,239.13954800970413,-76.14382902967279,-83.84002685546875,4761.76025390625,True
1599388165.264162,0.0,10,0.5,0.5,-1.4680394454956054,-0.2,-0.00825,-0.37525,0.18859041686191302,10,1,100,0.3389083232061898,-10,-1,-100,19290.275857858243,-0.02995368612814431,0.017702161115987474,0.9993945217876473,56.110310350618306,3.3951535325982936,239.13954800970413,-76.14382902967279,-83.84002685546875,4761.76025390625,True
1599388165.3040552,0.0,10,0.5,0.5,1.7671554939270018,-0.2,-0.00825,-0.37525,0.291859094422315,10,1,100,0.0843849688631309,-10,-1,-100,19287.21915290819,-0.027654121366680856,0.018630216977352784,0.9994439276851972,54.03076247881549,3.2694854805793176,231.4343538685059,-76.50888718767612,-89.40924072265625,4761.76025390625,True
1599388165.345526,0.0,10,0.5,0.5,6.142489297866821,-0.2,-0.00825,-0.37525,0.36416463240384106,10,1,100,-0.2108417737210972,-10,-1,-100,19281.061932107084,-0.02289518069627298,0.02012075897557694,0.9995353749413434,54.497522455327335,3.299809143149665,235.770538556788,-77.23904400869533,-100.58936309814453,4761.76025390625,True
1599388165.3854132,0.0,10,0.5,0.5,1.9863076089859009,-0.2,-0.00825,-0.37525,0.21621734492624647,10,1,100,0.26305791071288676,-10,-1,-100,19281.061932107084,-0.02289518069627298,0.02012075897557694,0.9995353749413434,54.497522455327335,3.299809143149665,235.770538556788,-77.23904400869533,-100.58936309814453,4761.76025390625,True
1599388165.4243095,0.0,10,0.5,0.5,8.287079518127442,-0.2,-0.00825,-0.37525,0.32429629154173284,10,1,100,-0.25084890893832174,-10,-1,-100,19274.846314836293,-0.01824015423359342,0.02109445379025048,0.9996110847688844,57.459370010514355,3.4830478720138993,251.04590250322565,-77.96886765328527,-111.47941589355469,4761.76025390625,True
1599388165.4652462,0.0,10,0.5,0.5,4.245840538787842,-0.2,-0.00825,-0.37525,0.22799669655724372,10,1,100,0.21233432592690968,-10,-1,-100,19274.846314836293,-0.01824015423359342,0.02109445379025048,0.9996110847688844,57.459370010514355,3.4830478720138993,251.04590250322565,-77.96886765328527,-111.47941589355469,4761.76025390625,True
1599388165.5051389,0.0,10,0.5,0.5,7.181256148910522,-0.2,-0.00825,-0.37525,0.26098766282423846,10,1,100,-0.06235548255717624,-10,-1,-100,19271.716616242775,-0.015762651071063928,0.02138581755806229,0.9996470305255677,58.66718899800089,3.558423828843998,257.57806076867826,-78.33365455322239,-116.50904846191406,4761.76025390625,True
1599388165.5460377,0.0,10,0.5,0.5,10.613955766296387,-0.2,-0.00825,-0.37525,0.264989274097893,10,1,100,-0.3132520467507327,-10,-1,-100,19265.413453211193,-0.011249036335198859,0.021680042430247265,0.999701672971368,60.294602248039496,3.661140121284544,267.30017089004923,-79.0630311142573,-125.68585205078125,4761.76025390625,True
1599388165.5869524,0.0,10,0.5,0.5,7.217203970336914,-0.2,-0.00825,-0.37525,0.23630390399189669,10,1,100,0.13560512668504027,-10,-1,-100,19265.413453211193,-0.011249036335198859,0.021680042430247265,0.999701672971368,60.294602248039496,3.661140121284544,267.30017089004923,-79.0630311142573,-125.68585205078125,4761.76025390625,True
1599388165.6298542,0.0,10,0.5,0.5,9.645159659576418,-0.2,-0.00825,-0.37525,0.23991673753182619,10,1,100,-0.10194107277236511,-10,-1,-100,19262.239993173862,-0.009110484291137312,0.02170727176218726,0.9997228583105537,60.72380577717072,3.688823425366836,270.4997332650361,-79.42765021374957,-129.8318328857422,4761.76025390625,True
1599388165.6717684,0.0,10,0.5,0.5,12.388251672744751,-0.2,-0.00825,-0.37525,0.2181892800874568,10,1,100,-0.34004688810051836,-10,-1,-100,19255.84932211344,-0.00502069611340452,0.02153086235023281,0.9997555774172966,61.02088071724671,3.7091913616026595,274.42925696806293,-80.15681323921177,-137.23892211914062,4761.76025390625,True
1599388165.7136676,0.0,10,0.5,0.5,9.652795526504516,-0.2,-0.00825,-0.37525,0.23621309140632654,10,1,100,0.06643863067128691,-10,-1,-100,19255.84932211344,-0.00502069611340452,0.02153086235023281,0.9997555774172966,61.02088071724671,3.7091913616026595,274.42925696806293,-80.15681323921177,-137.23892211914062,4761.76025390625,True
1599388165.7545557,0.0,10,0.5,0.5,13.272786004257203,-0.2,-0.00825,-0.37525,0.2085910588263974,10,1,100,-0.33442939755118906,-10,-1,-100,19249.40032018174,-0.0013970171525213536,0.021277116012803562,0.9997726404924538,60.798316838688365,3.6968487686128864,276.02659946653733,-80.88593771815394,-143.46322631835938,4761.76025390625,True
1599388165.7954454,0.0,10,0.5,0.5,10.972486790657044,-0.2,-0.00825,-0.37525,0.23408132827304473,10,1,100,0.025788682182752456,-10,-1,-100,19249.40032018174,-0.0013970171525213536,0.021277116012803562,0.9997726404924538,60.798316838688365,3.6968487686128864,276.02659946653733,-80.88593771815394,-143.46322631835938,4761.76025390625,True
1599388165.8389537,0.0,10,0.5,0.5,12.544256943511963,-0.2,-0.00825,-0.37525,0.2023481400295859,10,1,100,-0.16822442269885907,-10,-1,-100,19246.153945469996,0.0003471945613626134,0.020987581249647367,0.9997796761733186,60.57722658454293,3.68366649812165,276.3183080610958,-81.25050062425427,-146.13406372070312,4761.76025390625,True
1599388165.8788488,0.0,10,0.5,0.5,12.935333069992065,-0.2,-0.00825,-0.37525,0.21812661171981823,10,1,100,-0.16402003469493645,-10,-1,-100,19242.89298842207,0.001877722275044236,0.02086790563718076,0.9997804782417865,60.31390054203284,3.6677510417799675,276.4078294542643,-81.6150682854297,-148.50645446777344,4761.76025390625,True
1599388165.9197059,0.0,10,0.5,0.5,13.271810697555543,-0.2,-0.00825,-0.37525,0.19793312780649167,10,1,100,-0.179517751079377,-10,-1,-100,19239.617448165664,0.003391710457787318,0.02057573845222912,0.999782544000102,60.037621940708576,3.650923966628528,276.42730676109966,-81.97964184707786,-150.58584594726562,4761.76025390625,True
1599388165.9606745,0.0,10,0.5,0.5,13.993692972564698,-0.2,-0.00825,-0.37525,0.19446127170416916,10,1,100,-0.25140605604190586,-10,-1,-100,19234.676794582512,0.005404180340368699,0.020279306027802726,0.9997797480354759,59.62994570322701,3.6259362432379003,276.4672014912541,-82.52651298489332,-153.1483154296875,4761.76025390625,True
1599388166.3611119,0.0,10,0.5,0.5,13.825053957366945,-0.2,-0.00825,-0.37525,0.20129894017268668,10,1,100,-0.18626996766294293,-10,-1,-100,19231.36479612568,0.0066264128695652305,0.020073256024767477,0.9997765525581435,59.38947904877535,3.6111164996719856,276.62613571429523,-82.89109920847898,-154.48733520507812,4761.76025390625,True
1599388166.396977,0.0,10,0.5,0.5,13.94629822845459,-0.2,-0.00825,-0.37525,0.2032344332266241,10,1,100,-0.18839402991372994,-10,-1,-100,19228.038214370143,0.007740592599110355,0.019904993946503483,0.9997719112088539,59.189044617356465,3.5987018968667104,276.9628471526983,-83.25568767586037,-155.5302734375,4761.76025390625,True
1599388166.4378808,0.0,10,0.5,0.5,13.812219694900515,-0.2,-0.00825,-0.37525,0.21244869240306896,10,1,100,-0.13533800211155583,-10,-1,-100,19226.369454614003,0.00825583657604957,0.01983743284769997,0.9997691320602184,59.10743763943935,3.5936197757618458,277.2155306448466,-83.43798180349177,-155.940673828125,4761.76025390625,True
1599388166.478813,0.0,10,0.5,0.5,14.018421966934206,-0.2,-0.00825,-0.37525,0.20397185637480603,10,1,100,-0.19072878174425562,-10,-1,-100,19223.020997689804,0.009215723158392078,0.019700491002623964,0.9997634525731192,58.98657132585225,3.5860243741720574,277.915668168015,-83.80256824313757,-156.54002380371094,4761.76025390625,True
1599388166.5242386,0.0,10,0.5,0.5,13.983929573822023,-0.2,-0.00825,-0.37525,0.20749361463215282,10,1,100,-0.18976167436035585,-10,-1,-100,19219.65795728471,0.010066613239511817,0.0196096783743013,0.9997570323893414,58.92554695429362,3.58206571133911,278.89446898117217,-84.16714960221773,-156.84335327148438,4761.76025390625,True
1599388166.5640945,0.0,10,0.5,0.5,13.885708157348635,-0.2,-0.00825,-0.37525,0.20759941744895571,10,1,100,-0.1885442064059663,-10,-1,-100,19216.28033384483,0.010818660304224372,0.01952959913565027,0.9997507446092863,58.92734697228953,3.5819304097911946,280.16990966496996,-84.5317225971808,-156.85128784179688,4761.76025390625,True
1599388166.6035058,0.0,10,0.5,0.5,13.72808953552246,-0.2,-0.00825,-0.37525,0.21256069860128168,10,1,100,-0.18521678781834494,-10,-1,-100,19212.888127846294,0.011460985032751277,0.019503491035422437,0.9997440970866046,58.9917996293365,3.5856120705018832,281.74515834516166,-84.89628379023164,-156.56326293945312,4761.76025390625,True
1599388166.6394067,0.0,10,0.5,0.5,13.509171507263185,-0.2,-0.00825,-0.37525,0.21435084362789783,10,1,100,-0.18137994673880486,-10,-1,-100,19209.481339809252,0.011999932784805928,0.019497379617470213,0.9997378925504485,59.118525739212465,3.5930920154459396,283.62238019716295,-85.26083000419263,-155.9798583984375,4761.76025390625,True
1599388166.6792996,0.0,10,0.5,0.5,12.912226877975463,-0.2,-0.00825,-0.37525,0.2199554055572978,10,1,100,-0.19560469778485445,-10,-1,-100,19204.343817879097,0.012609999195719914,0.019544020278707927,0.9997294730033868,59.41662615165313,3.6109161979849396,286.9708221031267,-85.80761466118139,-154.5508575439453,4761.76025390625,True
1599388166.7191923,0.0,10,0.5,0.5,12.691386943817138,-0.2,-0.00825,-0.37525,0.22237429741794384,10,1,100,-0.16544086896077478,-10,-1,-100,19200.900578019442,0.012882008135661057,0.019609348731451287,0.9997247257664086,59.67787002883817,3.626639211639905,289.51746732984265,-86.1721104502068,-153.22909545898438,4761.76025390625,True
1599388166.7570908,0.0,10,0.5,0.5,13.187444809722901,-0.2,-0.00825,-0.37525,0.2157744564139727,10,1,100,-0.13898775774618974,-10,-1,-100,19200.900578019442,0.012882008135661057,0.019609348731451287,0.9997247257664086,59.67787002883817,3.626639211639905,289.51746732984265,-86.1721104502068,-153.22909545898438,4761.76025390625,True
1599388166.797982,0.0,10,0.5,0.5,11.156556172180176,-0.2,-0.00825,-0.37525,0.23765710213763133,10,1,100,-0.16288311138995493,-10,-1,-100,19193.970362260705,0.01309355171854429,0.019808703608296653,0.9997180473337233,60.306669956077506,3.6647174985278874,295.1656142077728,-86.90102649073363,-149.70045471191406,4761.76025390625,True
1599388166.8388724,0.0,10,0.5,0.5,11.206669278335571,-0.2,-0.00825,-0.37525,0.23017028925017607,10,1,100,-0.1367948693812016,-10,-1,-100,19190.483388485503,0.013043831903704532,0.019921960915850308,0.9997164467600476,60.6474153567775,3.6854900881929438,298.13986083383264,-87.26544420661585,-147.49411010742188,4761.76025390625,True
1599388166.8787668,0.0,10,0.5,0.5,12.027631676101686,-0.2,-0.00825,-0.37525,0.21885301130162563,10,1,100,-0.14224565039794293,-10,-1,-100,19190.483388485503,0.013043831903704532,0.019921960915850308,0.9997164467600476,60.6474153567775,3.6854900881929438,298.13986083383264,-87.26544420661585,-147.49411010742188,4761.76025390625,True
1599388166.9186585,0.0,10,0.5,0.5,10.581517140197755,-0.2,-0.00825,-0.37525,0.232349758982252,10,1,100,-0.12359819718514159,-10,-1,-100,19186.98183867871,0.012870829502910599,0.02004445728575307,0.9997162404802807,60.98317505284622,3.706087819777157,301.104413974471,-87.62983466936461,-144.99319458007812,4761.76025390625,True
1599388166.9575546,0.0,10,0.5,0.5,9.03499114074707,-0.2,-0.00825,-0.37525,0.23848764344483764,10,1,100,-0.09224333930160361,-10,-1,-100,19181.702186773997,0.012425961143008134,0.02021122131813231,0.9997185113933331,61.43581840926784,3.734202718263793,305.32551573269274,-88.1763726592589,-140.69033813476562,4761.76025390625,True
1599388166.996451,0.0,10,0.5,0.5,9.726654309844971,-0.2,-0.00825,-0.37525,0.22757142677985895,10,1,100,-0.11465298902916271,-10,-1,-100,19179.93501585198,0.012223798267130263,0.020262966994084104,0.9997199562500096,61.56159392470709,3.742151500776905,306.614221348778,-88.35854061504696,-139.10902404785156,4761.76025390625,True
1599388167.0383413,0.0,10,0.5,0.5,7.323438042068481,-0.2,-0.00825,-0.37525,0.23388728602412862,10,1,100,-0.0517115298969191,-10,-1,-100,19174.611643823213,0.011467125284916913,0.020366734987207584,0.9997268132563321,61.81977127261999,3.7591221555688348,309.90024215990854,-88.90501894426717,-133.92483520507812,4761.76025390625,True
1599388167.0772343,0.0,10,0.5,0.5,8.172147425460814,-0.2,-0.00825,-0.37525,0.22555590343818355,10,1,100,-0.09434062707458926,-10,-1,-100,19172.829900385113,0.011167262373156222,0.02038453936165694,0.9997298449111651,61.85435656388629,3.761782054973492,310.74110739607937,-89.08717249245504,-132.05006408691406,4761.76025390625,True
1599388167.1161315,0.0,10,0.5,0.5,6.573585926437378,-0.2,-0.00825,-0.37525,0.22562223732382172,10,1,100,-0.04984598237539001,-10,-1,-100,19169.255484000314,0.010491474535037931,0.020400564083677658,0.9997368383465464,61.82447916205038,3.7612850021547493,311.92616510514495,-89.4514769728959,-128.08047485351562,4761.76025390625,True
1599388167.158018,0.0,10,0.5,0.5,5.590543802642823,-0.2,-0.00825,-0.37525,0.21834859064368412,10,1,100,-0.035265909598618375,-10,-1,-100,19165.66649554984,0.009746749051142128,0.020348288665375035,0.9997454416156768,61.63650017644413,3.7514349702084684,312.310202282087,-89.81578615517435,-123.81818389892578,4761.76025390625,True
1599388167.197913,0.0,10,0.5,0.5,3.171997825813294,-0.2,-0.00825,-0.37525,0.20507182675377675,10,1,100,0.03147083462039553,-10,-1,-100,19160.255688310717,0.008465878444777197,0.02017939594070629,0.9997605317682963,60.986004946609576,3.7146295390849917,310.9950511224963,-90.36228496607623,-116.87562561035156,4761.76025390625,True
1599388167.2398,0.0,10,0.5,0.5,4.334787203407288,-0.2,-0.00825,-0.37525,0.2117980276667324,10,1,100,-0.04593662014405428,-10,-1,-100,19158.44479890645,0.008009361730734774,0.020086667388095746,0.9997661606185251,60.65442177212809,3.6954391177975294,309.96190841069216,-90.5444671328547,-114.4152603149414,4761.76025390625,True
1599388167.281688,0.0,10,0.5,0.5,0.7325445671081545,-0.2,-0.00825,-0.37525,0.17855722896250312,10,1,100,0.0668499300625696,-10,-1,-100,19152.990266317734,0.006573591052611418,0.019700029891618398,0.9997843251036407,59.35667376511802,3.619384081199866,305.26456269275525,-91.09108371359127,-106.59569549560547,4761.76025390625,True
1599388167.3235757,0.0,10,0.5,0.5,2.0496829336166384,-0.2,-0.00825,-0.37525,0.1986685719589647,10,1,100,-0.02191413161944982,-10,-1,-100,19151.164799769875,0.006081173034018628,0.01953157340481067,0.9997907465939376,58.848804675316906,3.5893729502937592,303.29317522836493,-91.27331553900035,-103.84313201904297,4761.76025390625,True
1599388167.3654633,0.0,10,0.5,0.5,-3.681750168609619,-0.2,-0.00825,-0.37525,0.1202249431317159,10,1,100,0.15433412527377754,-10,-1,-100,19143.826481676544,0.004037435823967562,0.018665773503720423,0.9998176273758507,56.26765176954601,3.4348888782366975,292.445434556446,-92.00240149990812,-92.14320373535156,4761.76025390625,True
1599388167.4093473,0.0,10,0.5,0.5,-2.9180349014282223,-0.2,-0.00825,-0.37525,0.14497725415770463,10,1,100,0.06685879142288384,-10,-1,-100,19140.135447022505,0.0029823491455829372,0.018105108646433197,0.9998316411448853,56.52174126846705,3.4511679051796955,295.0012681630383,-92.3670057524419,-85.90829467773438,4761.76025390625,True
1599388167.4502373,0.0,10,0.5,0.5,-4.200875793838501,-0.2,-0.00825,-0.37525,0.13548711685559797,10,1,100,0.0685305235235265,-10,-1,-100,19136.429831448128,0.0020163831907924787,0.017511101035559886,0.9998446357006424,58.916746334013425,3.5976751008524466,308.78939253127095,-92.731497911692,-79.68734741210938,4761.76025390625,True
1599388167.4901297,0.0,10,0.5,0.5,-1.9112112598419189,-0.2,-0.00825,-0.37525,0.1946023145477643,10,1,100,-0.027120997746106917,-10,-1,-100,19136.429831448128,0.0020163831907924787,0.017511101035559886,0.9998446357006424,58.916746334013425,3.5976751008524466,308.78939253127095,-92.731497911692,-79.68734741210938,4761.76025390625,True
1599388167.5320604,0.0,10,0.5,0.5,-8.652523332214354,-0.2,-0.00825,-0.37525,0.039969673622423374,10,1,100,0.1854854432853744,-10,-1,-100,19128.974875755026,9.191634430843397e-05,0.01610796197108051,0.9998702541392677,62.684766205079555,3.827412958614224,331.2773510880594,-93.46015521231027,-68.04351806640625,4761.76025390625,True
1599388167.5739822,0.0,10,0.5,0.5,-7.426817348480225,-0.2,-0.00825,-0.37525,0.09030959312018999,10,1,100,0.09568089441378957,-10,-1,-100,19125.225543159177,-0.000831739837125627,0.015293919000726774,0.9998826952450185,64.06267783528,3.9112912580144683,339.95801160327863,-93.82434496221488,-62.664794921875,4761.76025390625,True
1599388167.612481,0.0,10,0.5,0.5,-5.45890303440094,-0.2,-0.00825,-0.37525,0.1712084531890989,10,1,100,0.004373125159210243,-10,-1,-100,19125.225543159177,-0.000831739837125627,0.015293919000726774,0.9998826952450185,64.06267783528,3.9112912580144683,339.95801160327863,-93.82434496221488,-62.664794921875,4761.76025390625,True
1599388167.6583233,0.0,10,0.5,0.5,-11.179147256278991,-0.2,-0.00825,-0.37525,-0.0044391796855053345,10,1,100,0.1879432442279347,-10,-1,-100,19117.683184971684,-0.0024921067211304835,0.01370156368090308,0.9999030235761811,65.95154302271047,4.026689342972007,352.8601009788953,-94.55252147185787,-52.798614501953125,4761.76025390625,True
1599388167.7012422,0.0,10,0.5,0.5,-10.108088380432129,-0.2,-0.00825,-0.37525,0.05613687771472528,10,1,100,0.10858067971865007,-10,-1,-100,19113.89016351523,-0.0032705065124578876,0.012810464006253812,0.9999125940796508,66.52884225131707,4.0624444233349175,357.4009300234234,-94.91653846499116,-48.31292724609375,4761.76025390625,True
1599388167.7428164,0.0,10,0.5,0.5,-8.472917521476747,-0.2,-0.00825,-0.37525,0.14455788859111562,10,1,100,0.03172511034241658,-10,-1,-100,19113.89016351523,-0.0032705065124578876,0.012810464006253812,0.9999125940796508,66.52884225131707,4.0624444233349175,357.4009300234234,-94.91653846499116,-48.31292724609375,4761.76025390625,True
1599388167.7847033,0.0,10,0.5,0.5,-10.929081510543824,-0.2,-0.00825,-0.37525,0.05711586091932852,10,1,100,0.11257193506659288,-10,-1,-100,19110.082581974682,-0.0039969761194536026,0.012021646581418072,0.9999197488775646,66.90831798355046,4.08648181258883,360.9006975992942,-95.28052597739419,-44.122833251953125,4761.76025390625,True
1599388167.8265915,0.0,10,0.5,0.5,-11.635255117034912,-0.2,-0.00825,-0.37525,0.04167789991301299,10,1,100,0.11715860695352873,-10,-1,-100,19106.260441574268,-0.004691796041200559,0.011170234846893896,0.9999266037581823,67.12386607386307,4.100859342447947,363.5304600318561,-95.64449570949729,-40.230804443359375,4761.76025390625,True
1599388167.8676093,0.0,10,0.5,0.5,-14.177867238616944,-0.2,-0.00825,-0.37525,-0.05923846347363104,10,1,100,0.18695220219193534,-10,-1,-100,19098.572485344717,-0.005950961249331686,0.009485107124538372,0.9999373074363438,67.19212156448623,4.108342834093338,366.84226544197077,-96.3724167440109,-33.337432861328125,4761.76025390625,True
1599388167.9115248,0.0,10,0.5,0.5,-11.629368231964113,-0.2,-0.00825,-0.37525,0.10847170937081922,10,1,100,0.0618324158228351,-10,-1,-100,19098.572485344717,-0.005950961249331686,0.009485107124538372,0.9999373074363438,67.19212156448623,4.108342834093338,366.84226544197077,-96.3724167440109,-33.337432861328125,4761.76025390625,True
1599388167.9573696,0.0,10,0.5,0.5,-13.394427780914308,-0.2,-0.00825,-0.37525,0.01847274465016903,10,1,100,0.12679863443782624,-10,-1,-100,19094.70666961756,-0.006534320196340583,0.008674231076087936,0.9999410284485833,67.10487683088097,4.105000780789504,367.83799607745925,-96.73637995081309,-30.3355712890625,4761.76025390625,True
1599388167.997263,0.0,10,0.5,0.5,-15.241556635284423,-0.2,-0.00825,-0.37525,-0.06918090623808162,10,1,100,0.18914373200510864,-10,-1,-100,19086.931361676543,-0.007625396274650649,0.00714697759750798,0.9999453855300675,66.820254264713,4.091968539123006,369.2156233660065,-97.46432708940573,-25.220458984375,4761.76025390625,True
1599388168.0391855,0.0,10,0.5,0.5,-13.353002320098877,-0.2,-0.00825,-0.37525,0.08272974747959203,10,1,100,0.08071548981785455,-10,-1,-100,19086.931361676543,-0.007625396274650649,0.00714697759750798,0.9999453855300675,66.820254264713,4.091968539123006,369.2156233660065,-97.46432708940573,-25.220458984375,4761.76025390625,True
1599388168.0800414,0.0,10,0.5,0.5,-14.599839820098877,-0.2,-0.00825,-0.37525,0.005648339179118153,10,1,100,0.13905149491982036,-10,-1,-100,19083.02186891029,-0.008149547542452588,0.0064536438324156896,0.9999459662182439,66.66664339314043,4.0848613647125775,369.83543703992507,-97.82831243416443,-23.106689453125,4761.76025390625,True
1599388168.1205065,0.0,10,0.5,0.5,-15.752336093139649,-0.2,-0.00825,-0.37525,-0.06751924208657883,10,1,100,0.19656549776937188,-10,-1,-100,19075.159203985124,-0.009143760138339981,0.005164769597960441,0.9999448568823844,66.42939117477222,4.074972047626904,371.45177289698205,-98.55630062036832,-19.766937255859375,4761.76025390625,True
1599388168.162396,0.0,10,0.5,0.5,-14.522644522857666,-0.2,-0.00825,-0.37525,0.06060361191811667,10,1,100,0.0977315635432208,-10,-1,-100,19075.159203985124,-0.009143760138339981,0.005164769597960441,0.9999448568823844,66.42939117477222,4.074972047626904,371.45177289698205,-98.55630062036832,-19.766937255859375,4761.76025390625,True
1599388168.2012918,0.0,10,0.5,0.5,-15.251862818908693,-0.2,-0.00825,-0.37525,-0.0022045453855427666,10,1,100,0.15225524092529247,-10,-1,-100,19071.206032158807,-0.009634090611244376,0.004600736981025622,0.9999430071345695,66.37379393600425,4.0738780813192275,372.6085960480751,-98.9202980984021,-18.54022216796875,4761.76025390625,True
1599388168.2416923,0.0,10,0.5,0.5,-15.348534795379638,-0.2,-0.00825,-0.37525,-0.0012127731949759593,10,1,100,0.1584388960603453,-10,-1,-100,19067.238300264464,-0.010130935983756315,0.00410374244881766,0.9999402599325655,66.37522846548158,4.076266605249458,374.0860182529734,-99.2842930845664,-17.608642578125,4761.76025390625,True
1599388168.282584,0.0,10,0.5,0.5,-15.579232418823242,-0.2,-0.00825,-0.37525,-0.05315665309032109,10,1,100,0.2111828779259945,-10,-1,-100,19059.259157607215,-0.011057159666688928,0.0031861362317600803,0.9999337916862385,66.57927674072653,4.093368111470727,378.18825153488626,-100.01225958826821,-16.632354736328125,4761.76025390625,True
1599388168.3237019,0.0,10,0.5,0.5,-15.22666209564209,-0.2,-0.00825,-0.37525,0.037974071526159024,10,1,100,0.11907112947446886,-10,-1,-100,19059.259157607215,-0.011057159666688928,0.0031861362317600803,0.9999337916862385,66.57927674072653,4.093368111470727,378.18825153488626,-100.01225958826821,-16.632354736328125,4761.76025390625,True
1599388168.364592,0.0,10,0.5,0.5,-15.123648794555665,-0.2,-0.00825,-0.37525,-0.03475251564363853,10,1,100,0.222562417085057,-10,-1,-100,19051.22178069607,-0.011993347555496678,0.0025307117764826284,0.999924874734256,67.07777091951249,4.12860177408321,383.99933888871163,-100.74016427350581,-16.83538818359375,4761.76025390625,True
1599388168.407477,0.0,10,0.5,0.5,-15.210974746704103,-0.2,-0.00825,-0.37525,0.030175577954146143,10,1,100,0.1294895309401977,-10,-1,-100,19051.22178069607,-0.011993347555496678,0.0025307117764826284,0.999924874734256,67.07777091951249,4.12860177408321,383.99933888871163,-100.74016427350581,-16.83538818359375,4761.76025390625,True
1599388168.4488778,0.0,10,0.5,0.5,-14.422885975646972,-0.2,-0.00825,-0.37525,-0.017564928565063767,10,1,100,0.23004788353964273,-10,-1,-100,19043.12617614155,-0.012903543532509045,0.0021009037770543795,0.9999145387319979,67.87108836062774,4.18211814679315,391.5597932730981,-101.467969379123,-18.2174072265625,4761.76025390625,True
1599388168.488771,0.0,10,0.5,0.5,-14.947266139221192,-0.2,-0.00825,-0.37525,0.024911263995715763,10,1,100,0.13955610056419182,-10,-1,-100,19043.12617614155,-0.012903543532509045,0.0021009037770543795,0.9999145387319979,67.87108836062774,4.18211814679315,391.5597932730981,-101.467969379123,-18.2174072265625,4761.76025390625,True
1599388168.53017,0.0,10,0.5,0.5,-14.299456298828124,-0.2,-0.00825,-0.37525,0.008061771116095375,10,1,100,0.1885089377432575,-10,-1,-100,19039.056541315862,-0.013344247510509591,0.0019516836054717954,0.9999090568594139,68.36776406158131,4.215114195635186,395.94696898632105,-101.83182311777718,-19.350555419921875,4761.76025390625,True
1599388168.5740526,0.0,10,0.5,0.5,-13.904359017944337,-0.2,-0.00825,-0.37525,0.019349744978969616,10,1,100,0.19326793301838152,-10,-1,-100,19034.97235358751,-0.013784332459036515,0.001921567835506929,0.9999031451874288,68.92152930659871,4.251683405302326,400.688786796216,-102.195638694149,-20.77716064453125,4761.76025390625,True
1599388168.6149416,0.0,10,0.5,0.5,-12.289273111724855,-0.2,-0.00825,-0.37525,0.028051674934240326,10,1,100,0.24125508297771192,-10,-1,-100,19026.7603259132,-0.014616437800672453,0.0019762466821890146,0.9998912211811194,70.1522103258389,4.33253457520049,410.96911708520736,-102.92314095943942,-24.513946533203125,4761.76025390625,True
1599388168.6588235,0.0,10,0.5,0.5,-13.686573693847658,-0.2,-0.00825,-0.37525,0.022321341236148103,10,1,100,0.15854278353306095,-10,-1,-100,19026.7603259132,-0.014616437800672453,0.0019762466821890146,0.9998912211811194,70.1522103258389,4.33253457520049,410.96911708520736,-102.92314095943942,-24.513946533203125,4761.76025390625,True
1599388168.6987166,0.0,10,0.5,0.5,-12.35245449295044,-0.2,-0.00825,-0.37525,0.03612146986309939,10,1,100,0.2012515312792183,-10,-1,-100,19022.6324895547,-0.015000621414894869,0.0021036364840400523,0.9998852714540354,70.79991866254747,4.3749632446111955,416.3410731573272,-103.28682260006511,-26.8232421875,4761.76025390625,True
1599388168.7396088,0.0,10,0.5,0.5,-11.71330650177002,-0.2,-0.00825,-0.37525,0.045876200082455534,10,1,100,0.2013765801475613,-10,-1,-100,19018.490107438993,-0.015347431088674542,0.002309108851123979,0.9998795549341392,71.44335498736349,4.417073486973102,421.7167247613998,-103.6504563561504,-29.426116943359375,4761.76025390625,True
1599388168.781495,0.0,10,0.5,0.5,-11.01297932434082,-0.2,-0.00825,-0.37525,0.05141078735777393,10,1,100,0.20411704203368095,-10,-1,-100,19014.333181389607,-0.01568372565341898,0.0025470136395037484,0.9998737587671498,72.0592361841524,4.457365607571536,426.9577603397673,-104.01404282942671,-32.3231201171875,4761.76025390625,True
1599388168.820392,0.0,10,0.5,0.5,-8.247884318542482,-0.2,-0.00825,-0.37525,0.102021887859025,10,1,100,0.2285150506018071,-10,-1,-100,19005.975704118726,-0.016207893173716962,0.0032233768136212568,0.9998634476971278,73.10935238791454,4.526073782742324,436.43785461195483,-104.74108535021004,-38.997467041015625,4761.76025390625,True
1599388168.875246,0.0,10,0.5,0.5,-10.734149286651611,-0.2,-0.00825,-0.37525,0.03445483695098802,10,1,100,0.17651975313383106,-10,-1,-100,19005.975704118726,-0.016207893173716962,0.0032233768136212568,0.9998634476971278,73.10935238791454,4.526073782742324,436.43785461195483,-104.74108535021004,-38.997467041015625,4761.76025390625,True
1599388168.916135,0.0,10,0.5,0.5,-6.202167488098144,-0.2,-0.00825,-0.37525,0.1285557029101782,10,1,100,0.21075892031694632,-10,-1,-100,18997.560070851236,-0.01651615437570782,0.004077818801398834,0.9998552835478046,73.7078841653759,4.565458518458888,443.2970471667064,-105.46799572208337,-46.845947265625,4761.76025390625,True
1599388168.956029,0.0,10,0.5,0.5,-6.613151840209962,-0.2,-0.00825,-0.37525,0.09692004805191229,10,1,100,0.1902869925563905,-10,-1,-100,18993.33044785366,-0.01660699920620064,0.004565190187008446,0.9998516723074087,73.7487756346495,4.5684863754343175,445.1885420256716,-105.83142682367152,-51.210205078125,4761.76025390625,True
1599388168.9949248,0.0,10,0.5,0.5,-8.224555373382568,-0.2,-0.00825,-0.37525,0.04844426014910472,10,1,100,0.18152878467667763,-10,-1,-100,18993.33044785366,-0.01660699920620064,0.004565190187008446,0.9998516723074087,73.7487756346495,4.5684863754343175,445.1885420256716,-105.83142682367152,-51.210205078125,4761.76025390625,True
1599388169.0358157,0.0,10,0.5,0.5,-5.519957205963136,-0.2,-0.00825,-0.37525,0.10260336689492089,10,1,100,0.17979863632536142,-10,-1,-100,18989.086287682294,-0.0165887045241458,0.005055142409832683,0.9998496189014761,73.56919883491717,4.557397336897982,445.7479397564274,-106.19486079943246,-55.8681640625,4761.76025390625,True
1599388169.0767057,0.0,10,0.5,0.5,-4.393809909057618,-0.2,-0.00825,-0.37525,0.11033492777298076,10,1,100,0.17479125023721703,-10,-1,-100,18984.82758952491,-0.016524758333546018,0.005568041442448312,0.9998479530791234,73.12682291042093,4.529618393226216,444.7037454141625,-106.55831467560127,-60.819366455078125,4761.76025390625,True
1599388169.1162798,0.0,10,0.5,0.5,-1.6332263916015624,-0.2,-0.00825,-0.37525,0.14566644828252773,10,1,100,0.15688655076137487,-10,-1,-100,18978.41228044557,-0.016302120600917767,0.006352243663312711,0.9998469332174574,71.88880616607345,4.451867839631872,439.59391366786275,-107.10357537567985,-68.7960205078125,4761.76025390625,True
1599388169.1591659,0.0,10,0.5,0.5,-2.977880030822754,-0.2,-0.00825,-0.37525,0.09540972052841318,10,1,100,0.16718821326927819,-10,-1,-100,18976.26657330012,-0.016192190958431184,0.006604413059807239,0.9998470856486512,71.30473061588067,4.415297510979736,436.8240088782571,-107.2853601999673,-71.6016845703125,4761.76025390625,True
1599388169.2000558,0.0,10,0.5,0.5,-0.6414910865783696,-0.2,-0.00825,-0.37525,0.12492462510310981,10,1,100,0.14915466711635728,-10,-1,-100,18971.9642499201,-0.01592754562762614,0.0070980704580188856,0.9998479537840007,69.85280224165584,4.324711740555287,429.502965789758,-107.64899184784215,-77.43292236328125,4761.76025390625,True
1599388169.2415247,0.0,10,0.5,0.5,0.7308358818054197,-0.2,-0.00825,-0.37525,0.12560924289422384,10,1,100,0.140236475840276,-10,-1,-100,18967.64737822581,-0.015605662842589718,0.007548936384659133,0.9998497271323845,67.997314212693,4.209537353004415,419.62977392021804,-108.01272175525565,-83.55770874023438,4761.76025390625,True
1599388169.285407,0.0,10,0.5,0.5,5.990821984863281,-0.2,-0.00825,-0.37525,0.1693241362071512,10,1,100,0.08380843434959401,-10,-1,-100,18958.96997470397,-0.014800607415669614,0.00835229029393048,0.9998555802049479,66.1817916244557,4.098733281520061,411.4221589863531,-108.74044093206567,-96.63298034667969,4761.76025390625,True
1599388169.3264296,0.0,10,0.5,0.5,1.1318756130218506,-0.2,-0.00825,-0.37525,0.08950163662804733,10,1,100,0.16417324846579967,-10,-1,-100,18958.96997470397,-0.014800607415669614,0.00835229029393048,0.9998555802049479,66.1817916244557,4.098733281520061,411.4221589863531,-108.74044093206567,-96.63298034667969,4761.76025390625,True
1599388169.3673193,0.0,10,0.5,0.5,8.690466591262817,-0.2,-0.00825,-0.37525,0.15249860247310576,10,1,100,0.062224500836464844,-10,-1,-100,18950.23436876759,-0.013875360207184786,0.008921104100255983,0.9998639348835188,70.38904976471936,4.364064272338247,440.7628009243368,-109.46777617720913,-109.70124053955078,4761.76025390625,True
1599388169.410239,0.0,10,0.5,0.5,3.8348570581436157,-0.2,-0.00825,-0.37525,0.09605281323188027,10,1,100,0.154476057785046,-10,-1,-100,18950.23436876759,-0.013875360207184786,0.008921104100255983,0.9998639348835188,70.38904976471936,4.364064272338247,440.7628009243368,-109.46777617720913,-109.70124053955078,4761.76025390625,True
1599388169.453091,0.0,10,0.5,0.5,7.412917296218872,-0.2,-0.00825,-0.37525,0.11904187341405348,10,1,100,0.09621327105535621,-10,-1,-100,18945.84475286305,-0.013348181817823076,0.009126135634718242,0.9998692612989636,72.08612333757618,4.472129731809717,453.0176403260428,-109.83125227498041,-115.83736419677734,4761.76025390625,True
1599388169.4929833,0.0,10,0.5,0.5,8.5200549741745,-0.2,-0.00825,-0.37525,0.11328716941025119,10,1,100,0.09621979285231161,-10,-1,-100,18941.440601507085,-0.012871933955381408,0.00925651154489947,0.9998743072558007,73.47836121762538,4.5612438018395185,463.4241753827008,-110.19461927861373,-121.67872619628906,4761.76025390625,True
1599388169.5338748,0.0,10,0.5,0.5,9.568053052330018,-0.2,-0.00825,-0.37525,0.10804598931673295,10,1,100,0.08490541272020947,-10,-1,-100,18937.021917970385,-0.012339444101395477,0.009324034853211828,0.9998803930937563,74.47085391701209,4.625231287383316,471.3615766371293,-110.55790315151305,-127.22372436523438,4761.76025390625,True
1599388169.574766,0.0,10,0.5,0.5,10.55464497280121,-0.2,-0.00825,-0.37525,0.10271769317124779,10,1,100,0.08362161003752135,-10,-1,-100,18932.58870457369,-0.011847293915656122,0.009334278994727834,0.9998862499617267,75.10304168155577,4.666347757412731,477.05423390522293,-110.92112904989325,-132.47213745117188,4761.76025390625,True
1599388169.6136603,0.0,10,0.5,0.5,14.16212696285248,-0.2,-0.00825,-0.37525,0.08481586817327275,10,1,100,0.02669543066343881,-10,-1,-100,18923.678695065784,-0.010886323840713027,0.009178366290729049,0.9998986176335422,75.47550214858484,4.691438028488835,482.8210630903963,-111.64749729710232,-142.0796661376953,4761.76025390625,True
1599388169.6555493,0.0,10,0.5,0.5,13.117895634651186,-0.2,-0.00825,-0.37525,0.0831445272470819,10,1,100,0.07302244879065634,-10,-1,-100,18919.201899578446,-0.010438452320818475,0.009019542282462318,0.9999048387572493,75.30807381198439,4.681212597439442,483.44937536999095,-112.01067668802939,-146.4389190673828,4761.76025390625,True
1599388169.6954792,0.0,10,0.5,0.5,13.870995094871521,-0.2,-0.00825,-0.37525,0.07896911743272832,10,1,100,0.07193966613536136,-10,-1,-100,18914.710576630547,-0.010026150379067811,0.008835861634909526,0.9999106979414437,74.96419366135189,4.65962161095493,482.9360277257808,-112.37387169495096,-150.50155639648438,4761.76025390625,True
1599388169.7373714,0.0,10,0.5,0.5,12.390932012367248,-0.2,-0.00825,-0.37525,0.09738553932210534,10,1,100,0.11269241460676757,-10,-1,-100,18914.710576630547,-0.010026150379067811,0.008835861634909526,0.9999106979414437,74.96419366135189,4.65962161095493,482.9360277257808,-112.37387169495096,-150.50155639648438,4761.76025390625,True
1599388169.780257,0.0,10,0.5,0.5,15.621649069786072,-0.2,-0.00825,-0.37525,0.055708468890876627,10,1,100,0.04918550273350826,-10,-1,-100,18907.946350902785,-0.009453155232071455,0.00845653956613383,0.9999195591619982,74.20915512538726,4.611890928577461,480.5932920553783,-112.91871357242277,-156.04049682617188,4761.76025390625,True
1599388169.826133,0.0,10,0.5,0.5,14.558287823104859,-0.2,-0.00825,-0.37525,0.07784989714964816,10,1,100,0.08696386827058633,-10,-1,-100,18905.68434371287,-0.009279710426025581,0.008313409364630321,0.9999223840874575,73.91206785766835,4.59309207743445,479.5079620295501,-113.10034354479843,-157.73870849609375,4761.76025390625,True
1599388169.8680215,0.0,10,0.5,0.5,15.786953646278382,-0.2,-0.00825,-0.37525,0.05515184554629022,10,1,100,0.06857796546186257,-10,-1,-100,18901.149431316997,-0.00895906662206926,0.007977497525719902,0.9999280447404645,73.27556502287247,4.552843805464335,477.0438310859621,-113.46363027385132,-160.91348266601562,4761.76025390625,True
1599388169.9109068,0.0,10,0.5,0.5,16.28861737327576,-0.2,-0.00825,-0.37525,0.050861561015626944,10,1,100,0.06777385698011942,-10,-1,-100,18896.599986324552,-0.008664252282452899,0.007634164756530761,0.9999333229075107,72.6076159370232,4.5106849067609724,474.3482853111178,-113.82695357123697,-163.79190063476562,4761.76025390625,True
1599388169.956784,0.0,10,0.5,0.5,16.72915353164673,-0.2,-0.00825,-0.37525,0.04022089027562617,10,1,100,0.06887901074970126,-10,-1,-100,18892.036007335293,-0.008410111264045976,0.007226785547620962,0.9999385199096867,71.9368584556907,4.468459347510903,471.606643162459,-114.19031252138204,-166.37498474121094,4761.76025390625,True
1599388169.996677,0.0,10,0.5,0.5,17.10788967704773,-0.2,-0.00825,-0.37525,0.03365900455483681,10,1,100,0.0687684120657622,-10,-1,-100,18887.457492995774,-0.0081816406527651,0.006798693895973596,0.9999434176579882,71.28722665283651,4.427696002851702,468.9758536376985,-114.55370517630345,-168.6622314453125,4761.76025390625,True
1599388170.0376596,0.0,10,0.5,0.5,18.40106021385193,-0.2,-0.00825,-0.37525,-0.029013399627258837,10,1,100,0.05128803876846181,-10,-1,-100,18878.256853170693,-0.007818360024591473,0.0058420756156376255,0.999952370565232,70.13279435313818,4.355684887859435,464.59100298785444,-115.28057697187946,-172.35037231445312,4761.76025390625,True
1599388170.0825388,0.0,10,0.5,0.5,17.042058685302734,-0.2,-0.00825,-0.37525,0.0663147993388291,10,1,100,0.0873093052042123,-10,-1,-100,18878.256853170693,-0.007818360024591473,0.0058420756156376255,0.999952370565232,70.13279435313818,4.355684887859435,464.59100298785444,-115.28057697187946,-172.35037231445312,4761.76025390625,True
1599388170.1218288,0.0,10,0.5,0.5,17.869405334091184,-0.2,-0.00825,-0.37525,0.008478565379605507,10,1,100,0.07152954209418308,-10,-1,-100,18873.634725793614,-0.007677289534769595,0.005319180276614524,0.9999563818220193,69.66081667295705,4.326471401649431,463.06122605605634,-115.64404685557047,-173.75144958496094,4761.76025390625,True
1599388170.1627185,0.0,10,0.5,0.5,17.998937478637693,-0.2,-0.00825,-0.37525,0.001012958330973604,10,1,100,0.06987679978812153,-10,-1,-100,18868.998059345875,-0.007536154032916691,0.004779148705568047,0.9999601822672952,69.27592335668079,4.302815318842683,462.0922699564834,-116.00753241913559,-174.85723876953125,4761.76025390625,True
1599388170.202614,0.0,10,0.5,0.5,18.24029408493042,-0.2,-0.00825,-0.37525,-0.04249223250760227,10,1,100,0.06981617104594076,-10,-1,-100,18862.015797394095,-0.007409561493890726,0.0038963970996563247,0.9999649576300712,68.88228611321301,4.2789609361475955,461.84006897927736,-116.55277718642492,-175.9632110595703,4761.76025390625,True
1599388170.2444658,0.0,10,0.5,0.5,18.053842926406865,-0.2,-0.00825,-0.37525,-0.022515023838879246,10,1,100,0.0739681727563967,-10,-1,-100,18857.34278104175,-0.007334080650087795,0.003279652211694493,0.9999677270504227,68.75387038644399,4.271480849919083,462.5601091527448,-116.91627555639815,-176.33197021484375,4761.76025390625,True
1599388170.2873516,0.0,10,0.5,0.5,17.97330672264099,-0.2,-0.00825,-0.37525,0.003497551274406714,10,1,100,0.07808473550712514,-10,-1,-100,18855.000820674002,-0.007304653753251696,0.002960029139261733,0.9999689396481473,68.73155414356515,4.270359232845886,463.2007167279321,-117.0980230400704,-176.40585327148438,4761.76025390625,True
1599388170.3282418,0.0,10,0.5,0.5,17.91633607444763,-0.2,-0.00825,-0.37525,-0.037503007596174136,10,1,100,0.0735603894774606,-10,-1,-100,18850.305994881084,-0.007238275622102671,0.002301291691305269,0.9999711552952765,68.772238697951,4.27342464105264,465.05827253029827,-117.46151037867999,-176.33279418945312,4761.76025390625,True
1599388170.370129,0.0,10,0.5,0.5,17.36223170051575,-0.2,-0.00825,-0.37525,-0.12670679154624354,10,1,100,0.07112468359373678,-10,-1,-100,18840.872726972797,-0.007157085428170023,0.0008963440418580579,0.9999739860094023,69.19539104724889,4.300684525092133,471.1096540756951,-118.18843113340475,-175.3039093017578,4761.76025390625,True
1599388170.4130158,0.0,10,0.5,0.5,17.501970057296756,-0.2,-0.00825,-0.37525,-0.02720965272326515,10,1,100,0.07637996192782748,-10,-1,-100,18838.505323943216,-0.007132190532937419,0.0005293932966656356,0.9999744254734415,69.37246741582949,4.311877599947714,473.1155152187355,-118.37014523268887,-174.86285400390625,4761.76025390625,True
1599388170.454903,0.0,10,0.5,0.5,17.3766278339386,-0.2,-0.00825,-0.37525,-0.03236830568038541,10,1,100,0.0763070860980985,-10,-1,-100,18836.13428695686,-0.007109850348019177,0.00015460422924352927,0.9999747127430577,69.57715358124035,4.324755506736382,475.31435972297993,-118.55185113955781,-174.34835815429688,4761.76025390625,True
1599388170.494832,0.0,10,0.5,0.5,15.96496635017395,-0.2,-0.00825,-0.37525,-0.16739413352590013,10,1,100,0.06451963336359601,-10,-1,-100,18826.613801216707,-0.006983026527485818,-0.0014084502021117975,0.9999746264823646,70.65462362700086,4.391941204302047,485.93902153204357,-119.2785770251586,-171.55587768554688,4761.76025390625,True
1599388170.5376837,0.0,10,0.5,0.5,15.95573259162903,-0.2,-0.00825,-0.37525,-0.1022830246776728,10,1,100,0.06921029050232565,-10,-1,-100,18821.831759108347,-0.006911133876895857,-0.0022308982176166194,0.9999736293131325,71.33634399804868,4.434115553144755,492.27672185331716,-119.64186996830135,-169.7193603515625,4761.76025390625,True
1599388170.580566,0.0,10,0.5,0.5,16.641559247589115,-0.2,-0.00825,-0.37525,-0.020793230976613727,10,1,100,0.07632293999553436,-10,-1,-100,18821.831759108347,-0.006911133876895857,-0.0022308982176166194,0.9999736293131325,71.33634399804868,4.434115553144755,492.27672185331716,-119.64186996830135,-169.7193603515625,4761.76025390625,True
1599388170.62146,0.0,10,0.5,0.5,14.018044054412842,-0.2,-0.00825,-0.37525,-0.20751439719683962,10,1,100,0.04694238236898732,-10,-1,-100,18812.22408689768,-0.006644606098614539,-0.0039219905951430505,0.9999702331567505,72.93132744934124,4.532110936945191,506.65686492005204,-120.36828526818202,-165.16607666015625,4761.76025390625,True
1599388170.6643434,0.0,10,0.5,0.5,15.71775612373352,-0.2,-0.00825,-0.37525,-0.03918699821367644,10,1,100,0.07351866465759148,-10,-1,-100,18812.22408689768,-0.006644606098614539,-0.0039219905951430505,0.9999702331567505,72.93132744934124,4.532110936945191,506.65686492005204,-120.36828526818202,-165.16607666015625,4761.76025390625,True
1599388170.704263,0.0,10,0.5,0.5,12.414883395767212,-0.2,-0.00825,-0.37525,-0.2327990244420606,10,1,100,0.03215120062130748,-10,-1,-100,18802.55831434985,-0.006269165038786024,-0.0056755529764857815,0.9999642421947534,74.73132004506276,4.641812753694865,522.6184604983968,-121.0944385764986,-159.44046020507812,4761.76025390625,True
1599388170.7451255,0.0,10,0.5,0.5,13.62082271461487,-0.2,-0.00825,-0.37525,-0.10869315004457,10,1,100,0.059519598714223854,-10,-1,-100,18800.13279564306,-0.006177599956799764,-0.006133614844896761,0.9999621072959257,75.19495888123107,4.6699408592170135,526.7301529906142,-121.27593233425989,-157.82620239257812,4761.76025390625,True
1599388170.7870142,0.0,10,0.5,0.5,13.240605755996704,-0.2,-0.00825,-0.37525,-0.11423527572288834,10,1,100,0.05698353661378233,-10,-1,-100,18797.703647350078,-0.006072268113776699,-0.006592749589131271,0.9999598307996223,75.65856239475237,4.698020437571112,530.8521192533855,-121.45740768395629,-156.13876342773438,4761.76025390625,True
1599388170.8438916,0.0,10,0.5,0.5,11.789832310485842,-0.2,-0.00825,-0.37525,-0.16398591126424247,10,1,100,0.032428176812438,-10,-1,-100,18792.834463857347,-0.0057542675467565935,-0.007455615049146782,0.9999556501211639,76.57328968634111,4.753300374176563,539.0396144133441,-121.82030286978154,-152.5435028076172,4761.76025390625,True
1599388170.8837898,0.0,10,0.5,0.5,10.884424548721315,-0.2,-0.00825,-0.37525,-0.17758988750878457,10,1,100,0.030316951608898617,-10,-1,-100,18787.950766669936,-0.0054472358230572135,-0.008356451607433254,0.9999502474315513,77.44286050191552,4.805714703322359,546.949286405933,-122.18312494644181,-148.6562957763672,4761.76025390625,True
1599388170.9296331,0.0,10,0.5,0.5,9.91745880279541,-0.2,-0.00825,-0.37525,-0.18522011366410673,10,1,100,0.02050134510321598,-10,-1,-100,18783.05255858309,-0.005080394755574264,-0.009237022301981451,0.9999444319601566,78.23786403442084,4.853551587789054,554.3694832917819,-122.54587711756416,-144.47647094726562,4761.76025390625,True
1599388170.9705243,0.0,10,0.5,0.5,8.890816160583498,-0.2,-0.00825,-0.37525,-0.1911898553282037,10,1,100,0.010990031136785074,-10,-1,-100,18778.139842575183,-0.004662166050687585,-0.010084694610244449,0.9999382796664672,78.92384022096965,4.894803538270809,561.0501607671722,-122.90856554697379,-140.00401306152344,4761.76025390625,True
1599388171.0124106,0.0,10,0.5,0.5,4.894639736557008,-0.2,-0.00825,-0.37525,-0.2842281273837792,10,1,100,-0.053320296103121716,-10,-1,-100,18768.270894642454,-0.003699363314815277,-0.011693968457904562,0.999924780077367,79.80994437448726,4.948246088568231,571.028483371376,-123.63379311245347,-130.18228149414062,4761.76025390625,True
1599388171.0552967,0.0,10,0.5,0.5,5.470465509414673,-0.2,-0.00825,-0.37525,-0.2049975891309631,10,1,100,-0.016973048454961594,-10,-1,-100,18763.314665724174,-0.0031574374158801623,-0.012428064271442439,0.9999177835239403,79.92534094508,4.9554031068285855,573.6970725426203,-123.99636225657835,-124.83302307128906,4761.76025390625,True
1599388171.0961866,0.0,10,0.5,0.5,4.198817559814454,-0.2,-0.00825,-0.37525,-0.20134460986560745,10,1,100,-0.02636390549568237,-10,-1,-100,18758.34393418301,-0.002582576233462355,-0.013054482405267912,0.9999114514741438,79.76359837615809,4.945942003670374,574.3771829909809,-124.35892799868891,-119.19081115722656,4761.76025390625,True
1599388171.1370776,0.0,10,0.5,0.5,6.27812798652649,-0.2,-0.00825,-0.37525,-0.13961604566407257,10,1,100,0.030716009759583142,-10,-1,-100,18758.34393418301,-0.002582576233462355,-0.013054482405267912,0.9999114514741438,79.76359837615809,4.945942003670374,574.3771829909809,-124.35892799868891,-119.19081115722656,4761.76025390625,True
1599388171.1793427,0.0,10,0.5,0.5,2.831508112335206,-0.2,-0.00825,-0.37525,-0.20575379442292702,10,1,100,-0.0354110584591467,-10,-1,-100,18753.35869935411,-0.0019847725122060142,-0.013649026549049514,0.9999048778520575,79.27861723053917,4.916955772060041,572.7177917844398,-124.72151423699968,-113.25701904296875,4761.76025390625,True
1599388171.221264,0.0,10,0.5,0.5,-2.309361262130737,-0.2,-0.00825,-0.37525,-0.2520151785364367,10,1,100,-0.1133601338957296,-10,-1,-100,18743.34471253981,-0.0007364982865900361,-0.014603247070151829,0.9998930956583718,77.17363886947065,4.789454506266602,561.0926884770334,-125.44685487009687,-100.51342010498047,4761.76025390625,True
1599388171.261274,0.0,10,0.5,0.5,-1.4904746568679808,-0.2,-0.00825,-0.37525,-0.1954369308929638,10,1,100,-0.0562016842355865,-10,-1,-100,18738.31595447613,-0.00012617650551061756,-0.014949090294866888,0.9998882481451841,75.66300128784125,4.697152390127214,551.872409197711,-125.80965748403763,-93.7037582397461,4761.76025390625,True
1599388171.3021343,0.0,10,0.5,0.5,1.0163081687927247,-0.2,-0.00825,-0.37525,-0.16160195594602988,10,1,100,0.004267684768230763,-10,-1,-100,18738.31595447613,-0.00012617650551061756,-0.014949090294866888,0.9998882481451841,75.66300128784125,4.697152390127214,551.872409197711,-125.80965748403763,-93.7037582397461,4761.76025390625,True
1599388171.3450549,0.0,10,0.5,0.5,-6.706999215126038,-0.2,-0.00825,-0.37525,-0.21477764640814132,10,1,100,-0.12007390378441703,-10,-1,-100,18728.214887518436,0.000999364245588411,-0.015426512354806597,0.9998805048542908,71.90048722982178,4.464769832395799,527.7894683621457,-126.53559544481966,-80.3565673828125,4761.76025390625,True
1599388171.3869042,0.0,10,0.5,0.5,-5.523142506980896,-0.2,-0.00825,-0.37525,-0.18289578220317307,10,1,100,-0.06703570841336873,-10,-1,-100,18723.142570945784,0.0015348906441223953,-0.015565070471022235,0.9998776788647413,72.08053362769542,4.475361491694018,530.7965543864859,-126.89866437601655,-73.7998046875,4761.76025390625,True
1599388171.4293315,0.0,10,0.5,0.5,-3.11733577747345,-0.2,-0.00825,-0.37525,-0.16958800816768704,10,1,100,-0.01410277422945129,-10,-1,-100,18723.142570945784,0.0015348906441223953,-0.015565070471022235,0.9998776788647413,72.08053362769542,4.475361491694018,530.7965543864859,-126.89866437601655,-73.7998046875,4761.76025390625,True
1599388171.4692245,0.0,10,0.5,0.5,-10.49467244205475,-0.2,-0.00825,-0.37525,-0.17994072194406996,10,1,100,-0.10575681345033482,-10,-1,-100,18712.95439155365,0.0023633507698041204,-0.015655666867159246,0.9998746494776649,76.46665774688107,4.744606036581941,566.6653016910496,-127.6243056916867,-61.05609130859375,4761.76025390625,True
1599388171.512244,0.0,10,0.5,0.5,-5.765209965324402,-0.2,-0.00825,-0.37525,-0.1712038425899406,10,1,100,-0.023462879700730736,-10,-1,-100,18712.95439155365,0.0023633507698041204,-0.015655666867159246,0.9998746494776649,76.46665774688107,4.744606036581941,566.6653016910496,-127.6243056916867,-61.05609130859375,4761.76025390625,True
1599388171.555126,0.0,10,0.5,0.5,-12.485846402168272,-0.2,-0.00825,-0.37525,-0.16092162812429436,10,1,100,-0.08938846890591164,-10,-1,-100,18702.70818833122,0.002958178010757341,-0.015559827477051652,0.9998745626086009,79.26765980445727,4.914979778824605,591.1120180591039,-128.3494223218998,-49.45648193359375,4761.76025390625,True
1599388171.5970147,0.0,10,0.5,0.5,-11.269391017723084,-0.2,-0.00825,-0.37525,-0.1579484023533736,10,1,100,-0.05353482052761936,-10,-1,-100,18697.563338352833,0.003167950740690139,-0.015443393847152938,0.9998757251151695,80.1417508909933,4.968000454264622,599.4931329704483,-128.71184753527342,-44.10443115234375,4761.76025390625,True
1599388171.6389022,0.0,10,0.5,0.5,-9.318084847068787,-0.2,-0.00825,-0.37525,-0.16977120207305535,10,1,100,-0.033072819859629156,-10,-1,-100,18697.563338352833,0.003167950740690139,-0.015443393847152938,0.9998757251151695,80.1417508909933,4.968000454264622,599.4931329704483,-128.71184753527342,-44.10443115234375,4761.76025390625,True
1599388171.6827853,0.0,10,0.5,0.5,-12.271155046463013,-0.2,-0.00825,-0.37525,-0.1569775850803707,10,1,100,-0.04585843829810933,-10,-1,-100,18692.40399299725,0.003280634136469704,-0.015326324468331258,0.9998771630645207,80.71672309725538,5.002997291962599,605.6705085097018,-129.07421615889734,-39.051788330078125,4761.76025390625,True
1599388171.7246723,0.0,10,0.5,0.5,-14.457872949409486,-0.2,-0.00825,-0.37525,-0.14250294102492525,10,1,100,-0.04026290032449307,-10,-1,-100,18684.637799873948,0.003329107959561906,-0.015087967146922532,0.9998806280189485,81.112779313306,5.02763320157754,611.4735642039503,-129.61770832067936,-32.032867431640625,4761.76025390625,True
1599388171.7655632,0.0,10,0.5,0.5,-13.134840713500978,-0.2,-0.00825,-0.37525,-0.15668227947042945,10,1,100,-0.033245415729294014,-10,-1,-100,18682.041822431842,0.0033062385892665778,-0.015000055498008223,0.9998820266018625,81.1406071450389,5.029650848117234,612.6286815526695,-129.79886503114633,-29.842620849609375,4761.76025390625,True
1599388171.8074515,0.0,10,0.5,0.5,-14.745560167694093,-0.2,-0.00825,-0.37525,-0.14592301121318513,10,1,100,-0.024741798023917974,-10,-1,-100,18676.838998232037,0.0032060454786367897,-0.014822711975617357,0.9998849976282657,81.07023161183749,5.026210218647017,613.9888827484132,-130.1611782752251,-25.686279296875,4761.76025390625,True
1599388171.8498497,0.0,10,0.5,0.5,-17.492334300994873,-0.2,-0.00825,-0.37525,-0.12100567052584034,10,1,100,0.01081156819460398,-10,-1,-100,18666.38987104234,0.002790229180773588,-0.014435644184009257,0.9998919075570676,80.55565878073726,4.997123423042826,613.8625123122054,-130.88583962390206,-18.269073486328125,4761.76025390625,True
1599388171.8894744,0.0,10,0.5,0.5,-14.754840673828127,-0.2,-0.00825,-0.37525,-0.159599507057949,10,1,100,-0.030895595445381323,-10,-1,-100,18666.38987104234,0.002790229180773588,-0.014435644184009257,0.9998919075570676,80.55565878073726,4.997123423042826,613.8625123122054,-130.88583962390206,-18.269073486328125,4761.76025390625,True
1599388171.9298892,0.0,10,0.5,0.5,-16.666075014495853,-0.2,-0.00825,-0.37525,-0.13732776295007057,10,1,100,0.003549735676462884,-10,-1,-100,18661.143566419254,0.002476701735655941,-0.01423428289455868,0.9998956201219157,80.18072029352169,4.975548002033175,612.8882091035819,-131.24820148026953,-15.00799560546875,4761.76025390625,True
1599388171.9697695,0.0,10,0.5,0.5,-18.717899547576906,-0.2,-0.00825,-0.37525,-0.11139292892036617,10,1,100,0.06375984285135146,-10,-1,-100,18650.607470507966,0.0016442091285355917,-0.013816748125672297,0.999903192337925,79.34239532101861,4.926966037293283,610.2187263065847,-131.97300179328275,-9.379913330078125,4761.76025390625,True
1599388172.0106611,0.0,10,0.5,0.5,-18.00087233886719,-0.2,-0.00825,-0.37525,-0.1289159144456598,10,1,100,0.03708532735172294,-10,-1,-100,18645.317677104846,0.0011310877801339167,-0.013598055549052237,0.9999069024292803,78.93171060266657,4.903096230628579,608.9254596759221,-132.3354398658708,-7.01251220703125,4761.76025390625,True
1599388172.0521257,0.0,10,0.5,0.5,-18.333982945251467,-0.2,-0.00825,-0.37525,-0.12390920378449867,10,1,100,0.048821371300886755,-10,-1,-100,18640.013385708327,0.0005597742120132286,-0.013355406144567173,0.9999106558985884,78.62091731379887,4.885306654448247,608.3892558422182,-132.69789743890675,-4.94232177734375,4761.76025390625,True
1599388172.092019,0.0,10,0.5,0.5,-17.589452726745606,-0.2,-0.00825,-0.37525,-0.14796534546274656,10,1,100,-0.008049167858314369,-10,-1,-100,18640.013385708327,0.0005597742120132286,-0.013355406144567173,0.9999106558985884,78.62091731379887,4.885306654448247,608.3892558422182,-132.69789743890675,-4.94232177734375,4761.76025390625,True
1599388172.131913,0.0,10,0.5,0.5,-19.486330440521243,-0.2,-0.00825,-0.37525,-0.09310148301678059,10,1,100,0.14044502689624913,-10,-1,-100,18629.361306327395,-0.0007876995040060247,-0.01285843550262545,0.9999170166398392,78.25695350342569,4.86531531694584,609.288005397302,-133.422844522072,-1.693756103515625,4761.76025390625,True
