Timestamp,Input Throttle,horizon,dT,dt,Input Roll,Roll P,Roll I,Roll D,Input Pitch,Pitch P,Pitch I,Pitch D,Input Yaw,Yaw P,Yaw I,Yaw D,Altitude,Direction X,Direction Y,Direction Z,Drag X,Drag Y,Drag Z,Vertical Velocity,Roll,Mass,Has Fuel
1599384552.9018352,0.0,10,0.5,0.5,-0.0559840087890625,-0.001,-0.001,-0.001,0.0333844562779822,10,1,100,0.6966693399754487,-10,-1,-100,19309.78860497987,-0.05098764619655663,0.00018579387997951681,0.9986992667544966,63.70024182963059,3.865012746263786,262.66868383955983,-73.77246054077395,-33.972381591796875,4761.76025390625,True
1599384552.9691553,0.0,10,0.5,0.5,-0.06160285339355469,-0.001,-0.001,-0.001,0.026452246773335783,10,1,100,0.5642529858240167,-10,-1,-100,19302.35665275471,-0.05143562582600022,0.000409209594393541,0.9986762282859223,64.19545497830708,3.898898964824158,268.1275959519197,-74.68421035620817,-33.98614501953125,4761.76025390625,True
1599384553.006151,0.0,10,0.5,0.5,-0.06718217468261718,-0.001,-0.001,-0.001,0.03805039859356456,10,1,100,0.5281332842968123,-10,-1,-100,19299.35834383394,-0.051467759451768895,0.0007173805244134669,0.9986743989420166,64.3853564517476,3.911989853344493,270.29300662263864,-75.04888429033457,-34.004058837890625,4761.76025390625,True
1599384553.0370703,0.0,10,0.5,0.5,-0.0727996826171875,-0.001,-0.001,-0.001,0.007305043644013321,10,1,100,0.5300666976651215,-10,-1,-100,19299.35834383394,-0.051467759451768895,0.0007173805244134669,0.9986743989420166,64.3853564517476,3.911989853344493,270.29300662263864,-75.04888429033457,-34.004058837890625,4761.76025390625,True
1599384553.0699124,0.0,10,0.5,0.5,-0.07828495788574219,-0.001,-0.001,-0.001,0.07904300141601814,10,1,100,0.5266094584513082,-10,-1,-100,19294.833531012642,-0.05138954113214171,0.0013688916127731349,0.9986777464217276,64.63608046996707,3.9295991762261506,273.41346303548386,-75.59586817573877,-34.06121826171875,4761.76025390625,True
1599384553.1028242,0.0,10,0.5,0.5,-0.08388081970214843,-0.001,-0.001,-0.001,0.04748913909495159,10,1,100,0.5298127426220791,-10,-1,-100,19293.31796719751,-0.051300836569367514,0.0016730766796242524,0.9986818437228682,64.71124514175997,3.9349720298456448,274.42191590876394,-75.7781890630636,-34.08880615234375,4761.76025390625,True
1599384553.1387274,0.0,10,0.5,0.5,-0.08927461242675781,-0.001,-0.001,-0.001,0.14346440505336613,10,1,100,0.49465374665268297,-10,-1,-100,19288.74939748668,-0.05085393169751522,0.002820589997583924,0.9987021187035551,64.91263546807242,3.949673105770817,277.35509368189156,-76.32513099647377,-34.201263427734375,4761.76025390625,True
1599384553.1696844,0.0,10,0.5,0.5,-0.09487056884765625,-0.001,-0.001,-0.001,0.07982078264502238,10,1,100,0.5221182343010382,-10,-1,-100,19287.219248578884,-0.05065110085472771,0.003282641364746333,0.9987110143819757,64.97150013600245,3.9540880708828086,278.3006709766567,-76.50743820169357,-34.24945068359375,4761.76025390625,True
1599384553.202379,0.0,10,0.5,0.5,-0.10049381103515626,-0.001,-0.001,-0.001,0.03394391006525609,10,1,100,0.5474664286652617,-10,-1,-100,19287.219248578884,-0.05065110085472771,0.003282641364746333,0.9987110143819757,64.97150013600245,3.9540880708828086,278.3006709766567,-76.50743820169357,-34.24945068359375,4761.76025390625,True
1599384553.2361426,0.0,10,0.5,0.5,-0.1055627624511719,-0.001,-0.001,-0.001,0.2748893667894952,10,1,100,0.4277548005972528,-10,-1,-100,19281.06219305517,-0.04951676687151424,0.005470070388271465,0.9987583131711794,65.16505514340193,3.9692925736339584,281.91616263946395,-77.2366337070316,-34.50250244140625,4761.76025390625,True
1599384553.2731352,0.0,10,0.5,0.5,-0.11136556396484376,-0.001,-0.001,-0.001,0.05669347147580919,10,1,100,0.5461398756057513,-10,-1,-100,19281.06219305517,-0.04951676687151424,0.005470070388271465,0.9987583131711794,65.16505514340193,3.9692925736339584,281.91616263946395,-77.2366337070316,-34.50250244140625,4761.76025390625,True
1599384553.3039894,0.0,10,0.5,0.5,-0.11079241027832032,-0.001,-0.001,-0.001,0.27664393105142243,10,1,100,0.415331374962209,-10,-1,-100,19276.40611999901,-0.04832893584686844,0.007464816133042229,0.9988035795290331,65.26579537805094,3.978097455326533,284.4469416746701,-77.78349665884036,-34.7625732421875,4761.76025390625,True
1599384553.3365824,0.0,10,0.5,0.5,-0.11055491638183594,-0.001,-0.001,-0.001,0.2476115560685298,10,1,100,0.4311757525395129,-10,-1,-100,19273.28384299751,-0.047395953520601504,0.009007876486136037,0.9988355629186836,65.31093071436281,3.98267981641245,286.04213149727804,-78.14805643026794,-34.9725341796875,4761.76025390625,True
1599384553.3695803,0.0,10,0.5,0.5,-0.11066802978515625,-0.001,-0.001,-0.001,0.09413457035532125,10,1,100,0.5240668045730897,-10,-1,-100,19273.28384299751,-0.047395953520601504,0.009007876486136037,0.9988355629186836,65.31093071436281,3.98267981641245,286.04213149727804,-78.14805643026794,-34.9725341796875,4761.76025390625,True
1599384553.4056947,0.0,10,0.5,0.5,-0.11033650207519533,-0.001,-0.001,-0.001,0.17877949078471275,10,1,100,0.463937376613602,-10,-1,-100,19271.7172361766,-0.04685302399908904,0.009769838948256213,0.9988540155543583,65.32704362697832,3.984594141897689,286.8123647408569,-78.33033180676274,-35.089874267578125,4761.76025390625,True
1599384553.4366229,0.0,10,0.5,0.5,-0.1098352294921875,-0.001,-0.001,-0.001,0.283019864613389,10,1,100,0.3878840880745624,-10,-1,-100,19268.57308643975,-0.04567218228111649,0.011402534632866626,0.9988914024905944,65.34490126135849,3.987580619200291,288.29096470059,-78.69487366771838,-35.347747802734375,4761.76025390625,True
1599384553.4697673,0.0,10,0.5,0.5,-0.10939073181152344,-0.001,-0.001,-0.001,0.3200712594091786,10,1,100,0.3630602017613679,-10,-1,-100,19265.414355144254,-0.0443781350749199,0.013214789337062141,0.9989273999996444,65.3435250869705,3.989436819453273,289.6856845950615,-79.05940385221632,-35.635986328125,4761.76025390625,True
1599384553.5025768,0.0,10,0.5,0.5,-0.108550634765625,-0.001,-0.001,-0.001,0.4481507716459767,10,1,100,0.24390819557116894,-10,-1,-100,19260.64891950914,-0.04212441555539628,0.01601720354362943,0.998983975249232,65.30682487813588,3.9901887053917195,291.62409484712595,-79.60617815923978,-36.12841796875,4761.76025390625,True
1599384553.539589,0.0,10,0.5,0.5,-0.10811969604492186,-0.001,-0.001,-0.001,0.383596600981827,10,1,100,0.28163973013420984,-10,-1,-100,19257.453736994183,-0.04042634511122003,0.017966419850672075,0.999020979949219,65.25830861175199,3.9892750375299206,292.8078396179011,-79.97068083069374,-36.49615478515625,4761.76025390625,True
1599384553.5697742,0.0,10,0.5,0.5,-0.10826276245117188,-0.001,-0.001,-0.001,0.19014334812615513,10,1,100,0.4504242989774845,-10,-1,-100,19257.453736994183,-0.04042634511122003,0.017966419850672075,0.999020979949219,65.25830861175199,3.9892750375299206,292.8078396179011,-79.97068083069374,-36.49615478515625,4761.76025390625,True
1599384553.6028032,0.0,10,0.5,0.5,-0.10767124633789062,-0.001,-0.001,-0.001,0.29711244994613173,10,1,100,0.3489456185094264,-10,-1,-100,19255.850678439136,-0.03951207567220159,0.01892750591316059,0.9990398117172217,65.22648457755686,3.9883712750451084,293.36509684284084,-80.15292828565548,-36.692230224609375,4761.76025390625,True
1599384553.636689,0.0,10,0.5,0.5,-0.10592575378417969,-0.001,-0.001,-0.001,0.6494952718133733,10,1,100,-0.004085892344572295,-10,-1,-100,19249.40199523722,-0.035480639439147844,0.022992466681920627,0.9991058355854349,65.04736947470062,3.981675959902022,295.3531813120999,-80.88189292534949,-37.55352783203125,4761.76025390625,True
1599384553.6726582,0.0,10,0.5,0.5,-0.1065079559326172,-0.001,-0.001,-0.001,0.24455195999225743,10,1,100,0.39777290132002985,-10,-1,-100,19249.40199523722,-0.035480639439147844,0.022992466681920627,0.9991058355854349,65.04736947470062,3.981675959902022,295.3531813120999,-80.88189292534949,-37.55352783203125,4761.76025390625,True
1599384553.7028382,0.0,10,0.5,0.5,-0.10478940734863282,-0.001,-0.001,-0.001,0.5729688345097621,10,1,100,0.015440110663747952,-10,-1,-100,19244.527213266352,-0.03201571890052842,0.02596536136826541,0.9991500356564561,64.85956374754139,3.973461493334029,296.59073624815704,-81.42859156722707,-38.28375244140625,4761.76025390625,True
1599384553.7364943,0.0,10,0.5,0.5,-0.10518851013183594,-0.001,-0.001,-0.001,0.2773751143634967,10,1,100,0.36039414106368295,-10,-1,-100,19244.527213266352,-0.03201571890052842,0.02596536136826541,0.9991500356564561,64.85956374754139,3.973461493334029,296.59073624815704,-81.42859156722707,-38.28375244140625,4761.76025390625,True
1599384553.7698104,0.0,10,0.5,0.5,-0.10327109985351562,-0.001,-0.001,-0.001,0.6187265965764533,10,1,100,-0.05925007767666035,-10,-1,-100,19239.61963026179,-0.0282142599166149,0.029053833458910463,0.999179578603716,64.62569465770326,3.9624793837094425,297.6048565855302,-81.9752707138677,-39.082763671875,4761.76025390625,True
1599384553.8057513,0.0,10,0.5,0.5,-0.10369660949707032,-0.001,-0.001,-0.001,0.3116445173945525,10,1,100,0.31915002847824153,-10,-1,-100,19239.61963026179,-0.0282142599166149,0.029053833458910463,0.999179578603716,64.62569465770326,3.9624793837094425,297.6048565855302,-81.9752707138677,-39.082763671875,4761.76025390625,True
1599384553.8368962,0.0,10,0.5,0.5,-0.10099634094238281,-0.001,-0.001,-0.001,0.7292684733878536,10,1,100,-0.3010871290314529,-10,-1,-100,19233.025164204184,-0.0225904347348525,0.03283601574601152,0.9992054184843165,64.24289549417018,3.9435352090442986,298.6046597339194,-82.70414841346381,-40.26055908203125,4761.76025390625,True
1599384553.870284,0.0,10,0.5,0.5,-0.10113512878417967,-0.001,-0.001,-0.001,0.4610291282376716,10,1,100,0.09381016488313354,-10,-1,-100,19231.367436983623,-0.0210855999514016,0.03382053394909957,0.9992054688391608,64.13480395635277,3.9380412346962554,298.7918789188553,-82.88636331242715,-40.573455810546875,4761.76025390625,True
1599384553.903247,0.0,10,0.5,0.5,-0.09973591308593749,-0.001,-0.001,-0.001,0.5513948209595064,10,1,100,-0.0988792931804976,-10,-1,-100,19228.041049436317,-0.017983428479649424,0.03552264396383409,0.9992070546518054,63.90265932663351,3.926068210528865,299.0847724673465,-83.25078830159345,-41.22564697265625,4761.76025390625,True
1599384553.939594,0.0,10,0.5,0.5,-0.09855089721679688,-0.001,-0.001,-0.001,0.5687696669210913,10,1,100,-0.14927621712940403,-10,-1,-100,19224.7000850935,-0.014725521393640632,0.03721200964586791,0.99919889179172,63.650802735523285,3.9128726138929424,299.27514618320276,-83.61520694989468,-41.90777587890625,4761.76025390625,True
1599384553.9697254,0.0,10,0.5,0.5,-0.0987114715576172,-0.001,-0.001,-0.001,0.40166154909097973,10,1,100,0.174035836043619,-10,-1,-100,19224.7000850935,-0.014725521393640632,0.03721200964586791,0.99919889179172,63.650802735523285,3.9128726138929424,299.27514618320276,-83.61520694989468,-41.90777587890625,4761.76025390625,True
1599384554.003691,0.0,10,0.5,0.5,-0.09756907653808594,-0.001,-0.001,-0.001,0.4856602640207166,10,1,100,-0.011283151457743473,-10,-1,-100,19223.024136802997,-0.013059671614578707,0.037962707469807386,0.9991938139414602,63.517348236562306,3.9058045784631092,299.33084663865475,-83.79741419519937,-42.261260986328125,4761.76025390625,True
1599384554.036925,0.0,10,0.5,0.5,-0.09599109497070313,-0.001,-0.001,-0.001,0.5661636145358735,10,1,100,-0.2238904746467498,-10,-1,-100,19219.661307728267,-0.009632851575371963,0.0393633993682648,0.9991785280722867,63.2363442877284,3.8907814840833854,299.36697169035926,-84.16182482306795,-42.991607666015625,4761.76025390625,True
1599384554.0733757,0.0,10,0.5,0.5,-0.0939485321044922,-0.001,-0.001,-0.001,0.64804366993395,10,1,100,-0.47907921343582616,-10,-1,-100,19214.58973359631,-0.004218011066488008,0.041368939745026784,0.9991350355217333,62.77849124130938,3.86594018549506,299.2253423256771,-84.70843264615381,-44.142669677734375,4761.76025390625,True
1599384554.1036477,0.0,10,0.5,0.5,-0.09451370239257813,-0.001,-0.001,-0.001,0.44902999009542793,10,1,100,0.05962506666916541,-10,-1,-100,19214.58973359631,-0.004218011066488008,0.041368939745026784,0.9991350355217333,62.77849124130938,3.86594018549506,299.2253423256771,-84.70843264615381,-44.142669677734375,4761.76025390625,True
1599384554.1369803,0.0,10,0.5,0.5,-0.0923935760498047,-0.001,-0.001,-0.001,0.5691391066501306,10,1,100,-0.3521679819273029,-10,-1,-100,19211.190464133862,-0.0004962526691111385,0.04244964525344579,0.9990984843103032,62.44583298641189,3.8476336254787156,298.9832280088259,-85.07283336554343,-44.949737548828125,4761.76025390625,True
1599384554.1707244,0.0,10,0.5,0.5,-0.09093535766601563,-0.001,-0.001,-0.001,0.551424896473284,10,1,100,-0.39636609578405047,-10,-1,-100,19207.776618732954,0.0032637669024314442,0.04325888852149671,0.9990585650448583,62.09533695309246,3.8281730755157186,298.64098993939473,-85.43723144538554,-45.789031982421875,4761.76025390625,True
1599384554.205996,0.0,10,0.5,0.5,-0.08859613342285157,-0.001,-0.001,-0.001,0.5905528365994259,10,1,100,-0.6717256711017722,-10,-1,-100,19202.62852077477,0.009161731559779186,0.0443407974274393,0.9989744523051255,61.540106010118,3.7970365516663365,297.9565136429352,-85.98382489087778,-47.10186767578125,4761.76025390625,True
1599384554.2370412,0.0,10,0.5,0.5,-0.0892561279296875,-0.001,-0.001,-0.001,0.48341397235300076,10,1,100,-0.08495393851811607,-10,-1,-100,19202.62852077477,0.009161731559779186,0.0443407974274393,0.9989744523051255,61.540106010118,3.7970365516663365,297.9565136429352,-85.98382489087778,-47.10186767578125,4761.76025390625,True
1599384554.270522,0.0,10,0.5,0.5,-0.0868383056640625,-0.001,-0.001,-0.001,0.5232600995995536,10,1,100,-0.520453349258127,-10,-1,-100,19199.178235631553,0.01309613969374344,0.044695018444713776,0.9989148344335211,61.146124496812526,3.774711673282412,297.3643281679283,-86.34821971424205,-48.0169677734375,4761.76025390625,True
1599384554.3037114,0.0,10,0.5,0.5,-0.08620346069335938,-0.001,-0.001,-0.001,0.4948184957967269,10,1,100,-0.3441844434431587,-10,-1,-100,19197.447627265705,0.01504513734349543,0.044751674781484105,0.9988848439367612,60.944009981811966,3.76320051346855,297.036877075589,-86.53041710140133,-48.486480712890625,4761.76025390625,True
1599384554.339406,0.0,10,0.5,0.5,-0.08409512023925782,-0.001,-0.001,-0.001,0.49374847119526166,10,1,100,-0.5920439754681879,-10,-1,-100,19193.975478616194,0.019043157626463744,0.04478659880477507,0.9988150573129713,60.533683802310755,3.739730780926603,296.33902123707344,-86.89481231498655,-49.44647216796875,4761.76025390625,True
1599384554.37081,0.0,10,0.5,0.5,-0.08134043579101563,-0.001,-0.001,-0.001,0.43535878597935235,10,1,100,-0.8447611056641915,-10,-1,-100,19188.739925770555,0.024945965586179477,0.04428132905913589,0.9987075961950674,59.89268048741602,3.7027553008143745,295.13326372809865,-87.44140805169376,-50.944549560546875,4761.76025390625,True
1599384554.4038248,0.0,10,0.5,0.5,-0.08204321899414063,-0.001,-0.001,-0.001,0.4863775535123573,10,1,100,-0.2579381914087733,-10,-1,-100,19188.739925770555,0.024945965586179477,0.04428132905913589,0.9987075961950674,59.89268048741602,3.7027553008143745,295.13326372809865,-87.44140805169376,-50.944549560546875,4761.76025390625,True
1599384554.4375384,0.0,10,0.5,0.5,-0.07929107055664063,-0.001,-0.001,-0.001,0.4155792946071598,10,1,100,-0.6911948740098759,-10,-1,-100,19185.23133707745,0.028858149994687075,0.043635060896984906,0.9986306567692584,59.44736325433302,3.6768536070827187,294.21735792974863,-87.80580852975795,-51.98052978515625,4761.76025390625,True
1599384554.4728467,0.0,10,0.5,0.5,-0.0763247589111328,-0.001,-0.001,-0.001,0.31742644434541123,10,1,100,-0.9306785227288339,-10,-1,-100,19179.941123933415,0.03456173611708344,0.04215318563705724,0.9985131923701464,58.76178016540975,3.636688337813491,292.71975744325835,-88.35241667282857,-53.58978271484375,4761.76025390625,True
1599384554.5039995,0.0,10,0.5,0.5,-0.07707000732421875,-0.001,-0.001,-0.001,0.4655843243765387,10,1,100,-0.3638257093678166,-10,-1,-100,19179.941123933415,0.03456173611708344,0.04215318563705724,0.9985131923701464,58.76178016540975,3.636688337813491,292.71975744325835,-88.35241667282857,-53.58978271484375,4761.76025390625,True
1599384554.536795,0.0,10,0.5,0.5,-0.07407246398925782,-0.001,-0.001,-0.001,0.32299969309274523,10,1,100,-0.778091535388143,-10,-1,-100,19176.39609461685,0.038299336381618546,0.040857966900735884,0.9984306622762874,58.291197597324576,3.6089173743547835,291.62906652850654,-88.71682855283974,-54.698516845703125,4761.76025390625,True
1599384554.5709894,0.0,10,0.5,0.5,-0.07098897705078125,-0.001,-0.001,-0.001,0.1819883408842695,10,1,100,-0.9904384357650651,-10,-1,-100,19171.05121945881,0.04360109243932989,0.03840174014811824,0.9983106986763657,57.56868850484378,3.5659892084927476,289.8713085255822,-89.26345855163116,-56.414794921875,4761.76025390625,True
1599384554.6064522,0.0,10,0.5,0.5,-0.07177396240234375,-0.001,-0.001,-0.001,0.4270171104181022,10,1,100,-0.4637067660818853,-10,-1,-100,19171.05121945881,0.04360109243932989,0.03840174014811824,0.9983106986763657,57.56868850484378,3.5659892084927476,289.8713085255822,-89.26345855163116,-56.414794921875,4761.76025390625,True
1599384554.6377008,0.0,10,0.5,0.5,-0.06857724609375,-0.001,-0.001,-0.001,0.2132142319248997,10,1,100,-0.8425112300897508,-10,-1,-100,19167.46974787512,0.04701703760963268,0.036463798778449664,0.9982283253610164,57.076612076218254,3.5365622061014674,288.6210159250479,-89.62788832666679,-57.59326171875,4761.76025390625,True
1599384554.6707149,0.0,10,0.5,0.5,-0.06521002502441407,-0.001,-0.001,-0.001,0.035588886074024106,10,1,100,-1.0225055369072145,-10,-1,-100,19162.070208001183,0.0517296888261884,0.033094792458291215,0.9981126058747521,56.326914381516445,3.4914602325535466,286.64710903102434,-90.17455036813644,-59.4107666015625,4761.76025390625,True
1599384554.7045934,0.0,10,0.5,0.5,-0.06354318542480468,-0.001,-0.001,-0.001,0.09266943820869067,10,1,100,-0.8798011846242433,-10,-1,-100,19158.452292246744,0.05468688988303047,0.030561602465140943,0.9980357371004727,55.820264487059625,3.4608080191715294,285.26946978778585,-90.53900473826143,-60.65472412109375,4761.76025390625,True
1599384554.7396557,0.0,10,0.5,0.5,-0.06381612548828125,-0.001,-0.001,-0.001,0.34461646486431835,10,1,100,-0.5870551713697211,-10,-1,-100,19158.452292246744,0.05468688988303047,0.030561602465140943,0.9980357371004727,55.820264487059625,3.4608080191715294,285.26946978778585,-90.53900473826143,-60.65472412109375,4761.76025390625,True
1599384554.770947,0.0,10,0.5,0.5,-0.05772608947753907,-0.001,-0.001,-0.001,-0.27762375836672315,10,1,100,-1.1422406608297975,-10,-1,-100,19151.172724639182,0.059706993492397664,0.02491734564176238,0.9979049056970648,54.80194934557588,3.3988295219737594,282.4236010136597,-91.2679500113953,-63.2142333984375,4761.76025390625,True
1599384554.8043437,0.0,10,0.5,0.5,-0.057852719116210934,-0.001,-0.001,-0.001,0.11390862042358302,10,1,100,-0.7737346855965418,-10,-1,-100,19149.343720624456,0.06089262532288578,0.023362604441562126,0.9978708718541661,54.55154021509709,3.383522419620582,281.7201559502736,-91.45019445134972,-63.868988037109375,4761.76025390625,True
1599384554.8366978,0.0,10,0.5,0.5,-0.054830322265625,-0.001,-0.001,-0.001,-0.07940649242622827,10,1,100,-0.8782305209748219,-10,-1,-100,19145.6747776462,0.06289649740930861,0.02020887558019588,0.997815429807249,54.041871764923776,3.3522812814920133,280.2514751555514,-91.8146939781147,-65.193603515625,4761.76025390625,True
1599384554.8736868,0.0,10,0.5,0.5,-0.05365318603515625,-0.001,-0.001,-0.001,0.05089177031940745,10,1,100,-0.7834213812008739,-10,-1,-100,19143.834838622482,0.06383053916148236,0.018546328376693125,0.9977884024050881,53.78655793581417,3.336593980072543,279.50656014170426,-91.99694939275915,-65.86428833007812,4761.76025390625,True
1599384554.9045591,0.0,10,0.5,0.5,-0.05320729370117187,-0.001,-0.001,-0.001,0.2149153268172785,10,1,100,-0.6925703262614852,-10,-1,-100,19143.834838622482,0.06383053916148236,0.018546328376693125,0.9977884024050881,53.78655793581417,3.336593980072543,279.50656014170426,-91.99694939275915,-65.86428833007812,4761.76025390625,True
1599384554.9375818,0.0,10,0.5,0.5,-0.046799942016601564,-0.001,-0.001,-0.001,-0.5521297194563665,10,1,100,-1.027331736108176,-10,-1,-100,19136.43862962001,0.06685543429943214,0.011591241966724921,0.9976953412812467,52.768088990075185,3.273802806784386,276.4876767494759,-92.72601070148363,-68.59548950195312,4761.76025390625,True
1599384554.9708076,0.0,10,0.5,0.5,-0.04831307373046875,-0.001,-0.001,-0.001,0.14069787172231465,10,1,100,-0.7271676564992084,-10,-1,-100,19136.43862962001,0.06685543429943214,0.011591241966724921,0.9976953412812467,52.768088990075185,3.273802806784386,276.4876767494759,-92.72601070148363,-68.59548950195312,4761.76025390625,True
1599384555.0071876,0.0,10,0.5,0.5,-0.04582271423339843,-0.001,-0.001,-0.001,-0.06479279498681664,10,1,100,-0.7967750273922212,-10,-1,-100,19134.580463909544,0.06747019367419607,0.009745756411925295,0.9976736907413795,52.51307955456771,3.2580341938512425,275.71750895611075,-92.90828665474264,-69.29055786132812,4761.76025390625,True
1599384555.0374026,0.0,10,0.5,0.5,-0.039887835693359366,-0.001,-0.001,-0.001,-0.7100337702357814,10,1,100,-0.9154378766083957,-10,-1,-100,19127.11134353117,0.06909350945790305,0.0022234416198862895,0.9976077101036026,51.47888053200624,3.1939434078471636,272.50839546717356,-93.63743638890054,-72.11154174804688,4761.76025390625,True
1599384555.0721927,0.0,10,0.5,0.5,-0.041563137817382814,-0.001,-0.001,-0.001,0.03936389288359379,10,1,100,-0.7545469601951855,-10,-1,-100,19127.11134353117,0.06909350945790305,0.0022234416198862895,0.9976077101036026,51.47888053200624,3.1939434078471636,272.50839546717356,-93.63743638890054,-72.11154174804688,4761.76025390625,True
1599384555.1056423,0.0,10,0.5,0.5,-0.03611044921875,-0.001,-0.001,-0.001,-0.5905147920847017,10,1,100,-0.7967271148376586,-10,-1,-100,19121.471220731386,0.06946386848231201,-0.0034769662790570745,0.9975784087884854,50.694401238994296,3.1452317656376447,269.9977053669657,-94.18435005491935,-74.26504516601562,4761.76025390625,True
1599384555.1406584,0.0,10,0.5,0.5,-0.03570629577636719,-0.001,-0.001,-0.001,-0.24444685231536378,10,1,100,-0.7631484500630785,-10,-1,-100,19119.583887272165,0.06948642802928769,-0.005487270087538134,0.9975678053078483,50.43647957724504,3.129208419315367,269.16893729438044,-94.36666494058076,-74.9913330078125,4761.76025390625,True
1599384555.1715705,0.0,10,0.5,0.5,-0.030939489746093753,-0.001,-0.001,-0.001,-0.6776040253844101,10,1,100,-0.7040621559007998,-10,-1,-100,19113.900008410215,0.06896197603169359,-0.011226384328122153,0.9975561208056024,49.66432114320896,3.081241798654731,266.65897931035084,-94.9136410768734,-77.1817626953125,4761.76025390625,True
1599384555.2047508,0.0,10,0.5,0.5,-0.031931103515625,-0.001,-0.001,-0.001,-0.10683612731683988,10,1,100,-0.7571139035224483,-10,-1,-100,19113.900008410215,0.06896197603169359,-0.011226384328122153,0.9975561208056024,49.66432114320896,3.081241798654731,266.65897931035084,-94.9136410768734,-77.1817626953125,4761.76025390625,True
1599384555.2376618,0.0,10,0.5,0.5,-0.026374795532226568,-0.001,-0.001,-0.001,-0.7333000899846452,10,1,100,-0.6245406714855238,-10,-1,-100,19108.18330920476,0.06775209988874863,-0.016894445159006916,0.9975591364342439,49.54482858479469,3.073813239469799,267.62625205203665,-95.46064871138095,-79.39404296875,4761.76025390625,True
1599384555.2745473,0.0,10,0.5,0.5,-0.027234100341796873,-0.001,-0.001,-0.001,-0.17003808424973904,10,1,100,-0.7459204418527465,-10,-1,-100,19108.18330920476,0.06775209988874863,-0.016894445159006916,0.9975591364342439,49.54482858479469,3.073813239469799,267.62625205203665,-95.46064871138095,-79.39404296875,4761.76025390625,True
1599384555.3049817,0.0,10,0.5,0.5,-0.021694833374023437,-0.001,-0.001,-0.001,-0.7796534474100106,10,1,100,-0.5373317280109904,-10,-1,-100,19102.43379247014,0.06585502370328783,-0.022410506926713265,0.9975775082831042,51.049715778998376,3.16722798743638,277.41490161395626,-96.00757546838761,-81.62374877929688,4761.76025390625,True
1599384555.337924,0.0,10,0.5,0.5,-0.022621713256835936,-0.001,-0.001,-0.001,-0.23144744552871951,10,1,100,-0.7269393054974557,-10,-1,-100,19102.43379247014,0.06585502370328783,-0.022410506926713265,0.9975775082831042,51.049715778998376,3.16722798743638,277.41490161395626,-96.00757546838761,-81.62374877929688,4761.76025390625,True
1599384555.3717606,0.0,10,0.5,0.5,-0.016903164672851564,-0.001,-0.001,-0.001,-0.8172500803943754,10,1,100,-0.4463746854637142,-10,-1,-100,19096.651464214898,0.06330590458477282,-0.027706752458820465,0.9976094918919373,52.563708074176226,3.261252118729952,287.3532532058641,-96.554395326419,-83.86636352539062,4761.76025390625,True
1599384555.4076905,0.0,10,0.5,0.5,-0.017970297241210936,-0.001,-0.001,-0.001,-0.2906185465915261,10,1,100,-0.7007078368279017,-10,-1,-100,19096.651464214898,0.06330590458477282,-0.027706752458820465,0.9976094918919373,52.563708074176226,3.261252118729952,287.3532532058641,-96.554395326419,-83.86636352539062,4761.76025390625,True
1599384555.4388788,0.0,10,0.5,0.5,-0.013795913696289063,-0.001,-0.001,-0.001,-0.6623867161286435,10,1,100,-0.47528119915227407,-10,-1,-100,19092.778353543952,0.06126183297396996,-0.0310592538236318,0.9976383666302077,53.56796577432718,3.3236319926774396,294.0069463642534,-96.91888192920332,-85.36581420898438,4761.76025390625,True
1599384555.47223,0.0,10,0.5,0.5,-0.009685470581054687,-0.001,-0.001,-0.001,-0.8342820129810775,10,1,100,-0.2953044251983754,-10,-1,-100,19086.94135444367,0.05777488996048496,-0.035644592047078254,0.9976931016840055,55.14208831646423,3.4214027927344643,304.44515073126576,-97.46551888059403,-87.61572265625,4761.76025390625,True
1599384555.5050232,0.0,10,0.5,0.5,-0.007669705200195314,-0.001,-0.001,-0.001,-0.6931590544431516,10,1,100,-0.35318050287019764,-10,-1,-100,19083.03180261166,0.05514173477985043,-0.03850272960717612,0.9977359013778472,56.254409762848205,3.4904746821838204,311.8109878542216,-97.82987791868806,-89.11734008789062,4761.76025390625,True
1599384555.541055,0.0,10,0.5,0.5,-0.007977764892578124,-0.001,-0.001,-0.001,-0.4100729329612702,10,1,100,-0.615113996808466,-10,-1,-100,19083.03180261166,0.05514173477985043,-0.03850272960717612,0.9977359013778472,56.254409762848205,3.4904746821838204,311.8109878542216,-97.82987791868806,-89.11734008789062,4761.76025390625,True
1599384555.5714386,0.0,10,0.5,0.5,-0.0007938659667968747,-0.001,-0.001,-0.001,-0.949610702416585,10,1,100,0.01325344233251069,-10,-1,-100,19075.168982728268,0.049441867370615955,-0.04338282174287984,0.9978343712904121,58.45856273585189,3.627275198925358,326.57683426218387,-98.55843448230539,-92.11251068115234,4761.76025390625,True
1599384555.6049814,0.0,10,0.5,0.5,-0.0025171897888183596,-0.001,-0.001,-0.001,-0.4642503265046001,10,1,100,-0.5549022753391237,-10,-1,-100,19075.168982728268,0.049441867370615955,-0.04338282174287984,0.9978343712904121,58.45856273585189,3.627275198925358,326.57683426218387,-98.55843448230539,-92.11251068115234,4761.76025390625,True
1599384555.6389902,0.0,10,0.5,0.5,0.003234469604492188,-0.001,-0.001,-0.001,-0.8061787449035984,10,1,100,-0.032941673630326906,-10,-1,-100,19069.23362475261,0.04471341665737065,-0.04646718156779449,0.9979185895692945,60.05865474373495,3.7264915692076883,337.4824736356014,-99.10471342275943,-94.3524169921875,4761.76025390625,True
1599384555.6719012,0.0,10,0.5,0.5,0.003758061218261718,-0.001,-0.001,-0.001,-0.6039513622805661,10,1,100,-0.31681634759491895,-10,-1,-100,19067.24788906891,0.0430147235968675,-0.04741084458965198,0.997948869115638,60.583460398546315,3.759009410932807,341.0934048333451,-99.28678038118633,-95.09773254394531,4761.76025390625,True
1599384555.7046876,0.0,10,0.5,0.5,0.005848791503906251,-0.001,-0.001,-0.001,-0.6097689335586496,10,1,100,-0.2928149178605528,-10,-1,-100,19065.2585122264,0.04127302627164896,-0.04829887949599324,0.9979798372421215,61.1039628734335,3.7912472190128317,344.6918401221392,-99.468834438405,-95.84205627441406,4761.76025390625,True
1599384555.7386503,0.0,10,0.5,0.5,0.007785313415527344,-0.001,-0.001,-0.001,-0.6055137161038121,10,1,100,-0.28490552227902183,-10,-1,-100,19063.265494563966,0.03963779136008466,-0.049048780045771165,0.9980095503912354,61.623480915182554,3.8234098428462118,348.2964108214785,-99.65087556111312,-96.58369445800781,4761.76025390625,True
1599384555.772631,0.0,10,0.5,0.5,0.012751321411132813,-0.001,-0.001,-0.001,-0.7511275063206448,10,1,100,0.12984195789658148,-10,-1,-100,19057.264599440852,0.03440229899636135,-0.05103486770427962,0.9981041649558285,63.13786423826616,3.917065279183011,358.92922702974283,-100.19692339322229,-98.80165100097656,4761.76025390625,True
1599384555.8083863,0.0,10,0.5,0.5,0.014818049621582032,-0.001,-0.001,-0.001,-0.6660071385834822,10,1,100,0.004020375558364764,-10,-1,-100,19053.245803056867,0.03081101080875814,-0.0520484207654216,0.9981691457407249,64.118481376518,3.9776221315102824,365.9094286827285,-100.56089316046477,-100.27220153808594,4761.76025390625,True
1599384555.8389711,0.0,10,0.5,0.5,0.017537905883789066,-0.001,-0.001,-0.001,-0.647038291805186,10,1,100,0.02819599362781089,-10,-1,-100,19049.212449358427,0.02735093763680728,-0.05278247600600403,0.9982314042530736,65.07615995786274,4.036684542909033,372.8026723409118,-100.92481445214821,-101.73458099365234,4761.76025390625,True
1599384555.8720264,0.0,10,0.5,0.5,0.01733725051879883,-0.001,-0.001,-0.001,-0.5750607423868255,10,1,100,-0.3150322438529709,-10,-1,-100,19049.212449358427,0.02735093763680728,-0.05278247600600403,0.9982314042530736,65.07615995786274,4.036684542909033,372.8026723409118,-100.92481445214821,-101.73458099365234,4761.76025390625,True
1599384555.9051156,0.0,10,0.5,0.5,0.020055502319335936,-0.001,-0.001,-0.001,-0.6084388161602017,10,1,100,-0.11613720363976093,-10,-1,-100,19047.19031404145,0.02556806526863541,-0.053072931452672154,0.9982632608613015,65.5405966869655,4.065294455880211,376.18294288058314,-101.10675724424661,-102.46284484863281,4761.76025390625,True
1599384555.9410186,0.0,10,0.5,0.5,0.026142148590087892,-0.001,-0.001,-0.001,-0.6387531438528429,10,1,100,0.4928425819641956,-10,-1,-100,19039.06538912817,0.01843279579399045,-0.053603757465294645,0.9983921420087495,67.31494914693457,4.174368632035994,389.3275197785911,-101.83441346293907,-105.352783203125,4761.76025390625,True
1599384555.972346,0.0,10,0.5,0.5,0.02743756561279297,-0.001,-0.001,-0.001,-0.576688894049533,10,1,100,0.16738823686317209,-10,-1,-100,19034.981099422905,0.014933053110301272,-0.053512814355173716,0.9984554985699632,68.16759534466118,4.22664643667402,395.76023799875134,-102.19817454631344,-106.783447265625,4761.76025390625,True
1599384556.0056155,0.0,10,0.5,0.5,0.02867387847900391,-0.001,-0.001,-0.001,-0.5754590940841601,10,1,100,-0.0008523149674543318,-10,-1,-100,19032.93349859398,0.013308001472268684,-0.05341255368011732,0.9984838487457786,68.58542949933556,4.252229591566851,398.9419189245445,-102.38003864152941,-107.4953842163086,4761.76025390625,True
1599384556.0385776,0.0,10,0.5,0.5,0.03203216629028321,-0.001,-0.001,-0.001,-0.5448219065388586,10,1,100,0.2048091103524667,-10,-1,-100,19028.827385842917,0.00998803859126214,-0.05303743162593561,0.9985425729189636,69.38801873448176,4.301286531519133,405.1410276086399,-102.74373509842022,-108.91061401367188,4761.76025390625,True
1599384556.0755131,0.0,10,0.5,0.5,0.031923792266845705,-0.001,-0.001,-0.001,-0.5828079671700236,10,1,100,-0.12405867898014906,-10,-1,-100,19028.827385842917,0.00998803859126214,-0.05303743162593561,0.9985425729189636,69.38801873448176,4.301286531519133,405.1410276086399,-102.74373509842022,-108.91061401367188,4761.76025390625,True
1599384556.1056328,0.0,10,0.5,0.5,0.03456262741088867,-0.001,-0.001,-0.001,-0.552443869640625,10,1,100,0.06421897167718843,-10,-1,-100,19026.7688744131,0.008303377905985274,-0.052757768328777294,0.9985728174731763,69.77324999698966,4.324789457494342,408.160515814771,-102.92556787715417,-109.61368560791016,4761.76025390625,True
1599384556.1390574,0.0,10,0.5,0.5,0.04050594482421875,-0.001,-0.001,-0.001,-0.406454998859756,10,1,100,0.599914513963363,-10,-1,-100,19018.498466144665,0.0019256350086686953,-0.051174791141875925,0.9986878554790776,71.23800539590592,4.413885031266814,419.8788554416668,-103.65279913367658,-112.39627838134766,4761.76025390625,True
1599384556.1730344,0.0,10,0.5,0.5,0.04031172103881837,-0.001,-0.001,-0.001,-0.5093348798538441,10,1,100,0.13218543429840637,-10,-1,-100,19016.42177443474,0.00040602889515331173,-0.05067178682611507,0.9987152773240154,71.58757551383312,4.435082104322689,422.73163115622356,-103.83458271124606,-113.08425903320312,4761.76025390625,True
1599384556.2078114,0.0,10,0.5,0.5,0.0434929916381836,-0.001,-0.001,-0.001,-0.44086114193706855,10,1,100,0.30166587661351535,-10,-1,-100,19012.25748466933,-0.0024916671302328878,-0.04959394045725259,0.9987663553929089,72.26666003098909,4.476182006852743,428.342873045477,-104.19812176529332,-114.45140075683594,4761.76025390625,True
1599384556.2391357,0.0,10,0.5,0.5,0.04610145034790039,-0.001,-0.001,-0.001,-0.40405553981352005,10,1,100,0.33352247633606424,-10,-1,-100,19008.078654512065,-0.005388412055546204,-0.0482823824076624,0.9988191911274833,72.91121414369917,4.515076940178384,433.7805934925071,-104.561624466498,-115.80335998535156,4761.76025390625,True
1599384556.273151,0.0,10,0.5,0.5,0.04742599563598633,-0.001,-0.001,-0.001,-0.46100471565386436,10,1,100,0.19618563147174886,-10,-1,-100,19005.983787114616,-0.006745157509497096,-0.047612131732988096,0.9988431247007775,73.22215971590674,4.5337981533367655,436.44331857397367,-104.7433626277438,-116.4745864868164,4761.76025390625,True
1599384556.3070574,0.0,10,0.5,0.5,0.05053005065917969,-0.001,-0.001,-0.001,-0.3705032825409882,10,1,100,0.3497568601070915,-10,-1,-100,19001.783148707123,-0.00935177549767967,-0.0461855195692874,0.9988891039936095,73.81955347378342,4.569677433337885,441.6442930044056,-105.10681308508128,-117.80613708496094,4761.76025390625,True
1599384556.3420472,0.0,10,0.5,0.5,0.052932177734375,-0.001,-0.001,-0.001,-0.33865998425935634,10,1,100,0.36638789941668154,-10,-1,-100,18997.567973487312,-0.011850542363743754,-0.044605776067713654,0.9989343769172639,74.38432863547989,4.6034772900275325,446.67779185058544,-105.47023041600343,-119.12184143066406,4761.76025390625,True
1599384556.3724585,0.0,10,0.5,0.5,0.05538126144409179,-0.001,-0.001,-0.001,-0.31959742553812187,10,1,100,0.37172207907082755,-10,-1,-100,18993.338262405712,-0.01414776974444333,-0.04300435578482848,0.9989747073849219,74.91860749656455,4.635333583602276,451.55446744661214,-105.83361564933209,-120.42291259765625,4761.76025390625,True
1599384556.4062107,0.0,10,0.5,0.5,0.05652037582397461,-0.001,-0.001,-0.001,-0.38747080641584286,10,1,100,0.2648336260049415,-10,-1,-100,18991.217956376844,-0.01524250341872061,-0.04217467087731316,0.9989939755703837,75.17372932592659,4.650498209252845,453.9298606720811,-106.01529667034407,-121.06739044189453,4761.76025390625,True
1599384556.439497,0.0,10,0.5,0.5,0.05964481353759765,-0.001,-0.001,-0.001,-0.2820050897587779,10,1,100,0.3853022624917086,-10,-1,-100,18986.96644410526,-0.017309948416116036,-0.04047150786518829,0.9990307416375882,75.66015586762275,4.679315008080613,458.5547580345409,-106.37863629487867,-122.34400939941406,4761.76025390625,True
1599384556.475861,0.0,10,0.5,0.5,0.06090450210571289,-0.001,-0.001,-0.001,-0.35294359694959815,10,1,100,0.28928585492896064,-10,-1,-100,18984.835238089552,-0.018293282593794077,-0.03957924270177641,0.9990489674480914,75.89155626439137,4.692973694925343,460.80431726039325,-106.5602951830473,-122.97564697265625,4761.76025390625,True
1599384556.5059094,0.0,10,0.5,0.5,0.06133080139160156,-0.001,-0.001,-0.001,-0.4410105584467766,10,1,100,0.19297432892140282,-10,-1,-100,18984.835238089552,-0.018293282593794077,-0.03957924270177641,0.9990489674480914,75.89155626439137,4.692973694925343,460.80431726039325,-106.5602951830473,-122.97564697265625,4761.76025390625,True
1599384556.5391355,0.0,10,0.5,0.5,0.06728659973144532,-0.001,-0.001,-0.001,-0.042449717962755706,10,1,100,0.5805651668445624,-10,-1,-100,18976.27408488118,-0.02179983629174194,-0.03596604646476198,0.9991152138964494,76.7423540468689,4.742865475623817,469.4013529884855,-107.28686145603918,-125.45897674560547,4761.76025390625,True
1599384556.5730765,0.0,10,0.5,0.5,0.0671218162536621,-0.001,-0.001,-0.001,-0.29660282774607616,10,1,100,0.31831819856386695,-10,-1,-100,18974.124715084443,-0.02258599615172321,-0.035004194423681315,0.9991319127875876,76.93663359995669,4.754173053667042,471.4507927471309,-107.46848637472247,-126.06787109375,4761.76025390625,True
1599384556.60905,0.0,10,0.5,0.5,0.0699502311706543,-0.001,-0.001,-0.001,-0.1907679223708001,10,1,100,0.3994908824011329,-10,-1,-100,18969.815078444313,-0.024022986255593896,-0.03317971905381818,0.9991606489323293,77.30367977208661,4.775431865690038,475.43181450198034,-107.83171745495022,-127.27330017089844,4761.76025390625,True
1599384556.6395671,0.0,10,0.5,0.5,0.0721937530517578,-0.001,-0.001,-0.001,-0.16007460568935178,10,1,100,0.4005642063938392,-10,-1,-100,18965.490913260146,-0.025323391269277216,-0.031255195304728686,0.9991905917396774,77.64234177608695,4.794906430085881,479.2559425912414,-108.19492440680811,-128.4578399658203,4761.76025390625,True
1599384556.6729026,0.0,10,0.5,0.5,0.07324491577148437,-0.001,-0.001,-0.001,-0.24909007036017952,10,1,100,0.33715388118321427,-10,-1,-100,18963.32338283176,-0.025914600492736736,-0.030328432779168087,0.9992039930096662,77.80152376192262,4.804005710526423,481.1116382657637,-108.37651913970467,-129.04310607910156,4761.76025390625,True
1599384556.7061994,0.0,10,0.5,0.5,0.07596220092773437,-0.001,-0.001,-0.001,-0.1379386999553177,10,1,100,0.3975335185010659,-10,-1,-100,18958.977426686673,-0.02698818370956314,-0.02848843379160384,0.9992297268797402,78.09979599212488,4.8209437952108445,484.71043849969544,-108.7396917384749,-130.1983184814453,4761.76025390625,True
1599384556.7422016,0.0,10,0.5,0.5,0.07578452911376954,-0.001,-0.001,-0.001,-0.32048700651242,10,1,100,0.2914592382149375,-10,-1,-100,18958.977426686673,-0.02698818370956314,-0.02848843379160384,0.9992297268797402,78.09979599212488,4.8209437952108445,484.71043849969544,-108.7396917384749,-130.1983184814453,4761.76025390625,True
1599384556.7731118,0.0,10,0.5,0.5,0.07896486434936523,-0.001,-0.001,-0.001,-0.11460125806073646,10,1,100,0.3944862913400049,-10,-1,-100,18954.61694421142,-0.027914115392253896,-0.026629187203030088,0.9992555671852792,78.37237883160805,4.836270255102995,488.1644611603165,-109.10284286484983,-131.33193969726562,4761.76025390625,True
1599384556.8064775,0.0,10,0.5,0.5,0.08095598831176758,-0.001,-0.001,-0.001,-0.10517406921556854,10,1,100,0.3904037457160001,-10,-1,-100,18950.24193649378,-0.028709117264503505,-0.02486584524269984,0.9992784778660347,78.61924588036771,4.849986439015925,491.4718166761821,-109.4659736300903,-132.44491577148438,4761.76025390625,True
1599384556.839351,0.0,10,0.5,0.5,0.0818850929260254,-0.001,-0.001,-0.001,-0.17883084050594264,10,1,100,0.3487307777357601,-10,-1,-100,18948.0489856879,-0.029043532135209413,-0.02394578992454763,0.9992912850545634,78.73354798992132,4.856273175289534,493.07315566526853,-109.64753162101063,-132.99249267578125,4761.76025390625,True
1599384556.875746,0.0,10,0.5,0.5,0.08556118545532228,-0.001,-0.001,-0.001,0.015501786853038185,10,1,100,0.4077673671210575,-10,-1,-100,18941.44834750134,-0.029874468967043474,-0.021356927980034187,0.9993254713711609,79.037126146779,4.8726818796056115,497.64769588168247,-110.192177992088,-134.60348510742188,4761.76025390625,True
1599384556.9057007,0.0,10,0.5,0.5,0.08486464385986328,-0.001,-0.001,-0.001,-0.24192349574983346,10,1,100,0.3254811472051815,-10,-1,-100,18941.44834750134,-0.029874468967043474,-0.021356927980034187,0.9993254713711609,79.037126146779,4.8726818796056115,497.64769588168247,-110.192177992088,-134.60348510742188,4761.76025390625,True
1599384556.939828,0.0,10,0.5,0.5,0.08780835418701172,-0.001,-0.001,-0.001,-0.0558918255953616,10,1,100,0.36916934396757356,-10,-1,-100,18937.02976784855,-0.030265008507778565,-0.01967813758448776,0.999348187650946,79.20994243122617,4.88178166153923,500.5241703535862,-110.55525363999983,-135.6485595703125,4761.76025390625,True
1599384556.9727874,0.0,10,0.5,0.5,0.08964517822265625,-0.001,-0.001,-0.001,-0.052221636820227874,10,1,100,0.36473974505553325,-10,-1,-100,18932.596665607532,-0.030574100807199023,-0.018130873310098272,0.9993680482148929,79.36109776166583,4.88953505685842,503.27283877332985,-110.91831289719293,-136.67074584960938,4761.76025390625,True
1599384557.0088217,0.0,10,0.5,0.5,0.09241721343994141,-0.001,-0.001,-0.001,0.04693683335080412,10,1,100,0.3556263438641438,-10,-1,-100,18925.91978406266,-0.03076747133262506,-0.015834759988184476,0.9994011322206479,79.55044969674435,4.89884087861945,507.17358453160915,-111.46287269143455,-138.15721130371094,4761.76025390625,True
1599384557.0397604,0.0,10,0.5,0.5,0.09376308746337891,-0.001,-0.001,-0.001,-0.027866329508292487,10,1,100,0.3396399080293387,-10,-1,-100,18921.45037828083,-0.030793519783750604,-0.014440589060428251,0.9994214469016138,79.64966801958259,4.903370687903494,509.6105053128542,-111.82589456055379,-139.11767578125,4761.76025390625,True
1599384557.0731993,0.0,10,0.5,0.5,0.09369455871582032,-0.001,-0.001,-0.001,-0.16587863781079737,10,1,100,0.33741559652420305,-10,-1,-100,18921.45037828083,-0.030793519783750604,-0.014440589060428251,0.9994214469016138,79.64966801958259,4.903370687903494,509.6105053128542,-111.82589456055379,-139.11767578125,4761.76025390625,True
1599384557.1062996,0.0,10,0.5,0.5,0.09737152862548829,-0.001,-0.001,-0.001,0.04676211851334372,10,1,100,0.3262134862029085,-10,-1,-100,18914.71904383204,-0.030688223020762302,-0.012520262043600764,0.999450587075813,79.76723359683501,4.908227765519412,513.0763855431528,-112.37040245406101,-140.51019287109375,4761.76025390625,True
1599384557.1419013,0.0,10,0.5,0.5,0.09689683685302734,-0.001,-0.001,-0.001,-0.143859690653462,10,1,100,0.3370205732645896,-10,-1,-100,18914.71904383204,-0.030688223020762302,-0.012520262043600764,0.999450587075813,79.76723359683501,4.908227765519412,513.0763855431528,-112.37040245406101,-140.51019287109375,4761.76025390625,True
1599384557.1730683,0.0,10,0.5,0.5,0.09949306793212892,-0.001,-0.001,-0.001,-0.009302937952328824,10,1,100,0.3123447436597602,-10,-1,-100,18910.213337962632,-0.03046209811003089,-0.011308242094680553,0.9994719527027575,79.82691048433294,4.910305051753062,515.2727978866791,-112.73339196676284,-141.40504455566406,4761.76025390625,True
1599384557.2070043,0.0,10,0.5,0.5,0.1011769287109375,-0.001,-0.001,-0.001,-0.012490858564134316,10,1,100,0.31045080118153767,-10,-1,-100,18905.693112633307,-0.030238022745041383,-0.010246875553796653,0.9994902018138324,79.86735622625476,4.911192811625177,517.3489876198654,-113.0963698573442,-142.27377319335938,4761.76025390625,True
1599384557.2402,0.0,10,0.5,0.5,0.10192251892089844,-0.001,-0.001,-0.001,-0.05934099354332157,10,1,100,0.3125467214276302,-10,-1,-100,18903.427555515547,-0.030053041184762673,-0.009718007245918663,0.9995010630563208,79.88274273381079,4.911337339572785,518.3569950841212,-113.27785457957665,-142.69741821289062,4761.76025390625,True
1599384557.2761447,0.0,10,0.5,0.5,0.1047682891845703,-0.001,-0.001,-0.001,0.0445007029781742,10,1,100,0.26530175570352443,-10,-1,-100,18896.60910631693,-0.02945521410318314,-0.008303783289228815,0.9995316090775824,79.90186530963453,4.9101015690263035,521.2091503986271,-113.82229333533209,-143.92742919921875,4761.76025390625,True
1599384557.306922,0.0,10,0.5,0.5,0.10593504333496093,-0.001,-0.001,-0.001,-0.0038303507566975897,10,1,100,0.27106698834606413,-10,-1,-100,18892.045325859683,-0.028964882320683557,-0.007467838684641659,0.9995525333755746,79.89607432681586,4.908134332164434,522.9919045085405,-114.18524035502696,-144.7118682861328,4761.76025390625,True
1599384557.3405716,0.0,10,0.5,0.5,0.1074654281616211,-0.001,-0.001,-0.001,-0.004898533607923375,10,1,100,0.26407403802129403,-10,-1,-100,18887.467027912033,-0.02845701680499195,-0.0067272934651421675,0.9995723794289206,79.87734210033446,4.905369677387174,524.6909202280356,-114.54817824636609,-145.46722412109375,4761.76025390625,True
1599384557.373856,0.0,10,0.5,0.5,0.10889200134277344,-0.001,-0.001,-0.001,-0.005318696163312847,10,1,100,0.25069739698853866,-10,-1,-100,18882.87421283126,-0.02787581546727238,-0.006066169712939845,0.9995929874189036,79.84998673418556,4.902073212725416,526.3337496858062,-114.91110752149335,-146.19268798828125,4761.76025390625,True
1599384557.409099,0.0,10,0.5,0.5,0.10887403869628906,-0.001,-0.001,-0.001,-0.07059362944879627,10,1,100,0.30852576032884793,-10,-1,-100,18882.87421283126,-0.02787581546727238,-0.006066169712939845,0.9995929874189036,79.84998673418556,4.902073212725416,526.3337496858062,-114.91110752149335,-146.19268798828125,4761.76025390625,True
1599384557.4405134,0.0,10,0.5,0.5,0.1116444061279297,-0.001,-0.001,-0.001,0.021534748082232685,10,1,100,0.20535402156441485,-10,-1,-100,18875.957770694862,-0.026940543027883422,-0.005236252116610026,0.999623323459959,79.79152710544287,4.896054892243346,528.6829774402214,-115.45548608788883,-147.22412109375,4761.76025390625,True
1599384557.4738865,0.0,10,0.5,0.5,0.11258294982910155,-0.001,-0.001,-0.001,-0.011936178817747466,10,1,100,0.2203132421999418,-10,-1,-100,18871.328663756605,-0.02622969525239178,-0.004792684555334547,0.9996444534241761,79.74060678145966,4.89130750109107,530.1692911400297,-115.81839541803045,-147.8734130859375,4761.76025390625,True
1599384557.5072527,0.0,10,0.5,0.5,0.11329559020996094,-0.001,-0.001,-0.001,-0.033527132011029845,10,1,100,0.2535548755252728,-10,-1,-100,18869.008666697657,-0.025889719875600903,-0.004592747780921466,0.9996542547664087,79.710131568319,4.88862581826619,530.8787067917643,-115.999847358537,-148.18621826171875,4761.76025390625,True
1599384557.5426552,0.0,10,0.5,0.5,0.11366090240478516,-0.001,-0.001,-0.001,-0.05284926002096203,10,1,100,0.2870951753809174,-10,-1,-100,18869.008666697657,-0.025889719875600903,-0.004592747780921466,0.9996542547664087,79.710131568319,4.88862581826619,530.8787067917643,-115.999847358537,-148.18621826171875,4761.76025390625,True
1599384557.5735424,0.0,10,0.5,0.5,0.1154560043334961,-0.001,-0.001,-0.001,-0.01511962122856357,10,1,100,0.20618513816613404,-10,-1,-100,18864.35778555891,-0.025158127085347818,-0.004254891180784094,0.9996744292731495,79.64387673896813,4.882936778677549,532.2610379406331,-116.36274610371082,-148.78814697265625,4761.76025390625,True
1599384557.6075697,0.0,10,0.5,0.5,0.11714909210205078,-0.001,-0.001,-0.001,-0.009962679711354547,10,1,100,0.1462862230469024,-10,-1,-100,18857.35424700647,-0.02395295706048783,-0.0039058339996528866,0.9997054567765576,79.53173968746918,4.873621236502439,534.2457296405762,-116.90708155704777,-149.63111877441406,4761.76025390625,True
1599384557.642515,0.0,10,0.5,0.5,0.11791942749023439,-0.001,-0.001,-0.001,-0.02855336907911226,10,1,100,0.1738349410444171,-10,-1,-100,18852.667077115155,-0.023112792889722244,-0.003761513692231019,0.9997257873134914,79.4444268660726,4.8666420480129355,535.4816064687045,-117.26996388989065,-150.152587890625,4761.76025390625,True
1599384557.6732712,0.0,10,0.5,0.5,0.1189182876586914,-0.001,-0.001,-0.001,-0.03178820187709565,10,1,100,0.1630926663894989,-10,-1,-100,18847.965391962323,-0.022256670318918783,-0.0036630903700040894,0.999745578832563,79.34946818080542,4.8591947885164375,536.6630315225506,-117.63284048386772,-150.64071655273438,4761.76025390625,True
1599384557.7063062,0.0,10,0.5,0.5,0.11941061248779299,-0.001,-0.001,-0.001,-0.038895724105720716,10,1,100,0.199492788244761,-10,-1,-100,18845.609106326126,-0.021814923950041722,-0.0036410141001445065,0.9997553961391638,79.30098040901628,4.855409720581597,537.2457435121622,-117.81427668699709,-150.8722686767578,4761.76025390625,True
1599384557.7402773,0.0,10,0.5,0.5,0.12052278137207031,-0.001,-0.001,-0.001,-0.04092798594723472,10,1,100,0.14291626638387195,-10,-1,-100,18840.88564923941,-0.020904514226433794,-0.0036416245584793725,0.9997748445802844,79.20216563902218,4.847728230778192,538.3962359453786,-118.17714455392326,-151.31015014648438,4761.76025390625,True
1599384557.7762666,0.0,10,0.5,0.5,0.12059664611816406,-0.001,-0.001,-0.001,-0.040624485598302076,10,1,100,0.23326010862058089,-10,-1,-100,18840.88564923941,-0.020904514226433794,-0.0036416245584793725,0.9997748445802844,79.20216563902218,4.847728230778192,538.3962359453786,-118.17714455392326,-151.31015014648438,4761.76025390625,True
1599384557.8082294,0.0,10,0.5,0.5,0.12219097900390626,-0.001,-0.001,-0.001,-0.051603891276677624,10,1,100,0.07754405132774322,-10,-1,-100,18833.77324863558,-0.019494401004500225,-0.003742886998790178,0.999802960150844,79.04698217304653,4.835784164730482,540.0681081426129,-118.72143564216557,-151.90301513671875,4761.76025390625,True
1599384557.8411818,0.0,10,0.5,0.5,0.12270572509765626,-0.001,-0.001,-0.001,-0.05677912482600119,10,1,100,0.11054669733047202,-10,-1,-100,18829.01350534777,-0.018518626942992597,-0.003882945701845256,0.9998209755695382,78.93892192056357,4.827542803538549,541.1465853686423,-119.08428949632716,-152.25534057617188,4761.76025390625,True
1599384557.874762,0.0,10,0.5,0.5,0.12339532165527343,-0.001,-0.001,-0.001,-0.062059213807716875,10,1,100,0.09774024142060063,-10,-1,-100,18824.23924808763,-0.01752183828147102,-0.0040589178790737205,0.9998382421016356,78.82605435960501,4.819010274921219,542.1881050097991,-119.44713775806012,-152.57284545898438,4761.76025390625,True
1599384557.9102902,0.0,10,0.5,0.5,0.1235164794921875,-0.001,-0.001,-0.001,-0.04440861309468565,10,1,100,0.1965823194133452,-10,-1,-100,18824.23924808763,-0.01752183828147102,-0.0040589178790737205,0.9998382421016356,78.82605435960501,4.819010274921219,542.1881050097991,-119.44713775806012,-152.57284545898438,4761.76025390625,True
1599384557.9402444,0.0,10,0.5,0.5,0.12471550598144532,-0.001,-0.001,-0.001,-0.08136783229178302,10,1,100,0.02605022921599498,-10,-1,-100,18817.05064908706,-0.015978488633135,-0.004395088938412524,0.9998626761181879,78.6525843974721,4.8059608205907,543.7137451103102,-119.99140018736887,-152.98312377929688,4761.76025390625,True
1599384557.9732497,0.0,10,0.5,0.5,0.1246404281616211,-0.001,-0.001,-0.001,-0.04779965185177861,10,1,100,0.17958774720686202,-10,-1,-100,18817.05064908706,-0.015978488633135,-0.004395088938412524,0.9998626761181879,78.6525843974721,4.8059608205907,543.7137451103102,-119.99140018736887,-152.98312377929688,4761.76025390625,True
1599384558.007361,0.0,10,0.5,0.5,0.1255848892211914,-0.001,-0.001,-0.001,-0.09583432453363994,10,1,100,0.002443979624205783,-10,-1,-100,18809.82939481549,-0.014374576477162294,-0.004831191803478371,0.9998850089569602,78.47548992136318,4.7926968823511755,545.2043852410422,-120.53565011888665,-153.31382751464844,4761.76025390625,True
1599384558.0432458,0.0,10,0.5,0.5,0.12552149658203124,-0.001,-0.001,-0.001,-0.052340848170402667,10,1,100,0.16204698583730057,-10,-1,-100,18809.82939481549,-0.014374576477162294,-0.004831191803478371,0.9998850089569602,78.47548992136318,4.7926968823511755,545.2043852410422,-120.53565011888665,-153.31382751464844,4761.76025390625,True
1599384558.0743372,0.0,10,0.5,0.5,0.12639461975097657,-0.001,-0.001,-0.001,-0.12153219677275046,10,1,100,-0.08169413904954065,-10,-1,-100,18800.150259756367,-0.012165512021348173,-0.005459122083769411,0.9999110951996348,78.23771058429244,4.774921764501296,547.1643987720886,-121.26129726391245,-153.62831115722656,4761.76025390625,True
1599384558.1082623,0.0,10,0.5,0.5,0.12631195220947267,-0.001,-0.001,-0.001,-0.05892091849617546,10,1,100,0.13833840631136288,-10,-1,-100,18800.150259756367,-0.012165512021348173,-0.005459122083769411,0.9999110951996348,78.23771058429244,4.774921764501296,547.1643987720886,-121.26129726391245,-153.62831115722656,4761.76025390625,True
1599384558.141168,0.0,10,0.5,0.5,0.12665653076171873,-0.001,-0.001,-0.001,-0.08077676130225972,10,1,100,0.07459878733156725,-10,-1,-100,18797.72140553908,-0.011594005487172836,-0.005656159293347186,0.9999167899874527,78.17930551675335,4.77054399094071,547.6587708654513,-121.44270541383018,-153.6846923828125,4761.76025390625,True
1599384558.1810586,0.0,10,0.5,0.5,0.12704488830566407,-0.001,-0.001,-0.001,-0.1433493699431916,10,1,100,-0.12490663163651157,-10,-1,-100,18787.969707841286,-0.009267950643228474,-0.006402386587613129,0.999936555255811,77.94581514595355,4.753053890512047,549.6255647313241,-122.1683229917142,-153.81797790527344,4761.76025390625,True
1599384558.2079902,0.0,10,0.5,0.5,0.1270678665161133,-0.001,-0.001,-0.001,-0.06897858460517413,10,1,100,0.10677378512794818,-10,-1,-100,18787.969707841286,-0.009267950643228474,-0.006402386587613129,0.999936555255811,77.94581514595355,4.753053890512047,549.6255647313241,-122.1683229917142,-153.81797790527344,4761.76025390625,True
1599384558.2409592,0.0,10,0.5,0.5,0.1272158172607422,-0.001,-0.001,-0.001,-0.11184746325379674,10,1,100,-0.025693559562862733,-10,-1,-100,18783.072090755217,-0.008071205589346778,-0.0067899732401382985,0.9999443744047629,77.82944291482995,4.7443396767700765,550.6045527400254,-122.53112235602656,-153.82969665527344,4761.76025390625,True
1599384558.274529,0.0,10,0.5,0.5,0.12731266326904297,-0.001,-0.001,-0.001,-0.09049291215889942,10,1,100,0.027016755021878433,-10,-1,-100,18780.61784032511,-0.007471031702672086,-0.006945709682152055,0.9999479690475445,77.7714175302731,4.739994243015614,551.093407579173,-122.7125196503198,-153.82113647460938,4761.76025390625,True
1599384558.3099,0.0,10,0.5,0.5,0.12731756134033204,-0.001,-0.001,-0.001,-0.11690451341978196,10,1,100,-0.048691614239678355,-10,-1,-100,18775.6984556698,-0.006244895227799543,-0.007325074985678275,0.9999536712068455,77.66014312344781,4.731598973119444,552.1014912360969,-123.0753092472347,-153.77740478515625,4761.76025390625,True
1599384558.3411794,0.0,10,0.5,0.5,0.12736888275146485,-0.001,-0.001,-0.001,-0.09852640187103948,10,1,100,0.004815141146472801,-10,-1,-100,18773.233321578824,-0.0056254994754307295,-0.0075002151693069384,0.999956049298201,77.60595013853637,4.727492577704892,552.6140984612792,-123.25670143440958,-153.74148559570312,4761.76025390625,True
1599384558.37436,0.0,10,0.5,0.5,0.12724825744628906,-0.001,-0.001,-0.001,-0.11901693669200406,10,1,100,-0.07181596081091214,-10,-1,-100,18768.292170068948,-0.004373719752757155,-0.007843284722463739,0.9999596759171275,77.50010920862373,4.719441904285458,553.6541231831325,-123.61948036995354,-153.64183044433594,4761.76025390625,True
1599384558.4082985,0.0,10,0.5,0.5,0.12710639038085939,-0.001,-0.001,-0.001,-0.11864473451202062,10,1,100,-0.08707687745148507,-10,-1,-100,18763.336507600266,-0.0031060942687981563,-0.008149044211952812,0.9999619719053445,77.39803793717566,4.711631727729946,554.7167424275642,-123.9822517736493,-153.50466918945312,4761.76025390625,True
1599384558.443928,0.0,10,0.5,0.5,0.12668080291748046,-0.001,-0.001,-0.001,-0.13709386802338408,10,1,100,-0.17416365773435893,-10,-1,-100,18755.875806458993,-0.0011702452969479858,-0.008592281396020562,0.9999624009063323,77.25286423856974,4.700423836015006,556.3597306618165,-124.52639400483885,-153.22947692871094,4761.76025390625,True
1599384558.4745896,0.0,10,0.5,0.5,0.1269161117553711,-0.001,-0.001,-0.001,-0.09308346554783424,10,1,100,0.018321712778218077,-10,-1,-100,18755.875806458993,-0.0011702452969479858,-0.008592281396020562,0.9999624009063323,77.25286423856974,4.700423836015006,556.3597306618165,-124.52639400483885,-153.22947692871094,4761.76025390625,True
1599384558.5076816,0.0,10,0.5,0.5,0.12615086364746092,-0.001,-0.001,-0.001,-0.12932902815047323,10,1,100,-0.19785338108903386,-10,-1,-100,18748.38245764596,0.0007855066834904636,-0.008919117308678486,0.9999599153594528,77.11833535672672,4.689898974726869,558.0704703879417,-125.07051716062506,-152.86961364746094,4761.76025390625,True
1599384558.5409234,0.0,10,0.5,0.5,0.12641589050292967,-0.001,-0.001,-0.001,-0.09689710995678735,10,1,100,-0.0032835287778607922,-10,-1,-100,18748.38245764596,0.0007855066834904636,-0.008919117308678486,0.9999599153594528,77.11833535672672,4.689898974726869,558.0704703879417,-125.07051716062506,-152.86961364746094,4761.76025390625,True
1599384558.5773246,0.0,10,0.5,0.5,0.12574854431152344,-0.001,-0.001,-0.001,-0.11782762021802756,10,1,100,-0.14980611481510756,-10,-1,-100,18743.368754729163,0.0021083906862593258,-0.00910710673767061,0.9999563066932387,77.03839458615836,4.68349962412321,559.2768884204489,-125.43325449328017,-152.58335876464844,4761.76025390625,True
1599384558.6076188,0.0,10,0.5,0.5,0.12526090393066405,-0.001,-0.001,-0.001,-0.10722674542732691,10,1,100,-0.16238647500464556,-10,-1,-100,18738.34054259758,0.0034161252393399046,-0.009179528144568416,0.9999520320252329,76.96491118087516,4.677517332039836,560.5268709744171,-125.79598214410073,-152.25872802734375,4761.76025390625,True
1599384558.641782,0.0,10,0.5,0.5,0.1250780975341797,-0.001,-0.001,-0.001,-0.10709558768459201,10,1,100,-0.1065446759358967,-10,-1,-100,18735.82099556632,0.0040874246988408846,-0.00924214270003027,0.9999489365750851,76.93186271485351,4.67476098835125,561.1776044650467,-125.97734212094336,-152.0831298828125,4761.76025390625,True
1599384558.66274,0.0,10,0.5,0.5,0.12432456359863281,-0.001,-0.001,-0.001,-0.10553399674600439,10,1,100,-0.18683931347055172,-10,-1,-100,18730.771020240616,0.005418255166950784,-0.009283125953086294,0.9999422313731354,76.8684814470087,4.669437008232735,562.4967785267221,-126.34005420742332,-151.70327758789062,4761.76025390625,True
1599384558.708642,0.0,10,0.5,0.5,0.12322142028808593,-0.001,-0.001,-0.001,-0.09529795971990795,10,1,100,-0.27347170016435807,-10,-1,-100,18723.16885477805,0.007405628421864949,-0.00922570774582382,0.9999300190434659,76.7848875571918,4.662213269405351,564.554677370552,-126.88410189670662,-151.06369018554688,4761.76025390625,True
1599384558.7417567,0.0,10,0.5,0.5,0.12314005889892578,-0.001,-0.001,-0.001,-0.09685445129828357,10,1,100,-0.14921712348944452,-10,-1,-100,18720.627545752446,0.008072035821856229,-0.009186402550821933,0.9999252233271569,76.76064257789518,4.660044962523708,565.2660620496598,-127.06544538975932,-150.83212280273438,4761.76025390625,True
1599384558.7756736,0.0,10,0.5,0.5,0.1226221939086914,-0.001,-0.001,-0.001,-0.09298200969457368,10,1,100,-0.15577819656635297,-10,-1,-100,18718.082609987585,0.008727344913374147,-0.009114523487751155,0.9999203762862092,76.73763053697121,4.657962410790863,565.985996642714,-127.24678596773933,-150.59103393554688,4761.76025390625,True
1599384558.811378,0.0,10,0.5,0.5,0.12157960205078125,-0.001,-0.001,-0.001,-0.07802300177222632,10,1,100,-0.23394378753361972,-10,-1,-100,18712.981858149753,0.010024678923356204,-0.008912713138309353,0.9999100306312553,76.69762251984508,4.654197921523559,567.4688243207078,-127.6094580015861,-150.08111572265625,4761.76025390625,True
1599384558.8416576,0.0,10,0.5,0.5,0.12123787994384766,-0.001,-0.001,-0.001,-0.08633024361586855,10,1,100,-0.1773294418275631,-10,-1,-100,18710.426042457577,0.010679220403993647,-0.0088044782630842,0.9999042131194756,76.6816269819231,4.6525782120672865,568.2392639319729,-127.79078940604859,-149.81271362304688,4761.76025390625,True
1599384558.875603,0.0,10,0.5,0.5,0.12007180786132812,-0.001,-0.001,-0.001,-0.06632491842287255,10,1,100,-0.2550931831754212,-10,-1,-100,18705.303531204234,0.011972206931625939,-0.008524320546621,0.9998919952776925,76.65528166641377,4.649724382057275,569.821026868449,-128.1534423398959,-149.24832153320312,4761.76025390625,True
1599384558.9089482,0.0,10,0.5,0.5,0.11907167816162109,-0.001,-0.001,-0.001,-0.052180507205910616,10,1,100,-0.26428536259425267,-10,-1,-100,18700.16651414195,0.013221044769419094,-0.008141405063102127,0.9998794534836706,76.6357224462292,4.647344841156359,571.4521844394959,-128.5160820869523,-148.64712524414062,4761.76025390625,True
