Timestamp,Input Throttle,horizon,dT,dt,Input Roll,Roll P,Roll I,Roll D,Input Pitch,Pitch P,Pitch I,Pitch D,Input Yaw,Yaw P,Yaw I,Yaw D,Altitude,Direction X,Direction Y,Direction Z,Drag X,Drag Y,Drag Z,Vertical Velocity,Roll,Mass,Has Fuel
1599387213.3621905,0.0,10,0.5,0.5,-8.4253603515625,-0.15025,-0.00825,-0.12575,-0.00014588669346782463,10,1,100,0.49808281516930675,-10,-1,-100,19351.094167512725,-0.048843776166824227,-0.00017441728517236498,0.9988064152318884,60.98673834120001,3.6806942864407914,232.75486369983562,-68.48187367040816,-33.922576904296875,4761.76025390625,True
1599387213.3951018,0.0,10,0.5,0.5,-8.4712565574646,-0.15025,-0.00825,-0.12575,0.00014153990792648008,10,1,100,0.5046871701735852,-10,-1,-100,19348.343944682158,-0.048947094629448414,-0.00015711588073447983,0.9988013602523456,61.16635296671447,3.6928795639696266,234.7314383926206,-68.84679040694195,-33.924896240234375,4761.76025390625,True
1599387213.4300086,0.0,10,0.5,0.5,-8.517810174560546,-0.15025,-0.00825,-0.12575,-0.0016043121239354826,10,1,100,0.4992500333741114,-10,-1,-100,19348.343944682158,-0.048947094629448414,-0.00015711588073447983,0.9988013602523456,61.16635296671447,3.6928795639696266,234.7314383926206,-68.84679040694195,-33.924896240234375,4761.76025390625,True
1599387213.4659433,0.0,10,0.5,0.5,-8.47366966934204,-0.15025,-0.00825,-0.12575,0.035309905433567754,10,1,100,0.5072026516201179,-10,-1,-100,19342.799711099942,-0.04897489380020352,0.0001786107478616718,0.9987999939304463,61.537311177479936,3.717996089898613,238.75494525436338,-69.57658221162835,-34.25244140625,4761.76025390625,True
1599387213.4978275,0.0,10,0.5,0.5,-8.492633535003662,-0.15025,-0.00825,-0.12575,0.01720228927426868,10,1,100,0.5063875027420005,-10,-1,-100,19341.404530567117,-0.04894823269854327,0.00031903970809376203,0.9988012658829354,61.63755411111717,3.7247280237204325,239.79532735876455,-69.75902082280174,-34.499603271484375,4761.76025390625,True
1599387213.534842,0.0,10,0.5,0.5,-8.56950196685791,-0.15025,-0.00825,-0.12575,0.0031912972218690315,10,1,100,0.5139484361778794,-10,-1,-100,19341.404530567117,-0.04894823269854327,0.00031903970809376203,0.9988012658829354,61.63755411111717,3.7247280237204325,239.79532735876455,-69.75902082280174,-34.499603271484375,4761.76025390625,True
1599387213.570746,0.0,10,0.5,0.5,-8.140982176971436,-0.15025,-0.00825,-0.12575,0.10462263251256476,10,1,100,0.47898270111122465,-10,-1,-100,19335.78732253192,-0.04858586398639319,0.001240852720092729,0.9988182387728122,62.06444842319508,3.7531417856468594,244.0814575106285,-70.48873264173403,-36.218109130859375,4761.76025390625,True
1599387213.605653,0.0,10,0.5,0.5,-8.401454348754882,-0.15025,-0.00825,-0.12575,0.01256541658467735,10,1,100,0.5200781587248723,-10,-1,-100,19335.78732253192,-0.04858586398639319,0.001240852720092729,0.9988182387728122,62.06444842319508,3.7531417856468594,244.0814575106285,-70.48873264173403,-36.218109130859375,4761.76025390625,True
1599387213.6395648,0.0,10,0.5,0.5,-8.087288886260986,-0.15025,-0.00825,-0.12575,0.08827688671790059,10,1,100,0.48794028200273093,-10,-1,-100,19332.95682803099,-0.048249532503477,0.0019280107642855831,0.9988334522770493,62.280820551338806,3.7674331155458667,246.25042493355136,-70.85356122167669,-37.51715087890625,4761.76025390625,True
1599387213.6754665,0.0,10,0.5,0.5,-8.084221155548097,-0.15025,-0.00825,-0.12575,0.06114533575040265,10,1,100,0.5017470639926074,-10,-1,-100,19331.536108527565,-0.048025429598458,0.0023042966949706643,0.998843455366568,62.385619645513515,3.774338667956762,247.32509662917508,-71.03596841737783,-38.277008056640625,4761.76025390625,True
1599387213.7093754,0.0,10,0.5,0.5,-7.742342124938965,-0.15025,-0.00825,-0.12575,0.1205959859168799,10,1,100,0.47144712281399015,-10,-1,-100,19328.68372557452,-0.04750258619263652,0.0031847404546569216,0.9988660379316375,62.579816655059574,3.787128211885416,249.42006480266923,-71.40076907748143,-40.016510009765625,4761.76025390625,True
1599387213.744282,0.0,10,0.5,0.5,-7.083921258544922,-0.15025,-0.00825,-0.12575,0.20156846565588454,10,1,100,0.40937921533668553,-10,-1,-100,19324.377792273764,-0.04646423956479984,0.004718203544962807,0.9989088111519355,62.804356715365245,3.8019862536827085,252.31064376794788,-71.94793787968337,-43.176422119140625,4761.76025390625,True
1599387213.7781928,0.0,10,0.5,0.5,-7.1424359054565425,-0.15025,-0.00825,-0.12575,0.11176107885409255,10,1,100,0.46748460348012194,-10,-1,-100,19322.935185623006,-0.04605077602722015,0.005291398002110324,0.998925085847019,62.85262483348515,3.805237378795183,253.17053446929043,-72.13032004218246,-44.37646484375,4761.76025390625,True
1599387213.8130975,0.0,10,0.5,0.5,-6.933191024017334,-0.15025,-0.00825,-0.12575,0.11928122129062364,10,1,100,0.4585586124103408,-10,-1,-100,19321.48893167067,-0.045596387727515356,0.005875895609046672,0.9989426626573689,62.88352245067293,3.807384312551154,253.96143390718976,-72.31269913347917,-45.650115966796875,4761.76025390625,True
1599387213.8470068,0.0,10,0.5,0.5,-6.3200306259155274,-0.15025,-0.00825,-0.12575,0.19582244417298972,10,1,100,0.39146418523380444,-10,-1,-100,19318.585480951704,-0.04457642948624493,0.007097907018954694,0.9989807614014437,62.88214545482546,3.8076821760160064,255.28919444207412,-72.67745033146343,-48.417938232421875,4761.76025390625,True
1599387213.8819137,0.0,10,0.5,0.5,-5.35878341217041,-0.15025,-0.00825,-0.12575,0.29557690623612154,10,1,100,0.29353148532343054,-10,-1,-100,19314.202948886086,-0.042762871816097774,0.009109522621889675,0.9990437194595846,62.67717259145182,3.7953818738001104,256.4519167020399,-73.22457100056877,-53.12017822265625,4761.76025390625,True
1599387213.9138293,0.0,10,0.5,0.5,-4.967986905670166,-0.15025,-0.00825,-0.12575,0.24710341857354828,10,1,100,0.3192615915565493,-10,-1,-100,19311.263023266918,-0.0413537161370673,0.010489604661340086,0.9990895046769853,62.36843871529017,3.7764509291871033,256.5132387683112,-73.58932431206885,-56.62286376953125,4761.76025390625,True
1599387213.9487352,0.0,10,0.5,0.5,-5.391615690612793,-0.15025,-0.00825,-0.12575,0.11002008982263188,10,1,100,0.459453944674664,-10,-1,-100,19311.263023266918,-0.0413537161370673,0.010489604661340086,0.9990895046769853,62.36843871529017,3.7764509291871033,256.5132387683112,-73.58932431206885,-56.62286376953125,4761.76025390625,True
1599387213.9836416,0.0,10,0.5,0.5,-4.326675811004638,-0.15025,-0.00825,-0.12575,0.2616315222034582,10,1,100,0.28705515684831406,-10,-1,-100,19308.30850697274,-0.03979302910941805,0.011859482453946465,0.999137561855334,61.89023541027429,3.7470359528505752,255.86202538325415,-73.95409277967102,-60.42034912109375,4761.76025390625,True
1599387214.0145595,0.0,10,0.5,0.5,-3.655944826507568,-0.15025,-0.00825,-0.12575,0.2766039434556161,10,1,100,0.2540711087721481,-10,-1,-100,19305.339399207733,-0.03808205546849364,0.013231910211617643,0.9991870063223632,61.213880993907964,3.7054534392801886,254.36848292490166,-74.31888655678861,-64.51226806640625,4761.76025390625,True
1599387214.0514605,0.0,10,0.5,0.5,-3.553810350036621,-0.15025,-0.00825,-0.12575,0.21910604133025968,10,1,100,0.3218967780909035,-10,-1,-100,19303.849373208475,-0.0371522613106692,0.013946929414254886,0.9992122860730933,60.792397328326494,3.6795793259545433,253.26444623189246,-74.50129626849153,-66.66824340820312,4761.76025390625,True
1599387214.088362,0.0,10,0.5,0.5,-2.5515703582763676,-0.15025,-0.00825,-0.12575,0.2960783245518567,10,1,100,0.1993413927429274,-10,-1,-100,19300.858375733835,-0.03520226341392171,0.01528691109233999,0.9992632841247555,59.76533500750748,3.6166750599783226,250.25983644684678,-74.86614795228382,-71.20217895507812,4761.76025390625,True
1599387214.1242654,0.0,10,0.5,0.5,-1.7657089355468747,-0.15025,-0.00825,-0.12575,0.3015964046005023,10,1,100,0.16598077142846696,-10,-1,-100,19297.852782643517,-0.03313649783779333,0.016545632702361975,0.9993138718888697,58.47075847657625,3.537672713271536,246.0872777819829,-75.23105139177075,-76.03146362304688,4761.76025390625,True
1599387214.159172,0.0,10,0.5,0.5,-0.9326793312072755,-0.15025,-0.00825,-0.12575,0.311816946159703,10,1,100,0.12616847646065743,-10,-1,-100,19294.832591387792,-0.03090833943086874,0.017772607966829012,0.9993642023605227,56.883434172050855,3.4411926352730347,240.62276488235332,-75.59601600591066,-81.15536499023438,4761.76025390625,True
1599387214.195584,0.0,10,0.5,0.5,0.7267129325866699,-0.15025,-0.00825,-0.12575,0.3654226313547384,10,1,100,-0.03460068082585638,-10,-1,-100,19290.27492772357,-0.027434555856784122,0.019364549243246838,0.9994360206524211,53.90831341535017,3.2612842493636824,229.76893832406677,-76.14359251993359,-89.39605712890625,4761.76025390625,True
1599387214.2324846,0.0,10,0.5,0.5,0.5223685668945313,-0.15025,-0.00825,-0.12575,0.25958139898385224,10,1,100,0.1798981415755207,-10,-1,-100,19288.748404736747,-0.02624214360547377,0.019838424070960176,0.9994587469372462,52.750187540040876,3.1915077128273905,225.3978738045092,-76.32615444788868,-92.28778076171875,4761.76025390625,True
1599387214.2693858,0.0,10,0.5,0.5,1.0084158477783203,-0.15025,-0.00825,-0.12575,0.2618951288152438,10,1,100,0.16444633857881213,-10,-1,-100,19287.218230182072,-0.025032680375413032,0.020280499729667615,0.9994808983887272,52.54724917883163,3.179673346278823,225.09376003616148,-76.5087160573834,-95.24925994873047,4761.76025390625,True
1599387214.3063214,0.0,10,0.5,0.5,2.29104013004303,-0.15025,-0.00825,-0.12575,0.3032672746598904,10,1,100,0.022626916675577063,-10,-1,-100,19284.146929674316,-0.022658738181475364,0.02104959629519996,0.9995216336227208,54.39942000943907,3.2931030791560967,234.1934265425293,-76.87377058670954,-101.13028717041016,4761.76025390625,True
1599387214.3402314,0.0,10,0.5,0.5,3.941496924972534,-0.15025,-0.00825,-0.12575,0.32899598895447,10,1,100,-0.1509433019266379,-10,-1,-100,19279.512605851865,-0.01893969327056243,0.02197307240142203,0.9995791474956142,56.76745033482403,3.439320597798783,246.21112008478056,-77.42118061995578,-109.65665435791016,4761.76025390625,True
1599387214.3781295,0.0,10,0.5,0.5,4.392916620445251,-0.15025,-0.00825,-0.12575,0.28637245909488773,10,1,100,-0.048403716608689584,-10,-1,-100,19276.40481301665,-0.01650987897793098,0.022415915326584553,0.9996124002013009,58.05790385382718,3.5196584472142556,253.04973834078965,-77.78601153567267,-115.0298080444336,4761.76025390625,True
1599387214.4160287,0.0,10,0.5,0.5,5.161709645462037,-0.15025,-0.00825,-0.12575,0.2816114933598745,10,1,100,-0.06358958292968275,-10,-1,-100,19273.282429752173,-0.014182514633066601,0.022766869201764028,0.9996401982440647,59.161434484988305,3.5886956629977194,259.12371389308936,-78.15076448399896,-120.11238098144531,4761.76025390625,True
1599387214.4529314,0.0,10,0.5,0.5,5.888354005050659,-0.15025,-0.00825,-0.12575,0.2730092859476701,10,1,100,-0.08939788179159089,-10,-1,-100,19270.145458153682,-0.011852989554152184,0.022999698166554866,0.9996652042173303,59.95300714355396,3.638681577971544,263.8709169672812,-78.51545498763012,-124.9011001586914,4761.76025390625,True
1599387214.4898322,0.0,10,0.5,0.5,5.330474178504943,-0.15025,-0.00825,-0.12575,0.25049766817600777,10,1,100,0.1412196987138739,-10,-1,-100,19270.145458153682,-0.011852989554152184,0.022999698166554866,0.9996652042173303,59.95300714355396,3.638681577971544,263.8709169672812,-78.51545498763012,-124.9011001586914,4761.76025390625,True
1599387214.525735,0.0,10,0.5,0.5,7.7699377162933345,-0.15025,-0.00825,-0.12575,0.27533334058834336,10,1,100,-0.3392086171198224,-10,-1,-100,19263.827757808147,-0.007504808054103709,0.023219609674426833,0.9997022194546924,60.75995459763491,3.690750998206726,270.01591112795126,-79.24471011128064,-133.59365844726562,4761.76025390625,True
1599387214.5566523,0.0,10,0.5,0.5,7.269136837005615,-0.15025,-0.00825,-0.12575,0.25123027022001987,10,1,100,-0.02438167378054855,-10,-1,-100,19262.239217536757,-0.006435254840213736,0.023195458585773317,0.9997102371168044,60.83001277699862,3.6955742155437825,270.97630926807625,-79.42700768500347,-135.5828857421875,4761.76025390625,True
1599387214.591559,0.0,10,0.5,0.5,7.057095638275146,-0.15025,-0.00825,-0.12575,0.25402847001962403,10,1,100,0.08047371750679176,-10,-1,-100,19262.239217536757,-0.006435254840213736,0.023195458585773317,0.9997102371168044,60.83001277699862,3.6955742155437825,270.97630926807625,-79.42700768500347,-135.5828857421875,4761.76025390625,True
1599387214.6274633,0.0,10,0.5,0.5,9.084831128692628,-0.15025,-0.00825,-0.12575,0.23845163061732433,10,1,100,-0.35289023340639253,-10,-1,-100,19255.848598013516,-0.00251358882169866,0.0230507991052844,0.9997311351217604,60.718535625613235,3.6902978245118634,273.07221883937285,-80.15617419867355,-142.8003387451172,4761.76025390625,True
1599387214.6643639,0.0,10,0.5,0.5,8.216466053581238,-0.15025,-0.00825,-0.12575,0.25319460860377785,10,1,100,0.03702445928974356,-10,-1,-100,19255.848598013516,-0.00251358882169866,0.0230507991052844,0.9997311351217604,60.718535625613235,3.6902978245118634,273.07221883937285,-80.15617419867355,-142.8003387451172,4761.76025390625,True
1599387214.6942837,0.0,10,0.5,0.5,9.531011997985837,-0.15025,-0.00825,-0.12575,0.2260839278859999,10,1,100,-0.26221312588949564,-10,-1,-100,19251.01735229569,0.00018843908960371772,0.022802519096204524,0.9997399709992478,60.34861054908233,3.668264864065775,273.34287956381496,-80.70305000392352,-147.43862915039062,4761.76025390625,True
1599387214.7291908,0.0,10,0.5,0.5,8.9789171087265,-0.15025,-0.00825,-0.12575,0.2509948734634658,10,1,100,0.0060768520047254975,-10,-1,-100,19251.01735229569,0.00018843908960371772,0.022802519096204524,0.9997399709992478,60.34861054908233,3.668264864065775,273.34287956381496,-80.70305000392352,-147.43862915039062,4761.76025390625,True
1599387214.7650945,0.0,10,0.5,0.5,10.426825284576415,-0.15025,-0.00825,-0.12575,0.2123557109889726,10,1,100,-0.3489971136976511,-10,-1,-100,19244.524648310267,0.003401203943200291,0.02245090252482766,0.9997421611533432,59.67775513059625,3.6274982180789523,272.85791173630895,-81.4322461087566,-152.58779907226562,4761.76025390625,True
1599387214.7975163,0.0,10,0.5,0.5,9.806109386825561,-0.15025,-0.00825,-0.12575,0.24748577145896547,10,1,100,-0.0294790001956204,-10,-1,-100,19244.524648310267,0.003401203943200291,0.02245090252482766,0.9997421611533432,59.67775513059625,3.6274982180789523,272.85791173630895,-81.4322461087566,-152.58779907226562,4761.76025390625,True
1599387214.8334205,0.0,10,0.5,0.5,10.133403306007384,-0.15025,-0.00825,-0.12575,0.23302370290591162,10,1,100,-0.11344319038742183,-10,-1,-100,19242.892357196426,0.004150647314491802,0.022319928079474194,0.9997422632545839,59.5008659064424,3.6166818482660257,272.68624641934326,-81.6145513991388,-153.69088745117188,4761.76025390625,True
1599387214.8683267,0.0,10,0.5,0.5,10.565733142852784,-0.15025,-0.00825,-0.12575,0.22773132382474698,10,1,100,-0.19188540728458345,-10,-1,-100,19239.616836299654,0.00553052177212315,0.022153365837585075,0.9997392868698289,59.15165874884898,3.595280005943947,272.3533059903534,-81.97916942699663,-155.673828125,4761.76025390625,True
1599387214.9057376,0.0,10,0.5,0.5,10.800597178649902,-0.15025,-0.00825,-0.12575,0.21811787188098058,10,1,100,-0.19776366858459352,-10,-1,-100,19236.326730784378,0.006826541536491534,0.02191551991259422,0.9997365194478048,58.82563555658826,3.575247560147497,272.11354932601546,-82.34379622146032,-157.36224365234375,4761.76025390625,True
1599387214.9386497,0.0,10,0.5,0.5,11.151925546264648,-0.15025,-0.00825,-0.12575,0.21214229961134073,10,1,100,-0.2588996155481721,-10,-1,-100,19231.364224318182,0.008548466479789229,0.021646136540763243,0.9997291475663309,58.40778916483921,3.5494957136957814,272.06087362858455,-82.89074829785042,-159.33934020996094,4761.76025390625,True
1599387214.9745524,0.0,10,0.5,0.5,11.184653264236449,-0.15025,-0.00825,-0.12575,0.2216000579349818,10,1,100,-0.1999789665505794,-10,-1,-100,19228.03765529208,0.009564588963427196,0.02148863066208183,0.9997233404248543,58.19580968911505,3.536372373556597,272.32335859179426,-83.25538705522558,-160.28770446777344,4761.76025390625,True
1599387215.0114536,0.0,10,0.5,0.5,11.07982353553772,-0.15025,-0.00825,-0.12575,0.23719442895880302,10,1,100,-0.0995745359652952,-10,-1,-100,19228.03765529208,0.009564588963427196,0.02148863066208183,0.9997233404248543,58.19580968911505,3.536372373556597,272.32335859179426,-83.25538705522558,-160.28770446777344,4761.76025390625,True
1599387215.0473588,0.0,10,0.5,0.5,11.274221681594849,-0.15025,-0.00825,-0.12575,0.22579021293304988,10,1,100,-0.2000456740654703,-10,-1,-100,19224.69650041801,0.01046698278453322,0.021386376124068802,0.999716492405556,58.04864638403496,3.527194001500937,272.88213126325104,-83.62002507388065,-160.9397735595703,4761.76025390625,True
1599387215.0822637,0.0,10,0.5,0.5,11.30175818939209,-0.15025,-0.00825,-0.12575,0.22653065210589765,10,1,100,-0.19844541798741383,-10,-1,-100,19221.340760099003,0.011263448890560973,0.021301436121057518,0.9997096496174627,57.973393762751996,3.522393961119803,273.7748099585951,-83.98465901195891,-161.29627990722656,4761.76025390625,True
1599387215.1141784,0.0,10,0.5,0.5,11.26295260734558,-0.15025,-0.00825,-0.12575,0.22654449085914038,10,1,100,-0.22919541192823012,-10,-1,-100,19216.279802880832,0.012256986195683663,0.021225708364235964,0.999699572668627,57.99842804910168,3.523589578157125,275.76455790241647,-84.53159405602324,-161.2766876220703,4761.76025390625,True
1599387215.1490853,0.0,10,0.5,0.5,11.166882094573975,-0.15025,-0.00825,-0.12575,0.2353185641713692,10,1,100,-0.18822732620434002,-10,-1,-100,19212.88760045683,0.012779714073530304,0.02123774306465535,0.9996927713941511,58.107075290804794,3.529981921440374,277.531786994513,-84.89620147575975,-160.89370727539062,4761.76025390625,True
1599387215.1849892,0.0,10,0.5,0.5,11.221894247436524,-0.15025,-0.00825,-0.12575,0.2339937781834133,10,1,100,-0.13689238943270887,-10,-1,-100,19212.88760045683,0.012779714073530304,0.02123774306465535,0.9996927713941511,58.107075290804794,3.529981921440374,277.531786994513,-84.89620147575975,-160.89370727539062,4761.76025390625,True
1599387215.5116234,0.0,10,0.5,0.5,11.040520777893066,-0.15025,-0.00825,-0.12575,0.23993038007663273,10,1,100,-0.18275430388712202,-10,-1,-100,19209.48081441142,0.013188795962425844,0.021292695977334453,0.9996862891722974,58.28850756798685,3.5408018965754597,279.65332814319925,-85.2607917766962,-160.21502685546875,4761.76025390625,True
1599387215.5435374,0.0,10,0.5,0.5,11.005399537658692,-0.15025,-0.00825,-0.12575,0.23800474866694543,10,1,100,-0.16062521806983826,-10,-1,-100,19207.771952807787,0.013352553013818933,0.02132592985773671,0.9996834069062644,58.40549005975093,3.5478101617699798,280.8434742048572,-85.44307937100159,-159.76498413085938,4761.76025390625,True
1599387215.5816092,0.0,10,0.5,0.5,10.754418030548095,-0.15025,-0.00825,-0.12575,0.24448655355492233,10,1,100,-0.17199447988609695,-10,-1,-100,19204.343292552163,0.013598847248435615,0.021415603966224783,0.9996781698428127,58.687620937071664,3.5647605460495964,283.46422124123814,-85.80763752270363,-158.64340209960938,4761.76025390625,True
1599387215.6314764,0.0,10,0.5,0.5,10.503759286880493,-0.15025,-0.00825,-0.12575,0.25029771633736203,10,1,100,-0.16173515357724233,-10,-1,-100,19200.900050572585,0.01372489324003515,0.02155016421066752,0.9996735555810421,59.02629195436153,3.5851624809670377,286.37172362703654,-86.17217007016282,-157.22628784179688,4761.76025390625,True
1599387215.6703815,0.0,10,0.5,0.5,10.206913763427734,-0.15025,-0.00825,-0.12575,0.253186909173511,10,1,100,-0.1515069394772152,-10,-1,-100,19197.44222841377,0.013742714645783019,0.021698701155445373,0.9996700976633898,59.41181155005462,3.6084394119877046,289.5223612995858,-86.53667452433177,-155.51425170898438,4761.76025390625,True
1599387215.7042904,0.0,10,0.5,0.5,9.229096545028687,-0.15025,-0.00825,-0.12575,0.2772655739780349,10,1,100,-0.11507183194757828,-10,-1,-100,19190.48284733633,0.013423889377391331,0.022052440721199672,0.999666688977992,60.269853248071804,3.660447063669475,296.30177157280013,-87.26559068272559,-151.20567321777344,4761.76025390625,True
1599387215.7342114,0.0,10,0.5,0.5,9.762869657516479,-0.15025,-0.00825,-0.12575,0.241958223862318,10,1,100,-0.14725004944603284,-10,-1,-100,19190.48284733633,0.013423889377391331,0.022052440721199672,0.999666688977992,60.269853248071804,3.660447063669475,296.30177157280013,-87.26559068272559,-151.20567321777344,4761.76025390625,True
1599387215.7671232,0.0,10,0.5,0.5,9.40644529762268,-0.15025,-0.00825,-0.12575,0.2521208017535253,10,1,100,-0.1307514839908614,-10,-1,-100,19188.73389116954,0.013271938381901745,0.022144145061483246,0.9996666906979961,60.49102471129406,3.6739093321404757,298.0411047982992,-87.4477996584997,-149.94444274902344,4761.76025390625,True
1599387215.8020313,0.0,10,0.5,0.5,8.79861633720398,-0.15025,-0.00825,-0.12575,0.2624708475362601,10,1,100,-0.10289224630773257,-10,-1,-100,19185.225046881824,0.012879612632349843,0.022320769026404768,0.9996678942771497,60.92463401792826,3.700401639317202,301.49098810567,-87.81219362729568,-147.20140075683594,4761.76025390625,True
1599387215.8339443,0.0,10,0.5,0.5,8.293943933105469,-0.15025,-0.00825,-0.12575,0.2650533486600637,10,1,100,-0.08673132169949749,-10,-1,-100,19181.70162811305,0.012375944546719777,0.02250382898113005,0.9996701524391756,61.328192366041044,3.7252345208539226,304.8104379229753,-88.17655701408127,-144.16403198242188,4761.76025390625,True
1599387215.8678532,0.0,10,0.5,0.5,8.212542429351807,-0.15025,-0.00825,-0.12575,0.2557097381371881,10,1,100,-0.10453952437821479,-10,-1,-100,19179.934453271097,0.012080324283705157,0.022584154220748276,0.9996719570655835,61.5111754296111,3.7365850964795313,306.38318243476243,-88.35872808206324,-142.5352325439453,4761.76025390625,True
1599387215.9001834,0.0,10,0.5,0.5,6.402085562515259,-0.15025,-0.00825,-0.12575,0.2744102619970347,10,1,100,0.02525807852055395,-10,-1,-100,19172.8293226409,0.010632608083410986,0.02282600787526944,0.999682910231951,62.03828393779617,3.770172465981884,311.68584240938367,-89.0873557207999,-135.28634643554688,4761.76025390625,True
1599387215.9311023,0.0,10,0.5,0.5,7.29343811454773,-0.15025,-0.00825,-0.12575,0.25037490434667165,10,1,100,-0.11924154701582226,-10,-1,-100,19172.8293226409,0.010632608083410986,0.02282600787526944,0.999682910231951,62.03828393779617,3.770172465981884,311.68584240938367,-89.0873557207999,-135.28634643554688,4761.76025390625,True
1599387215.9660072,0.0,10,0.5,0.5,5.561301661300659,-0.15025,-0.00825,-0.12575,0.2568602545538757,10,1,100,0.028374327054756385,-10,-1,-100,19167.462223512004,0.009293342172919385,0.02288368341905398,0.9996949388810736,62.11273763293667,3.776626098360294,314.0724249511893,-89.63379263636163,-129.08030700683594,4761.76025390625,True
1599387215.9999173,0.0,10,0.5,0.5,6.3184906852722165,-0.15025,-0.00825,-0.12575,0.2512260520962602,10,1,100,-0.1051091088876922,-10,-1,-100,19167.462223512004,0.009293342172919385,0.02288368341905398,0.9996949388810736,62.11273763293667,3.776626098360294,314.0724249511893,-89.63379263636163,-129.08030700683594,4761.76025390625,True
1599387216.0308738,0.0,10,0.5,0.5,5.053663515853881,-0.15025,-0.00825,-0.12575,0.25012460999653263,10,1,100,0.008607001325775077,-10,-1,-100,19163.86594292824,0.008263604236863195,0.022872593052453177,0.9997042349275477,61.94736541607415,3.7682272134093138,314.5760286802367,-89.99808666396864,-124.57661437988281,4761.76025390625,True
1599387216.0647428,0.0,10,0.5,0.5,4.946359970474243,-0.15025,-0.00825,-0.12575,0.24529885864197962,10,1,100,-0.036916852945701455,-10,-1,-100,19162.062338022748,0.007746023229407834,0.022817894841109916,0.9997096292419863,61.78787308253091,3.759454578299474,314.4349437030262,-90.18023916147757,-122.2154769897461,4761.76025390625,True
1599387216.1015048,0.0,10,0.5,0.5,3.8553868776321405,-0.15025,-0.00825,-0.12575,0.2352537012114756,10,1,100,0.0352481758667153,-10,-1,-100,19158.444198386394,0.006624611020833703,0.022676153714047905,0.9997209143463787,61.290511003893826,3.731205345666925,313.2323531914684,-90.54456398183426,-117.2735595703125,4761.76025390625,True
1599387216.1344159,0.0,10,0.5,0.5,2.252829221534729,-0.15025,-0.00825,-0.12575,0.2074624211420199,10,1,100,0.11840394809128565,-10,-1,-100,19152.989662088803,0.004855226835871187,0.022294166499130512,0.9997396645689722,60.059212424183826,3.6594334783389164,308.89673857273044,-91.09112909833902,-109.313232421875,4761.76025390625,True
1599387216.1693225,0.0,10,0.5,0.5,1.6571788129806517,-0.15025,-0.00825,-0.12575,0.20531361569620768,10,1,100,0.07778372681736961,-10,-1,-100,19149.335083466955,0.003623265393664936,0.02192739498381393,0.9997530001440911,59.052814996125626,3.6001509715632474,305.0066732758696,-91.45557279783944,-103.6414794921875,4761.76025390625,True
1599387216.204035,0.0,10,0.5,0.5,2.3369706380844115,-0.15025,-0.00825,-0.12575,0.24193312382813437,10,1,100,-0.04453714948795003,-10,-1,-100,19149.335083466955,0.003623265393664936,0.02192739498381393,0.9997530001440911,59.052814996125626,3.6001509715632474,305.0066732758696,-91.45557279783944,-103.6414794921875,4761.76025390625,True
1599387216.2369466,0.0,10,0.5,0.5,0.6589570222854613,-0.15025,-0.00825,-0.12575,0.19162126240250352,10,1,100,0.08921594760719334,-10,-1,-100,19145.66592521174,0.0024150163827000326,0.021470611479250862,0.9997665630228779,57.78473624297646,3.5245974909766478,299.7179170759162,-91.8200815469361,-97.677978515625,4761.76025390625,True
1599387216.2728841,0.0,10,0.5,0.5,-1.2419275777816772,-0.15025,-0.00825,-0.12575,0.14227576062354902,10,1,100,0.17447569967939394,-10,-1,-100,19140.13484511699,0.0005489900736216705,0.02060799045565396,0.9997874820877077,56.18138040566874,3.428513950477221,293.2438588698465,-92.36696124214797,-88.18606567382812,4761.76025390625,True
1599387216.3107495,0.0,10,0.5,0.5,-0.08717726955413818,-0.15025,-0.00825,-0.12575,0.2283160612412778,10,1,100,-0.01111856942746333,-10,-1,-100,19140.13484511699,0.0005489900736216705,0.02060799045565396,0.9997874820877077,56.18138040566874,3.428513950477221,293.2438588698465,-92.36696124214797,-88.18606567382812,4761.76025390625,True
1599387216.3466933,0.0,10,0.5,0.5,-1.9538622842788695,-0.15025,-0.00825,-0.12575,0.15373976103974557,10,1,100,0.11998801411161827,-10,-1,-100,19136.42923101585,-0.0006349385475524372,0.019932092901970393,0.9998011344890483,58.78088025989292,3.58760896829621,308.0982940040803,-92.73147181372532,-81.54495239257812,4761.76025390625,True
1599387216.3825579,0.0,10,0.5,0.5,-2.976932711601257,-0.15025,-0.00825,-0.12575,0.14092421308110764,10,1,100,0.12700816892290676,-10,-1,-100,19132.709040141897,-0.0017660311735220014,0.019203818863104155,0.999814029945053,61.11877110900022,3.730319755762462,321.68931567248393,-93.09585944413722,-74.9544677734375,4761.76025390625,True
1599387216.4135134,0.0,10,0.5,0.5,-3.9742314332962034,-0.15025,-0.00825,-0.12575,0.11893764972943423,10,1,100,0.14156471471056417,-10,-1,-100,19128.97427714558,-0.002917511581190868,0.018345208955655407,0.9998274558315285,63.07546560305341,3.8495365812075044,333.36706854129505,-93.46013261552544,-68.48666381835938,4761.76025390625,True
1599387216.4514444,0.0,10,0.5,0.5,-4.081856478881836,-0.15025,-0.00825,-0.12575,0.15788099911849318,10,1,100,0.08538358379479483,-10,-1,-100,19127.10143226059,-0.003443880275464117,0.017922751021407494,0.999833443471698,63.9180808048743,3.900846152400363,338.518782207214,-93.64223033485912,-65.31048583984375,4761.76025390625,True
1599387216.4893112,0.0,10,0.5,0.5,-5.423098977661133,-0.15025,-0.00825,-0.12575,0.10149731180053397,10,1,100,0.14673106807372938,-10,-1,-100,19123.344818816753,-0.0044709484988880235,0.01703044065346671,0.9998449753390118,65.3094225228757,3.985640523267857,347.3138598185223,-94.00635935342477,-59.15911865234375,4761.76025390625,True
1599387216.5242167,0.0,10,0.5,0.5,-7.844002488708496,-0.15025,-0.00825,-0.12575,-0.019631877376425466,10,1,100,0.2527686494178777,-10,-1,-100,19115.78790522332,-0.00636014655482496,0.015122860168135148,0.9998654147614748,66.98994073474655,4.088999242918657,359.1759739293714,-94.73442470957414,-47.7349853515625,4761.76025390625,True
1599387216.556132,0.0,10,0.5,0.5,-6.453540583801269,-0.15025,-0.00825,-0.12575,0.1704457176751627,10,1,100,0.064847185019033,-10,-1,-100,19115.78790522332,-0.00636014655482496,0.015122860168135148,0.9998654147614748,66.98994073474655,4.088999242918657,359.1759739293714,-94.73442470957414,-47.7349853515625,4761.76025390625,True
1599387216.5905488,0.0,10,0.5,0.5,-7.2367134902954104,-0.15025,-0.00825,-0.12575,0.11750813063487006,10,1,100,0.11327132339414189,-10,-1,-100,19113.88957670913,-0.006791290165554595,0.014647795317601287,0.9998696517397759,67.20767562588188,4.102771546233288,361.07736806022314,-94.91641627459043,-45.06451416015625,4761.76025390625,True
1599387216.6264527,0.0,10,0.5,0.5,-8.356946395874022,-0.15025,-0.00825,-0.12575,0.06243306148443298,10,1,100,0.16171992588125597,-10,-1,-100,19110.082000749302,-0.00761531137378416,0.013721438294077121,0.9998768569998118,67.43705314888776,4.118089369017085,363.7836801763023,-95.28038651032848,-39.946258544921875,4761.76025390625,True
1599387216.6623857,0.0,10,0.5,0.5,-10.331737484741211,-0.15025,-0.00825,-0.12575,-0.06103378112254651,10,1,100,0.24099817330929607,-10,-1,-100,19102.423172623967,-0.00907771081111376,0.011763130205502226,0.9998896058736675,67.21963162752304,4.108627003981558,365.5552477260339,-96.00832991581805,-30.60345458984375,4761.76025390625,True
1599387216.6952693,0.0,10,0.5,0.5,-9.204385541534423,-0.15025,-0.00825,-0.12575,0.13391254170992778,10,1,100,0.0957208996648096,-10,-1,-100,19102.423172623967,-0.00907771081111376,0.011763130205502226,0.9998896058736675,67.21963162752304,4.108627003981558,365.5552477260339,-96.00832991581805,-30.60345458984375,4761.76025390625,True
1599387216.730685,0.0,10,0.5,0.5,-9.83992008972168,-0.15025,-0.00825,-0.12575,0.08259996927477402,10,1,100,0.13370289135278252,-10,-1,-100,19100.49936598062,-0.009415326397128458,0.011304078603997618,0.9998917788619677,67.05493144090626,4.099696340054874,365.39542882447347,-96.19032550096225,-28.45306396484375,4761.76025390625,True
1599387216.7676191,0.0,10,0.5,0.5,-11.265489314270019,-0.15025,-0.00825,-0.12575,-0.02066124055699732,10,1,100,0.20503370045873964,-10,-1,-100,19094.706105198828,-0.010363757653356334,0.009955202277121968,0.999896737905932,66.37498857606981,4.0617337149841495,363.8795813182211,-96.73635239462473,-22.44720458984375,4761.76025390625,True
1599387216.8024933,0.0,10,0.5,0.5,-11.059763249969482,-0.15025,-0.00825,-0.12575,0.06365612911558449,10,1,100,0.14209431757283553,-10,-1,-100,19092.767737449147,-0.010647022363626033,0.00950309989214806,0.9998981608180045,66.10144002055381,4.046227871818029,363.10808117551807,-96.9183768657845,-20.593841552734375,4761.76025390625,True
1599387216.834407,0.0,10,0.5,0.5,-11.825450036621094,-0.15025,-0.00825,-0.12575,0.015551081237858796,10,1,100,0.17616864724857056,-10,-1,-100,19088.880080139963,-0.011207754059025021,0.008662433335219055,0.9998996692156995,65.50904581996244,4.01239378915052,361.2991937998526,-97.28245126474165,-17.108856201171875,4761.76025390625,True
1599387216.8683167,0.0,10,0.5,0.5,-12.711485283660888,-0.15025,-0.00825,-0.12575,-0.028469543258710497,10,1,100,0.20994415523833948,-10,-1,-100,19083.02128612355,-0.012018435849694604,0.007505610794695009,0.9998996064637315,64.67807259632,3.964909272716943,358.8612243494489,-97.82862317216163,-12.43646240234375,4761.76025390625,True
1599387216.9042535,0.0,10,0.5,0.5,-12.910638005828856,-0.15025,-0.00825,-0.12575,0.008565161923068151,10,1,100,0.18634200600370765,-10,-1,-100,19079.097216800204,-0.01253571040335678,0.0067975578498469915,0.99989831941651,64.17786170484527,3.9363027413256404,357.5076445679925,-98.19277194373063,-9.69158935546875,4761.76025390625,True
1599387216.9351773,0.0,10,0.5,0.5,-12.945081974029542,-0.15025,-0.00825,-0.12575,0.043044543365377996,10,1,100,0.1642721402452108,-10,-1,-100,19077.129719563993,-0.01279971070538285,0.006474890733386418,0.9998971163053973,63.97901968144775,3.9250596192852747,357.109441631736,-98.37485437361204,-8.429901123046875,4761.76025390625,True
1599387216.9700463,0.0,10,0.5,0.5,-12.816648234558105,-0.15025,-0.00825,-0.12575,0.07449396455301385,10,1,100,0.13847295209658667,-10,-1,-100,19077.129719563993,-0.01279971070538285,0.006474890733386418,0.9998971163053973,63.97901968144775,3.9250596192852747,357.109441631736,-98.37485437361204,-8.429901123046875,4761.76025390625,True
1599387217.0049503,0.0,10,0.5,0.5,-14.031425230407715,-0.15025,-0.00825,-0.12575,-0.05427534221737573,10,1,100,0.25069210043302004,-10,-1,-100,19069.22331258224,-0.013815171690867155,0.005310848442347141,0.9998904619606961,63.248954082546184,3.883520846909981,355.8443947189495,-99.10322676125875,-4.12274169921875,4761.76025390625,True
1599387217.037863,0.0,10,0.5,0.5,-13.511646520996093,-0.15025,-0.00825,-0.12575,0.0614836587102365,10,1,100,0.14961974797256491,-10,-1,-100,19069.22331258224,-0.013815171690867155,0.005310848442347141,0.9998904619606961,63.248954082546184,3.883520846909981,355.8443947189495,-99.10322676125875,-4.12274169921875,4761.76025390625,True
1599387217.0767589,0.0,10,0.5,0.5,-14.005476019287109,-0.15025,-0.00825,-0.12575,0.005629470342832066,10,1,100,0.2039105580256537,-10,-1,-100,19065.248257133877,-0.01430441772691364,0.004808948804246332,0.999886122338385,62.951339712669736,3.866558588551402,355.57072136154386,-99.46743254356696,-2.41265869140625,4761.76025390625,True
1599387217.1126637,0.0,10,0.5,0.5,-14.017442416381837,-0.15025,-0.00825,-0.12575,0.03296785764924642,10,1,100,0.1853207846785624,-10,-1,-100,19063.25526617572,-0.014575744282591629,0.004607111863121865,0.9998831542729827,62.82535233395297,3.8594035817600645,355.5585990322176,-99.64953867831774,-1.667999267578125,4761.76025390625,True
1599387217.150561,0.0,10,0.5,0.5,-14.290627443695067,-0.15025,-0.00825,-0.12575,0.00716373266919193,10,1,100,0.2116618761700101,-10,-1,-100,19059.25835798995,-0.015058040177103656,0.0041939026808391275,0.9998778258399016,62.626388497610954,3.848215877139545,355.82813254181457,-100.01375490176699,-0.401031494140625,4761.76025390625,True
1599387217.1864986,0.0,10,0.5,0.5,-14.416275251007079,-0.15025,-0.00825,-0.12575,0.012492583254394188,10,1,100,0.22012043721080649,-10,-1,-100,19055.246881143423,-0.015569376983564124,0.0038715286088214854,0.9998712946007475,62.5065243851671,3.8417360415896327,356.5412657274713,-100.37797277942207,0.57110595703125,4761.76025390625,True
1599387217.2228994,0.0,10,0.5,0.5,-14.495433782958983,-0.15025,-0.00825,-0.12575,0.014598746137657319,10,1,100,0.22428957006788183,-10,-1,-100,19051.220835850807,-0.016068164721842925,0.0036019635738591097,0.9998644107782236,62.4732699026266,3.840462195503373,357.74625212574364,-100.74218771139326,1.24798583984375,4761.76025390625,True
1599387217.2568069,0.0,10,0.5,0.5,-14.549296237182617,-0.15025,-0.00825,-0.12575,0.013249771588023686,10,1,100,0.26052952513606037,-10,-1,-100,19045.15445179888,-0.016847380685559687,0.0033481898163701313,0.9998524668114738,62.598245290182895,3.8491665733200313,360.5604211298929,-101.28849439592103,1.71063232421875,4761.76025390625,True
1599387217.2917473,0.0,10,0.5,0.5,-14.500525274658203,-0.15025,-0.00825,-0.12575,0.03828221053357383,10,1,100,0.18303909579260444,-10,-1,-100,19045.15445179888,-0.016847380685559687,0.0033481898163701313,0.9998524668114738,62.598245290182895,3.8491665733200313,360.5604211298929,-101.28849439592103,1.71063232421875,4761.76025390625,True
1599387217.329612,0.0,10,0.5,0.5,-14.394593119049071,-0.15025,-0.00825,-0.12575,0.03195571722110917,10,1,100,0.3010892361188149,-10,-1,-100,19037.014953399193,-0.01791688407945235,0.0032935186961813765,0.9998340552309074,63.106031179391564,3.881720038017569,366.3103888163552,-102.01684945607488,1.2965087890625,4761.76025390625,True
1599387217.3665493,0.0,10,0.5,0.5,-14.454693441772461,-0.15025,-0.00825,-0.12575,0.03710469203626415,10,1,100,0.1946506140669557,-10,-1,-100,19037.014953399193,-0.01791688407945235,0.0032935186961813765,0.9998340552309074,63.106031179391564,3.881720038017569,366.3103888163552,-102.01684945607488,1.2965087890625,4761.76025390625,True
1599387217.4014199,0.0,10,0.5,0.5,-14.019929460144043,-0.15025,-0.00825,-0.12575,0.06773956389820902,10,1,100,0.3148032395722767,-10,-1,-100,19028.817191398586,-0.019005451845511098,0.003573851467422844,0.9998129927070545,64.00162897018849,3.938418725032488,374.37961015278415,-102.74510685162359,-0.294921875,4761.76025390625,True
1599387217.4333713,0.0,10,0.5,0.5,-14.223209817504882,-0.15025,-0.00825,-0.12575,0.03953258707656982,10,1,100,0.2064654909818661,-10,-1,-100,19028.817191398586,-0.019005451845511098,0.003573851467422844,0.9998129927070545,64.00162897018849,3.938418725032488,374.37961015278415,-102.74510685162359,-0.294921875,4761.76025390625,True
1599387217.4672704,0.0,10,0.5,0.5,-13.682441081237792,-0.15025,-0.00825,-0.12575,0.08661088143066574,10,1,100,0.2964101591832857,-10,-1,-100,19022.630640142714,-0.019818856979961642,0.004002958777311738,0.9997955737194655,64.90971493874356,3.9958978187257577,381.8784432191537,-103.29121204476813,-2.26055908203125,4761.76025390625,True
1599387217.503189,0.0,10,0.5,0.5,-13.707711176300048,-0.15025,-0.00825,-0.12575,0.06362006810215674,10,1,100,0.24554226028067946,-10,-1,-100,19020.561175449286,-0.020091114282440835,0.004184598167938659,0.9997893959554996,65.25302056946683,4.017664876571432,384.63165621864766,-103.47322696175266,-3.06280517578125,4761.76025390625,True
1599387217.5341015,0.0,10,0.5,0.5,-13.564712356567382,-0.15025,-0.00825,-0.12575,0.06771874105792067,10,1,100,0.24858036279166512,-10,-1,-100,19018.48807072325,-0.020361664512880573,0.0043869940085727145,0.9997830549183325,65.61504375768453,4.0406467850854195,387.5034220030284,-103.655230789746,-3.9384765625,4761.76025390625,True
1599387217.568953,0.0,10,0.5,0.5,-13.409224327087403,-0.15025,-0.00825,-0.12575,0.07462319033619738,10,1,100,0.2500538518044759,-10,-1,-100,19016.411326151574,-0.020616657997461055,0.004633289343133689,0.9997767180940346,65.99473456985253,4.064783867991356,390.48814722226297,-103.8372230552726,-4.8873291015625,4761.76025390625,True
1599387217.6038597,0.0,10,0.5,0.5,-12.273260195922852,-0.15025,-0.00825,-0.12575,0.17877834929218495,10,1,100,0.3341019744915996,-10,-1,-100,19008.067954586004,-0.021608409104893873,0.005803121705271484,0.999749668884381,67.64849175146273,4.170396417337035,403.31963175574924,-104.56506311417415,-9.4171142578125,4761.76025390625,True
1599387217.6367714,0.0,10,0.5,0.5,-12.833700288391114,-0.15025,-0.00825,-0.12575,0.06204060626729553,10,1,100,0.23540296659025117,-10,-1,-100,19008.067954586004,-0.021608409104893873,0.005803121705271484,0.999749668884381,67.64849175146273,4.170396417337035,403.31963175574924,-104.56506311417415,-9.4171142578125,4761.76025390625,True
1599387217.6897638,0.0,10,0.5,0.5,-12.461343383789062,-0.15025,-0.00825,-0.12575,0.10069012982266602,10,1,100,0.26116672799954826,-10,-1,-100,19005.973014772404,-0.021838296910051725,0.006152249254057669,0.9997425861776542,68.08694418106558,4.198541365600267,406.70061688782005,-104.74698837813555,-10.73297119140625,4761.76025390625,True
1599387217.727661,0.0,10,0.5,0.5,-11.829865245056153,-0.15025,-0.00825,-0.12575,0.1515208365619803,10,1,100,0.2834977425587177,-10,-1,-100,19001.77222086268,-0.022246730126341676,0.006929136422804443,0.9997284981769401,69.00613987129006,4.2576857385391,413.7460429057855,-105.11079320613771,-13.584503173828125,4761.76025390625,True
1599387217.767553,0.0,10,0.5,0.5,-10.35923313217163,-0.15025,-0.00825,-0.12575,0.2703431421453495,10,1,100,0.3235273981263834,-10,-1,-100,18993.32698522194,-0.022978002786268693,0.008712295156307937,0.9996980080509631,71.1236268821249,4.394116505939239,429.64693763182373,-105.83819347225806,-20.1676025390625,4761.76025390625,True
1599387217.80438,0.0,10,0.5,0.5,-11.170662915802001,-0.15025,-0.00825,-0.12575,0.09254111316388863,10,1,100,0.2507973872277574,-10,-1,-100,18993.32698522194,-0.022978002786268693,0.008712295156307937,0.9996980080509631,71.1236268821249,4.394116505939239,429.64693763182373,-105.83819347225806,-20.1676025390625,4761.76025390625,True
1599387217.8427858,0.0,10,0.5,0.5,-10.124473276519774,-0.15025,-0.00825,-0.12575,0.20497365918939942,10,1,100,0.2785480990391411,-10,-1,-100,18989.082549646962,-0.023226670574607856,0.009729737898640867,0.9996828767036287,72.23829297073483,4.466142192692593,438.00721074909717,-106.20177822651821,-23.89874267578125,4761.76025390625,True
1599387217.8806844,0.0,10,0.5,0.5,-9.465116480255126,-0.15025,-0.00825,-0.12575,0.2228529468268033,10,1,100,0.26737329300177265,-10,-1,-100,18984.823572782567,-0.023348045042217703,0.01081201866190054,0.999668929718815,73.29006063006945,4.534390702144055,446.03395646493567,-106.56528537316015,-27.923004150390625,4761.76025390625,True
1599387217.9195805,0.0,10,0.5,0.5,-7.486695660400391,-0.15025,-0.00825,-0.12575,0.3741448802962325,10,1,100,0.2609749708549042,-10,-1,-100,18976.262007980375,-0.02339725805620078,0.013165266550500541,0.9996395570765023,75.05201814692276,4.649519573467861,460.13202090467837,-107.29208606921954,-36.85040283203125,4761.76025390625,True
1599387217.9564838,0.0,10,0.5,0.5,-8.582163705444335,-0.15025,-0.00825,-0.12575,0.13969791869042505,10,1,100,0.25635722881092843,-10,-1,-100,18976.262007980375,-0.02339725805620078,0.013165266550500541,0.9996395570765023,75.05201814692276,4.649519573467861,460.13202090467837,-107.29208606921954,-36.85040283203125,4761.76025390625,True
1599387217.990431,0.0,10,0.5,0.5,-6.495379374694823,-0.15025,-0.00825,-0.12575,0.34189941062387325,10,1,100,0.22324916671404801,-10,-1,-100,18969.802683877293,-0.02309374785526665,0.014995705588797918,0.9996208319277322,75.91578920826116,4.70669469461107,467.9860157259114,-107.83703738629396,-44.315673828125,4761.76025390625,True
1599387218.027907,0.0,10,0.5,0.5,-5.93062250213623,-0.15025,-0.00825,-0.12575,0.29652347121698247,10,1,100,0.21584913261733935,-10,-1,-100,18965.478304432705,-0.022749206145583387,0.016238875643656957,0.99960930994943,76.18267549320446,4.72500546131261,471.3429260218353,-108.20029502934939,-49.65887451171875,4761.76025390625,True
1599387218.0638125,0.0,10,0.5,0.5,-6.569330535888672,-0.15025,-0.00825,-0.12575,0.17325004112491713,10,1,100,0.2504173832897347,-10,-1,-100,18965.478304432705,-0.022749206145583387,0.016238875643656957,0.99960930994943,76.18267549320446,4.72500546131261,471.3429260218353,-108.20029502934939,-49.65887451171875,4761.76025390625,True
1599387218.1007133,0.0,10,0.5,0.5,-3.3445095123291013,-0.15025,-0.00825,-0.12575,0.430764968982317,10,1,100,0.1280771109907129,-10,-1,-100,18956.785955157364,-0.021636193752650888,0.01857075078200641,0.9995934185133926,75.75917533937564,4.700432892318601,472.13173716589074,-108.92680284210883,-61.226654052734375,4761.76025390625,True
1599387218.135619,0.0,10,0.5,0.5,-3.0421893188476563,-0.15025,-0.00825,-0.12575,0.3249822164234785,10,1,100,0.15918143595143242,-10,-1,-100,18952.417984050582,-0.02090768592814942,0.019718392598735382,0.9995869415225731,74.97364969594668,4.651781137876493,468.9277392444737,-109.29010354447105,-67.4500732421875,4761.76025390625,True
1599387218.1685317,0.0,10,0.5,0.5,-3.7857762435913087,-0.15025,-0.00825,-0.12575,0.21131864449482424,10,1,100,0.23182518671576718,-10,-1,-100,18952.417984050582,-0.02090768592814942,0.019718392598735382,0.9995869415225731,74.97364969594668,4.651781137876493,468.9277392444737,-109.29010354447105,-67.4500732421875,4761.76025390625,True
1599387218.204435,0.0,10,0.5,0.5,-1.947571305847168,-0.15025,-0.00825,-0.12575,0.31684770496725234,10,1,100,0.14053891259860413,-10,-1,-100,18948.03547888971,-0.020079692815137138,0.020667742150809795,0.9995847389645549,73.74971312597725,4.575691210075813,462.94061861182286,-109.65347194891136,-73.96890258789062,4761.76025390625,True
1599387218.2442312,0.0,10,0.5,0.5,-1.7961402473449706,-0.15025,-0.00825,-0.12575,0.2756310072451739,10,1,100,0.17392953283532367,-10,-1,-100,18945.838774973992,-0.019633383785241123,0.02114614630590203,0.9995835986737431,72.95961902619177,4.526603553689444,458.8079025925118,-109.83518998354182,-77.33798217773438,4761.76025390625,True
1599387218.2801347,0.0,10,0.5,0.5,-0.2586497611999511,-0.15025,-0.00825,-0.12575,0.32932990742683727,10,1,100,0.11003143802468111,-10,-1,-100,18941.434461924015,-0.0186501334972907,0.022059836332506456,0.9995826809931815,71.00402782842757,4.40537880321124,448.12285192713676,-110.19870918974068,-84.2958984375,4761.76025390625,True
1599387218.3178084,0.0,10,0.5,0.5,0.9072823310852051,-0.15025,-0.00825,-0.12575,0.31987695366803515,10,1,100,0.09599141734119958,-10,-1,-100,18937.015604223358,-0.017632948615266767,0.022796441713628636,0.9995846144115705,68.53088977362928,4.25265742327554,434.07442799782035,-110.56235721157486,-91.5486068725586,4761.76025390625,True
1599387218.3547056,0.0,10,0.5,0.5,2.123065078163147,-0.15025,-0.00825,-0.12575,0.318930987593232,10,1,100,0.07694752116495772,-10,-1,-100,18932.582196962205,-0.016540349038589114,0.023448727663820473,0.9995882022236106,66.5177431106949,4.129387123276288,422.8391950588015,-110.9261244473428,-99.09456634521484,4761.76025390625,True
1599387218.3865829,0.0,10,0.5,0.5,3.352391987609863,-0.15025,-0.00825,-0.12575,0.31025503038460744,10,1,100,0.06550575659967364,-10,-1,-100,18928.134241747786,-0.01544901828994019,0.023955157987484627,0.9995936565623411,69.03604662958686,4.288465801618479,440.4202450456007,-111.28978203833655,-106.82296752929688,4761.76025390625,True
1599387218.4240296,0.0,10,0.5,0.5,4.537661817550659,-0.15025,-0.00825,-0.12575,0.30306439930681317,10,1,100,0.05301170478195115,-10,-1,-100,18923.671744865947,-0.014349953672694276,0.02434316501525043,0.9996006648390304,71.38844196729806,4.438075560033215,457.05105347398677,-111.65327696189266,-114.46773529052734,4761.76025390625,True
1599387218.4599314,0.0,10,0.5,0.5,4.659545828056336,-0.15025,-0.00825,-0.12575,0.2811242433567551,10,1,100,0.1026606503048629,-10,-1,-100,18921.435045401333,-0.013809793754927087,0.024489075177881,0.9996047092693083,72.34638423484733,4.4994767853591995,464.0053964654319,-111.83496958685473,-118.19869995117188,4761.76025390625,True
1599387218.497834,0.0,10,0.5,0.5,8.157104545783996,-0.15025,-0.00825,-0.12575,0.2992531101776207,10,1,100,-0.06930067801201173,-10,-1,-100,18912.451921356493,-0.011762569390437804,0.024781148365556775,0.9996236975217321,75.30452584118831,4.6904086174465185,486.38917430298744,-112.56143835427305,-132.40060424804688,4761.76025390625,True
1599387218.532737,0.0,10,0.5,0.5,6.424799268531799,-0.15025,-0.00825,-0.12575,0.27055206698672535,10,1,100,0.1345072467831454,-10,-1,-100,18912.451921356493,-0.011762569390437804,0.024781148365556775,0.9996236975217321,75.30452584118831,4.6904086174465185,486.38917430298744,-112.56143835427305,-132.40060424804688,4761.76025390625,True
1599387218.56864,0.0,10,0.5,0.5,9.203980319404602,-0.15025,-0.00825,-0.12575,0.26544119909188924,10,1,100,-0.016574378856017202,-10,-1,-100,18905.67644808651,-0.010397413808752427,0.02473008342490661,0.9996400936136399,76.1437922467655,4.74621827574547,494.39313259378196,-113.10610170316589,-142.2759552001953,4761.76025390625,True
1599387218.6065495,0.0,10,0.5,0.5,8.018508255577087,-0.15025,-0.00825,-0.12575,0.2709539272843155,10,1,100,0.118972951411882,-10,-1,-100,18905.67644808651,-0.010397413808752427,0.02473008342490661,0.9996400936136399,76.1437922467655,4.74621827574547,494.39313259378196,-113.10610170316589,-142.2759552001953,4761.76025390625,True
1599387218.6424072,0.0,10,0.5,0.5,11.419655996894836,-0.15025,-0.00825,-0.12575,0.22939382885074433,10,1,100,-0.05287684013045399,-10,-1,-100,18896.59165022662,-0.008843539312891635,0.02434900622358414,0.9996644025413455,75.73975387230264,4.723206899467641,495.20143714571634,-113.83229183305028,-154.40484619140625,4761.76025390625,True
1599387218.677351,0.0,10,0.5,0.5,11.503347529029845,-0.15025,-0.00825,-0.12575,0.2314997943776903,10,1,100,0.030474911257980686,-10,-1,-100,18892.027464330196,-0.008197584414898866,0.02401963648181679,0.9996778764547319,75.02436362816677,4.678946810785171,492.2289410454787,-114.19543536119191,-160.02462768554688,4761.76025390625,True
1599387218.7142437,0.0,10,0.5,0.5,10.853152723312379,-0.15025,-0.00825,-0.12575,0.26455908803124434,10,1,100,0.09412686463722082,-10,-1,-100,18892.027464330196,-0.008197584414898866,0.02401963648181679,0.9996778764547319,75.02436362816677,4.678946810785171,492.2289410454787,-114.19543536119191,-160.02462768554688,4761.76025390625,True
1599387218.7470205,0.0,10,0.5,0.5,13.07597245311737,-0.15025,-0.00825,-0.12575,0.21069064110392177,10,1,100,0.008744012065065795,-10,-1,-100,18885.153945355793,-0.0074289609957189934,0.023529404319915678,0.9996955424882489,73.47870653150221,4.58280439650965,484.60048667102393,-114.74026196372904,-167.8961944580078,4761.76025390625,True
1599387218.7809293,0.0,10,0.5,0.5,12.136508343696594,-0.15025,-0.00825,-0.12575,0.25967128192727595,10,1,100,0.08480434825363095,-10,-1,-100,18885.153945355793,-0.0074289609957189934,0.023529404319915678,0.9996955424882489,73.47870653150221,4.58280439650965,484.60048667102393,-114.74026196372904,-167.8961944580078,4761.76025390625,True
1599387218.815836,0.0,10,0.5,0.5,14.790630584716796,-0.15025,-0.00825,-0.12575,0.170726951861465,10,1,100,0.009240681069938153,-10,-1,-100,18875.93839163729,-0.006748310378300855,0.022721559283585883,0.9997190560606317,70.8350859635516,4.4188563060088395,470.40807761114786,-115.46695266555176,-177.35287475585938,4761.76025390625,True
1599387218.8477511,0.0,10,0.5,0.5,13.650255231475828,-0.15025,-0.00825,-0.12575,0.251334703905015,10,1,100,0.07659959447408941,-10,-1,-100,18875.93839163729,-0.006748310378300855,0.022721559283585883,0.9997190560606317,70.8350859635516,4.4188563060088395,470.40807761114786,-115.46695266555176,-177.35287475585938,4761.76025390625,True
1599387218.8826578,0.0,10,0.5,0.5,14.288686130523681,-0.15025,-0.00825,-0.12575,0.22605826618793562,10,1,100,0.06525003746237981,-10,-1,-100,18873.6254180487,-0.0066496910045690735,0.02249364583986877,0.9997248709051778,70.11166225887897,4.374200708190835,466.4081081510727,-115.64867389306947,-179.5316619873047,4761.76025390625,True
1599387218.9175644,0.0,10,0.5,0.5,-84.16526425437927,-0.15025,-0.00825,-0.12575,0.1996538498009143,10,1,100,0.05901336693698367,-10,-1,-100,18868.988566101645,-0.006507988094932825,0.022048491198903647,0.9997357201414822,68.62793462782517,4.282937755921968,458.11369895031794,-116.01217445735072,176.333740234375,4761.76025390625,True
1599387218.9534683,0.0,10,0.5,0.5,-37.641363724517824,-0.15025,-0.00825,-0.12575,0.13958961097080919,10,1,100,0.07887253109365105,-10,-1,-100,18859.671239087358,-0.006563240965518502,0.021100204437958035,0.9997558228091022,69.5356730610641,4.343855268631723,467.3699806005138,-116.73918818238425,168.9544677734375,4761.76025390625,True
1599387218.988375,0.0,10,0.5,0.5,-38.826072335433956,-0.15025,-0.00825,-0.12575,0.2340552991666755,10,1,100,0.07296382675075996,-10,-1,-100,18859.671239087358,-0.006563240965518502,0.021100204437958035,0.9997558228091022,69.5356730610641,4.343855268631723,467.3699806005138,-116.73918818238425,168.9544677734375,4761.76025390625,True
1599387219.029265,0.0,10,0.5,0.5,-38.610408100509645,-0.15025,-0.00825,-0.12575,0.20731083439396497,10,1,100,0.0804770288974239,-10,-1,-100,18857.33282130724,-0.006633615801713059,0.020860026396193054,0.9997603985156371,70.16011081376219,4.3842217494079065,472.3736727134865,-116.92088896278646,167.20651245117188,4761.76025390625,True
1599387219.066167,0.0,10,0.5,0.5,-38.09005606498718,-0.15025,-0.00825,-0.12575,0.17714892355767922,10,1,100,0.09616235379187774,-10,-1,-100,18852.64508519543,-0.006841608577851496,0.020370355905245587,0.9997690938373526,71.364697081517,4.462519291568997,482.1248793965977,-117.28422685218926,163.54664611816406,4761.76025390625,True
1599387219.103068,0.0,10,0.5,0.5,-37.73117544250488,-0.15025,-0.00825,-0.12575,0.1730877358972205,10,1,100,0.11208189127386786,-10,-1,-100,18847.942818314303,-0.007176648693120028,0.019891598553449692,0.9997763850084298,72.64450288029605,4.545914046975401,492.44091743922934,-117.64747557471148,159.61166381835938,4761.76025390625,True
1599387219.138972,0.0,10,0.5,0.5,-37.32990646247864,-0.15025,-0.00825,-0.12575,0.16783197500950175,10,1,100,0.12420766009185595,-10,-1,-100,18843.226024235482,-0.007591694252893676,0.019411892048989132,0.9997827487136638,73.94966672771933,4.631199625320322,502.9873455329242,-118.01062878505294,155.385986328125,4761.76025390625,True
1599387219.174876,0.0,10,0.5,0.5,-36.880867900848386,-0.15025,-0.00825,-0.12575,0.16279327634536275,10,1,100,0.13864414325303231,-10,-1,-100,18838.49470704596,-0.008100101214828436,0.018933732068233657,0.999787928587997,75.3344652612253,4.721646391422728,514.1359511119218,-118.37368159626627,150.86741638183594,4761.76025390625,True
1599387219.207788,0.0,10,0.5,0.5,-36.39184144020081,-0.15025,-0.00825,-0.12575,0.15865098158916596,10,1,100,0.15489424768503834,-10,-1,-100,18833.74887082004,-0.008708788683390522,0.01846482743086812,0.9997915818547466,76.60061581046615,4.8046525301867,524.5342639452127,-118.73663762540997,146.05575561523438,4761.76025390625,True
1599387219.2436914,0.0,10,0.5,0.5,-36.56939476737976,-0.15025,-0.00825,-0.12575,0.17966556824487387,10,1,100,0.13158936011795552,-10,-1,-100,18831.370509049855,-0.009048496060287037,0.018233461940908354,0.9997928113287753,77.17400771467607,4.842344606198495,529.3453425884703,-118.91808227258745,143.5400848388672,4761.76025390625,True
1599387219.2807882,0.0,10,0.5,0.5,-35.70302187309265,-0.15025,-0.00825,-0.12575,0.15244828086675466,10,1,100,0.18035431824820114,-10,-1,-100,18826.602900640457,-0.009798458017689995,0.01777957268650654,0.9997939172727351,78.1686738399277,4.90790892401703,537.959395540674,-119.28091350299499,138.28916931152344,4761.76025390625,True
1599387219.3167222,0.0,10,0.5,0.5,-34.80193095474243,-0.15025,-0.00825,-0.12575,0.14848904054781334,10,1,100,0.19906511145398165,-10,-1,-100,18821.820780505193,-0.010647348399088182,0.01733483383279851,0.999793047339327,78.91410080225825,4.95728872281081,544.8979157771139,-119.6436824048041,132.74566650390625,4761.76025390625,True
1599387219.3516364,0.0,10,0.5,0.5,-33.8585533416748,-0.15025,-0.00825,-0.12575,0.1476425306429484,10,1,100,0.21811697083600448,-10,-1,-100,18817.02415107377,-0.011588552824347132,0.01692625330356986,0.99978958155831,79.35175964790976,4.9866420968038945,549.7395699575915,-120.00641192265053,126.91015625,4761.76025390625,True
1599387219.3884993,0.0,10,0.5,0.5,-33.72211005554199,-0.15025,-0.00825,-0.12575,0.1653614002933924,10,1,100,0.18078490289578278,-10,-1,-100,18814.620395834092,-0.012100242309799773,0.016719691593033655,0.9997869953390461,79.43618299105479,4.992588807676647,551.2361639972954,-120.18777035619696,123.88272094726562,4761.76025390625,True
1599387219.4254336,0.0,10,0.5,0.5,-30.523570053100585,-0.15025,-0.00825,-0.12575,0.10422327724713704,10,1,100,0.3839700807681966,-10,-1,-100,18804.969100446324,-0.014407582889498585,0.015979871041946748,0.9997685058436103,78.70199459507438,4.947317315297372,549.7658542990123,-120.9132545916039,111.04396057128906,4761.76025390625,True
1599387219.4632964,0.0,10,0.5,0.5,-32.09472945480346,-0.15025,-0.00825,-0.12575,0.1777662838694979,10,1,100,0.15399262022948018,-10,-1,-100,18804.969100446324,-0.014407582889498585,0.015979871041946748,0.9997685058436103,78.70199459507438,4.947317315297372,549.7658542990123,-120.9132545916039,111.04396057128906,4761.76025390625,True
1599387219.5007687,0.0,10,0.5,0.5,-30.162357999038694,-0.15025,-0.00825,-0.12575,0.14438272639721306,10,1,100,0.29743205114756743,-10,-1,-100,18800.121685269056,-0.015705004139484488,0.015679940271754615,0.9997537158310805,77.58984669092308,4.877262832382649,543.7930835997904,-121.27608746059505,104.18778991699219,4761.76025390625,True
1599387219.536672,0.0,10,0.5,0.5,-29.009520556640624,-0.15025,-0.00825,-0.12575,0.14183212785139443,10,1,100,0.33201604531183904,-10,-1,-100,18795.259753720136,-0.017191502213795423,0.01538748135914272,0.9997338034042139,75.91056131416023,4.77170057121685,533.7881040794857,-121.639027099493,97.04010009765625,4761.76025390625,True
1599387219.5855405,0.0,10,0.5,0.5,-27.81118501548767,-0.15025,-0.00825,-0.12575,0.1504899630384932,10,1,100,0.34864065275392236,-10,-1,-100,18790.383300468326,-0.018685731984461607,0.015203541077295615,0.9997098057731132,73.62340157868852,4.628559417343674,519.4229451954669,-122.00210556007038,89.60260009765625,4761.76025390625,True
1599387219.62096,0.0,10,0.5,0.5,-25.47049653816223,-0.15025,-0.00825,-0.12575,0.15026276667522162,10,1,100,0.4821326989720798,-10,-1,-100,18783.04138375004,-0.021248616793140412,0.01503722202354448,0.9996611317032351,74.22051657326972,4.66925744397152,526.2402797782275,-122.54682992319461,77.90194702148438,4761.76025390625,True
1599387219.6558652,0.0,10,0.5,0.5,-26.8877021987915,-0.15025,-0.00825,-0.12575,0.16657504805859874,10,1,100,0.22706423017748453,-10,-1,-100,18783.04138375004,-0.021248616793140412,0.01503722202354448,0.9996611317032351,74.22051657326972,4.66925744397152,526.2402797782275,-122.54682992319461,77.90194702148438,4761.76025390625,True
1599387219.692767,0.0,10,0.5,0.5,-22.252659229660033,-0.15025,-0.00825,-0.12575,0.1877292974690225,10,1,100,0.6500222562681521,-10,-1,-100,18773.201351115946,-0.025083280522350617,0.015232026427878298,0.9995693144595514,80.349140938678,5.0627475780631706,573.4501523074701,-123.27244277543826,61.288818359375,4761.76025390625,True
1599387219.7277427,0.0,10,0.5,0.5,-24.282808259201047,-0.15025,-0.00825,-0.12575,0.1680385762951487,10,1,100,0.2679994765594579,-10,-1,-100,18773.201351115946,-0.025083280522350617,0.015232026427878298,0.9995693144595514,80.349140938678,5.0627475780631706,573.4501523074701,-123.27244277543826,61.288818359375,4761.76025390625,True
1599387219.7606535,0.0,10,0.5,0.5,-21.816382813644406,-0.15025,-0.00825,-0.12575,0.19643555634284318,10,1,100,0.48878011270222116,-10,-1,-100,18768.259577626362,-0.027078109280286644,0.015491720998198876,0.999513272837494,82.9935865522647,5.233453012309955,594.2582906846119,-123.63494838316248,52.54864501953125,4761.76025390625,True
1599387219.7964625,0.0,10,0.5,0.5,-21.620892445755004,-0.15025,-0.00825,-0.12575,0.19824114486345298,10,1,100,0.4131647530054039,-10,-1,-100,18765.7832546985,-0.028190561365738796,0.015745337749218432,0.9994785523406932,84.04522189886596,5.301503300176382,602.7670350344457,-123.8161414869436,48.0714111328125,4761.76025390625,True
1599387219.8333642,0.0,10,0.5,0.5,-19.600708479309084,-0.15025,-0.00825,-0.12575,0.23558832417013592,10,1,100,0.5431540901870378,-10,-1,-100,18760.819739374798,-0.030371072710095388,0.016315631455926717,0.9994055223544807,85.52954264974544,5.397655264223106,615.4049729216676,-124.178447744263,38.900238037109375,4761.76025390625,True
1599387219.8702648,0.0,10,0.5,0.5,-16.749074910354615,-0.15025,-0.00825,-0.12575,0.31646154076243393,10,1,100,0.697938155737439,-10,-1,-100,18753.347296120948,-0.0337459713555863,0.017568986103396977,0.999276007990068,85.95344012935294,5.425484414265257,621.469634396349,-124.72185099861936,24.6053466796875,4761.76025390625,True
1599387219.9081635,0.0,10,0.5,0.5,-17.12624526901245,-0.15025,-0.00825,-0.12575,0.2475705127160014,10,1,100,0.4863256037526258,-10,-1,-100,18750.84923576552,-0.03487390968142874,0.01808040003173724,0.9992281569082327,85.55490226990398,5.400150603635839,619.5939076128983,-124.9030117692881,19.696807861328125,4761.76025390625,True
1599387219.9420729,0.0,10,0.5,0.5,-14.911077655029297,-0.15025,-0.00825,-0.12575,0.3334246680065347,10,1,100,0.6218385354685747,-10,-1,-100,18745.84224275709,-0.03711516898645992,0.0193233659977127,0.999124152324237,83.87699690207151,5.293787116344238,609.4254759575933,-125.26543389491307,9.665618896484375,4761.76025390625,True
