Timestamp,Input Throttle,horizon,dT,dt,Input Roll,Roll P,Roll I,Roll D,Input Pitch,Pitch P,Pitch I,Pitch D,Input Yaw,Yaw P,Yaw I,Yaw D,Altitude,Direction X,Direction Y,Direction Z,Drag X,Drag Y,Drag Z,Vertical Velocity,Roll,Mass,Has Fuel
1599387668.4506269,0.0,10,0.5,0.5,-8.423770942687987,-0.15025,-0.02275,-0.5,0.0007724987042549622,10,1,100,0.5036594137104996,-10,-1,-100,19349.720878311316,-0.04889379609309814,-0.00016625824372348862,0.9988039692861673,61.07637942693209,3.686774942827742,233.74148326165593,-68.6643339794416,-33.923797607421875,4761.76025390625,True
1599387668.4825404,0.0,10,0.5,0.5,-8.551435245513916,-0.15025,-0.02275,-0.5,0.00028700719199078236,10,1,100,0.5055798531351745,-10,-1,-100,19346.96335737349,-0.049000637116687985,-0.00014838355778168846,0.9987987362549466,61.256537138308055,3.6990003967222105,235.7242842779762,-69.02924374039384,-33.926239013671875,4761.76025390625,True
1599387668.518958,0.0,10,0.5,0.5,-8.680223754882812,-0.15025,-0.02275,-0.5,-0.0015152997579674023,10,1,100,0.4997958144878584,-10,-1,-100,19346.96335737349,-0.049000637116687985,-0.00014838355778168846,0.9987987362549466,61.256537138308055,3.6990003967222105,235.7242842779762,-69.02924374039384,-33.926239013671875,4761.76025390625,True
1599387668.5528681,0.0,10,0.5,0.5,-8.77810485458374,-0.15025,-0.02275,-0.5,0.011337669063840265,10,1,100,0.5100613157661167,-10,-1,-100,19344.191240208573,-0.0490494138218388,-3.1403492530908145e-05,0.998796352625276,61.43778705440055,3.711306858828204,237.71962852540264,-69.39413988074756,-33.971893310546875,4761.76025390625,True
1599387668.5918038,0.0,10,0.5,0.5,-8.859160037231446,-0.15025,-0.02275,-0.5,0.011383978555696207,10,1,100,0.5094486837196497,-10,-1,-100,19342.79970842891,-0.04904359652262453,7.539156534351972e-05,0.9987966359355832,61.53144323705543,3.71764709768151,238.73219513886298,-69.57658263931417,-34.078369140625,4761.76025390625,True
1599387668.6286643,0.0,10,0.5,0.5,-8.764719966125488,-0.15025,-0.02275,-0.5,0.028831928592095782,10,1,100,0.5111568962803266,-10,-1,-100,19340.00569877273,-0.0490092521861426,0.0003310271714099562,0.9987982697327658,61.72890438670439,3.7309384159254693,240.80335358742454,-69.94145682754099,-34.501129150390625,4761.76025390625,True
1599387668.6665628,0.0,10,0.5,0.5,-7.984841934967042,-0.15025,-0.02275,-0.5,0.10584866493931051,10,1,100,0.4803276055369533,-10,-1,-100,19334.37389658508,-0.048653209916959136,0.0012632743917437505,0.9988149324587551,62.15636847196109,3.759402672172496,245.10083534966915,-70.67115455800693,-36.2197265625,4761.76025390625,True
1599387668.7034988,0.0,10,0.5,0.5,-8.966490763092041,-0.15025,-0.02275,-0.5,0.01275027034510545,10,1,100,0.5207971534469953,-10,-1,-100,19334.37389658508,-0.048653209916959136,0.0012632743917437505,0.9988149324587551,62.15636847196109,3.759402672172496,245.10083534966915,-70.67115455800693,-36.2197265625,4761.76025390625,True
1599387668.7433577,0.0,10,0.5,0.5,-7.20814039993286,-0.15025,-0.02275,-0.5,0.17545438869365998,10,1,100,0.4357771649003458,-10,-1,-100,19328.683722004644,-0.047836070739337815,0.002741254309101752,0.9988514383335662,62.5780235817108,3.7872313468414056,249.41342504671272,-71.4007790007369,-39.11199951171875,4761.76025390625,True
1599387668.7802594,0.0,10,0.5,0.5,-7.543605089569091,-0.15025,-0.02275,-0.5,0.13424934899847601,10,1,100,0.45867521946193845,-10,-1,-100,19325.816747020348,-0.0472578937368426,0.0037077890964627154,0.9988758400219585,62.7574461055306,3.799064530707485,251.45798762858192,-71.76556368586417,-40.99810791015625,4761.76025390625,True
1599387668.8121738,0.0,10,0.5,0.5,-8.598138593292235,-0.15025,-0.02275,-0.5,0.03796664917202592,10,1,100,0.5212187090851439,-10,-1,-100,19325.816747020348,-0.0472578937368426,0.0037077890964627154,0.9988758400219585,62.7574461055306,3.799064530707485,251.45798762858192,-71.76556368586417,-40.99810791015625,4761.76025390625,True
1599387668.8511088,0.0,10,0.5,0.5,-7.8968888442993155,-0.15025,-0.02275,-0.5,0.09185274633020028,10,1,100,0.4818636322226343,-10,-1,-100,19324.377787809353,-0.04690160749478002,0.004194140845773222,0.9988907089351525,62.83313775294599,3.8040730026527863,252.4269746615791,-71.94794966268284,-42.051788330078125,4761.76025390625,True
1599387668.88801,0.0,10,0.5,0.5,-6.891896093749999,-0.15025,-0.02275,-0.5,0.16196722482516798,10,1,100,0.42861461223335395,-10,-1,-100,19321.4889267704,-0.046095537119931404,0.005269735400188339,0.9989231358550252,62.944009621386186,3.811497948398939,254.20652856741285,-72.31271031585068,-44.379119873046875,4761.76025390625,True
1599387668.9249113,0.0,10,0.5,0.5,-6.3278717636108395,-0.15025,-0.02275,-0.5,0.18982147433200314,10,1,100,0.4054988771536446,-10,-1,-100,19318.585475817672,-0.0451552438238869,0.006495843518847883,0.9989588620019265,62.98436436727586,3.814440859809978,255.7050538701769,-72.6774589357501,-46.99951171875,4761.76025390625,True
1599387668.9638073,0.0,10,0.5,0.5,-3.626680495452881,-0.15025,-0.02275,-0.5,0.35435710868004255,10,1,100,0.24017589229801367,-10,-1,-100,19312.734804425738,-0.04280103566515703,0.009100331896237483,0.9990421689325072,62.76579211545238,3.801478037390212,257.4816360808084,-73.4069401826842,-53.1229248046875,4761.76025390625,True
1599387669.0007079,0.0,10,0.5,0.5,-6.645060674285888,-0.15025,-0.02275,-0.5,0.09481076497417198,10,1,100,0.4749724520852542,-10,-1,-100,19312.734804425738,-0.04280103566515703,0.009100331896237483,0.9990421689325072,62.76579211545238,3.801478037390212,257.4816360808084,-73.4069401826842,-53.1229248046875,4761.76025390625,True
1599387669.0346174,0.0,10,0.5,0.5,-4.32495574798584,-0.15025,-0.02275,-0.5,0.24702079517717074,10,1,100,0.3189939514704882,-10,-1,-100,19309.787584051257,-0.04138869312913278,0.010476087348333083,0.9990881981461559,62.45629629295611,3.7824980561686776,257.53879025542676,-73.77168649491388,-56.62579345703125,4761.76025390625,True
1599387669.0750206,0.0,10,0.5,0.5,-2.2538410125732415,-0.15025,-0.02275,-0.5,0.33292600774081405,10,1,100,0.19554241394199723,-10,-1,-100,19305.339396657655,-0.03898906277047702,0.012499355316310759,0.9991614579741137,61.66403458257972,3.733758736037028,256.23911720733867,-74.31883766787669,-62.4329833984375,4761.76025390625,True
1599387669.1159117,0.0,10,0.5,0.5,-5.097800823974609,-0.15025,-0.02275,-0.5,0.13172281903550315,10,1,100,0.43453903509292474,-10,-1,-100,19305.339396657655,-0.03898906277047702,0.012499355316310759,0.9991614579741137,61.66403458257972,3.733758736037028,256.23911720733867,-74.31883766787669,-62.4329833984375,4761.76025390625,True
1599387669.1526809,0.0,10,0.5,0.5,0.6617696731567384,-0.15025,-0.02275,-0.5,0.4095702745446543,10,1,100,0.028725571910828807,-10,-1,-100,19299.357407997246,-0.03530789220333875,0.015016370274569216,0.9992636595873656,59.84447133072363,3.622156511480193,251.22893108445166,-75.04848645628327,-71.2088623046875,4761.76025390625,True
1599387669.1935372,0.0,10,0.5,0.5,-3.657440313720703,-0.15025,-0.02275,-0.5,0.15899963683661925,10,1,100,0.3956476284713055,-10,-1,-100,19299.357407997246,-0.03530789220333875,0.015016370274569216,0.9992636595873656,59.84447133072363,3.622156511480193,251.22893108445166,-75.04848645628327,-71.2088623046875,4761.76025390625,True
1599387669.2304645,0.0,10,0.5,0.5,2.7226710571289066,-0.15025,-0.02275,-0.5,0.4095387269804015,10,1,100,-0.06545412209836904,-10,-1,-100,19293.317037474248,-0.03112692174500853,0.017283717838441685,0.9993659929377031,56.97346182563659,3.4472881850149264,241.61146858466407,-75.77834218654873,-80.91494750976562,4761.76025390625,True
1599387669.269169,0.0,10,0.5,0.5,1.1885352600097656,-0.15025,-0.02275,-0.5,0.30137166222169537,10,1,100,0.09342685133218037,-10,-1,-100,19290.274953038315,-0.028784752619304025,0.01834970632870781,0.9994171933153319,55.21626029989694,3.340859621567288,235.34178673860188,-76.14336422826833,-85.88302612304688,4761.76025390625,True
1599387669.3080664,0.0,10,0.5,0.5,2.0061681087493897,-0.15025,-0.02275,-0.5,0.28483841038908064,10,1,100,0.08320638860232826,-10,-1,-100,19287.218265727046,-0.0265783317388473,0.019156593602354593,0.9994631645055929,53.22706012694284,3.220846400458506,228.00405096046754,-76.5084516721484,-90.81536102294922,4761.76025390625,True
1599387669.344967,0.0,10,0.5,0.5,-0.360318284034729,-0.15025,-0.02275,-0.5,0.20541575803275314,10,1,100,0.3019907854394968,-10,-1,-100,19287.218265727046,-0.0265783317388473,0.019156593602354593,0.9994631645055929,53.22706012694284,3.220846400458506,228.00405096046754,-76.5084516721484,-90.81536102294922,4761.76025390625,True
1599387669.386855,0.0,10,0.5,0.5,5.6217457328796385,-0.15025,-0.02275,-0.5,0.35714821994184454,10,1,100,-0.21753538953244955,-10,-1,-100,19281.061079408275,-0.021870114424489887,0.0205268375636135,0.9995500722998809,54.33286932762128,3.2899763931734496,235.07045181885454,-77.23861101589954,-99.88312530517578,4761.76025390625,True
1599387669.426749,0.0,10,0.5,0.5,1.1942430479049682,-0.15025,-0.02275,-0.5,0.2212664743826915,10,1,100,0.251193249779225,-10,-1,-100,19281.061079408275,-0.021870114424489887,0.0205268375636135,0.9995500722998809,54.33286932762128,3.2899763931734496,235.07045181885454,-77.23861101589954,-99.88312530517578,4761.76025390625,True
1599387669.4651556,0.0,10,0.5,0.5,6.802846537780761,-0.15025,-0.02275,-0.5,0.3171532429104757,10,1,100,-0.2671066099682282,-10,-1,-100,19274.845494549372,-0.017176041680153624,0.021389398413670373,0.9996236678008894,56.57736902192868,3.429564250775189,247.20568237287605,-77.96848926662348,-108.35708618164062,4761.76025390625,True
1599387669.5060463,0.0,10,0.5,0.5,3.963054641723633,-0.15025,-0.02275,-0.5,0.2471833056306082,10,1,100,0.06311447449918335,-10,-1,-100,19273.28247612226,-0.015930542699633784,0.02152937244472568,0.999641287628433,57.06109770963169,3.4599167908772706,249.93011999017781,-78.15091625065972,-110.34510803222656,4761.76025390625,True
1599387669.5469763,0.0,10,0.5,0.5,4.3243298412322995,-0.15025,-0.02275,-0.5,0.2456651410734231,10,1,100,0.0505494416358131,-10,-1,-100,19271.71580935165,-0.014705005618649512,0.021634610961412084,0.9996577946569034,57.51871251554719,3.4887163425288468,252.5500731446037,-78.33332734244816,-112.26173400878906,4761.76025390625,True
1599387669.5858333,0.0,10,0.5,0.5,5.809270734786987,-0.15025,-0.02275,-0.5,0.25591506684727494,10,1,100,-0.06764776787006255,-10,-1,-100,19268.57153262943,-0.012535090810051022,0.021817446901173973,0.9996833851320619,58.37180347737595,3.5425865166639223,257.5446675370223,-78.69810389709446,-115.8755111694336,4761.76025390625,True
1599387669.6217368,0.0,10,0.5,0.5,6.263141126060486,-0.15025,-0.02275,-0.5,0.24299585314302113,10,1,100,-0.1056009299384866,-10,-1,-100,19265.41266659205,-0.010238114784696982,0.021860031197621924,0.9997086175689868,59.03129060333804,3.5846880230292784,261.71680143497423,-79.06282760380802,-119.19599151611328,4761.76025390625,True
1599387669.6626272,0.0,10,0.5,0.5,6.657602813720702,-0.15025,-0.02275,-0.5,0.23467331576440556,10,1,100,-0.11894115373798525,-10,-1,-100,19262.239212783054,-0.008047669824343606,0.02181892447880612,0.9997295482004052,59.51963687086721,3.616309970586762,265.1542575810615,-79.42750765653217,-122.221923828125,4761.76025390625,True
1599387669.7015224,0.0,10,0.5,0.5,7.003132303619385,-0.15025,-0.02275,-0.5,0.2281599344434249,10,1,100,-0.13163982166757837,-10,-1,-100,19259.051172647858,-0.005959765681748745,0.021719188342282748,0.9997463468554267,59.864339758940645,3.6390723777415612,267.9692954713651,-79.79215222916913,-124.95291137695312,4761.76025390625,True
1599387669.7434137,0.0,10,0.5,0.5,6.5313634202957145,-0.15025,-0.02275,-0.5,0.22968776736870325,10,1,100,-0.03746143890201095,-10,-1,-100,19257.451683477033,-0.004936582273674119,0.02164007888590955,0.9997536382235711,59.99208598707744,3.6476846661453584,269.1821332605188,-79.97446340026539,-126.2079086303711,4761.76025390625,True
1599387669.7862954,0.0,10,0.5,0.5,7.472731626701354,-0.15025,-0.02275,-0.5,0.2156831833570846,10,1,100,-0.15558802892869106,-10,-1,-100,19254.24176661088,-0.0029522117656047976,0.02143858908429779,0.9997658082489947,60.174065757003774,3.6603177384990726,271.28454800927494,-80.33906774815237,-128.49679565429688,4761.76025390625,True
1599387669.8291824,0.0,10,0.5,0.5,7.689945169830322,-0.15025,-0.02275,-0.5,0.20868075954791043,10,1,100,-0.16687318207441354,-10,-1,-100,19251.017265997827,-0.0010628443684523783,0.02119092927409398,0.9997748821001401,60.27712831224783,3.667990084395206,273.0373376299816,-80.70365214640852,-130.49073791503906,4761.76025390625,True
1599387669.8680782,0.0,10,0.5,0.5,8.780578095054626,-0.15025,-0.02275,-0.5,0.16341184227901762,10,1,100,-0.36693889500327376,-10,-1,-100,19244.524516984704,0.00245462586462488,0.02055364466081833,0.9997857382974723,60.32177343287585,3.6730738634409734,275.81841499265244,-81.4327761963246,-133.5941162109375,4761.76025390625,True
1599387669.909004,0.0,10,0.5,0.5,7.286303190422057,-0.15025,-0.02275,-0.5,0.22705672823129752,10,1,100,-0.017154938450025796,-10,-1,-100,19244.524516984704,0.00245462586462488,0.02055364466081833,0.9997857382974723,60.32177343287585,3.6730738634409734,275.81841499265244,-81.4327761963246,-133.5941162109375,4761.76025390625,True
1599387669.9468951,0.0,10,0.5,0.5,8.060327649116516,-0.15025,-0.02275,-0.5,0.18801176035117925,10,1,100,-0.195707847956598,-10,-1,-100,19241.25626932888,0.004061120343262574,0.020199577432620807,0.9997877196550781,60.29554474835577,3.6724792788630856,276.987819233464,-81.7973208727735,-134.703125,4761.76025390625,True
1599387669.9843078,0.0,10,0.5,0.5,8.085344452476502,-0.15025,-0.02275,-0.5,0.190978340627657,10,1,100,-0.1968632890137986,-10,-1,-100,19237.973440427566,0.005515013764396927,0.01990597162179903,0.9997866456984563,60.25555996315266,3.6709555680054393,278.09299806333325,-82.16185607923168,-135.51583862304688,4761.76025390625,True
1599387670.0221732,0.0,10,0.5,0.5,8.061484659194946,-0.15025,-0.02275,-0.5,0.1732929564432896,10,1,100,-0.2106046431159309,-10,-1,-100,19234.676030046423,0.006945247271288952,0.019480018733266234,0.9997861233336319,60.21346504529531,3.6692362953030617,279.1870976811963,-82.52638226679504,-136.0353546142578,4761.76025390625,True
1599387670.0591102,0.0,10,0.5,0.5,7.984937505531311,-0.15025,-0.02275,-0.5,0.17874729236369352,10,1,100,-0.2083902211879215,-10,-1,-100,19231.36403893202,0.008209707203612538,0.019144537354298597,0.9997830201584346,60.17027611934663,3.6674060634251164,280.2747354368916,-82.89089982865626,-136.25819396972656,4761.76025390625,True
1599387670.09701,0.0,10,0.5,0.5,7.858727514457702,-0.15025,-0.02275,-0.5,0.17217137895858103,10,1,100,-0.2126986097330288,-10,-1,-100,19228.0374673435,0.009383603967927723,0.018782204512576547,0.9997795640891151,60.13258759481564,3.665888146699492,281.38671033102645,-83.2554088598101,-136.18634033203125,4761.76025390625,True
1599387670.1359043,0.0,10,0.5,0.5,7.6815260885238645,-0.15025,-0.02275,-0.5,0.1692769853912753,10,1,100,-0.21466350735857437,-10,-1,-100,19224.696315796697,0.010454697032401327,0.018429168336608,0.9997755073337123,60.10198312700103,3.664800748658939,282.53082872800866,-83.61990912851097,-135.81927490234375,4761.76025390625,True
1599387670.1737688,0.0,10,0.5,0.5,7.456388040542603,-0.15025,-0.02275,-0.5,0.16580246234841348,10,1,100,-0.21492545832758955,-10,-1,-100,19221.340584470658,0.011416807300453764,0.018079558794928126,0.9997713668958744,60.07764130748597,3.664115145348831,283.7036832823235,-83.9844004794023,-135.15716552734375,4761.76025390625,True
1599387670.2107058,0.0,10,0.5,0.5,7.180156512832641,-0.15025,-0.02275,-0.5,0.16341640784044986,10,1,100,-0.21431841348866937,-10,-1,-100,19217.97027373966,0.012272871664633015,0.017743094198137088,0.9997672525289971,60.05624589900958,3.663649705182669,284.88996297571106,-84.3488830611309,-134.19993591308594,4761.76025390625,True
1599387670.2515957,0.0,10,0.5,0.5,7.284060728073119,-0.15025,-0.02275,-0.5,0.17862545527023282,10,1,100,-0.17270658175025902,-10,-1,-100,19216.279651181772,0.012660699238053071,0.017578615755030495,0.9997653219445755,60.044866437868436,3.6633968400230477,285.4797112323772,-84.53112114787808,-133.61070251464844,4761.76025390625,True
1599387670.2884972,0.0,10,0.5,0.5,5.566756172943115,-0.15025,-0.02275,-0.5,0.12524845260575468,10,1,100,-0.27631493146888675,-10,-1,-100,19209.480714404024,0.013945885599173894,0.016946548990625417,0.9997591343679553,59.971897307749025,3.6609078769008727,287.7059989498048,-85.26005489719205,-130.51657104492188,4761.76025390625,True
1599387670.3273587,0.0,10,0.5,0.5,5.813533806610107,-0.15025,-0.02275,-0.5,0.1525912817791542,10,1,100,-0.20326038024945,-10,-1,-100,19206.059378075646,0.014439657952984719,0.01662379319335188,0.9997575434964547,59.899822487518996,3.657638114407423,288.64626806020544,-85.62451345355892,-128.5276641845703,4761.76025390625,True
1599387670.36725,0.0,10,0.5,0.5,6.793938063430786,-0.15025,-0.02275,-0.5,0.18450928308258097,10,1,100,-0.15492099862933978,-10,-1,-100,19206.059378075646,0.014439657952984719,0.01662379319335188,0.9997575434964547,59.899822487518996,3.657638114407423,288.64626806020544,-85.62451345355892,-128.5276641845703,4761.76025390625,True
1599387670.4061458,0.0,10,0.5,0.5,3.616336265563964,-0.15025,-0.02275,-0.5,0.12052627754352285,10,1,100,-0.22750756339623857,-10,-1,-100,19199.172970735817,0.015091422501603264,0.016045113305204486,0.9997573722188305,59.61599058085881,3.6429148542791783,289.8408548675706,-86.353427390397,-123.66537475585938,4761.76025390625,True
1599387670.4450414,0.0,10,0.5,0.5,6.019339275741577,-0.15025,-0.02275,-0.5,0.1780507758154561,10,1,100,-0.16314572605741542,-10,-1,-100,19199.172970735817,0.015091422501603264,0.016045113305204486,0.9997573722188305,59.61599058085881,3.6429148542791783,289.8408548675706,-86.353427390397,-123.66537475585938,4761.76025390625,True
1599387670.4849343,0.0,10,0.5,0.5,2.063795182418823,-0.15025,-0.02275,-0.5,0.11075623142331648,10,1,100,-0.19259840230482692,-10,-1,-100,19192.228249528678,0.015352917999036104,0.015436162378047848,0.9997629783103359,59.02926414959211,3.610131209505775,289.52955373575674,-87.08236660556774,-117.6263198852539,4761.76025390625,True
1599387670.5228326,0.0,10,0.5,0.5,5.041098571205139,-0.15025,-0.02275,-0.5,0.17131671992552747,10,1,100,-0.16704578396465375,-10,-1,-100,19192.228249528678,0.015352917999036104,0.015436162378047848,0.9997629783103359,59.02926414959211,3.610131209505775,289.52955373575674,-87.08236660556774,-117.6263198852539,4761.76025390625,True
1599387670.5597358,0.0,10,0.5,0.5,0.3085352668762207,-0.15025,-0.02275,-0.5,0.09638271072815813,10,1,100,-0.1562339566293935,-10,-1,-100,19185.22520968388,0.015250175731473161,0.014757665027125,0.9997747963732163,57.97534982988578,3.549028221369331,286.8614705252883,-87.81138018696741,-110.41190338134766,4761.76025390625,True
1599387670.5986304,0.0,10,0.5,0.5,1.2276947229385375,-0.15025,-0.02275,-0.5,0.12083990735730676,10,1,100,-0.14661981848397368,-10,-1,-100,19181.701817630325,0.015065887533793015,0.014366207308158128,0.9997832920790376,57.245945029578266,3.5060475467119794,284.48958458145626,-88.17593350299808,-106.36460876464844,4761.76025390625,True
1599387670.6385238,0.0,10,0.5,0.5,3.1880166620254515,-0.15025,-0.02275,-0.5,0.159647990564996,10,1,100,-0.1653279398389043,-10,-1,-100,19181.701817630325,0.015065887533793015,0.014366207308158128,0.9997832920790376,57.245945029578266,3.5060475467119794,284.48958458145626,-88.17593350299808,-106.36460876464844,4761.76025390625,True
1599387670.6764228,0.0,10,0.5,0.5,-2.5200781560897827,-0.15025,-0.02275,-0.5,0.06828030212335381,10,1,100,-0.10156191118449068,-10,-1,-100,19174.61128237762,0.014484009829393128,0.013538512330003992,0.9998034417540042,55.57081798544029,3.4063762193720546,278.57161069312286,-88.90515513504292,-97.68162536621094,4761.76025390625,True
1599387670.711329,0.0,10,0.5,0.5,1.7467140417098999,-0.15025,-0.02275,-0.5,0.1507089962727053,10,1,100,-0.15980349404750133,-10,-1,-100,19174.61128237762,0.014484009829393128,0.013538512330003992,0.9998034417540042,55.57081798544029,3.4063762193720546,278.57161069312286,-88.90515513504292,-97.68162536621094,4761.76025390625,True
1599387670.7482297,0.0,10,0.5,0.5,0.16367318592071523,-0.15025,-0.02275,-0.5,0.12390576981076988,10,1,100,-0.1383668894434607,-10,-1,-100,19172.829532525968,0.014289091285832388,0.01329765143568035,0.9998094790191382,55.10224744535331,3.3782509440886184,276.8202292517514,-89.08748655009626,-95.35503387451172,4761.76025390625,True
1599387671.092885,0.0,10,0.5,0.5,-1.8579679889678955,-0.15025,-0.02275,-0.5,0.09340678539389692,10,1,100,-0.1116415356804942,-10,-1,-100,19169.255091908155,0.013869071727174885,0.012804447256830623,0.9998218316179505,54.00591119940243,3.311976414577194,272.48465264711376,-89.45218440173095,-90.57307434082031,4761.76025390625,True
1599387671.1277916,0.0,10,0.5,0.5,-1.1161746757507323,-0.15025,-0.02275,-0.5,0.11213398666092242,10,1,100,-0.1270423727291516,-10,-1,-100,19167.46240084537,0.013628354602268975,0.012529273165802352,0.9998286279481958,53.39888278206972,3.275080706489792,270.00174716305474,-89.63455155402212,-88.15261840820312,4761.76025390625,True
1599387671.1626976,0.0,10,0.5,0.5,-4.84200305404663,-0.15025,-0.02275,-0.5,0.0417551151357303,10,1,100,-0.0645000410090035,-10,-1,-100,19162.062446736032,0.012842284262079832,0.011642503196583451,0.9998497526399902,55.815128492827895,3.423733299451934,284.0380133566668,-90.18154588143985,-80.68585205078125,4761.76025390625,True
1599387671.197604,0.0,10,0.5,0.5,-1.1926594396591186,-0.15025,-0.02275,-0.5,0.1300527461394739,10,1,100,-0.1428560116542221,-10,-1,-100,19162.062446736032,0.012842284262079832,0.011642503196583451,0.9998497526399902,55.815128492827895,3.423733299451934,284.0380133566668,-90.18154588143985,-80.68585205078125,4761.76025390625,True
1599387671.2529693,0.0,10,0.5,0.5,-4.379336874771118,-0.15025,-0.02275,-0.5,0.05707602502096114,10,1,100,-0.07839536845310635,-10,-1,-100,19158.444247892825,0.012258560809103286,0.010982527240216484,0.9998645467173579,57.465303852529544,3.524879543320806,293.68421277265406,-90.54610015836647,-75.91439819335938,4761.76025390625,True
1599387671.2918656,0.0,10,0.5,0.5,-7.714927456092834,-0.15025,-0.02275,-0.5,-0.03715909744529622,10,1,100,0.002178794096709416,-10,-1,-100,19151.16411380295,0.010998130387692073,0.00952929810999591,0.9998941111965337,60.09704146997011,3.685665075256579,309.7449519916746,-91.27497518176634,-67.2364501953125,4761.76025390625,True
1599387671.3297653,0.0,10,0.5,0.5,-3.464970017814636,-0.15025,-0.02275,-0.5,0.10768012465694497,10,1,100,-0.12345747232980178,-10,-1,-100,19151.16411380295,0.010998130387692073,0.00952929810999591,0.9998941111965337,60.09704146997011,3.685665075256579,309.7449519916746,-91.27497518176634,-67.2364501953125,4761.76025390625,True
1599387671.3626757,0.0,10,0.5,0.5,-7.279846846199035,-0.15025,-0.02275,-0.5,-0.020312648288822413,10,1,100,-0.012770731324571016,-10,-1,-100,19145.665754929767,0.00999558524868643,0.008370124637032718,0.9999150110329861,61.56216284008174,3.7749625641682587,319.30160116525013,-91.82146007632034,-61.506561279296875,4761.76025390625,True
1599387671.4025695,0.0,10,0.5,0.5,-4.497200658988953,-0.15025,-0.02275,-0.5,0.0950878602381997,10,1,100,-0.1125764027670646,-10,-1,-100,19145.665754929767,0.00999558524868643,0.008370124637032718,0.9999150110329861,61.56216284008174,3.7749625641682587,319.30160116525013,-91.82146007632034,-61.506561279296875,4761.76025390625,True
1599387671.4384727,0.0,10,0.5,0.5,-8.870696485328676,-0.15025,-0.02275,-0.5,-0.0876569632206074,10,1,100,0.04295900609681731,-10,-1,-100,19138.28361332463,0.008585707372269965,0.006713506594400809,0.9999406054652069,62.99591100406854,3.862432876022651,329.47402583174767,-92.54993056968647,-54.907257080078125,4761.76025390625,True
1599387671.4743767,0.0,10,0.5,0.5,-7.518422704696655,-0.15025,-0.02275,-0.5,-0.022704582573087884,10,1,100,-0.017087014372119735,-10,-1,-100,19134.570690575754,0.007855058019712207,0.0058039519659322325,0.9999523049651339,63.5426692498394,3.8959341602217403,333.71398430082974,-92.91410647146441,-52.053955078125,4761.76025390625,True
1599387671.513273,0.0,10,0.5,0.5,-7.035296643829345,-0.15025,-0.02275,-0.5,0.023150185163724038,10,1,100,-0.04916359692444357,-10,-1,-100,19132.70876660524,0.007487903916687611,0.005400309733378088,0.9999573830667574,63.783039123506406,3.9107161838900435,335.6693533317833,-93.09618224054032,-50.737701416015625,4761.76025390625,True
1599387671.551171,0.0,10,0.5,0.5,-7.269862418365478,-0.15025,-0.02275,-0.5,0.01716826123031845,10,1,100,-0.04425113947849374,-10,-1,-100,19130.843201480457,0.007115050983234417,0.004985461998418292,0.9999622598969266,64.00483397117024,3.924395962582233,337.53214948591943,-93.27825066900192,-49.495758056640625,4761.76025390625,True
1599387671.5880733,0.0,10,0.5,0.5,-8.189796589660645,-0.15025,-0.02275,-0.5,-0.03944776919969917,10,1,100,0.002575217136391139,-10,-1,-100,19127.101147878915,0.006355606195667874,0.0040996883638166485,0.9999713990035941,64.40269491877095,3.9490597185152443,341.03061146532934,-93.64236752589062,-47.23516845703125,4761.76025390625,True
1599387671.622979,0.0,10,0.5,0.5,-8.979035444641113,-0.15025,-0.02275,-0.5,-0.09946360707325645,10,1,100,0.054882654754028676,-10,-1,-100,19121.46076014277,0.005195576663234686,0.0027556981833580583,0.9999827059057865,64.91542347037354,3.9811481573672594,345.86449556309145,-94.18849881309869,-44.40020751953125,4761.76025390625,True
1599387671.6608784,0.0,10,0.5,0.5,-8.621483707427979,-0.15025,-0.02275,-0.5,-0.0636072186970878,10,1,100,0.026926180236554013,-10,-1,-100,19117.682297823136,0.0044015750240414386,0.0018673350309580173,0.9999885695332671,65.22243393430843,4.00054445941814,348.92068695314384,-94.55256027746272,-42.88043212890625,4761.76025390625,True
1599387671.6967819,0.0,10,0.5,0.5,-7.917005953216552,-0.15025,-0.02275,-0.5,0.02446290023501252,10,1,100,-0.0518143281464057,-10,-1,-100,19117.682297823136,0.0044015750240414386,0.0018673350309580173,0.9999885695332671,65.22243393430843,4.00054445941814,348.92068695314384,-94.55256027746272,-42.88043212890625,4761.76025390625,True
1599387671.734681,0.0,10,0.5,0.5,-8.768440323638917,-0.15025,-0.02275,-0.5,-0.06994005180058657,10,1,100,0.038545595297020015,-10,-1,-100,19113.889274036745,0.00358611804306816,0.0010160917970698782,0.9999930536332945,65.51616884773564,4.019212140748501,351.91998600041234,-94.91660214806838,-41.65625,4761.76025390625,True
1599387671.7715816,0.0,10,0.5,0.5,-8.804867214965821,-0.15025,-0.02275,-0.5,-0.08066785993865142,10,1,100,0.04887391920699775,-10,-1,-100,19110.081689002574,0.0027567264495523074,0.00015139426758912838,0.9999961887622663,65.80629880893537,4.037722575063518,354.9137290348008,-95.28062494757157,-40.728363037109375,4761.76025390625,True
1599387671.808483,0.0,10,0.5,0.5,-8.932437191772461,-0.15025,-0.02275,-0.5,-0.13753039520880286,10,1,100,0.1069297853623214,-10,-1,-100,19104.34301135072,0.0014815342711250758,-0.0011441549613316175,0.9999982479812791,66.24894951021743,4.066016386840129,359.47058810872926,-95.82662332408293,-39.891387939453125,4761.76025390625,True
1599387671.843391,0.0,10,0.5,0.5,-8.633559246826172,-0.15025,-0.02275,-0.5,-0.05375315936795437,10,1,100,0.028078462656676254,-10,-1,-100,19102.42283895833,0.0010455571999708618,-0.0015531724240193708,0.9999982472312454,66.40078438221096,4.075716981783835,361.01982701014396,-96.00861294779492,-39.759979248046875,4761.76025390625,True
1599387671.8812888,0.0,10,0.5,0.5,-8.564132740020751,-0.15025,-0.02275,-0.5,-0.14452695361397178,10,1,100,0.13236831268672627,-10,-1,-100,19096.64048420801,-0.0002926846824245679,-0.0027435344974357126,0.999996193669825,66.87139555720763,4.105722198626741,365.77170019477995,-96.5545507326308,-39.8087158203125,4761.76025390625,True
1599387671.9181898,0.0,10,0.5,0.5,-8.61336446838379,-0.15025,-0.02275,-0.5,-0.026305130695418993,10,1,100,-0.0006778166929054899,-10,-1,-100,19096.64048420801,-0.0002926846824245679,-0.0027435344974357126,0.999996193669825,66.87139555720763,4.105722198626741,365.77170019477995,-96.5545507326308,-39.8087158203125,4761.76025390625,True
1599387671.9570851,0.0,10,0.5,0.5,-8.374056282806396,-0.15025,-0.02275,-0.5,-0.11344744186190286,10,1,100,0.10054291457727858,-10,-1,-100,19092.767384089413,-0.0012061388433665513,-0.003528710965771153,0.9999930466898311,67.19657775511828,4.126376820903026,369.02094157371715,-96.9184828402244,-40.21063232421875,4761.76025390625,True
1599387671.995982,0.0,10,0.5,0.5,-7.493678635406495,-0.15025,-0.02275,-0.5,-0.18996093176314677,10,1,100,0.2178225451512996,-10,-1,-100,19084.977514395723,-0.0030958558630421506,-0.004931150027605964,0.9999830495742817,67.85417734365744,4.167886478228279,375.6053918302757,-97.64628190740274,-41.898162841796875,4761.76025390625,True
1599387672.0355031,0.0,10,0.5,0.5,-8.343136045837403,-0.15025,-0.02275,-0.5,-0.05048571040076209,10,1,100,0.02967998643636736,-10,-1,-100,19084.977514395723,-0.0030958558630421506,-0.004931150027605964,0.9999830495742817,67.85417734365744,4.167886478228279,375.6053918302757,-97.64628190740274,-41.898162841796875,4761.76025390625,True
1599387672.0783534,0.0,10,0.5,0.5,-7.509578792572022,-0.15025,-0.02275,-0.5,-0.11827954875880263,10,1,100,0.1373142287522784,-10,-1,-100,19081.06074682891,-0.004067533128743993,-0.005541277208080365,0.9999763744314911,68.17104945045574,4.1877284413943565,378.85458040940904,-98.01014926987115,-43.183502197265625,4761.76025390625,True
1599387672.1188226,0.0,10,0.5,0.5,-7.124768038940429,-0.15025,-0.02275,-0.5,-0.11495787728002557,10,1,100,0.14830659404272895,-10,-1,-100,19077.12942531309,-0.005043107501883595,-0.006059006165759995,0.9999689272727467,68.46480915968063,4.2059892755285695,381.9898746413384,-98.37399660550156,-44.7625732421875,4761.76025390625,True
1599387672.158716,0.0,10,0.5,0.5,-6.007346989440918,-0.15025,-0.02275,-0.5,-0.14914767472378146,10,1,100,0.21678001675762096,-10,-1,-100,19071.20515537809,-0.006544634206195932,-0.006834053287718502,0.9999552307372404,68.8290635811155,4.228324829039297,386.2906801488174,-98.91973513411986,-47.684356689453125,4761.76025390625,True
1599387672.198605,0.0,10,0.5,0.5,-6.7237599655151365,-0.15025,-0.02275,-0.5,-0.0949338005836452,10,1,100,0.12254255286795718,-10,-1,-100,19069.223122250638,-0.007044498483250433,-0.007039437772265627,0.9999504094488737,68.92170005588089,4.23389215998637,387.56847475355056,-99.10164100726386,-48.804931640625,4761.76025390625,True
1599387672.238017,0.0,10,0.5,0.5,-5.663048418426514,-0.15025,-0.02275,-0.5,-0.11628177890757105,10,1,100,0.18348497364950372,-10,-1,-100,19065.24814218667,-0.008045191621537334,-0.0074148641222433085,0.9999401455496331,69.04846267843747,4.241253791290924,389.8010672754117,-99.46544594023992,-51.266632080078125,4761.76025390625,True
1599387672.277874,0.0,10,0.5,0.5,-3.0936793693542484,-0.15025,-0.02275,-0.5,-0.1373731273538441,10,1,100,0.30203531443231557,-10,-1,-100,19057.25452587835,-0.01002437870998598,-0.007942571524736207,0.9999182103497533,68.98473167881464,4.235768239326349,392.48368863061836,-100.19305137872983,-57.07061767578125,4761.76025390625,True
1599387672.3187973,0.0,10,0.5,0.5,-3.783318546295165,-0.15025,-0.02275,-0.5,-0.10107032855158626,10,1,100,0.21051665204897113,-10,-1,-100,19053.23588904494,-0.010982804865065653,-0.008087553686048042,0.9999069804100136,68.74370030066925,4.219860004748816,392.63167386854036,-100.55686837401552,-60.41253662109375,4761.76025390625,True
1599387672.3577006,0.0,10,0.5,0.5,-3.043897978973389,-0.15025,-0.02275,-0.5,-0.0922920828369724,10,1,100,0.21423986022540803,-10,-1,-100,19049.202698936337,-0.011878230425666927,-0.008134695217845392,0.9998963618173974,68.3251017237584,4.192906032889647,391.75361198766257,-100.92070834225862,-64.04730224609375,4761.76025390625,True
1599387672.394599,0.0,10,0.5,0.5,-2.252666053009033,-0.15025,-0.02275,-0.5,-0.08876157117287478,10,1,100,0.22334793255457672,-10,-1,-100,19045.154954376514,-0.012765352418676618,-0.0081412683368493,0.9998853761944387,67.69735912068987,4.15306384308325,389.65621241316705,-101.28458310057891,-67.97561645507812,4761.76025390625,True
1599387672.4317236,0.0,10,0.5,0.5,-4.157496950531006,-0.15025,-0.02275,-0.5,-0.08842527110340827,10,1,100,0.13560268290917105,-10,-1,-100,19045.154954376514,-0.012765352418676618,-0.0081412683368493,0.9998853761944387,67.69735912068987,4.15306384308325,389.65621241316705,-101.28458310057891,-67.97561645507812,4761.76025390625,True
1599387672.473437,0.0,10,0.5,0.5,-2.749568753814697,-0.15025,-0.02275,-0.5,-0.08564742744954534,10,1,100,0.1826621016512449,-10,-1,-100,19043.12562337634,-0.013184374864917622,-0.008113096923351234,0.9998801677789861,67.29631187514097,4.127812083407758,388.0955157599401,-101.46653720829596,-70.04959106445312,4761.76025390625,True
1599387672.513335,0.0,10,0.5,0.5,-0.8853545295715333,-0.15025,-0.02275,-0.5,-0.07688623027541436,10,1,100,0.22912585670924154,-10,-1,-100,19039.05604352604,-0.013979414096812892,-0.008005501282483373,0.9998702355459563,66.30124835086869,4.065599847878517,383.83267687587664,-101.83048714528633,-74.41726684570312,4761.76025390625,True
1599387672.5541918,0.0,10,0.5,0.5,0.028955334472656524,-0.15025,-0.02275,-0.5,-0.07067708124688911,10,1,100,0.2359665021393514,-10,-1,-100,19034.97190336662,-0.014756240805541472,-0.007849470713147158,0.9998603098267339,65.02549552743042,3.98648425756952,377.89746251302097,-102.19450359461732,-79.07806396484375,4761.76025390625,True
1599387672.5930872,0.0,10,0.5,0.5,0.991143871307373,-0.15025,-0.02275,-0.5,-0.06330151768375449,10,1,100,0.23625703467450165,-10,-1,-100,19030.87320038618,-0.015457623012342143,-0.0076396510564262585,0.9998513377610414,63.44411053574147,3.8891142871247832,370.1251196135029,-102.55859829513886,-84.03179931640625,4761.76025390625,True
1599387672.6310246,0.0,10,0.5,0.5,5.476107447814941,-0.15025,-0.02275,-0.5,-0.02670649693589762,10,1,100,0.3001228667317054,-10,-1,-100,19022.632100058254,-0.016668193378563612,-0.007115678258713868,0.9998357557381179,65.14150043542925,3.9942754531401317,382.94489687310863,-103.28678974062605,-94.61494445800781,4761.76025390625,True
1599387672.6708813,0.0,10,0.5,0.5,0.28315228767395023,-0.15025,-0.02275,-0.5,-0.0790738581207837,10,1,100,0.17992813028526106,-10,-1,-100,19022.632100058254,-0.016668193378563612,-0.007115678258713868,0.9998357557381179,65.14150043542925,3.9942754531401317,382.94489687310863,-103.28678974062605,-94.61494445800781,4761.76025390625,True
1599387672.7119296,0.0,10,0.5,0.5,3.762643218231201,-0.15025,-0.02275,-0.5,-0.04621047405475749,10,1,100,0.2357178524737355,-10,-1,-100,19018.489709898247,-0.01716933283966922,-0.006817671942900923,0.9998293521192103,66.9861997601549,4.108864004362398,395.29006958082095,-103.65072708292494,-99.8345947265625,4761.76025390625,True
1599387672.7507927,0.0,10,0.5,0.5,7.559173611450195,-0.15025,-0.02275,-0.5,-0.00811725472995671,10,1,100,0.2697030713785672,-10,-1,-100,19010.16127087141,-0.017928246587104964,-0.00620160955443019,0.9998200428143288,70.20448862473704,4.310286797006716,417.42488912609434,-104.37828274338888,-109.54881286621094,4761.76025390625,True
1599387672.7906857,0.0,10,0.5,0.5,2.805580478286743,-0.15025,-0.02275,-0.5,-0.06953018501068844,10,1,100,0.1944166982511365,-10,-1,-100,19010.16127087141,-0.017928246587104964,-0.00620160955443019,0.9998200428143288,70.20448862473704,4.310286797006716,417.42488912609434,-104.37828274338888,-109.54881286621094,4761.76025390625,True
1599387672.846613,0.0,10,0.5,0.5,5.862648731231689,-0.15025,-0.02275,-0.5,-0.03720224546796926,10,1,100,0.22302390573655279,-10,-1,-100,19005.975230232347,-0.01818361856954654,-0.005909482521116761,0.9998172003081613,71.54131724740063,4.394470366452818,426.97338705485254,-104.74191473276728,-114.104736328125,4761.76025390625,True
1599387672.8835106,0.0,10,0.5,0.5,6.468517819595337,-0.15025,-0.02275,-0.5,-0.03750784225601702,10,1,100,0.2180286590284728,-10,-1,-100,19001.774646649254,-0.018365437887010092,-0.005648719539646561,0.9998153842879097,72.60741574641106,4.461909077820547,434.9587978354725,-105.10546661034964,-118.37830352783203,4761.76025390625,True
1599387672.9225569,0.0,10,0.5,0.5,7.028944993400574,-0.15025,-0.02275,-0.5,-0.033043966080206814,10,1,100,0.21415485087095743,-10,-1,-100,18997.5595230154,-0.018490801680524915,-0.005373321934333291,0.9998145916441716,73.42755922920769,4.51398118850217,441.5122732237582,-105.46895362759453,-122.357177734375,4761.76025390625,True
1599387672.959434,0.0,10,0.5,0.5,7.543723842048645,-0.15025,-0.02275,-0.5,-0.036348757621887065,10,1,100,0.2075364363213671,-10,-1,-100,18993.329861453385,-0.018540500099102377,-0.005155396924743911,0.9998148187232591,74.03413115268577,4.552584728653058,446.8132210011203,-105.83239011803389,-126.04061126708984,4761.76025390625,True
1599387672.9963353,0.0,10,0.5,0.5,8.01147250213623,-0.15025,-0.02275,-0.5,-0.03692888686655538,10,1,100,0.2017819132262726,-10,-1,-100,18989.08566349151,-0.018529926397586882,-0.004965006339876372,0.9998159783378864,74.4600916692354,4.579700480969962,451.0474703302281,-106.19578877177639,-129.42796325683594,4761.76025390625,True
1599387673.0336509,0.0,10,0.5,0.5,8.431364867782593,-0.15025,-0.02275,-0.5,-0.03918306450974504,10,1,100,0.19562247255112544,-10,-1,-100,18984.826930531184,-0.0184615260233576,-0.004814848009222651,0.9998179780817791,74.73727564779014,4.597277888298998,454.3969238137999,-106.55916024052267,-132.51953125,4761.76025390625,True
1599387673.0675602,0.0,10,0.5,0.5,8.78983684310913,-0.15025,-0.02275,-0.5,-0.04201797802233506,10,1,100,0.18905870860952895,-10,-1,-100,18980.55366343679,-0.018338042981275744,-0.004706204040787807,0.9998207678494897,74.89580857765172,4.607189442373328,457.0358232901748,-106.92251303704393,-135.31541442871094,4761.76025390625,True
1599387673.104462,0.0,10,0.5,0.5,8.32144161605835,-0.15025,-0.02275,-0.5,-0.04854924659793457,10,1,100,0.19270184171659754,-10,-1,-100,18978.41157951369,-0.018257387017081305,-0.0046690023967324214,0.9998224183503428,74.93930185289844,4.609818125258567,458.13973831567625,-107.1041846531445,-136.6025390625,4761.76025390625,True
1599387673.14236,0.0,10,0.5,0.5,9.291354196166992,-0.15025,-0.02275,-0.5,-0.04768274733050748,10,1,100,0.1790845856736206,-10,-1,-100,18974.11651190021,-0.01805928103635256,-0.004629258790201978,0.9998262010627165,74.97120119673477,4.611462166543892,460.01362422777265,-107.46752132633245,-138.95521545410156,4761.76025390625,True
1599387673.180258,0.0,10,0.5,0.5,9.51972238998413,-0.15025,-0.02275,-0.5,-0.052029060298735795,10,1,100,0.17208360306539072,-10,-1,-100,18969.80691091728,-0.017815420271570476,-0.004634069584671131,0.999830553743799,74.94929843538118,4.609538017110098,461.55925832985076,-107.83085249458648,-141.01258850097656,4761.76025390625,True
1599387673.2181585,0.0,10,0.5,0.5,9.708501000213623,-0.15025,-0.02275,-0.5,-0.05734890022883632,10,1,100,0.16442531515876288,-10,-1,-100,18965.482776764547,-0.017524210437449724,-0.0046882302517074195,0.9998354477341014,74.8947652238823,4.605396516918577,462.9039450816408,-108.19418027448371,-142.77481079101562,4761.76025390625,True
1599387673.258051,0.0,10,0.5,0.5,9.846637071228027,-0.15025,-0.02275,-0.5,-0.06253506456861294,10,1,100,0.1572553301367207,-10,-1,-100,18961.14410940057,-0.01719489200453238,-0.004785724399619659,0.9998407035777866,74.82570140093719,4.6001956938991535,464.1577599046935,-108.557505374178,-144.24197387695312,4761.76025390625,True
1599387673.295949,0.0,10,0.5,0.5,9.934145225715636,-0.15025,-0.02275,-0.5,-0.06831473341830976,10,1,100,0.1492166299882579,-10,-1,-100,18956.790909436997,-0.016823496651332842,-0.004927682428300782,0.9998463321462496,74.758011341022,4.594952637267955,465.4186852821749,-108.92082751592511,-145.41421508789062,4761.76025390625,True
1599387673.3308558,0.0,10,0.5,0.5,9.970995966529845,-0.15025,-0.02275,-0.5,-0.07432196609042704,10,1,100,0.14108515642662794,-10,-1,-100,18952.423176784534,-0.016413457756981345,-0.00511175151458108,0.9998522232814772,74.70452415626757,4.590488463582522,466.7668728911624,-109.28414555756183,-146.29159545898438,4761.76025390625,True
1599387673.3727448,0.0,10,0.5,0.5,9.791769817352293,-0.15025,-0.02275,-0.5,-0.06760963050679597,10,1,100,0.15774316312232214,-10,-1,-100,18950.233860559645,-0.016194065225115496,-0.005218105492630308,0.9998552513371887,74.686448045843,4.588762269158839,467.49486289947333,-109.46580237331429,-146.61976623535156,4761.76025390625,True
1599387673.414666,0.0,10,0.5,0.5,10.041411854553223,-0.15025,-0.02275,-0.5,-0.11386936299124417,10,1,100,0.0725158318929501,-10,-1,-100,18941.440265430138,-0.015221947058763589,-0.00573510385966754,0.9998676917029868,74.69228060993795,4.586542773311189,470.8985900803851,-110.1924082454331,-147.1958770751953,4761.76025390625,True
1599387673.4535277,0.0,10,0.5,0.5,9.786745121383667,-0.15025,-0.02275,-0.5,-0.062261551872565414,10,1,100,0.16940369063168143,-10,-1,-100,18941.440265430138,-0.015221947058763589,-0.00573510385966754,0.9998676917029868,74.69228060993795,4.586542773311189,470.8985900803851,-110.1924082454331,-147.1958770751953,4761.76025390625,True
1599387673.494418,0.0,10,0.5,0.5,9.422279731369018,-0.15025,-0.02275,-0.5,-0.1309246102756327,10,1,100,0.04552949181374999,-10,-1,-100,18932.588544205995,-0.014098650793075587,-0.006358378118041898,0.9998803923837706,74.84507437317515,4.593268872547782,475.2401526637216,-110.91896193302865,-146.59381103515625,4761.76025390625,True
1599387673.5333514,0.0,10,0.5,0.5,9.263534693527221,-0.15025,-0.02275,-0.5,-0.11083034464796149,10,1,100,0.08894354301230727,-10,-1,-100,18928.140887980815,-0.013475926231731565,-0.006740780142020385,0.9998864742035837,74.97716705508083,4.6000624637525895,477.7721535722362,-111.2822117865537,-145.85177612304688,4761.76025390625,True
1599387673.5742052,0.0,10,0.5,0.5,9.650241825103759,-0.15025,-0.02275,-0.5,-0.07280129438529462,10,1,100,0.15075766366624732,-10,-1,-100,18928.140887980815,-0.013475926231731565,-0.006740780142020385,0.9998864742035837,74.97716705508083,4.6000624637525895,477.7721535722362,-111.2822117865537,-145.85177612304688,4761.76025390625,True
1599387673.6150959,0.0,10,0.5,0.5,8.121332451248168,-0.15025,-0.02275,-0.5,-0.15049893934577063,10,1,100,0.0014920209513246685,-10,-1,-100,18919.20198846096,-0.012122910837995758,-0.007445207177518031,0.9998987968404092,75.32871152830873,4.619134014991533,483.41615383751406,-112.00864373101399,-143.48358154296875,4761.76025390625,True
1599387673.654033,0.0,10,0.5,0.5,9.307042194747925,-0.15025,-0.02275,-0.5,-0.08033193348858708,10,1,100,0.13625343036495996,-10,-1,-100,18919.20198846096,-0.012122910837995758,-0.007445207177518031,0.9998987968404092,75.32871152830873,4.619134014991533,483.41615383751406,-112.00864373101399,-143.48358154296875,4761.76025390625,True
1599387673.6929338,0.0,10,0.5,0.5,7.000548907852172,-0.15025,-0.02275,-0.5,-0.16123548176565775,10,1,100,-0.029886060237877612,-10,-1,-100,18910.204979077564,-0.010617162724484996,-0.008178276268420584,0.9999101917937228,75.73546292516816,4.64194963923961,489.44985723211835,-112.73497370526087,-139.93914794921875,4761.76025390625,True
1599387673.7348204,0.0,10,0.5,0.5,8.760309926986693,-0.15025,-0.02275,-0.5,-0.08825363205941442,10,1,100,0.12006811772051389,-10,-1,-100,18910.204979077564,-0.010617162724484996,-0.008178276268420584,0.9999101917937228,75.73546292516816,4.64194963923961,489.44985723211835,-112.73497370526087,-139.93914794921875,4761.76025390625,True
1599387673.7737448,0.0,10,0.5,0.5,5.676617782974242,-0.15025,-0.02275,-0.5,-0.16681464909962007,10,1,100,-0.06225833131579857,-10,-1,-100,18901.149869051296,-0.008964918910548061,-0.008889679582646236,0.9999202987367769,76.08804556698647,4.662111949981799,495.16855553373415,-113.46120025002645,-135.21905517578125,4761.76025390625,True
1599387673.8136432,0.0,10,0.5,0.5,7.124214231109619,-0.15025,-0.02275,-0.5,-0.11689048780149217,10,1,100,0.05361583276198598,-10,-1,-100,18898.877014110563,-0.008522852522507587,-0.00907921606187747,0.9999224614041737,76.1511419505621,4.665765082212714,496.4400733095696,-113.64274237643538,-133.855712890625,4761.76025390625,True
1599387673.853503,0.0,10,0.5,0.5,4.828525632095337,-0.15025,-0.02275,-0.5,-0.14587845595222868,10,1,100,-0.04963892506294498,-10,-1,-100,18892.036665176624,-0.007188384457277107,-0.009512008833274186,0.9999289218823758,76.23483328473417,4.670703201334993,499.5719358576242,-114.18734224104489,-129.32359313964844,4761.76025390625,True
1599387673.892976,0.0,10,0.5,0.5,7.053926061630248,-0.15025,-0.02275,-0.5,-0.10297686930991765,10,1,100,0.08300452519995437,-10,-1,-100,18892.036665176624,-0.007188384457277107,-0.009512008833274186,0.9999289218823758,76.23483328473417,4.670703201334993,499.5719358576242,-114.18734224104489,-129.32359313964844,4761.76025390625,True
1599387673.9318433,0.0,10,0.5,0.5,2.417155690765381,-0.15025,-0.02275,-0.5,-0.1556851430780741,10,1,100,-0.12303836499034555,-10,-1,-100,18882.865372222033,-0.005321549334034197,-0.009988308021425397,0.9999359553569189,75.98645306301769,4.656439375916003,501.3846494818448,-114.91344580305329,-122.25326538085938,4761.76025390625,True
1599387673.9717367,0.0,10,0.5,0.5,3.3138505123138424,-0.15025,-0.02275,-0.5,-0.13050837360999268,10,1,100,-0.04560122247026621,-10,-1,-100,18878.25794254185,-0.004335813587539271,-0.010189475262871754,0.9999386857774837,75.64522043192521,4.636548998679041,500.847910655416,-115.27650619789263,-118.27820587158203,4761.76025390625,True
1599387674.0106325,0.0,10,0.5,0.5,5.238650394630431,-0.15025,-0.02275,-0.5,-0.11073651897744219,10,1,100,0.0520583409148072,-10,-1,-100,18878.25794254185,-0.004335813587539271,-0.010189475262871754,0.9999386857774837,75.64522043192521,4.636548998679041,500.847910655416,-115.27650619789263,-118.27820587158203,4761.76025390625,True
1599387674.0490415,0.0,10,0.5,0.5,2.405075235748291,-0.15025,-0.02275,-0.5,-0.12051136534539011,10,1,100,-0.05021438996098397,-10,-1,-100,18873.63598960091,-0.003413140667987039,-0.010275842713411868,0.9999413770453294,75.11826933603908,4.60559396677138,499.06410478557854,-115.63958866779501,-114.00872039794922,4761.76025390625,True
1599387674.087937,0.0,10,0.5,0.5,1.5061657129287718,-0.15025,-0.02275,-0.5,-0.1199683822996732,10,1,100,-0.06419619744418323,-10,-1,-100,18868.999512193957,-0.0024551577368832063,-0.010346849063000096,0.9999434558588574,74.37897321131041,4.561856489354685,495.84353971582436,-116.00270745913836,-109.44647979736328,4761.76025390625,True
1599387674.128827,0.0,10,0.5,0.5,0.5607756248474121,-0.15025,-0.02275,-0.5,-0.11581734112017916,10,1,100,-0.07670879574561548,-10,-1,-100,18864.34850877698,-0.0014779332740372487,-0.010371692122089831,0.9999451203519932,73.39423082458431,4.503174756591085,490.9506442684692,-116.36587845799635,-104.5912094116211,4761.76025390625,True
1599387674.167724,0.0,10,0.5,0.5,-2.185136294746399,-0.15025,-0.02275,-0.5,-0.10423103730811724,10,1,100,-0.13173665587833253,-10,-1,-100,18857.344760862645,-9.760251519844835e-05,-0.010286952672194783,0.9999470831391375,71.50620004591055,4.389764738937762,480.7704429393857,-116.91076597124135,-96.75863647460938,4761.76025390625,True
1599387674.2086134,0.0,10,0.5,0.5,-1.9769844438552857,-0.15025,-0.02275,-0.5,-0.10027384784464355,10,1,100,-0.09338190587100136,-10,-1,-100,18852.657429546467,0.0008005028869562232,-0.01017267211072266,0.9999479366133296,70.01535890456815,4.29950916133679,472.34919718379837,-117.27412379846686,-91.19056701660156,4761.76025390625,True
1599387674.2475102,0.0,10,0.5,0.5,-1.1476248487472533,-0.15025,-0.02275,-0.5,-0.10348165301791395,10,1,100,-0.052366169786433485,-10,-1,-100,18850.30831296544,0.001235616237773977,-0.010096948505460604,0.9999482611032388,69.22051880698352,4.251156818784205,467.7798395979133,-117.45583560548269,-88.33380126953125,4761.76025390625,True
1599387674.2854083,0.0,10,0.5,0.5,-3.4574299623489377,-0.15025,-0.02275,-0.5,-0.09157265100221668,10,1,100,-0.09931275212544022,-10,-1,-100,18845.599174671457,0.0020503027591492226,-0.00991931344628677,0.9999487004238518,67.5205289274919,4.147209661587012,457.83944152417143,-117.81932613495508,-82.72836303710938,4761.76025390625,True
1599387674.3223107,0.0,10,0.5,0.5,-5.903202673149108,-0.15025,-0.02275,-0.5,-0.07159831568784339,10,1,100,-0.14603172975229797,-10,-1,-100,18838.508204120793,0.003207246041355947,-0.00957587188544079,0.9999490068250799,68.67828790621334,4.217823378313273,468.0514063532403,-118.36456195980584,-74.81988525390625,4761.76025390625,True
1599387674.3622036,0.0,10,0.5,0.5,-2.0568747213363645,-0.15025,-0.02275,-0.5,-0.105901228158843,10,1,100,-0.031190281069164556,-10,-1,-100,18838.508204120793,0.003207246041355947,-0.00957587188544079,0.9999490068250799,68.67828790621334,4.217823378313273,468.0514063532403,-118.36456195980584,-74.81988525390625,4761.76025390625,True
1599387674.400102,0.0,10,0.5,0.5,-8.340241416549683,-0.15025,-0.02275,-0.5,-0.04650751002066806,10,1,100,-0.17683782048202543,-10,-1,-100,18829.00270835543,0.004524457254537505,-0.009036486814527773,0.9999489342924481,71.86365190038921,4.411336248688042,493.05034780700527,-119.0911169664083,-65.30892944335938,4761.76025390625,True
1599387674.4398096,0.0,10,0.5,0.5,-6.507229361915588,-0.15025,-0.02275,-0.5,-0.06443693595259742,10,1,100,-0.11226071555716563,-10,-1,-100,18824.228169397567,0.005126802611892853,-0.008710179702577429,0.9999489230278352,73.04412227524627,4.4825573892507995,502.81922123667107,-119.45424528908372,-60.9998779296875,4761.76025390625,True
1599387674.4797037,0.0,10,0.5,0.5,-7.080827415847778,-0.15025,-0.02275,-0.5,-0.06621079795486164,10,1,100,-0.10710199415423013,-10,-1,-100,18819.439107785583,0.0056197282482984105,-0.008431086221743912,0.9999486664021994,73.98914150348669,4.5393832011488255,511.0145538604273,-119.81729395934384,-56.989837646484375,4761.76025390625,True
1599387674.5185976,0.0,10,0.5,0.5,-5.195146135139465,-0.15025,-0.02275,-0.5,-0.09392856975408766,10,1,100,-0.05861691911219254,-10,-1,-100,18819.439107785583,0.0056197282482984105,-0.008431086221743912,0.9999486664021994,73.98914150348669,4.5393832011488255,511.0145538604273,-119.81729395934384,-56.989837646484375,4761.76025390625,True
1599387674.5585425,0.0,10,0.5,0.5,-7.7174884120941165,-0.15025,-0.02275,-0.5,-0.05943037720299291,10,1,100,-0.11000938462466937,-10,-1,-100,18814.63552625943,0.006080480060664258,-0.008119230476643365,0.9999485516058809,74.73299893661081,4.584033015330027,517.8581912219659,-120.18027700099697,-53.27734375,4761.76025390625,True
1599387674.5974398,0.0,10,0.5,0.5,-10.207086873245238,-0.15025,-0.02275,-0.5,-0.02237563284227117,10,1,100,-0.14492273361874403,-10,-1,-100,18804.984812124865,0.0068111229876921964,-0.007500834597995899,0.9999486717246943,75.73797185945267,4.64448286439191,528.2793124195762,-120.90609394626568,-46.746124267578125,4761.76025390625,True
1599387674.6358457,0.0,10,0.5,0.5,-7.98319645462036,-0.15025,-0.02275,-0.5,-0.06827507186571304,10,1,100,-0.08830789057243604,-10,-1,-100,18802.563061559107,0.006955199239023217,-0.007358353097177426,0.9999487386077563,75.90960121016846,4.654893674770825,530.34286760209,-121.08752454909894,-45.299591064453125,4761.76025390625,True
1599387674.677733,0.0,10,0.5,0.5,-9.889259423828126,-0.15025,-0.02275,-0.5,-0.03768831582789925,10,1,100,-0.11354171830857673,-10,-1,-100,18795.276039357996,0.007310376462378833,-0.006953252673733491,0.9999491040414176,76.28716181416425,4.678140821559474,535.5940759876123,-121.63177521438934,-41.406585693359375,4761.76025390625,True
1599387674.716628,0.0,10,0.5,0.5,-8.03676378173828,-0.15025,-0.02275,-0.5,-0.07790175209503739,10,1,100,-0.07855000334333809,-10,-1,-100,18795.276039357996,0.007310376462378833,-0.006953252673733491,0.9999491040414176,76.28716181416425,4.678140821559474,535.5940759876123,-121.63177521438934,-41.406585693359375,4761.76025390625,True
1599387674.7680376,0.0,10,0.5,0.5,-10.811074440765381,-0.15025,-0.02275,-0.5,-0.021471479330949075,10,1,100,-0.11087042848802817,-10,-1,-100,18785.50921694096,0.007600468390584176,-0.006442634393343331,0.9999503614391653,76.58108391729782,4.697200871139279,541.1596431451853,-122.35737100034231,-37.2569580078125,4761.76025390625,True
1599387674.8058984,0.0,10,0.5,0.5,-8.821716257476806,-0.15025,-0.02275,-0.5,-0.07221998362075532,10,1,100,-0.08230055790241664,-10,-1,-100,18785.50921694096,0.007600468390584176,-0.006442634393343331,0.9999503614391653,76.58108391729782,4.697200871139279,541.1596431451853,-122.35737100034231,-37.2569580078125,4761.76025390625,True
1599387674.844795,0.0,10,0.5,0.5,-9.944790313720702,-0.15025,-0.02275,-0.5,-0.04547395417523935,10,1,100,-0.08957649399369179,-10,-1,-100,18780.60403852735,0.007663816890381181,-0.00620184671876699,0.9999514003230096,76.68351077617028,4.70431959375336,543.6389596302453,-122.72014516936339,-35.627960205078125,4761.76025390625,True
1599387674.8816965,0.0,10,0.5,0.5,-10.053768964385986,-0.15025,-0.02275,-0.5,-0.04801114366204216,10,1,100,-0.08634408370918122,-10,-1,-100,18775.68434985308,0.007689714510993372,-0.006008294494471988,0.9999523832103242,76.77842196371728,4.711145706125009,546.0710868753605,-123.08290552291022,-34.296539306640625,4761.76025390625,True
1599387674.9195943,0.0,10,0.5,0.5,-10.112617523956299,-0.15025,-0.02275,-0.5,-0.04482814871780061,10,1,100,-0.08007518668948213,-10,-1,-100,18770.750151095097,0.007654386023859286,-0.005805604147190037,0.9999538516027047,76.87861566933536,4.718431944407249,548.5468593799006,-123.4456520187637,-33.26165771484375,4761.76025390625,True
1599387674.9535038,0.0,10,0.5,0.5,-10.296530949401856,-0.15025,-0.02275,-0.5,-0.03719001556010498,10,1,100,-0.06979660263535833,-10,-1,-100,18763.32164786046,0.007526977855267573,-0.005554289422840625,0.9999562462794928,77.06241732788634,4.731608038497233,552.5123565239957,-123.98974316340882,-32.266082763671875,4761.76025390625,True
1599387674.9902732,0.0,10,0.5,0.5,-9.846544092559814,-0.15025,-0.02275,-0.5,-0.06206499388966591,10,1,100,-0.08268206927399001,-10,-1,-100,18763.32164786046,0.007526977855267573,-0.005554289422840625,0.9999562462794928,77.06241732788634,4.731608038497233,552.5123565239957,-123.98974316340882,-32.266082763671875,4761.76025390625,True
1599387675.0281718,0.0,10,0.5,0.5,-10.070088336944579,-0.15025,-0.02275,-0.5,-0.04544648086217801,10,1,100,-0.06707746238384833,-10,-1,-100,18758.351176880184,0.00738446701547758,-0.005404981618204512,0.9999581270336295,77.21759611711255,4.742484062287846,555.399764759599,-124.35244922142343,-31.97296142578125,4761.76025390625,True
1599387675.0640755,0.0,10,0.5,0.5,-9.951781968688964,-0.15025,-0.02275,-0.5,-0.04534640956150695,10,1,100,-0.061552347562437874,-10,-1,-100,18753.366198012838,0.007204293146586169,-0.005270113303510103,0.9999601612394496,77.40384555413155,4.755309500189262,558.5199500688092,-124.7151357175257,-31.97613525390625,4761.76025390625,True
1599387675.101976,0.0,10,0.5,0.5,-9.780212508392333,-0.15025,-0.02275,-0.5,-0.045516006324546755,10,1,100,-0.05366274887115367,-10,-1,-100,18748.366712421062,0.0069688715352330234,-0.005150577660152114,0.9999624524847381,77.62238413021605,4.770135848615538,561.8838037923039,-125.07780029496553,-32.275421142578125,4761.76025390625,True
1599387675.141868,0.0,10,0.5,0.5,-9.563610243988036,-0.15025,-0.02275,-0.5,-0.045426677997763336,10,1,100,-0.04791184535431009,-10,-1,-100,18743.352720913826,0.006702881406510809,-0.0050427356132318945,0.9999648204803933,77.87368299942766,4.7869683251860256,565.4969055044493,-125.440440549376,-32.87060546875,4761.76025390625,True
1599387675.1817617,0.0,10,0.5,0.5,-9.291893700408934,-0.15025,-0.02275,-0.5,-0.04535239857224782,10,1,100,-0.0403355906795822,-10,-1,-100,18738.32422480907,0.006393013144251337,-0.004945294756508928,0.999967336187892,78.15344727212619,4.805517550281944,569.3301723945282,-125.80305441160657,-33.761474609375,4761.76025390625,True
1599387675.2206573,0.0,10,0.5,0.5,-8.973902382659912,-0.15025,-0.02275,-0.5,-0.04504115614461404,10,1,100,-0.03287864593415067,-10,-1,-100,18733.28122472565,0.006044622003826378,-0.004855243900724864,0.9999699441240698,78.4555281068274,4.825377196662045,573.3405875210871,-126.16564004833876,-34.94775390625,4761.76025390625,True
1599387675.2595534,0.0,10,0.5,0.5,-8.605259841918945,-0.15025,-0.02275,-0.5,-0.04459151233716462,10,1,100,-0.025127729552177305,-10,-1,-100,18728.223722201074,0.005658911904409889,-0.0047705159997789405,0.9999726090714456,78.77102031889332,4.8459677602046165,577.4643882389727,-126.52819625317946,-36.429229736328125,4761.76025390625,True
1599387675.2944605,0.0,10,0.5,0.5,-8.186003590393065,-0.15025,-0.02275,-0.5,-0.04382916755635467,10,1,100,-0.017180795460913827,-10,-1,-100,18723.151718595298,0.005237867688298489,-0.004687685481361368,0.9999752948682822,79.08869206878691,4.866562706809295,581.6199224210052,-126.8907226873949,-38.2056884765625,4761.76025390625,True
1599387675.3353508,0.0,10,0.5,0.5,-6.971005149841309,-0.15025,-0.02275,-0.5,-0.038010562578809304,10,1,100,0.017336010364305147,-10,-1,-100,18715.516525021754,0.0045435079100911895,-0.004560504890882097,0.9999792789508247,79.53753768194704,4.895424383769342,587.6786446096779,-127.43445833333124,-41.422882080078125,4761.76025390625,True
1599387675.3752437,0.0,10,0.5,0.5,-8.558770233154297,-0.15025,-0.02275,-0.5,-0.05062924317354052,10,1,100,-0.05180162046190714,-10,-1,-100,18715.516525021754,0.0045435079100911895,-0.004560504890882097,0.9999792789508247,79.53753768194704,4.895424383769342,587.6786446096779,-127.43445833333124,-41.422882080078125,4761.76025390625,True
1599387675.4151368,0.0,10,0.5,0.5,-6.904018699645995,-0.15025,-0.02275,-0.5,-0.04045880394011342,10,1,100,0.0035751099338221654,-10,-1,-100,18710.4082727395,0.004042795333716538,-0.004468949792879995,0.9999818419819624,79.79280844241306,4.911682428679722,591.4110086713134,-127.79691622978612,-43.935638427734375,4761.76025390625,True
1599387675.454033,0.0,10,0.5,0.5,-4.2917497383117675,-0.15025,-0.02275,-0.5,-0.02665958659787863,10,1,100,0.07352282556175516,-10,-1,-100,18700.14827605826,0.0029547516419236104,-0.004261121393244426,0.9999865560532335,80.10024130863401,4.930872632037649,597.4017763944479,-128.5217742361915,-49.84326171875,4761.76025390625,True
1599387675.4939258,0.0,10,0.5,0.5,-6.125238317108154,-0.15025,-0.02275,-0.5,-0.040448576794814214,10,1,100,-0.003859948266502107,-10,-1,-100,18697.57421612728,0.0026729639946457082,-0.004198458206193565,0.9999876140293809,80.1180509054587,4.93184759451552,598.4642556018853,-128.7029817525343,-51.503662109375,4761.76025390625,True
1599387675.532823,0.0,10,0.5,0.5,-4.609228230285644,-0.15025,-0.02275,-0.5,-0.03151253949024016,10,1,100,0.03141236266424964,-10,-1,-100,18692.415224376833,0.0021000414046049515,-0.0040611205328820715,0.9999895485084414,80.05838283885592,4.927705583302029,599.8786082698487,-129.06539604324124,-55.0445556640625,4761.76025390625,True
1599387675.5707202,0.0,10,0.5,0.5,-5.1064782791137695,-0.15025,-0.02275,-0.5,-0.036895259891157065,10,1,100,0.0063044121397796485,-10,-1,-100,18689.83029190777,0.0018116411820648143,-0.003986094301771185,0.9999904144582812,79.97264487692459,4.922086703577983,600.1664216131627,-129.24660567842093,-56.92498779296875,4761.76025390625,True
1599387675.6116116,0.0,10,0.5,0.5,-0.6265773071289065,-0.15025,-0.02275,-0.5,-0.008249719549890296,10,1,100,0.11283405111099223,-10,-1,-100,18679.454319368815,0.0005851727818011082,-0.0036583466344358977,0.9999931370128087,79.16795325388192,4.870667447153262,597.8208266851813,-129.97150004827304,-65.17938232421875,4761.76025390625,True
1599387675.6507876,0.0,10,0.5,0.5,-4.6849976181030275,-0.15025,-0.02275,-0.5,-0.04090479655679015,10,1,100,-0.009266843993175832,-10,-1,-100,18679.454319368815,0.0005851727818011082,-0.0036583466344358977,0.9999931370128087,79.16795325388192,4.870667447153262,597.8208266851813,-129.97150004827304,-65.17938232421875,4761.76025390625,True
