Timestamp,Input Throttle,horizon,dT,dt,Input Roll,Roll P,Roll I,Roll D,Input Pitch,Pitch P,Pitch I,Pitch D,Input Yaw,Yaw P,Yaw I,Yaw D,Altitude,Direction X,Direction Y,Direction Z,Drag X,Drag Y,Drag Z,Vertical Velocity,Roll,Mass,Has Fuel
1599388631.4011726,0.0,10,0.5,0.5,-11.215177795410156,-0.2,-0.03,-0.12575,-0.0001574549224380294,10,1,100,0.49818664954551095,-10,-1,-100,19348.346773871337,-0.04884797486825362,-0.00017431044783255904,0.998806209916187,61.16632567823276,3.6919026879157952,234.71015978833628,-68.8481170877594,-33.9227294921875,4761.76025390625,True
1599388631.4373507,0.0,10,0.5,0.5,-11.38291050720215,-0.2,-0.03,-0.12575,0.00014093870116748297,10,1,100,0.5048506764038095,-10,-1,-100,19345.581901810365,-0.048952394234021326,-0.00015702431852095605,0.9988011005411039,61.34626967348664,3.70411876390112,236.6960756887096,-69.2130202096724,-33.92510986328125,4761.76025390625,True
1599388631.4772444,0.0,10,0.5,0.5,-11.536582504272461,-0.2,-0.03,-0.12575,0.011094805113441459,10,1,100,0.5044526380782426,-10,-1,-100,19342.802433775156,-0.04899920022336498,-4.1586302381989054e-05,0.9987988169036096,61.527303769844515,3.7164156812594116,238.69453083121792,-69.57790959913024,-33.970703125,4761.76025390625,True
1599388631.5166569,0.0,10,0.5,0.5,-11.618547973632813,-0.2,-0.03,-0.12575,0.023825291465941277,10,1,100,0.5028123944313846,-10,-1,-100,19340.00837097154,-0.04898229508941199,0.00017912684849650837,0.9987996308976822,61.71789609427128,3.729297783507645,240.73861558842557,-69.94278462426391,-34.252685546875,4761.76025390625,True
1599388631.5555525,0.0,10,0.5,0.5,-11.82124920654297,-0.2,-0.03,-0.12575,0.0017718890629411842,10,1,100,0.5094011373356251,-10,-1,-100,19340.00837097154,-0.04898229508941199,0.00017912684849650837,0.9987996308976822,61.71789609427128,3.729297783507645,240.73861558842557,-69.94278462426391,-34.252685546875,4761.76025390625,True
1599388631.594448,0.0,10,0.5,0.5,-11.523903732299805,-0.2,-0.03,-0.12575,0.08691546234643627,10,1,100,0.4852631225512988,-10,-1,-100,19334.37646225642,-0.048718329232200465,0.000952996490302376,0.9988121025470771,62.13618806734738,3.7572521319449583,244.9991567951532,-70.67248624167654,-35.67889404296875,4761.76025390625,True
1599388631.6343453,0.0,10,0.5,0.5,-11.49081690979004,-0.2,-0.03,-0.12575,0.07706464554802187,10,1,100,0.48557555841920363,-10,-1,-100,19331.538617796265,-0.04843691120695985,0.0015660951060582134,0.9988250161959541,62.35391910798114,3.771674936214849,247.17756731641995,-71.03731033730584,-36.831298828125,4761.76025390625,True
1599388631.6752322,0.0,10,0.5,0.5,-11.795237915039063,-0.2,-0.03,-0.12575,0.015911393483043944,10,1,100,0.518561052063961,-10,-1,-100,19331.538617796265,-0.04843691120695985,0.0015660951060582134,0.9988250161959541,62.35391910798114,3.771674936214849,247.17756731641995,-71.03731033730584,-36.831298828125,4761.76025390625,True
1599388631.7141278,0.0,10,0.5,0.5,-10.9169129486084,-0.2,-0.03,-0.12575,0.1907333831839242,10,1,100,0.41946574795910274,-10,-1,-100,19325.819152361597,-0.047492011250363904,0.003153962198697072,0.9988666384407102,62.75972653103311,3.798441463861597,251.44470397084356,-71.76690217277769,-40.01727294921875,4761.76025390625,True
1599388631.753024,0.0,10,0.5,0.5,-10.80525104522705,-0.2,-0.03,-0.12575,0.14353775017131773,10,1,100,0.4471970521726595,-10,-1,-100,19322.937532969867,-0.04684193949971777,0.004165559289891705,0.9988936283807736,62.9204600316531,3.809066517799342,253.42202657194224,-72.13167134787216,-42.050262451171875,4761.76025390625,True
1599388631.794912,0.0,10,0.5,0.5,-10.446491203308106,-0.2,-0.03,-0.12575,0.15709913630319391,10,1,100,0.42751224510387165,-10,-1,-100,19320.041323265294,-0.04602942880805075,0.005204691465549436,0.998926525261169,63.0314814405075,3.8165010655207787,255.20538401279066,-72.49642510856829,-44.37799072265625,4761.76025390625,True
1599388631.8343155,0.0,10,0.5,0.5,-10.70783724975586,-0.2,-0.03,-0.12575,0.05372381892875907,10,1,100,0.5084814596645537,-10,-1,-100,19320.041323265294,-0.04602942880805075,0.005204691465549436,0.998926525261169,63.0314814405075,3.8165010655207787,255.20538401279066,-72.49642510856829,-44.37799072265625,4761.76025390625,True
1599388631.8772006,0.0,10,0.5,0.5,-8.873003814697267,-0.2,-0.03,-0.12575,0.31702051605183834,10,1,100,0.28359126964951237,-10,-1,-100,19314.205134839518,-0.04398762977648307,0.007593423515955547,0.9990032173851866,63.0192977360612,3.8165240849138558,257.82972240298653,-73.22590095159924,-49.91436767578125,4761.76025390625,True
1599388631.9179327,0.0,10,0.5,0.5,-9.521372222900391,-0.2,-0.03,-0.12575,0.07891081199306096,10,1,100,0.48727001576159173,-10,-1,-100,19314.205134839518,-0.04398762977648307,0.007593423515955547,0.9990032173851866,63.0192977360612,3.8165240849138558,257.82972240298653,-73.22590095159924,-49.91436767578125,4761.76025390625,True
1599388631.9568648,0.0,10,0.5,0.5,-7.287533821105956,-0.2,-0.03,-0.12575,0.36165011481205284,10,1,100,0.1945704057656481,-10,-1,-100,19308.3105890007,-0.04133126483589534,0.010157040544612328,0.9990938700014329,62.53770812378135,3.78712499630067,258.51588692365857,-73.95537377446132,-56.627655029296875,4761.76025390625,True
1599388631.998716,0.0,10,0.5,0.5,-6.827752883911134,-0.2,-0.03,-0.12575,0.2612942494710964,10,1,100,0.28574281427566617,-10,-1,-100,19305.341431151843,-0.03975218317659167,0.011566204600567875,0.9991426258767226,62.05424009133296,3.7573785662512367,257.83700291724506,-74.32012879277644,-60.424591064453125,4761.76025390625,True
1599388632.0416012,0.0,10,0.5,0.5,-5.897332084655763,-0.2,-0.03,-0.12575,0.2545114889121043,10,1,100,0.2577425223667952,-10,-1,-100,19302.35768240469,-0.038070257329012785,0.012775953002618202,0.9991933899560071,61.372118171441294,3.7154304904342195,256.3093304687597,-74.68490939443866,-64.5186767578125,4761.76025390625,True
1599388632.0814962,0.0,10,0.5,0.5,-6.3291012268066416,-0.2,-0.03,-0.12575,0.13465763449672755,10,1,100,0.42489844173688873,-10,-1,-100,19302.35768240469,-0.038070257329012785,0.012775953002618202,0.9991933899560071,61.372118171441294,3.7154304904342195,256.3093304687597,-74.68490939443866,-64.5186767578125,4761.76025390625,True
1599388632.122419,0.0,10,0.5,0.5,-3.2911263275146485,-0.2,-0.03,-0.12575,0.4034598362278111,10,1,100,0.004451102330507939,-10,-1,-100,19296.346406385186,-0.03425743301975291,0.015209418602085726,0.9992973040435381,59.294326604222654,3.5881835382829426,250.1613480844712,-75.41459066370466,-73.58978271484375,4761.76025390625,True
1599388632.1653118,0.0,10,0.5,0.5,-2.709607376098633,-0.2,-0.03,-0.12575,0.28894139946753394,10,1,100,0.14785403352633936,-10,-1,-100,19293.31887517427,-0.03210692354787023,0.016369623852505146,0.9993503794341695,57.84367217442611,3.499815025459952,245.27748573255369,-75.77951230510445,-78.5675048828125,4761.76025390625,True
1599388632.207159,0.0,10,0.5,0.5,-3.2260042114257814,-0.2,-0.03,-0.12575,0.1741412808818532,10,1,100,0.36143147911942264,-10,-1,-100,19293.31887517427,-0.03210692354787023,0.016369623852505146,0.9993503794341695,57.84367217442611,3.499815025459952,245.27748573255369,-75.77951230510445,-78.5675048828125,4761.76025390625,True
1599388632.2469707,0.0,10,0.5,0.5,0.40916442108154305,-0.2,-0.03,-0.12575,0.37709877696901667,10,1,100,-0.12121243947185156,-10,-1,-100,19287.220013225917,-0.02773190838364063,0.01820454206021849,0.9994496164918867,54.00341101030358,3.267348309209702,231.30638319311598,-76.5095594348506,-89.41201782226562,4761.76025390625,True
1599388632.2888598,0.0,10,0.5,0.5,1.0910473194122314,-0.2,-0.03,-0.12575,0.2832418914424257,10,1,100,0.04949576269529904,-10,-1,-100,19284.148677276913,-0.02532314872715546,0.019007587061902823,0.9994985991849247,52.829314269132645,3.197049130406096,227.41013216428112,-76.87467079837072,-95.2768783569336,4761.76025390625,True
1599388632.3307464,0.0,10,0.5,0.5,0.4896286392211915,-0.2,-0.03,-0.12575,0.20407880762858718,10,1,100,0.2885052802388831,-10,-1,-100,19284.148677276913,-0.02532314872715546,0.019007587061902823,0.9994985991849247,52.829314269132645,3.197049130406096,227.41013216428112,-76.87467079837072,-95.2768783569336,4761.76025390625,True
1599388632.372634,0.0,10,0.5,0.5,4.443961374282837,-0.2,-0.03,-0.12575,0.33102781213734467,10,1,100,-0.21997450634670979,-10,-1,-100,19277.96220157505,-0.020717572922785824,0.020151292408758847,0.9995822665426021,56.354964550935435,3.4136471741496703,245.00230267342465,-77.60465302959597,-106.99827575683594,4761.76025390625,True
1599388632.4137306,0.0,10,0.5,0.5,4.936630920410156,-0.2,-0.03,-0.12575,0.2600852056945768,10,1,100,-0.030086336942559078,-10,-1,-100,19274.847069428884,-0.018275681633317623,0.02053700607290812,0.9996220439958289,57.764995501333246,3.5011516656434907,252.36895596072014,-77.9695063385761,-112.57164001464844,4761.76025390625,True
1599388632.4546201,0.0,10,0.5,0.5,4.3922215118408205,-0.2,-0.03,-0.12575,0.22241091942688357,10,1,100,0.2119551418499336,-10,-1,-100,19274.847069428884,-0.018275681633317623,0.02053700607290812,0.9996220439958289,57.764995501333246,3.5011516656434907,252.36895596072014,-77.9695063385761,-112.57164001464844,4761.76025390625,True
1599388632.4945526,0.0,10,0.5,0.5,7.924864349365235,-0.2,-0.03,-0.12575,0.2768961862683077,10,1,100,-0.28241518801018917,-10,-1,-100,19268.57303348661,-0.013799400976130775,0.021025271177766258,0.999683707231743,59.985999277025925,3.6399858616227463,264.63699611951233,-78.69897318561834,-122.97373962402344,4761.76025390625,True
1599388632.536413,0.0,10,0.5,0.5,6.792165512084961,-0.2,-0.03,-0.12575,0.22889460760000874,10,1,100,0.16278579207320742,-10,-1,-100,19268.57303348661,-0.013799400976130775,0.021025271177766258,0.999683707231743,59.985999277025925,3.6399858616227463,264.63699611951233,-78.69897318561834,-122.97373962402344,4761.76025390625,True
1599388632.577293,0.0,10,0.5,0.5,8.492968254089355,-0.2,-0.03,-0.12575,0.23389557914374015,10,1,100,-0.09011230262151024,-10,-1,-100,19265.414134810562,-0.011518925598945726,0.02106544741673138,0.999711739091914,60.633068930499924,3.681029513453606,268.78653945095687,-79.06361641327939,-127.74012756347656,4761.76025390625,True
1599388632.6171856,0.0,10,0.5,0.5,9.497190883636474,-0.2,-0.03,-0.12575,0.23811235514244417,10,1,100,-0.08709650852034581,-10,-1,-100,19262.2406516755,-0.00949189883692347,0.021136036667084048,0.9997315498725031,61.009086514356525,3.7053079797098256,271.7559793186592,-79.42822143966131,-132.21005249023438,4761.76025390625,True
1599388632.6590748,0.0,10,0.5,0.5,11.720689884185793,-0.2,-0.03,-0.12575,0.20370389269282796,10,1,100,-0.33721613512236953,-10,-1,-100,19255.849935712642,-0.0053958915611675195,0.020883071406213073,0.9997673637816465,61.13369365146715,3.714724607810621,274.92182249524586,-80.15737220554023,-140.26734924316406,4761.76025390625,True
1599388632.6999636,0.0,10,0.5,0.5,12.02803077697754,-0.2,-0.03,-0.12575,0.20823846055581333,10,1,100,-0.13810302629950327,-10,-1,-100,19252.632703425246,-0.003502673224163142,0.02069189130477024,0.9997797642053554,60.95817840637447,3.7045065888206494,275.4349812482487,-80.52193984695332,-143.8528594970703,4761.76025390625,True
1599388632.7408552,0.0,10,0.5,0.5,11.72288080596924,-0.2,-0.03,-0.12575,0.2275249011243833,10,1,100,0.049036759850635214,-10,-1,-100,19252.632703425246,-0.003502673224163142,0.02069189130477024,0.9997797642053554,60.95817840637447,3.7045065888206494,275.4349812482487,-80.52193984695332,-143.8528594970703,4761.76025390625,True
1599388632.7827427,0.0,10,0.5,0.5,13.915103698730467,-0.2,-0.03,-0.12575,0.1901654935033565,10,1,100,-0.3313896535668291,-10,-1,-100,19246.154490216635,-6.40880799161868e-05,0.020350729140721936,0.9997929004129602,60.32530965451265,3.666234218594136,275.155928283012,-81.25109519704864,-150.13526916503906,4761.76025390625,True
1599388632.8236337,0.0,10,0.5,0.5,13.254501663208007,-0.2,-0.03,-0.12575,0.22430165358138332,10,1,100,0.010403512373579468,-10,-1,-100,19246.154490216635,-6.40880799161868e-05,0.020350729140721936,0.9997929004129602,60.32530965451265,3.666234218594136,275.155928283012,-81.25109519704864,-150.13526916503906,4761.76025390625,True
1599388632.867516,0.0,10,0.5,0.5,14.246318912506103,-0.2,-0.03,-0.12575,0.19543616459544463,10,1,100,-0.16705767164812096,-10,-1,-100,19242.893508497393,0.001532639417050725,0.020088484947151753,0.9997970312963254,59.93080592767061,3.642114281423573,274.63985610348374,-81.61569015862167,-152.83404541015625,4761.76025390625,True
1599388632.9094043,0.0,10,0.5,0.5,14.809687114715576,-0.2,-0.03,-0.12575,0.21017545348513145,10,1,100,-0.16743310639619374,-10,-1,-100,19239.617942434037,0.0029696153474118806,0.019984482416653973,0.9997958800911447,59.51575964018877,3.6166536729516414,274.01335771581574,-81.98029882197612,-155.23451232910156,4761.76025390625,True
1599388632.9494636,0.0,10,0.5,0.5,15.291068599700928,-0.2,-0.03,-0.12575,0.19090307066077125,10,1,100,-0.17913385621349243,-10,-1,-100,19236.327791589196,0.004367082994876062,0.019715677353035546,0.9997960895365748,59.10877269255835,3.591631024346001,273.40736882174093,-82.34492053616324,-157.34182739257812,4761.76025390625,True
1599388632.9903522,0.0,10,0.5,0.5,15.718734992980957,-0.2,-0.03,-0.12575,0.2006518643649879,10,1,100,-0.18080427779667707,-10,-1,-100,19233.023055444355,0.005636178794262445,0.019561125050534155,0.9997927764668818,58.723029449181496,3.5678781849740204,272.88361175445004,-82.70955396854866,-159.15167236328125,4761.76025390625,True
1599388633.0322998,0.0,10,0.5,0.5,16.47555751800537,-0.2,-0.03,-0.12575,0.1833941655473762,10,1,100,-0.30369380210773284,-10,-1,-100,19226.369826451875,0.007891484192538566,0.019265102352069328,0.9997832666676328,58.08664801953279,3.528592883545792,272.42269234200614,-83.43884664959754,-161.88436889648438,4761.76025390625,True
1599388633.0731876,0.0,10,0.5,0.5,16.521403717041014,-0.2,-0.03,-0.12575,0.20183032467971446,10,1,100,-0.18749215351940915,-10,-1,-100,19223.02133257466,0.008869580128323494,0.0191652931040453,0.9997769861767087,57.86011014202608,3.5145435378888576,272.60472090514406,-83.80349961981752,-162.80673217773438,4761.76025390625,True
1599388633.1130817,0.0,10,0.5,0.5,16.676767608642578,-0.2,-0.03,-0.12575,0.21123231762287753,10,1,100,-0.18707508228692293,-10,-1,-100,19219.658252803492,0.009741998084478563,0.019161591703781455,0.9997689367432355,57.70675973370829,3.504959983998999,273.1240949914197,-84.16815217570486,-163.43215942382812,4761.76025390625,True
1599388633.1549706,0.0,10,0.5,0.5,16.656858032226562,-0.2,-0.03,-0.12575,0.2114494276891631,10,1,100,-0.10115775380228026,-10,-1,-100,19219.658252803492,0.009741998084478563,0.019161591703781455,0.9997689367432355,57.70675973370829,3.504959983998999,273.1240949914197,-84.16815217570486,-163.43215942382812,4761.76025390625,True
1599388633.194862,0.0,10,0.5,0.5,16.823138763427735,-0.2,-0.03,-0.12575,0.21072907643064298,10,1,100,-0.18822927676683154,-10,-1,-100,19216.2805871889,0.010521516773875719,0.01915643423743217,0.9997611358279956,57.63427251037596,3.500305890198508,274.02196348683475,-84.53280044600481,-163.76229858398438,4761.76025390625,True
1599388633.2357922,0.0,10,0.5,0.5,16.833519592285157,-0.2,-0.03,-0.12575,0.21811379519064814,10,1,100,-0.18531282716608308,-10,-1,-100,19212.88833554904,0.0111940336725447,0.019219965161208587,0.9997526126744255,57.643325281704236,3.500617686674342,275.3067186966134,-84.89744027255476,-163.79611206054688,4761.76025390625,True
1599388633.277678,0.0,10,0.5,0.5,16.785064781188964,-0.2,-0.03,-0.12575,0.21975424054748308,10,1,100,-0.18323417888604956,-10,-1,-100,19209.481498972047,0.011776281212650322,0.019293661653321567,0.9997445042713703,57.73423342962131,3.505908636700257,276.9850851825391,-85.26206772558629,-163.53460693359375,4761.76025390625,True
1599388633.661651,0.0,10,0.5,0.5,16.668362201690677,-0.2,-0.03,-0.12575,0.2285776731492605,10,1,100,-0.1778647179533008,-10,-1,-100,19206.060077599715,0.012247471475361718,0.019441594054616644,0.9997359770774862,57.90346117683256,3.515958422740402,279.04525903570146,-85.62667895535971,-162.9768524169922,4761.76025390625,True
1599388633.6969392,0.0,10,0.5,0.5,16.63481378555298,-0.2,-0.03,-0.12575,0.22260113485032318,10,1,100,-0.15343429923864615,-10,-1,-100,19204.343897943385,0.012445297129395263,0.01952223942431459,0.9997319624515467,58.017073789131686,3.5227440073514087,280.2182955739714,-85.80897718446211,-162.58724975585938,4761.76025390625,True
1599388633.7338402,0.0,10,0.5,0.5,16.373539089202882,-0.2,-0.03,-0.12575,0.23509432024175253,10,1,100,-0.1695221435977846,-10,-1,-100,19200.900601300644,0.012764047932568363,0.0197093036620791,0.9997242732021321,58.299133422595546,3.5396436301075984,282.8380170769925,-86.17355683322685,-161.5864715576172,4761.76025390625,True
1599388633.7727032,0.0,10,0.5,0.5,16.084487812042237,-0.2,-0.03,-0.12575,0.24024847714171155,10,1,100,-0.16173695859279263,-10,-1,-100,19197.442721965373,0.01297656709982734,0.01992608332403597,0.9997172399782187,58.648323238053855,3.560619551116003,285.79733929343837,-86.5381106664448,-160.29037475585938,4761.76025390625,True
1599388633.8156178,0.0,10,0.5,0.5,15.429070526123049,-0.2,-0.03,-0.12575,0.26090614058256933,10,1,100,-0.15350555813391084,-10,-1,-100,19192.228563701734,0.013090312626884495,0.020310351792575496,0.9997080240377149,59.276151078702746,3.598417286557084,290.7753952818553,-87.0848863234718,-157.79269409179688,4761.76025390625,True
1599388633.8754299,0.0,10,0.5,0.5,15.728111755371094,-0.2,-0.03,-0.12575,0.22259379959746967,10,1,100,-0.14255307867805145,-10,-1,-100,19192.228563701734,0.013090312626884495,0.020310351792575496,0.9997080240377149,59.276151078702746,3.598417286557084,290.7753952818553,-87.0848863234718,-157.79269409179688,4761.76025390625,True
1599388633.9243348,0.0,10,0.5,0.5,14.290202430725097,-0.2,-0.03,-0.12575,0.2861728717724936,10,1,100,-0.11563088319993961,-10,-1,-100,19185.22532549838,0.012842521472954019,0.020887299030449537,0.999699349995502,60.24126485729491,3.6567045868142585,298.1100465423646,-87.81380438771546,-153.43048095703125,4761.76025390625,True
1599388633.9632652,0.0,10,0.5,0.5,13.95429811859131,-0.2,-0.03,-0.12575,0.26258449167483755,10,1,100,-0.10970215760329918,-10,-1,-100,19181.701840937254,0.012560540624512785,0.021195787875513912,0.9996964396233269,60.74228569639525,3.68708161108233,301.9005410643564,-88.1782103481979,-150.80746459960938,4761.76025390625,True
1599388634.0021613,0.0,10,0.5,0.5,13.295107482910158,-0.2,-0.03,-0.12575,0.2633004592548127,10,1,100,-0.09219219219452357,-10,-1,-100,19178.163781090523,0.012143159236894943,0.02148088711844668,0.9996955112294703,61.22804118258394,3.7166581357127133,305.63656765616406,-88.5425809193848,-147.89059448242188,4761.76025390625,True
1599388634.0430224,0.0,10,0.5,0.5,13.614187347412111,-0.2,-0.03,-0.12575,0.23501662715725968,10,1,100,-0.1340252435127428,-10,-1,-100,19178.163781090523,0.012143159236894943,0.02148088711844668,0.9996955112294703,61.22804118258394,3.7166581357127133,305.63656765616406,-88.5425809193848,-147.89059448242188,4761.76025390625,True
1599388634.0819476,0.0,10,0.5,0.5,12.521287448883056,-0.2,-0.03,-0.12575,0.2660981460677568,10,1,100,-0.07714359918427963,-10,-1,-100,19174.6111475426,0.011625719853886874,0.021761457994482904,0.9996955944605506,61.675767808585455,3.744098765939094,309.20307500015207,-88.90691803908295,-144.6796417236328,4761.76025390625,True
1599388634.120852,0.0,10,0.5,0.5,11.728606666564941,-0.2,-0.03,-0.12575,0.26558573745153913,10,1,100,-0.05962807993390774,-10,-1,-100,19171.04394107696,0.010996653650350225,0.022009755199877613,0.9996972763214551,62.058941503622385,3.7678422442390387,312.4641717105147,-89.27122511051806,-141.1752166748047,4761.76025390625,True
1599388634.1577566,0.0,10,0.5,0.5,10.213434452056886,-0.2,-0.03,-0.12575,0.2768649043740855,10,1,100,0.0038170805605564906,-10,-1,-100,19165.66581043729,0.009849318045802729,0.022335756435190895,0.999702008059652,62.44867031894862,3.792739373712057,316.4501802078116,-89.8176421180731,-135.36825561523438,4761.76025390625,True
1599388634.1966531,0.0,10,0.5,0.5,10.865005157470703,-0.2,-0.03,-0.12575,0.24452742612006848,10,1,100,-0.11062500690551658,-10,-1,-100,19165.66581043729,0.009849318045802729,0.022335756435190895,0.999702008059652,62.44867031894862,3.792739373712057,316.4501802078116,-89.8176421180731,-135.36825561523438,4761.76025390625,True
1599388634.236504,0.0,10,0.5,0.5,7.934339401245118,-0.2,-0.03,-0.12575,0.26868109350113834,10,1,100,0.09256344720903611,-10,-1,-100,19158.44397288945,0.008004993234810454,0.022553144617645026,0.9997135968622045,62.451249368459706,3.7956395468506736,319.16506510067,-90.54616243054544,-126.60110473632812,4761.76025390625,True
1599388634.2794228,0.0,10,0.5,0.5,7.372204374313354,-0.2,-0.03,-0.12575,0.25147998088672735,10,1,100,0.02687453861529357,-10,-1,-100,19154.81119784515,0.006930129229662477,0.022592357584449527,0.9997207403508424,62.15099212667007,3.77921905604054,318.9773078310438,-90.9104340817561,-121.7782974243164,4761.76025390625,True
1599388634.3203127,0.0,10,0.5,0.5,7.870629203796387,-0.2,-0.03,-0.12575,0.24778688478546462,10,1,100,-0.07999584355978198,-10,-1,-100,19154.81119784515,0.006930129229662477,0.022592357584449527,0.9997207403508424,62.15099212667007,3.77921905604054,318.9773078310438,-90.9104340817561,-121.7782974243164,4761.76025390625,True
1599388634.3602064,0.0,10,0.5,0.5,6.109795125961305,-0.2,-0.03,-0.12575,0.23669804508152276,10,1,100,0.03834392136806483,-10,-1,-100,19151.163851679303,0.005859688086903225,0.02248999989754642,0.9997298955018462,61.6021803133142,3.7479029831515316,317.49761232624263,-91.2747327670462,-116.66432189941406,4761.76025390625,True
1599388634.4030561,0.0,10,0.5,0.5,3.033122510910034,-0.2,-0.03,-0.12575,0.20181809409876467,10,1,100,0.1940233221769619,-10,-1,-100,19143.825437049847,0.0034773841793481228,0.022078680435043945,0.9997501886318985,59.778935821028085,3.6412285496289427,310.70287797526635,-92.00347065009724,-105.5597152709961,4761.76025390625,True
1599388634.445944,0.0,10,0.5,0.5,2.351421586990357,-0.2,-0.03,-0.12575,0.20323566533930892,10,1,100,0.08902628838915416,-10,-1,-100,19140.13436436327,0.0022740498206031425,0.021717097213758828,0.9997615697685232,58.50790640960175,3.565700252527046,305.3739977344412,-92.3679316246337,-99.57011413574219,4761.76025390625,True
1599388634.4868648,0.0,10,0.5,0.5,2.959652488708496,-0.2,-0.03,-0.12575,0.23941760847735186,10,1,100,-0.03032023654371467,-10,-1,-100,19140.13436436327,0.0022740498206031425,0.021717097213758828,0.9997615697685232,58.50790640960175,3.565700252527046,305.3739977344412,-92.3679316246337,-99.57011413574219,4761.76025390625,True
1599388634.5277596,0.0,10,0.5,0.5,-1.3628927192687992,-0.2,-0.03,-0.12575,0.13161269356706704,10,1,100,0.23022395202613608,-10,-1,-100,19132.708474976593,-8.603219363797019e-05,0.020737092860738715,0.9997849596679013,57.11649660568601,3.4832759599200838,300.6115366860664,-93.0970330131894,-86.71603393554688,4761.76025390625,True
1599388634.57364,0.0,10,0.5,0.5,0.09013031768798818,-0.2,-0.03,-0.12575,0.2294858626351644,10,1,100,-0.00467598081357635,-10,-1,-100,19132.708474976593,-8.603219363797019e-05,0.020737092860738715,0.9997849596679013,57.11649660568601,3.4832759599200838,300.6115366860664,-93.0970330131894,-86.71603393554688,4761.76025390625,True
1599388634.6145234,0.0,10,0.5,0.5,-4.524729042053223,-0.2,-0.03,-0.12575,0.08539150592007516,10,1,100,0.24375158872228123,-10,-1,-100,19125.224269795464,-0.002335432507382638,0.019428597493851042,0.9998085193447921,62.0503898257396,3.784488130667937,329.2971241188799,-93.82581542467102,-72.99722290039062,4761.76025390625,True
1599388634.6564138,0.0,10,0.5,0.5,-4.089139938354493,-0.2,-0.03,-0.12575,0.17221845663883373,10,1,100,0.08228818656204126,-10,-1,-100,19123.344110945356,-0.0029014157270090776,0.019031035038615817,0.9998146835749803,63.05803400076511,3.8458430442569562,335.33460646888767,-94.0079349640858,-69.6129150390625,4761.76025390625,True
1599388634.6982682,0.0,10,0.5,0.5,-6.0224846115112305,-0.2,-0.03,-0.12575,0.1256196995817589,10,1,100,0.13971731237104232,-10,-1,-100,19119.572868321207,-0.003928113971331469,0.018249191478409504,0.9998257532845473,64.77589227550845,3.950418846861993,345.8866257883165,-94.37209474924254,-62.896240234375,4761.76025390625,True
1599388634.7383406,0.0,10,0.5,0.5,-8.482794494628907,-0.2,-0.03,-0.12575,0.06519983441403071,10,1,100,0.19524222122399426,-10,-1,-100,19113.888698446914,-0.0053563767801050296,0.016993101436793546,0.999841259266364,66.55622209707161,4.059178103313654,357.5748640634038,-94.91817562807952,-53.29290771484375,4761.76025390625,True
1599388634.7802289,0.0,10,0.5,0.5,-9.447180213928224,-0.2,-0.03,-0.12575,0.09679883197823519,10,1,100,0.14846192677336134,-10,-1,-100,19110.081051546033,-0.0062183525603390875,0.016143555246042402,0.9998503476598152,67.23344607896843,4.101165543880807,362.68244522597354,-95.28215913348788,-47.25592041015625,4761.76025390625,True
1599388634.8211176,0.0,10,0.5,0.5,-8.896254264831544,-0.2,-0.03,-0.12575,0.18111880658819915,10,1,100,0.06347215281467976,-10,-1,-100,19110.081051546033,-0.0062183525603390875,0.016143555246042402,0.9998503476598152,67.23344607896843,4.101165543880807,362.68244522597354,-95.28215913348788,-47.25592041015625,4761.76025390625,True
1599388634.861078,0.0,10,0.5,0.5,-12.71386343383789,-0.2,-0.03,-0.12575,-0.004504023562486442,10,1,100,0.23424825272166266,-10,-1,-100,19102.422082958394,-0.007762048253366489,0.014461470540298898,0.9998652991662049,67.55727677266684,4.123834237413311,367.38541117284694,-96.01006414230739,-36.07342529296875,4761.76025390625,True
1599388634.9020035,0.0,10,0.5,0.5,-11.498154739379883,-0.2,-0.03,-0.12575,0.16297888434451796,10,1,100,0.08088229322631946,-10,-1,-100,19102.422082958394,-0.007762048253366489,0.014461470540298898,0.9998652991662049,67.55727677266684,4.123834237413311,367.38541117284694,-96.01006414230739,-36.07342529296875,4761.76025390625,True
1599388634.943891,0.0,10,0.5,0.5,-13.364436096191408,-0.2,-0.03,-0.12575,0.06589700378754712,10,1,100,0.15559952722578946,-10,-1,-100,19098.570761449402,-0.008432172109658062,0.013585504014029581,0.9998721581053239,67.29763318927242,4.110095498569502,367.4490673411844,-96.37402561423339,-30.92901611328125,4761.76025390625,True
1599388634.9847472,0.0,10,0.5,0.5,-14.46440936279297,-0.2,-0.03,-0.12575,0.07031766393005306,10,1,100,0.16071961750751712,-10,-1,-100,19094.704880676698,-0.009080334490742453,0.012835860072213628,0.9998763864707191,66.82044622043149,4.0833355967174025,366.31159092620356,-96.73801362848602,-26.08013916015625,4761.76025390625,True
1599388635.0276692,0.0,10,0.5,0.5,-15.518818763732911,-0.2,-0.03,-0.12575,0.05283720355997776,10,1,100,0.15832797969094628,-10,-1,-100,19090.824439257034,-0.00963965421858025,0.012002635242460737,0.9998814998857528,66.17061981170477,4.0461356364435,364.20596130011353,-97.10203885526022,-21.529876708984375,4761.76025390625,True
1599388635.0675678,0.0,10,0.5,0.5,-16.48693408203125,-0.2,-0.03,-0.12575,0.054658056078018116,10,1,100,0.16323053549058425,-10,-1,-100,19086.929435557802,-0.010186055185964778,0.011268462203987011,0.999884626364115,65.39098413776647,4.000957239640725,361.3573952790154,-97.46610822776691,-17.275360107421875,4761.76025390625,True
1599388635.1084592,0.0,10,0.5,0.5,-18.590836578369142,-0.2,-0.03,-0.12575,-0.023937063154002,10,1,100,0.21655433432461402,-10,-1,-100,19079.09573409136,-0.011160922746206477,0.009893587969478559,0.9998887691741233,63.87378929375015,3.912585244410612,355.7995726340148,-98.19437637631432,-9.656341552734375,4761.76025390625,True
1599388635.1533387,0.0,10,0.5,0.5,-18.888650024414066,-0.2,-0.03,-0.12575,0.04532473771904469,10,1,100,0.16928081424792504,-10,-1,-100,19075.1570331892,-0.011610831428660963,0.009280951040143055,0.9998895201677662,63.2101480450274,3.87377144228048,353.50480999167104,-98.55856717386837,-6.291229248046875,4761.76025390625,True
1599388635.194178,0.0,10,0.5,0.5,-18.606492187500002,-0.2,-0.03,-0.12575,0.10581721561293006,10,1,100,0.12491539146733203,-10,-1,-100,19075.1570331892,-0.011610831428660963,0.009280951040143055,0.9998895201677662,63.2101480450274,3.87377144228048,353.50480999167104,-98.55856717386837,-6.291229248046875,4761.76025390625,True
1599388635.2346637,0.0,10,0.5,0.5,-20.63260012054443,-0.2,-0.03,-0.12575,-0.007850729023247432,10,1,100,0.22434587662781857,-10,-1,-100,19067.235924340668,-0.012509842676603275,0.00825384482000135,0.9998876826333516,61.86111177630171,3.7937568657613796,348.70953638038793,-99.28704355952875,-0.44866943359375,4761.76025390625,True
1599388635.2775488,0.0,10,0.5,0.5,-20.03831997680664,-0.2,-0.03,-0.12575,0.09407092194831897,10,1,100,0.13507390084521376,-10,-1,-100,19067.235924340668,-0.012509842676603275,0.00825384482000135,0.9998876826333516,61.86111177630171,3.7937568657613796,348.70953638038793,-99.28704355952875,-0.44866943359375,4761.76025390625,True
1599388635.3194377,0.0,10,0.5,0.5,-20.95213330078125,-0.2,-0.03,-0.12575,0.044624454749285114,10,1,100,0.18078502094320414,-10,-1,-100,19063.253514110693,-0.012921082137109336,0.007809974777937676,0.9998860184692923,61.22235252959069,3.7554094193070426,346.4712973073499,-99.6513229370063,2.02850341796875,4761.76025390625,True
1599388635.3593607,0.0,10,0.5,0.5,-22.080063491821292,-0.2,-0.03,-0.12575,0.014874854213731345,10,1,100,0.23477254819643295,-10,-1,-100,19055.24498446705,-0.013781041863613524,0.00714205245824963,0.9998795297293754,63.19398857918666,3.877158035596064,360.4448690244039,-100.37975859561604,6.096435546875,4761.76025390625,True
1599388635.400255,0.0,10,0.5,0.5,-21.6795973815918,-0.2,-0.03,-0.12575,0.0810227410269579,10,1,100,0.14931146252140978,-10,-1,-100,19055.24498446705,-0.013781041863613524,0.00714205245824963,0.9998795297293754,63.19398857918666,3.877158035596064,360.4448690244039,-100.37975859561604,6.096435546875,4761.76025390625,True
1599388635.4413967,0.0,10,0.5,0.5,-22.294306999206547,-0.2,-0.03,-0.12575,0.05428650597595678,10,1,100,0.19744676264754693,-10,-1,-100,19051.21886972594,-0.014214362130784888,0.006904171964707769,0.9998751343636346,64.03588603203886,3.9288755027733266,366.67474484175256,-100.74389765432322,7.687164306640625,4761.76025390625,True
1599388635.4822233,0.0,10,0.5,0.5,-22.92968366241455,-0.2,-0.03,-0.12575,0.04667368952305101,10,1,100,0.24945073479310192,-10,-1,-100,19043.122949077515,-0.015076894204161896,0.0066233445148958,0.9998644000906289,65.37823877798142,4.010903765911557,377.27933435883006,-101.47204422618921,9.982666015625,4761.76025390625,True
1599388635.5241125,0.0,10,0.5,0.5,-22.952517364501954,-0.2,-0.03,-0.12575,0.07114133170249057,10,1,100,0.2127499099821289,-10,-1,-100,19039.05314649723,-0.01552292419166106,0.006594702778233544,0.9998577642443983,65.89346849918722,4.0421918699294155,381.7245484867747,-101.83606216569832,10.6878662109375,4761.76025390625,True
1599388635.5650084,0.0,10,0.5,0.5,-22.924871063232423,-0.2,-0.03,-0.12575,0.07367561684959173,10,1,100,0.16858311137675788,-10,-1,-100,19039.05314649723,-0.01552292419166106,0.006594702778233544,0.9998577642443983,65.89346849918722,4.0421918699294155,381.7245484867747,-101.83606216569832,10.6878662109375,4761.76025390625,True
1599388635.604918,0.0,10,0.5,0.5,-23.10953604125977,-0.2,-0.03,-0.12575,0.0798057111903004,10,1,100,0.21896808027017214,-10,-1,-100,19034.968784175348,-0.01597741291545301,0.006652872952478086,0.9998502195619139,66.31363359966589,4.067584396689409,385.6409827311092,-102.20005001962825,11.098388671875,4761.76025390625,True
1599388635.6478024,0.0,10,0.5,0.5,-23.089344558715823,-0.2,-0.03,-0.12575,0.10737924596491634,10,1,100,0.27307235209085623,-10,-1,-100,19026.756383930217,-0.016878471879554824,0.006958812588912964,0.9998333321680986,66.88403383002799,4.101735621087471,391.9519756904248,-102.92795566964764,11.03472900390625,4761.76025390625,True
1599388635.6872053,0.0,10,0.5,0.5,-23.131799957275394,-0.2,-0.03,-0.12575,0.07665577909831964,10,1,100,0.18340331860096987,-10,-1,-100,19026.756383930217,-0.016878471879554824,0.006958812588912964,0.9998333321680986,66.88403383002799,4.101735621087471,391.9519756904248,-102.92795566964764,11.03472900390625,4761.76025390625,True
1599388635.729096,0.0,10,0.5,0.5,-22.89903335571289,-0.2,-0.03,-0.12575,0.12806902958778318,10,1,100,0.25874536479691557,-10,-1,-100,19020.558870710316,-0.017559428091151647,0.007427383077209077,0.9998182337133765,67.07124250225492,4.112638257556653,395.3043732204393,-103.47384374263596,10.21441650390625,4761.76025390625,True
1599388635.7703185,0.0,10,0.5,0.5,-22.543756996154787,-0.2,-0.03,-0.12575,0.15047432066831223,10,1,100,0.26513607215901136,-10,-1,-100,19014.32860479434,-0.018232359854118682,0.008057388523392833,0.9998013100333152,67.04395213888309,4.11054229402332,397.4014835102409,-104.01971656842628,8.731719970703125,4761.76025390625,True
1599388635.8142045,0.0,10,0.5,0.5,-22.29653816986084,-0.2,-0.03,-0.12575,0.14896233635710224,10,1,100,0.24482515636946478,-10,-1,-100,19010.1568984295,-0.018655424660556013,0.008615543311580572,0.9997888514802418,66.89538303531545,4.101298320007816,398.0249439373969,-104.38363248084012,7.37615966796875,4761.76025390625,True
1599388635.8560925,0.0,10,0.5,0.5,-22.47083905029297,-0.2,-0.03,-0.12575,0.09329420662366143,10,1,100,0.20300611400542592,-10,-1,-100,19010.1568984295,-0.018655424660556013,0.008615543311580572,0.9997888514802418,66.89538303531545,4.101298320007816,398.0249439373969,-104.38363248084012,7.37615966796875,4761.76025390625,True
1599388635.9149327,0.0,10,0.5,0.5,-21.932599464416505,-0.2,-0.03,-0.12575,0.16419556150466813,10,1,100,0.24745238419699522,-10,-1,-100,19005.97063545673,-0.019055444332725033,0.009258545291092567,0.9997755595034195,66.63313974053887,4.085252945233982,397.9645899096423,-104.74755584320201,5.726715087890625,4761.76025390625,True
1599388635.9568202,0.0,10,0.5,0.5,-21.494259597778324,-0.2,-0.03,-0.12575,0.18040562875989807,10,1,100,0.24895481867407276,-10,-1,-100,19001.76981500839,-0.019429140211644335,0.009988061155899928,0.9997613450944093,66.24620433430886,4.061780590074325,397.14668730969487,-105.11149279561948,3.783538818359375,4761.76025390625,True
1599388635.9977107,0.0,10,0.5,0.5,-20.165051338195802,-0.2,-0.03,-0.12575,0.29727249540197775,10,1,100,0.28434380781241264,-10,-1,-100,18993.324498762493,-0.020087030715537715,0.011710598585764011,0.9997296499943352,65.04869995935857,3.989736405029144,392.9047673118465,-105.83943257317058,-0.98345947265625,4761.76025390625,True
1599388636.040704,0.0,10,0.5,0.5,-19.80973672485352,-0.2,-0.03,-0.12575,0.23498730655265437,10,1,100,0.24671460518976965,-10,-1,-100,18989.080002145027,-0.0203388801438496,0.012705661899912483,0.9997124067001365,65.72181691491272,4.032298891706068,398.4564414288506,-106.20339651568044,-3.80694580078125,4761.76025390625,True
1599388636.0815897,0.0,10,0.5,0.5,-20.120074127197267,-0.2,-0.03,-0.12575,0.13608625403255062,10,1,100,0.22196580908142086,-10,-1,-100,18989.080002145027,-0.0203388801438496,0.012705661899912483,0.9997124067001365,65.72181691491272,4.032298891706068,398.4564414288506,-106.20339651568044,-3.80694580078125,4761.76025390625,True
1599388636.1224468,0.0,10,0.5,0.5,-17.949545227050784,-0.2,-0.03,-0.12575,0.3841221130545664,10,1,100,0.24787047975759202,-10,-1,-100,18980.547342080506,-0.020571231324301796,0.014955308937102627,0.9996765292715429,67.94369840927897,4.17259431410521,415.00234329677215,-106.93112174836838,-10.33343505859375,4761.76025390625,True
1599388636.164369,0.0,10,0.5,0.5,-17.499923377990722,-0.2,-0.03,-0.12575,0.2962805619747111,10,1,100,0.2287374419138781,-10,-1,-100,18976.259184060968,-0.020605165908456624,0.016194613509869355,0.9996565218269479,69.04929180863071,4.243158777448887,423.3183922684616,-107.29487528485863,-14.036346435546875,4761.76025390625,True
1599388636.2092497,0.0,10,0.5,0.5,-17.89281219482422,-0.2,-0.03,-0.12575,0.1732268277413043,10,1,100,0.22564855728012578,-10,-1,-100,18976.259184060968,-0.020605165908456624,0.016194613509869355,0.9996565218269479,69.04929180863071,4.243158777448887,423.3183922684616,-107.29487528485863,-14.036346435546875,4761.76025390625,True
1599388636.250168,0.0,10,0.5,0.5,-16.522740692138672,-0.2,-0.03,-0.12575,0.3157326188643488,10,1,100,0.20704331215982136,-10,-1,-100,18971.956478505395,-0.020433870220040822,0.0174827232246366,0.9996383402693603,70.22433304293548,4.318454495736261,432.1114332371732,-107.65854977509585,-18.032562255859375,4761.76025390625,True
1599388636.2930532,0.0,10,0.5,0.5,-15.551797027587892,-0.2,-0.03,-0.12575,0.3355072214661846,10,1,100,0.19978710702310176,-10,-1,-100,18967.639228216955,-0.0202105645970022,0.018825440098157096,0.9996184951689225,71.39623989214921,4.393949657807395,440.937353849303,-108.02213922606504,-22.321868896484375,4761.76025390625,True
1599388636.3369353,0.0,10,0.5,0.5,-14.509456748962402,-0.2,-0.03,-0.12575,0.3564916886203243,10,1,100,0.18781431159366407,-10,-1,-100,18963.307437407086,-0.019897302126757253,0.020227577960225566,0.9995973901816368,72.63276904525615,4.473702087390056,450.2154153238558,-108.38563935680077,-26.90399169921875,4761.76025390625,True
1599388636.3788233,0.0,10,0.5,0.5,-11.715682975769045,-0.2,-0.03,-0.12575,0.524998177209291,10,1,100,0.09896543424637072,-10,-1,-100,18954.600246585906,-0.01880403567083733,0.02302415406503375,0.9995580506264153,74.70914419388077,4.608942681303022,466.45712889389296,-109.11238571762873,-36.948760986328125,4761.76025390625,True
1599388636.4217088,0.0,10,0.5,0.5,-11.0772084274292,-0.2,-0.03,-0.12575,0.39848004799115505,10,1,100,0.1269467444678015,-10,-1,-100,18950.224852750078,-0.018065100898869323,0.024404480173868016,0.9995389304459116,75.44438947915833,4.65756477991088,472.74755491492334,-109.47565322370826,-42.4112548828125,4761.76025390625,True
1599388636.4645948,0.0,10,0.5,0.5,-10.714078552246093,-0.2,-0.03,-0.12575,0.33167736664495356,10,1,100,0.15284032929178767,-10,-1,-100,18948.031707457616,-0.0176305763589498,0.025040485095489968,0.9995309584417251,75.71417850335278,4.675671948764518,475.2906702486616,-109.6572674906234,-45.253173828125,4761.76025390625,True
1599388636.5089228,0.0,10,0.5,0.5,-9.023965408325195,-0.2,-0.03,-0.12575,0.40734244541090997,10,1,100,0.0916134211768866,-10,-1,-100,18943.63452041999,-0.01668140788869195,0.026295322264659002,0.9995150257289026,76.0234041001786,4.697232711890916,478.943736343317,-110.02047035458088,-51.15692138671875,4761.76025390625,True
1599388636.5518103,0.0,10,0.5,0.5,-6.56018603515625,-0.2,-0.03,-0.12575,0.47561620627589934,10,1,100,0.003656892784549698,-10,-1,-100,18937.01150014333,-0.015022247632395529,0.028044399644162804,0.9994937937399458,75.81486315560456,4.686816758226766,480.19256696128764,-110.56525828572934,-60.56329345703125,4761.76025390625,True
1599388636.595658,0.0,10,0.5,0.5,-7.5923477478027355,-0.2,-0.03,-0.12575,0.3020173773962252,10,1,100,0.16901802004500105,-10,-1,-100,18937.01150014333,-0.015022247632395529,0.028044399644162804,0.9994937937399458,75.81486315560456,4.686816758226766,480.19256696128764,-110.56525828572934,-60.56329345703125,4761.76025390625,True
1599388636.6365476,0.0,10,0.5,0.5,-5.290080368041992,-0.2,-0.03,-0.12575,0.4120338157071309,10,1,100,0.03223124352333745,-10,-1,-100,18932.577993009938,-0.013783806862449552,0.029033776550503498,0.9994833898007481,75.15673147683259,4.647035207453223,477.72081414832184,-110.92848096297575,-67.202392578125,4761.76025390625,True
1599388636.678979,0.0,10,0.5,0.5,-1.352698516845703,-0.2,-0.03,-0.12575,0.4912999132384593,10,1,100,-0.1427692253144864,-10,-1,-100,18923.66738358047,-0.011073239499469362,0.030642139021970174,0.9994690804037641,72.39437318709794,4.477202225449373,463.4428649896164,-111.65513674925629,-81.36279296875,4761.76025390625,True
1599388636.7218313,0.0,10,0.5,0.5,-2.9433781738281253,-0.2,-0.03,-0.12575,0.331779607671525,10,1,100,0.1273514479114754,-10,-1,-100,18923.66738358047,-0.011073239499469362,0.030642139021970174,0.9994690804037641,72.39437318709794,4.477202225449373,463.4428649896164,-111.65513674925629,-81.36279296875,4761.76025390625,True
1599388636.7617233,0.0,10,0.5,0.5,-0.31596286773681626,-0.2,-0.03,-0.12575,0.39346303636412405,10,1,100,-0.027575185130331498,-10,-1,-100,18919.190273558255,-0.009673122221905238,0.031192155011063063,0.999466597827184,70.22200626361926,4.343600322033331,451.13342865740026,-112.01862700335427,-88.88479614257812,4761.76025390625,True
1599388636.8036137,0.0,10,0.5,0.5,4.111982961654663,-0.2,-0.03,-0.12575,0.4119262952344935,10,1,100,-0.1962903112581721,-10,-1,-100,18910.19241753011,-0.0068758091683255316,0.03185004955719556,0.9994690078193945,66.85705686533736,4.139201685152815,432.5633257895143,-112.74597102040933,-104.81079864501953,4761.76025390625,True
1599388636.844502,0.0,10,0.5,0.5,2.3128742599487304,-0.2,-0.03,-0.12575,0.3470194301704601,10,1,100,0.08224817144954744,-10,-1,-100,18910.19241753011,-0.0068758091683255316,0.03185004955719556,0.9994690078193945,66.85705686533736,4.139201685152815,432.5633257895143,-112.74597102040933,-104.81079864501953,4761.76025390625,True
1599388636.885393,0.0,10,0.5,0.5,5.204131912231445,-0.2,-0.03,-0.12575,0.3577596620799996,10,1,100,-0.06284908827702927,-10,-1,-100,18905.671671439894,-0.005566915254202601,0.031940919329661074,0.9994742553597509,69.38432960338736,4.298983085017167,450.49446555103515,-113.10952843485462,-113.11182403564453,4761.76025390625,True
1599388636.9272804,0.0,10,0.5,0.5,7.038228813171387,-0.2,-0.03,-0.12575,0.3480724680124542,10,1,100,-0.06410339853965681,-10,-1,-100,18901.13638784713,-0.004376575839980366,0.03192918969107552,0.9994805513013189,71.55272099332683,4.437131302790523,466.19875920163105,-113.47292335824297,-121.32172393798828,4761.76025390625,True
1599388636.9691682,0.0,10,0.5,0.5,8.804943807601928,-0.2,-0.03,-0.12575,0.3300910845259928,10,1,100,-0.07951914703050926,-10,-1,-100,18896.586572688422,-0.00316549214263305,0.0317499375630059,0.9994908309355519,73.30333142742042,4.5494365991168895,479.2662586037527,-113.83618172144925,-129.2683563232422,4761.76025390625,True
1599388637.0110562,0.0,10,0.5,0.5,12.90198150253296,-0.2,-0.03,-0.12575,0.28400562056559137,10,1,100,-0.17313610654742803,-10,-1,-100,18887.443363493192,-0.0012242225635178306,0.031164653648830917,0.9995135144869545,75.05934290447527,4.664202751530113,494.14387885556357,-114.5624367394282,-144.280517578125,4761.76025390625,True
1599388637.053971,0.0,10,0.5,0.5,11.265353897094728,-0.2,-0.03,-0.12575,0.3428460373835563,10,1,100,0.019611048857206145,-10,-1,-100,18887.443363493192,-0.0012242225635178306,0.031164653648830917,0.9995135144869545,75.05934290447527,4.664202751530113,494.14387885556357,-114.5624367394282,-144.280517578125,4761.76025390625,True
1599388637.0958307,0.0,10,0.5,0.5,15.999280769348145,-0.2,-0.03,-0.12575,0.2560911158017428,10,1,100,-0.14156731621752552,-10,-1,-100,18878.24205935793,0.00022961749688979206,0.030374035382543223,0.9995385761692167,74.63804903848366,4.640821253461856,494.7530751262876,-115.28862400808883,-158.10305786132812,4761.76025390625,True
1599388637.1384358,0.0,10,0.5,0.5,14.491317123413086,-0.2,-0.03,-0.12575,0.33512613206656944,10,1,100,0.0026864041236008347,-10,-1,-100,18878.24205935793,0.00022961749688979206,0.030374035382543223,0.9995385761692167,74.63804903848366,4.640821253461856,494.7530751262876,-115.28862400808883,-158.10305786132812,4761.76025390625,True
1599388637.182366,0.0,10,0.5,0.5,16.827679473876955,-0.2,-0.03,-0.12575,0.27985171475042436,10,1,100,-0.056339176141985144,-10,-1,-100,18873.619619929814,0.0007559383565802472,0.029871784410250474,0.9995534528244843,73.78557306519706,4.588508844228495,490.78001162706187,-115.65177717015862,-164.56857299804688,4761.76025390625,True
1599388637.2232563,0.0,10,0.5,0.5,19.218376052856446,-0.2,-0.03,-0.12575,0.2567762335963627,10,1,100,-0.06521792811579763,-10,-1,-100,18866.658719159197,0.0013056468282621513,0.029206615852766335,0.9995725430786846,71.89988406028505,4.472172179233729,480.69804288747446,-116.19664369176226,-173.70651245117188,4761.76025390625,True
1599388637.2637863,0.0,10,0.5,0.5,19.219770473480224,-0.2,-0.03,-0.12575,0.2963354819582231,10,1,100,-0.02303985346924084,-10,-1,-100,18864.33115294564,0.0014145070730073772,0.02896394981625624,0.9995794559617468,71.14435792263771,4.425595480578996,476.46044471048805,-116.37830886948068,-176.6038360595703,4761.76025390625,True
1599388637.3106608,0.0,10,0.5,0.5,-96.38459494400024,-0.2,-0.03,-0.12575,0.27209571627741236,10,1,100,-0.029169355837571513,-10,-1,-100,18859.665118678007,0.0015616570295411952,0.028525606549367817,0.9995918422027626,69.48956197835514,4.323798372326544,466.9698102063467,-116.74170923583242,177.82565307617188,4761.76025390625,True
1599388637.35155,0.0,10,0.5,0.5,-50.97037508392335,-0.2,-0.03,-0.12575,0.2691214059350199,10,1,100,-0.018422690399911408,-10,-1,-100,18854.984545460786,0.0015912522385170798,0.02810317831524777,0.9996037611398303,67.692816806795,4.21366660617152,456.448375281026,-117.1052049200753,172.55313110351562,4761.76025390625,True
1599388637.391953,0.0,10,0.5,0.5,-49.273032375335696,-0.2,-0.03,-0.12575,0.22686925530816043,10,1,100,0.018609946964406345,-10,-1,-100,18845.579780109692,0.0012760713360209068,0.027338520379781572,0.9996254183169762,69.66839020049777,4.341925086256993,472.967524095249,-117.83212540789931,162.6007537841797,4761.76025390625,True
1599388637.4328437,0.0,10,0.5,0.5,-49.69849808883667,-0.2,-0.03,-0.12575,0.26780965789449057,10,1,100,0.021846610526575737,-10,-1,-100,18840.85559570475,0.0009560812436604332,0.027019572659400054,0.9996344474866595,71.26448210583149,4.444790594315021,485.4379834837709,-118.1954204845695,157.376953125,4761.76025390625,True
1599388637.4763072,0.0,10,0.5,0.5,-49.46586048507691,-0.2,-0.03,-0.12575,0.2675175542660334,10,1,100,0.035293127149292516,-10,-1,-100,18836.116883029346,0.0005409580051196881,0.026730732954239455,0.9996425237454466,72.82360478051208,4.545740488419873,497.7275522631246,-118.55860116046131,151.8681182861328,4761.76025390625,True
1599388637.5181947,0.0,10,0.5,0.5,-49.15792002487183,-0.2,-0.03,-0.12575,0.27125091409394414,10,1,100,0.051991757835276785,-10,-1,-100,18831.36364647071,1.0162799693119669e-05,0.026506121875887727,0.9996486509768412,74.37379360702427,4.646316049375573,510.02549337418446,-118.92166907521204,146.06881713867188,4761.76025390625,True
1599388637.5620763,0.0,10,0.5,0.5,-48.815608081817636,-0.2,-0.03,-0.12575,0.2741733474905624,10,1,100,0.06760740351491083,-10,-1,-100,18826.595890381024,-0.0006141392071484371,0.02633201384781601,0.999653063757498,75.72954169383374,4.7346701676367555,521.0547990252744,-119.28463208100243,139.9779815673828,4761.76025390625,True
1599388637.603966,0.0,10,0.5,0.5,-48.39679627609253,-0.2,-0.03,-0.12575,0.2788400734749503,10,1,100,0.08494712000992444,-10,-1,-100,18821.813618417247,-0.0013385532208644866,0.02621983316900409,0.9996553049045778,76.79007055287822,4.804219556955562,530.1069993433734,-119.64750974280975,133.59585571289062,4761.76025390625,True
1599388637.6458533,0.0,10,0.5,0.5,-47.92009090423585,-0.2,-0.03,-0.12575,0.2850998041180614,10,1,100,0.1029944633297161,-10,-1,-100,18817.01683317928,-0.002159274089352233,0.026178077331604488,0.9996549633761779,77.49193087661588,4.850751392996908,536.7236051673754,-120.01032790104024,126.92279052734375,4761.76025390625,True
1599388637.689735,0.0,10,0.5,0.5,-49.66111676025391,-0.2,-0.03,-0.12575,0.2889725340059054,10,1,100,0.021268868572702868,-10,-1,-100,18817.01683317928,-0.002159274089352233,0.026178077331604488,0.9996549633761779,77.49193087661588,4.850751392996908,536.7236051673754,-120.01032790104024,126.92279052734375,4761.76025390625,True
1599388637.7326202,0.0,10,0.5,0.5,-45.94025694274902,-0.2,-0.03,-0.12575,0.306364362747116,10,1,100,0.23303271853655455,-10,-1,-100,18807.379727396765,-0.00408115110614874,0.026338717476965177,0.9996447449805943,77.56124539150966,4.858167845427314,540.7573610911345,-120.73591683984496,112.70501708984375,4761.76025390625,True
1599388637.7755086,0.0,10,0.5,0.5,-47.532780044555665,-0.2,-0.03,-0.12575,0.29008165930380686,10,1,100,0.04140929767047289,-10,-1,-100,18807.379727396765,-0.00408115110614874,0.026338717476965177,0.9996447449805943,77.56124539150966,4.858167845427314,540.7573610911345,-120.73591683984496,112.70501708984375,4761.76025390625,True
1599388637.8183906,0.0,10,0.5,0.5,-42.344049076080324,-0.2,-0.03,-0.12575,0.35173771737205717,10,1,100,0.2901468776330631,-10,-1,-100,18797.684566945885,-0.006337245102768046,0.026900831151074982,0.9996180193493357,75.44588906561965,4.7269714192250945,529.4874347767771,-121.46169524666594,97.32762145996094,4761.76025390625,True
1599388637.859282,0.0,10,0.5,0.5,-41.43595904159545,-0.2,-0.03,-0.12575,0.34529114964881324,10,1,100,0.19400395714553967,-10,-1,-100,18792.815207628417,-0.007507291898500121,0.02735363632026232,0.9995976286228421,73.44793096708396,4.6027609108867145,517.1684476287775,-121.82475031802568,89.20489501953125,4761.76025390625,True
1599388637.9141352,0.0,10,0.5,0.5,-39.512929321289064,-0.2,-0.03,-0.12575,0.3672774218183383,10,1,100,0.2256905781602874,-10,-1,-100,18787.93132146902,-0.008851337019170477,0.02796484889046389,0.9995697179584356,70.77826572269048,4.437270371320852,500.0162567717626,-122.18795913707382,80.793701171875,4761.76025390625,True
1599388637.9560254,0.0,10,0.5,0.5,-40.357413696289065,-0.2,-0.03,-0.12575,0.3062795763918037,10,1,100,0.09222529559568081,-10,-1,-100,18787.93132146902,-0.008851337019170477,0.02796484889046389,0.9995697179584356,70.77826572269048,4.437270371320852,500.0162567717626,-122.18795913707382,80.793701171875,4761.76025390625,True
1599388637.996914,0.0,10,0.5,0.5,-34.39988025283814,-0.2,-0.03,-0.12575,0.49006328157236345,10,1,100,0.39074910669484897,-10,-1,-100,18778.119972338434,-0.011557133938418493,0.029634283731183,0.999493992919852,75.92004021473136,4.767018130616491,539.87278218384,-122.91408817257847,63.10618591308594,4761.76025390625,True
1599388638.0378053,0.0,10,0.5,0.5,-36.39346990966797,-0.2,-0.03,-0.12575,0.3234500244887891,10,1,100,0.12126371424317434,-10,-1,-100,18778.119972338434,-0.011557133938418493,0.029634283731183,0.999493992919852,75.92004021473136,4.767018130616491,539.87278218384,-122.91408817257847,63.10618591308594,4761.76025390625,True
1599388638.079692,0.0,10,0.5,0.5,-30.04553317642212,-0.2,-0.03,-0.12575,0.5861915596425848,10,1,100,0.4222128876067271,-10,-1,-100,18768.25057407131,-0.01428374589561665,0.032019739095706434,0.9993851664455663,81.02607592741816,5.096765352548013,579.9394812290132,-123.63941748849189,44.268218994140625,4761.76025390625,True
1599388638.1205823,0.0,10,0.5,0.5,-32.166443801879886,-0.2,-0.03,-0.12575,0.34823018936665157,10,1,100,0.15076413906753774,-10,-1,-100,18768.25057407131,-0.01428374589561665,0.032019739095706434,0.9993851664455663,81.02607592741816,5.096765352548013,579.9394812290132,-123.63941748849189,44.268218994140625,4761.76025390625,True
1599388638.1614726,0.0,10,0.5,0.5,-25.407883995056153,-0.2,-0.03,-0.12575,0.6907428391275707,10,1,100,0.4229673880486361,-10,-1,-100,18758.323176335078,-0.016747298639257304,0.03512817985556561,0.9992424825678311,83.10394358768399,5.233228516678228,598.6647229567047,-124.36427898956511,24.28173828125,4761.76025390625,True
1599388638.2058146,0.0,10,0.5,0.5,-24.260053863525393,-0.2,-0.03,-0.12575,0.5710876776774619,10,1,100,0.2996071351691421,-10,-1,-100,18753.337731923442,-0.0178539205186324,0.03685827047645605,0.9991610007499286,82.58610646052452,5.201969054886727,596.8595655686405,-124.72672070971582,13.85699462890625,4761.76025390625,True
1599388638.247671,0.0,10,0.5,0.5,-25.274421310424806,-0.2,-0.03,-0.12575,0.399130570888367,10,1,100,0.1903222241728809,-10,-1,-100,18753.337731923442,-0.0178539205186324,0.03685827047645605,0.9991610007499286,82.58610646052452,5.201969054886727,596.8595655686405,-124.72672070971582,13.85699462890625,4761.76025390625,True
1599388638.2945452,0.0,10,0.5,0.5,-21.535547828674314,-0.2,-0.03,-0.12575,0.6261223425245834,10,1,100,0.2821419416630364,-10,-1,-100,18748.33778652537,-0.018678175518164846,0.03891277981921676,0.9990680263756085,80.91164621632359,5.097692414805919,586.6556988552608,-125.08927564449239,3.147979736328125,4761.76025390625,True
1599388638.3384259,0.0,10,0.5,0.5,-19.04164064025879,-0.2,-0.03,-0.12575,0.6513001968382439,10,1,100,0.27589196881270217,-10,-1,-100,18743.32333375665,-0.019360524961264336,0.040998896857760724,0.9989716014630602,78.03793896620353,4.918702089146575,567.6601282447134,-125.45201100090794,-7.849395751953125,4761.76025390625,True
1599388638.3823104,0.0,10,0.5,0.5,-12.712995140075684,-0.2,-0.03,-0.12575,0.9275256931278941,10,1,100,0.2858866690126508,-10,-1,-100,18733.250886944472,-0.020062149740497866,0.045394658633645425,0.9987676582245366,79.80003791731382,5.039807595339017,584.247687888023,-126.17762408400323,-30.706298828125,4761.76025390625,True
1599388638.4232352,0.0,10,0.5,0.5,-15.252750701904297,-0.2,-0.03,-0.12575,0.4896924965137422,10,1,100,0.21684527236143059,-10,-1,-100,18733.250886944472,-0.020062149740497866,0.045394658633645425,0.9987676582245366,79.80003791731382,5.039807595339017,584.247687888023,-126.17762408400323,-30.706298828125,4761.76025390625,True
1599388638.4670827,0.0,10,0.5,0.5,-11.10759496307373,-0.2,-0.03,-0.12575,0.7308330321295027,10,1,100,0.21381232777582698,-10,-1,-100,18728.192908044206,-0.020026845684445033,0.04757251770751374,0.9986670020637007,83.02107488036609,5.250152419063315,609.7808300257059,-126.54005986130768,-42.567291259765625,4761.76025390625,True
1599388638.5089715,0.0,10,0.5,0.5,-8.323846115112305,-0.2,-0.03,-0.12575,0.7352713863617338,10,1,100,0.17829280868654773,-10,-1,-100,18723.120438359096,-0.019664146631088987,0.049576430782254,0.9985767365847069,85.43397207686094,5.409163285106654,629.5028094767995,-126.9022886702455,-54.718475341796875,4761.76025390625,True
1599388638.5498602,0.0,10,0.5,0.5,-5.503004043579101,-0.2,-0.03,-0.12575,0.7567970514383637,10,1,100,0.16342484710575234,-10,-1,-100,18718.033482766245,-0.019194365658453102,0.051577897176635835,0.9984845000548612,86.31867278055984,5.470031529737813,638.0402456331466,-127.26441863003944,-67.15713500976562,4761.76025390625,True
1599388638.5908237,0.0,10,0.5,0.5,-2.5859988861083982,-0.2,-0.03,-0.12575,0.7440868539011083,10,1,100,0.12963056260609535,-10,-1,-100,18712.932041163323,-0.018455607079002838,0.0532640846865707,0.9984098997154662,85.52987021270921,5.423290667455547,634.2169315821013,-127.62658202705892,-79.88742065429688,4761.76025390625,True
1599388638.6326766,0.0,10,0.5,0.5,0.3669987239837649,-0.2,-0.03,-0.12575,0.7394417785103792,10,1,100,0.11247782537450274,-10,-1,-100,18707.816108336323,-0.017626521387906532,0.05473826727856758,0.9983451446464301,82.97466292106185,5.2639427985965765,617.2292761413502,-127.98890629604972,-92.90760040283203,4761.76025390625,True
1599388638.6736557,0.0,10,0.5,0.5,3.3859727115631104,-0.2,-0.03,-0.12575,0.7264083741056755,10,1,100,0.09784040909085448,-10,-1,-100,18702.685674992856,-0.016739946428995567,0.055943693234156426,0.9982935827605409,78.65394667653591,4.993437785948828,586.9559592532509,-128.35149311174786,-106.21832275390625,4761.76025390625,True
1599388638.7175388,0.0,10,0.5,0.5,10.96091759109497,-0.2,-0.03,-0.12575,0.7872359732882691,10,1,100,0.005902141114405957,-10,-1,-100,18692.381289190147,-0.015099179461190281,0.0575751628020265,0.9982269859144858,82.57190324188527,5.255870999557288,620.1042789894051,-129.07664302031398,-133.5047149658203,4761.76025390625,True
1599388638.7584288,0.0,10,0.5,0.5,7.939611854553223,-0.2,-0.03,-0.12575,0.6259552547995426,10,1,100,0.16962093828923705,-10,-1,-100,18692.381289190147,-0.015099179461190281,0.0575751628020265,0.9982269859144858,82.57190324188527,5.255870999557288,620.1042789894051,-129.07664302031398,-133.5047149658203,4761.76025390625,True
1599388638.8013155,0.0,10,0.5,0.5,12.716867027282715,-0.2,-0.03,-0.12575,0.6796626018715809,10,1,100,0.09999978698336567,-10,-1,-100,18687.207358646323,-0.01447013385431879,0.0580483420790957,0.9982088985819082,85.62653619454514,5.457461203443074,645.0563524016567,-129.43878056115767,-147.0128936767578,4761.76025390625,True
1599388638.8461947,0.0,10,0.5,0.5,15.675720867156983,-0.2,-0.03,-0.12575,0.6695188719913936,10,1,100,0.1199037667163352,-10,-1,-100,18682.01894686639,-0.014084303132813685,0.05837478598347922,0.9981953800567532,86.96857737698082,5.5483766611495495,657.2088748970418,-129.800783028795,-160.23956298828125,4761.76025390625,True
1599388638.8890808,0.0,10,0.5,0.5,18.6126741104126,-0.2,-0.03,-0.12575,0.6559996151315052,10,1,100,0.13220418907748074,-10,-1,-100,18676.81605478411,-0.013850804358917352,0.05853685071841995,0.998189156586356,86.36678666134179,5.513650007668069,654.6990150823137,-130.16281101861045,-173.16851806640625,4761.76025390625,True
1599388638.930968,0.0,10,0.5,0.5,-95.77817294692994,-0.2,-0.03,-0.12575,0.6555577821286959,10,1,100,0.1627090434285387,-10,-1,-100,18671.598677171045,-0.01392146418704442,0.05867019805651243,0.99818034477488,83.96349990364301,5.363447652343281,638.4765563772254,-130.52499775035568,174.20472717285156,4761.76025390625,True
1599388638.9744,0.0,10,0.5,0.5,-44.85243743515015,-0.2,-0.03,-0.12575,0.6733976010967417,10,1,100,0.2509913617778967,-10,-1,-100,18661.12042944855,-0.014793487545285049,0.058945336020602146,0.99815159173728,79.73038866682538,5.103810203624315,610.0980230476578,-131.2500054425646,149.85992431640625,4761.76025390625,True
1599388639.01529,0.0,10,0.5,0.5,-48.56484757232666,-0.2,-0.03,-0.12575,0.6466205485721672,10,1,100,0.163348938142517,-10,-1,-100,18661.12042944855,-0.014793487545285049,0.058945336020602146,0.99815159173728,79.73038866682538,5.103810203624315,610.0980230476578,-131.2500054425646,149.85992431640625,4761.76025390625,True
1599388639.056181,0.0,10,0.5,0.5,-45.33935856246948,-0.2,-0.03,-0.12575,0.6750458658875031,10,1,100,0.2517415726693524,-10,-1,-100,18655.859561083722,-0.015600386149650569,0.05919858322225608,0.9981243187581692,83.98620981440426,5.384493310695677,644.6621489415481,-131.61224641801508,137.8423309326172,4761.76025390625,True
1599388639.0980682,0.0,10,0.5,0.5,-43.550245887756354,-0.2,-0.03,-0.12575,0.692401792222521,10,1,100,0.28711888988252365,-10,-1,-100,18650.584211200592,-0.016657384251228285,0.05958253426685647,0.9980843918027401,87.16332503358211,5.596449099492362,671.1133354126276,-131.97421965002073,125.58576965332031,4761.76025390625,True
1599388639.1389604,0.0,10,0.5,0.5,-41.7042745628357,-0.2,-0.03,-0.12575,0.7185945285106868,10,1,100,0.31423004739570914,-10,-1,-100,18645.29438801459,-0.017864831741125867,0.06016638841817405,0.9980284833067514,89.06910665409954,5.72558858451233,687.8928325179465,-132.33601825430074,113.05270385742188,4761.76025390625,True
1599388639.1813562,0.0,10,0.5,0.5,-35.57893127441406,-0.2,-0.03,-0.12575,0.8657176818563617,10,1,100,0.5159108702371896,-10,-1,-100,18634.6713259588,-0.02079345907388264,0.06203229247195422,0.9978575182612078,87.39221595972154,5.626237042604937,679.105861615356,-133.0596823164679,87.14004516601562,4761.76025390625,True
1599388639.2232451,0.0,10,0.5,0.5,-39.49938238525391,-0.2,-0.03,-0.12575,0.6795729894453374,10,1,100,0.22361756492278156,-10,-1,-100,18634.6713259588,-0.02079345907388264,0.06203229247195422,0.9978575182612078,87.39221595972154,5.626237042604937,679.105861615356,-133.0596823164679,87.14004516601562,4761.76025390625,True
1599388639.2678175,0.0,10,0.5,0.5,-35.84361278533936,-0.2,-0.03,-0.12575,0.8299504445564535,10,1,100,0.3990879977168983,-10,-1,-100,18629.338074809057,-0.022382896349084098,0.06339573847260722,0.9977374335437851,83.60998226575929,5.387218370841009,651.7307484356646,-133.42182503045305,73.760986328125,4761.76025390625,True
1599388639.310702,7.979919202947095e-07,10,0.5,0.5,-29.23701594924927,-0.2,-0.03,-0.12575,1.1036389870186367,10,1,100,0.5891668050531748,-10,-1,-100,18618.628101341077,-0.025548284308491327,0.0671187479933215,0.9974178456578274,87.21967197346895,5.6369715659148145,684.0745631870924,-134.14619724332667,46.16001892089844,4761.76025390625,True
