Timestamp,Input Throttle,horizon,dT,dt,Input Roll,Roll P,Roll I,Roll D,Input Pitch,Pitch P,Pitch I,Pitch D,Input Yaw,Yaw P,Yaw I,Yaw D,Altitude,Direction X,Direction Y,Direction Z,Drag X,Drag Y,Drag Z,Vertical Velocity,Roll,Mass,Has Fuel
1599386125.3380594,0.0,10,0.5,0.5,-2.844832138061524,-0.05075,-0.03,-0.5,-0.00016313403349833703,10,1,100,0.4980718035369892,-10,-1,-100,19351.094168320065,-0.04884343915763863,-0.00017457756775901694,0.9988064316843014,60.98671793284639,3.680693024091821,232.7547878063476,-68.48187377157723,-33.92254638671875,4761.76025390625,True
1599386125.3710694,0.0,10,0.5,0.5,-3.0135244445800784,-0.05075,-0.03,-0.5,-0.0008260093801833898,10,1,100,0.49892029488351886,-10,-1,-100,19349.72088138666,-0.04889436242483289,-0.00016605734908462893,0.9988039415961603,61.07641490374938,3.686777151812982,233.74161771692033,-68.66433384059485,-33.9237060546875,4761.76025390625,True
1599386125.407158,0.0,10,0.5,0.5,-3.1810053634643554,-0.05075,-0.03,-0.5,0.0002658580466117454,10,1,100,0.5105032080626468,-10,-1,-100,19346.963360341033,-0.04900150609443353,-0.0001482346670015162,0.9987986936450011,61.25655938485197,3.6990018286931483,235.724368927641,-69.02924364193736,-33.926116943359375,4761.76025390625,True
1599386125.4340863,0.0,10,0.5,0.5,-3.1707092590332033,-0.05075,-0.03,-0.5,0.03416851084560505,10,1,100,0.5019579330422954,-10,-1,-100,19342.799711647443,-0.04897667828834507,0.00017630846458034494,0.9987999068377837,61.537290915577096,3.717994792853727,238.7548653049422,-69.57658212333696,-34.25244140625,4761.76025390625,True
1599386125.457551,0.0,10,0.5,0.5,-3.1888465805053716,-0.05075,-0.03,-0.5,0.03670085350484101,10,1,100,0.5007921081707195,-10,-1,-100,19340.005701800692,-0.04889898489462456,0.0004942086915891089,0.998803606838724,61.74126203290681,3.7316641425674297,240.85149704707186,-69.94145529808257,-34.819427490234375,4761.76025390625,True
1599386125.4834826,0.0,10,0.5,0.5,-3.421500862121582,-0.05075,-0.03,-0.5,0.028574026584248426,10,1,100,0.5052012723698232,-10,-1,-100,19338.60322405584,-0.04882398422496629,0.0007088793725993353,0.998807146577574,61.84758848671882,3.73875056625899,241.9202477422174,-70.12388552933433,-35.212310791015625,4761.76025390625,True
1599386125.5094125,0.0,10,0.5,0.5,-3.5255197372436524,-0.05075,-0.03,-0.5,0.034185720514856036,10,1,100,0.5060337954105245,-10,-1,-100,19337.197097846307,-0.04871898474907881,0.0009544055007299746,0.9988120692278198,61.95580851581634,3.7459405421549357,242.99881403750584,-70.30631131355436,-35.678558349609375,4761.76025390625,True
1599386125.5393326,0.0,10,0.5,0.5,-3.28688729095459,-0.05075,-0.03,-0.5,0.076113457215742,10,1,100,0.48987439949622524,-10,-1,-100,19334.37390005472,-0.04843233709473377,0.0015579046731288555,0.9988252508104567,62.17387868164736,3.7603731963388065,245.16963875675913,-70.6711492289169,-36.831024169921875,4761.76025390625,True
1599386125.5723891,0.0,10,0.5,0.5,-3.644658805847168,-0.05075,-0.03,-0.5,0.05515622432314295,10,1,100,0.5029842429181232,-10,-1,-100,19332.95682860259,-0.048246899315442134,0.001914603708401366,0.9988336052611994,62.281424305737964,3.7674695765050163,246.2528103444797,-70.85356114916269,-37.517303466796875,4761.76025390625,True
1599386125.605309,0.0,10,0.5,0.5,-4.145246543884277,-0.05075,-0.03,-0.5,0.01967778116673204,10,1,100,0.5263527107788308,-10,-1,-100,19332.95682860259,-0.048246899315442134,0.001914603708401366,0.9988336052611994,62.281424305737964,3.7674695765050163,246.2528103444797,-70.85356114916269,-37.517303466796875,4761.76025390625,True
1599386125.6422105,0.0,10,0.5,0.5,-3.42545785522461,-0.05075,-0.03,-0.5,0.10861170276185697,10,1,100,0.4801238093123529,-10,-1,-100,19330.1117415271,-0.047782775757278295,0.002721353355894864,0.9988540436804779,62.486322258579285,3.7809676280552695,248.3858195952107,-71.21837089831305,-39.110107421875,4761.76025390625,True
1599386125.673323,0.0,10,0.5,0.5,-2.587426956176758,-0.05075,-0.03,-0.5,0.18990350934930186,10,1,100,0.42441272489890547,-10,-1,-100,19325.816751327482,-0.046855345085552884,0.004191145885389676,0.9988928926231687,62.74185977221949,3.7978240234051794,251.394890415376,-71.76555215353834,-42.04949951171875,4761.76025390625,True
1599386125.7052617,0.0,10,0.5,0.5,-4.032745620727539,-0.05075,-0.03,-0.5,0.04335997672326809,10,1,100,0.5169518903375186,-10,-1,-100,19325.816751327482,-0.046855345085552884,0.004191145885389676,0.9988928926231687,62.74185977221949,3.7978240234051794,251.394890415376,-71.76555215353834,-42.04949951171875,4761.76025390625,True
1599386125.7392163,0.0,10,0.5,0.5,-2.7268329315185547,-0.05075,-0.03,-0.5,0.16479189578928843,10,1,100,0.42890806734991294,-10,-1,-100,19322.935185941868,-0.04605689775021909,0.0052911275309422325,0.9989248050474456,62.853760460052115,3.8053056503618445,253.17510411707457,-72.13031983743329,-44.37640380859375,4761.76025390625,True
1599386125.7751913,0.0,10,0.5,0.5,-3.1583489913940426,-0.05075,-0.03,-0.5,0.11820236407352801,10,1,100,0.4584158149253797,-10,-1,-100,19321.488932070788,-0.045601943132909085,0.005862919812150042,0.9989424853082279,62.884790537948064,3.807460827101843,253.9665510070194,-72.31269892460504,-45.650238037109375,4761.76025390625,True
1599386125.8061109,0.0,10,0.5,0.5,-1.4157161102294924,-0.05075,-0.03,-0.5,0.26923538542756376,10,1,100,0.32964480019947745,-10,-1,-100,19317.128284637234,-0.044020699748538804,0.007750877797266047,0.9990005514948531,62.84481172242123,3.8055215171821963,255.80415446697077,-72.85982365620019,-49.91180419921875,4761.76025390625,True
1599386125.8401496,0.0,10,0.5,0.5,-2.638996551513672,-0.05075,-0.03,-0.5,0.15256318872949767,10,1,100,0.4205211793892269,-10,-1,-100,19315.667440604302,-0.04341372128672393,0.008400145087912118,0.9990218648090445,62.77749521848335,3.8014823388503154,256.19616361203094,-73.04219686142865,-51.4794921875,4761.76025390625,True
1599386125.873291,0.0,10,0.5,0.5,-0.5423056564331055,-0.05075,-0.03,-0.5,0.3112776752749023,10,1,100,0.25484697332096407,-10,-1,-100,19311.263023350504,-0.04136061650578289,0.010426478193832968,0.9990898798179947,62.368345027306965,3.7764439487636468,256.51285380872673,-73.5893239803249,-56.623626708984375,4761.76025390625,True
1599386125.909192,0.0,10,0.5,0.5,-0.9638157806396483,-0.05075,-0.03,-0.5,0.26426243743449124,10,1,100,0.28666967752471817,-10,-1,-100,19308.30850698927,-0.03978988376186057,0.011833125606556636,0.9991379996219728,61.88902488650085,3.7469598172378427,255.85702266156773,-73.95409259247893,-60.42059326171875,4761.76025390625,True
1599386125.9400764,0.0,10,0.5,0.5,-2.79358918762207,-0.05075,-0.03,-0.5,0.12458954835193993,10,1,100,0.4428972503615918,-10,-1,-100,19308.30850698927,-0.03978988376186057,0.011833125606556636,0.9991379996219728,61.88902488650085,3.7469598172378427,255.85702266156773,-73.95409259247893,-60.42059326171875,4761.76025390625,True
1599386125.9722524,0.0,10,0.5,0.5,0.645102920532227,-0.05075,-0.03,-0.5,0.34241952935196873,10,1,100,0.15523940375203582,-10,-1,-100,19303.849373318488,-0.03718250062500423,0.01380438132301312,0.9992131407780627,60.80414268525007,3.680285836452334,253.31337077773733,-74.50129568573884,-66.53948974609375,4761.76025390625,True
1599386126.0061615,0.0,10,0.5,0.5,0.08833175659179648,-0.05075,-0.03,-0.5,0.29165109427309566,10,1,100,0.20095377923891727,-10,-1,-100,19300.858375864453,-0.035237374164226724,0.015124825266377335,0.9992645130908392,59.811512772106035,3.619464199042028,250.453149409736,-74.86614542767235,-70.9342041015625,4761.76025390625,True
1599386126.0412183,0.0,10,0.5,0.5,-2.0223713073730467,-0.05075,-0.03,-0.5,0.16070006787477303,10,1,100,0.39430462822453516,-10,-1,-100,19300.858375864453,-0.035237374164226724,0.015124825266377335,0.9992645130908392,59.811512772106035,3.619464199042028,250.453149409736,-74.86614542767235,-70.9342041015625,4761.76025390625,True
1599386126.0732737,0.0,10,0.5,0.5,0.5086225051879882,-0.05075,-0.03,-0.5,0.28835580164814945,10,1,100,0.1724719362342679,-10,-1,-100,19297.852782920934,-0.03323127511969823,0.016275392228516223,0.9993151624796488,58.585798133820774,3.5446172066506527,246.57131103716398,-75.2310443566653,-75.37240600585938,4761.76025390625,True
1599386126.1061475,0.0,10,0.5,0.5,-0.4118340148925781,-0.05075,-0.03,-0.5,0.237068349328101,10,1,100,0.2552471387912477,-10,-1,-100,19296.344512468204,-0.03217171021394534,0.016845126932371522,0.999340393840128,57.91511453978013,3.5037625181800567,244.36738055361755,-75.41351371086651,-77.5615234375,4761.76025390625,True
1599386126.139167,0.0,10,0.5,0.5,1.0751114501953125,-0.05075,-0.03,-0.5,0.30552434525346367,10,1,100,0.10983542483567843,-10,-1,-100,19293.317022438394,-0.02989875402086387,0.017975410983270344,0.9993912892896267,56.44808576422439,3.414652715134404,239.38470552579216,-75.77849351943732,-82.074951171875,4761.76025390625,True
1599386126.1710818,0.0,10,0.5,0.5,0.17528565979003907,-0.05075,-0.03,-0.5,0.24684325550995373,10,1,100,0.21194047054546783,-10,-1,-100,19291.797802218003,-0.02877349602972214,0.01846018245625009,0.9994154829648726,55.6260714776632,3.3648714702557103,236.49406386673405,-75.96100535344094,-84.36346435546875,4761.76025390625,True
1599386126.200008,0.0,10,0.5,0.5,4.060513732910156,-0.05075,-0.03,-0.5,0.3906773978442374,10,1,100,-0.20078154818970162,-10,-1,-100,19285.684413084644,-0.024011825163143576,0.020199321418935764,0.9995075885987805,52.10109831929731,3.1524562569734176,223.74019395135423,-76.69119477696785,-93.31640625,4761.76025390625,True
1599386126.2249374,0.0,10,0.5,0.5,-0.3058788757324218,-0.05075,-0.03,-0.5,0.21774078589818013,10,1,100,0.27365065933389093,-10,-1,-100,19285.684413084644,-0.024011825163143576,0.020199321418935764,0.9995075885987805,52.10109831929731,3.1524562569734176,223.74019395135423,-76.69119477696785,-93.31640625,4761.76025390625,True
1599386126.2498705,0.0,10,0.5,0.5,2.1423704528808596,-0.05075,-0.03,-0.5,0.2970595631183454,10,1,100,-0.0041570003629229635,-10,-1,-100,19282.605812489986,-0.021500644673716828,0.02091279557928965,0.9995500874191715,53.47487847820024,3.2366850190951615,230.7858927906187,-77.05627678714086,-97.58251953125,4761.76025390625,True
1599386126.2787948,0.0,10,0.5,0.5,0.12079959106445315,-0.05075,-0.03,-0.5,0.22662011408023022,10,1,100,0.24513212467093742,-10,-1,-100,19282.605812489986,-0.021500644673716828,0.02091279557928965,0.9995500874191715,53.47487847820024,3.2366850190951615,230.7858927906187,-77.05627678714086,-97.58251953125,4761.76025390625,True
1599386126.3067188,0.0,10,0.5,0.5,2.4908273029327392,-0.05075,-0.03,-0.5,0.29013382755250916,10,1,100,-0.027544481522686987,-10,-1,-100,19279.512610363425,-0.01903602266827596,0.02148373077971375,0.9995879546857084,54.65052931098171,3.3093429070929474,237.03097433157706,-77.42129110417945,-101.7166976928711,4761.76025390625,True
1599386126.339776,0.0,10,0.5,0.5,1.6265987548828125,-0.05075,-0.03,-0.5,0.2605112772149686,10,1,100,0.0816458225739282,-10,-1,-100,19277.960534835467,-0.01780282483829526,0.021727686044745897,0.9996054056911248,55.170784516498166,3.341709347309613,239.87846749590267,-77.60377372149243,-103.73306274414062,4761.76025390625,True
1599386126.3736768,0.0,10,0.5,0.5,1.7926434650421144,-0.05075,-0.03,-0.5,0.26019177608083777,10,1,100,0.0683060832725824,-10,-1,-100,19276.40480985935,-0.016576315134960513,0.02194055640193905,0.9996218473809584,55.6599870006981,3.3722640545192664,242.60162396610997,-77.78624030735696,-105.68645477294922,4761.76025390625,True
1599386126.4095573,0.0,10,0.5,0.5,2.9940309104919436,-0.05075,-0.03,-0.5,0.2766948759166283,10,1,100,-0.08639859994497018,-10,-1,-100,19273.282413150067,-0.014070040975391843,0.022278952939555084,0.9996527808208547,56.60458900757749,3.431482728468183,247.9308497482714,-78.15112572751585,-109.47608947753906,4761.76025390625,True
1599386126.4424667,0.0,10,0.5,0.5,4.9231673431396485,-0.05075,-0.03,-0.5,0.28027824458471806,10,1,100,-0.38017402784290766,-10,-1,-100,19266.99384146172,-0.009137380276019577,0.022614222392545763,0.9997025083629988,58.1348370693306,3.528461134436317,257.121069543272,-78.88072226187776,-116.24542236328125,4761.76025390625,True
1599386126.4734182,0.0,10,0.5,0.5,2.472616577148438,-0.05075,-0.03,-0.5,0.25032538721786635,10,1,100,-0.01912779412436698,-10,-1,-100,19265.412579553784,-0.007954255741072292,0.022642496999739296,0.9997119820954546,58.4214283137253,3.5468858723065466,259.01323663065665,-79.06308963248892,-117.75537109375,4761.76025390625,True
1599386126.5082912,0.0,10,0.5,0.5,1.8178179321289063,-0.05075,-0.03,-0.5,0.24791615795286195,10,1,100,0.09710273534149655,-10,-1,-100,19265.412579553784,-0.007954255741072292,0.022642496999739296,0.9997119820954546,58.4214283137253,3.5468858723065466,259.01323663065665,-79.06308963248892,-117.75537109375,4761.76025390625,True
1599386126.5453675,0.0,10,0.5,0.5,4.14264143371582,-0.05075,-0.03,-0.5,0.24472797099641042,10,1,100,-0.28386268586653896,-10,-1,-100,19260.646911805263,-0.0045055315204738525,0.022611292413243552,0.9997341794902886,59.060023522894454,3.5886183487378207,263.7381788003184,-79.61013183123475,-121.84344482421875,4761.76025390625,True
1599386126.5752945,0.0,10,0.5,0.5,3.482745876312256,-0.05075,-0.03,-0.5,0.23082969142521115,10,1,100,-0.1902719508036935,-10,-1,-100,19257.45156661293,-0.002238885541994475,0.022454383910332602,0.9997453615970104,59.33471371942442,3.607129813062292,266.232842675146,-79.97478569610449,-124.20124816894531,4761.76025390625,True
1599386126.6072357,0.0,10,0.5,0.5,2.971737953186035,-0.05075,-0.03,-0.5,0.24038158183830105,10,1,100,-0.07901403617095956,-10,-1,-100,19255.84842421685,-0.0012072445665214603,0.022397173740231608,0.9997484229389946,59.433515350689085,3.6139954391601865,267.31117291497395,-80.1571027145684,-125.26895141601562,4761.76025390625,True
1599386126.6401482,0.0,10,0.5,0.5,3.5754348907470703,-0.05075,-0.03,-0.5,0.2265313519974562,10,1,100,-0.20202348770287296,-10,-1,-100,19252.631201317185,0.0008304300613739519,0.022217903879622167,0.9997528070143684,59.57244706170514,3.6240609456819644,269.2090044218484,-80.52171998453804,-127.18359375,4761.76025390625,True
1599386126.6760874,0.0,10,0.5,0.5,2.69451441192627,-0.05075,-0.03,-0.5,0.2445317553683911,10,1,100,-0.00024267018629675792,-10,-1,-100,19252.631201317185,0.0008304300613739519,0.022217903879622167,0.9997528070143684,59.57244706170514,3.6240609456819644,269.2090044218484,-80.52171998453804,-127.18359375,4761.76025390625,True
1599386126.7070076,0.0,10,0.5,0.5,3.6571791610717774,-0.05075,-0.03,-0.5,0.2170840901727744,10,1,100,-0.2185013331704703,-10,-1,-100,19249.399394293316,0.0027976604022303757,0.021967933997993946,0.999754761415085,59.64906325222873,3.630210160450656,270.829906897796,-80.88631846735815,-128.80377197265625,4761.76025390625,True
1599386126.7419777,0.0,10,0.5,0.5,3.6460075912475585,-0.05075,-0.03,-0.5,0.21455032038918642,10,1,100,-0.2241217374836431,-10,-1,-100,19246.153003767715,0.004619533500822158,0.021717629491575623,0.9997534718516867,59.6777479444118,3.633327898295556,272.2355946779021,-81.25090154532639,-130.12844848632812,4761.76025390625,True
1599386126.7749379,0.0,10,0.5,0.5,3.349792755126953,-0.05075,-0.03,-0.5,0.22060636522539032,10,1,100,-0.1433686899479461,-10,-1,-100,19244.524339892552,0.005524672636057248,0.021545645187386255,0.9997526009797241,59.67896293541044,3.6340494717437397,272.87895969942286,-81.43318815795668,-130.68072509765625,4761.76025390625,True
1599386126.8099172,0.0,10,0.5,0.5,3.603144130706787,-0.05075,-0.03,-0.5,0.20200136188959072,10,1,100,-0.24045118729258058,-10,-1,-100,19241.256075124606,0.0072167654140293915,0.021221130859802432,0.999748759390073,59.65926281078173,3.6340797754236633,274.0643189412481,-81.79775273915608,-131.56349182128906,4761.76025390625,True
1599386126.8408356,0.0,10,0.5,0.5,3.526772605895996,-0.05075,-0.03,-0.5,0.19798436286272705,10,1,100,-0.24544165509275154,-10,-1,-100,19237.973228378687,0.008786607627500984,0.020890891812791048,0.999743150096897,59.62014282526888,3.6328550989112154,275.1595258870763,-82.16230690690506,-132.15103149414062,4761.76025390625,True
1599386126.8748615,0.0,10,0.5,0.5,3.437643135070801,-0.05075,-0.03,-0.5,0.18865498936788466,10,1,100,-0.25428652158831266,-10,-1,-100,19234.67579941952,0.010278925823008829,0.020507454379361176,0.9997368593779082,59.570765725597035,3.630953865864499,276.2058619104837,-82.52685182761849,-132.44418334960938,4761.76025390625,True
1599386126.9077737,0.0,10,0.5,0.5,3.342500648498535,-0.05075,-0.03,-0.5,0.20743979958530195,10,1,100,-0.18224447952152406,-10,-1,-100,19233.02161688509,0.010967210657096535,0.02033155847643225,0.9997331384026051,59.54324380461811,3.6298175556701375,276.71521596286584,-82.70912105294816,-132.47982788085938,4761.76025390625,True
1599386126.9429476,0.0,10,0.5,0.5,3.2669806175231932,-0.05075,-0.03,-0.5,0.1847661550458563,10,1,100,-0.25739017043678747,-10,-1,-100,19229.70231568627,0.012264061245315852,0.019967458910169086,0.9997254089931104,59.485735336515084,3.6273810891441474,277.7209599389197,-83.07365345157753,-132.32997131347656,4761.76025390625,True
1599386126.9738264,0.0,10,0.5,0.5,3.260876808166504,-0.05075,-0.03,-0.5,0.20101716176526596,10,1,100,-0.19566706076509569,-10,-1,-100,19228.037197277183,0.012869650505034545,0.0197864045608609,0.9997213963352151,59.45622788725091,3.6261152328288757,278.2195473532491,-83.25591672523404,-132.14437866210938,4761.76025390625,True
1599386127.007827,0.0,10,0.5,0.5,3.042379650115967,-0.05075,-0.03,-0.5,0.17789755672168373,10,1,100,-0.2605585609631711,-10,-1,-100,19224.696024674922,0.013999164178903442,0.019413841924110675,0.9997135220372072,59.39513516446026,3.623465716883646,279.2054062465636,-83.62043762454962,-131.55213928222656,4761.76025390625,True
1599386127.0408127,0.0,10,0.5,0.5,2.862774013519287,-0.05075,-0.03,-0.5,0.17670757650690522,10,1,100,-0.2587299259404841,-10,-1,-100,19221.340271702735,0.014997399260289349,0.019066879763253858,0.9997057227562126,59.32837608443312,3.6204980860057536,280.16238287304094,-83.9849517754052,-130.66456604003906,4761.76025390625,True
1599386127.0772274,0.0,10,0.5,0.5,3.0069430084228514,-0.05075,-0.03,-0.5,0.1907360420361498,10,1,100,-0.2111335068509273,-10,-1,-100,19219.656927652773,0.015461100307227785,0.018881628443863284,0.9997021748924015,59.29161189828222,3.6188235415948844,280.623979827156,-84.16720665534551,-130.11041259765625,4761.76025390625,True
1599386127.1076279,0.0,10,0.5,0.5,1.6569017448425294,-0.05075,-0.03,-0.5,0.13257749936481625,10,1,100,-0.33502406614683816,-10,-1,-100,19212.8871002082,0.016999068555492457,0.018187082311994014,0.9996900828282846,59.09967413573816,3.609535532866672,282.24963843583697,-84.89621483684932,-127.15614318847656,4761.76025390625,True
1599386127.1405973,0.0,10,0.5,0.5,2.6153282623291014,-0.05075,-0.03,-0.5,0.18185300621117018,10,1,100,-0.21727270445801294,-10,-1,-100,19211.185530757066,0.017316323314998806,0.018006689129693706,0.9996879033445575,59.0350118346135,3.6062402254446333,282.5740717382069,-85.07846529925948,-126.2335205078125,4761.76025390625,True
1599386127.174472,0.0,10,0.5,0.5,3.0606496887207033,-0.05075,-0.03,-0.5,0.19957088026819006,10,1,100,-0.18655718429747492,-10,-1,-100,19211.185530757066,0.017316323314998806,0.018006689129693706,0.9996879033445575,59.0350118346135,3.6062402254446333,282.5740717382069,-85.07846529925948,-126.2335205078125,4761.76025390625,True
1599386127.210506,0.0,10,0.5,0.5,0.6045577545166019,-0.05075,-0.03,-0.5,0.12361500809026403,10,1,100,-0.2928396535112866,-10,-1,-100,19204.342802747036,0.018274773293590278,0.01731880320324265,0.9996829956124468,58.66371451378844,3.5863823745763943,283.31593767173143,-85.80747117646139,-121.80621337890625,4761.76025390625,True
1599386127.241422,0.0,10,0.5,0.5,1.324132465362549,-0.05075,-0.03,-0.5,0.15126817298998535,10,1,100,-0.23292815544269288,-10,-1,-100,19200.899568199413,0.018594172521258417,0.01694774354299017,0.9996834652714081,58.38449032869717,3.570852843738263,283.2224036908205,-86.17198329037315,-119.15135192871094,4761.76025390625,True
1599386127.2745948,0.0,10,0.5,0.5,1.8291524085998536,-0.05075,-0.03,-0.5,0.17011450290668345,10,1,100,-0.21335303295061242,-10,-1,-100,19199.17248321697,0.018699646194788574,0.016784823046488304,0.9996842466236466,58.21397837946486,3.561222895366347,283.0213215676308,-86.35424370600593,-117.73069763183594,4761.76025390625,True
1599386127.308558,0.0,10,0.5,0.5,0.8420325069427488,-0.05075,-0.03,-0.5,0.14647060787027893,10,1,100,-0.2189294383973234,-10,-1,-100,19195.70737740281,0.018840375415741115,0.016424662309213547,0.9996875865600324,57.81178575316554,3.5382533813269554,282.310349300349,-86.71877633583816,-114.72815704345703,4761.76025390625,True
1599386127.344026,0.0,10,0.5,0.5,0.4862713623046875,-0.05075,-0.03,-0.5,0.13890278294511438,10,1,100,-0.21009932102327333,-10,-1,-100,19192.22768954246,0.018882609345105963,0.01603150117805468,0.9996931719454216,57.30922708171618,3.5091551727917554,281.0910767898939,-87.08332922218506,-111.45120239257812,4761.76025390625,True
1599386127.3739758,0.0,10,0.5,0.5,2.0644458770751952,-0.05075,-0.03,-0.5,0.1778806619863956,10,1,100,-0.20636427260340878,-10,-1,-100,19192.22768954246,0.018882609345105963,0.01603150117805468,0.9996931719454216,57.30922708171618,3.5091551727917554,281.0910767898939,-87.08332922218506,-111.45120239257812,4761.76025390625,True
1599386127.4080334,0.0,10,0.5,0.5,1.0482792625427244,-0.05075,-0.03,-0.5,0.15609748193717832,10,1,100,-0.20459259569611932,-10,-1,-100,19190.482377190725,0.018862971182235316,0.015836231703593794,0.9996966550327195,57.011713064897634,3.4917662537020693,280.2465655849062,-87.26561533488996,-109.71080017089844,4761.76025390625,True
1599386127.432967,0.0,10,0.5,0.5,-1.2086814250946045,-0.05075,-0.03,-0.5,0.10497958204757125,10,1,100,-0.18409986808742318,-10,-1,-100,19185.224564292817,0.018655728173296575,0.015196774361214988,0.9997104690135731,56.034544383632515,3.4342951999690587,277.2579544744074,-87.8125187837048,-104.14391326904297,4761.76025390625,True
1599386127.462886,0.0,10,0.5,0.5,1.5057253360748293,-0.05075,-0.03,-0.5,0.1686262854903739,10,1,100,-0.20498983494307774,-10,-1,-100,19185.224564292817,0.018655728173296575,0.015196774361214988,0.9997104690135731,56.034544383632515,3.4342951999690587,277.2579544744074,-87.8125187837048,-104.14391326904297,4761.76025390625,True
1599386127.4878094,0.0,10,0.5,0.5,-1.9053900241851807,-0.05075,-0.03,-0.5,0.08958735833820058,10,1,100,-0.1598448983670503,-10,-1,-100,19179.933933762717,0.018244102018188782,0.014480793127802939,0.9997286928821937,54.87473258767089,3.3652823180051987,273.2995870135891,-88.35949801698793,-98.0706558227539,4761.76025390625,True
1599386127.5177054,0.0,10,0.5,0.5,1.0467501049041747,-0.05075,-0.03,-0.5,0.16083289207921644,10,1,100,-0.20110029174814859,-10,-1,-100,19179.933933762717,0.018244102018188782,0.014480793127802939,0.9997286928821937,54.87473258767089,3.3652823180051987,273.2995870135891,-88.35949801698793,-98.0706558227539,4761.76025390625,True
1599386127.5426729,0.0,10,0.5,0.5,-2.3133759632110595,-0.05075,-0.03,-0.5,0.07174965758436799,10,1,100,-0.13538136194145176,-10,-1,-100,19174.61048171809,0.017646685084741903,0.013673525550645625,0.9997507835478479,53.61061295729955,3.2893159774653467,268.74582665127923,-88.90655767243858,-92.09894561767578,4761.76025390625,True
1599386127.5775456,0.0,10,0.5,0.5,-0.46411697196960455,-0.05075,-0.03,-0.5,0.12096493196294274,10,1,100,-0.16940753332011907,-10,-1,-100,19172.828702867148,0.01741376896453855,0.01339003408211906,0.9997587047071556,53.15325053436709,3.2616368324464364,267.02933344408325,-89.08892900169974,-90.18257904052734,4761.76025390625,True
1599386127.6084967,0.0,10,0.5,0.5,0.41142196083068844,-0.05075,-0.03,-0.5,0.14897459991916231,10,1,100,-0.19257055761742947,-10,-1,-100,19172.828702867148,0.01741376896453855,0.01339003408211906,0.9997587047071556,53.15325053436709,3.2616368324464364,267.02933344408325,-89.08892900169974,-90.18257904052734,4761.76025390625,True
1599386127.6434116,0.0,10,0.5,0.5,-2.8024503250122073,-0.05075,-0.03,-0.5,0.04478863287407914,10,1,100,-0.10329841145968492,-10,-1,-100,19167.46148278832,0.016603500914423783,0.01244564768009748,0.999784691626756,54.170282533104555,3.324772430792123,273.90145561319105,-89.63601693847247,-84.4808349609375,4761.76025390625,True
1599386127.899761,0.0,10,0.5,0.5,-2.04991716003418,-0.05075,-0.03,-0.5,0.06171977813761814,10,1,100,-0.11549145735253133,-10,-1,-100,19163.86510237574,0.015979811384645947,0.011744293956562724,0.9998033392560624,55.51667418398294,3.4075760375951223,281.91421000870395,-90.00065808869451,-80.81777954101562,4761.76025390625,True
1599386127.9286447,0.0,10,0.5,0.5,-0.31028971862792976,-0.05075,-0.03,-0.5,0.13142642976894459,10,1,100,-0.17757013053426896,-10,-1,-100,19163.86510237574,0.015979811384645947,0.011744293956562724,0.9998033392560624,55.51667418398294,3.4075760375951223,281.91421000870395,-90.00065808869451,-80.81777954101562,4761.76025390625,True
1599386127.9637024,0.0,10,0.5,0.5,-2.4177916793823244,-0.05075,-0.03,-0.5,0.050046218715034105,10,1,100,-0.1037841845720391,-10,-1,-100,19160.254138253513,0.01531165111207803,0.01100819379947902,0.9998221706931165,56.78340129865155,3.4852875030527146,289.57939240722925,-90.36523312118464,-77.1485595703125,4761.76025390625,True
1599386127.9885342,0.0,10,0.5,0.5,-2.561623191833496,-0.05075,-0.03,-0.5,0.03725090404467174,10,1,100,-0.09130549892645339,-10,-1,-100,19156.628593174974,0.014593830155748434,0.010226498596546665,0.9998412068162824,57.939834022434724,3.5560667101996772,296.7348285520709,-90.72974402905909,-73.70333862304688,4761.76025390625,True
1599386128.0753963,0.0,10,0.5,0.5,-1.837236557006836,-0.05075,-0.03,-0.5,0.06761249319118665,10,1,100,-0.12028462565663134,-10,-1,-100,19154.81035338284,0.014208404891193644,0.009796399473180721,0.9998510648030585,58.465023974362836,3.588156510948755,300.05926149322215,-90.91197698277492,-72.05667114257812,4761.76025390625,True
1599386128.1036172,0.0,10,0.5,0.5,-2.840939064025879,-0.05075,-0.03,-0.5,0.01458374153279307,10,1,100,-0.07185267492268903,-10,-1,-100,19151.162941262126,0.013421396641405264,0.008927579249275942,0.9998700737800598,59.43805384341527,3.6475269040115275,306.3437305911968,-91.27640052155122,-68.88101196289062,4761.76025390625,True
1599386128.136499,0.0,10,0.5,0.5,-3.6869628219604493,-0.05075,-0.03,-0.5,-0.050140007787938465,10,1,100,-0.012913287866996581,-10,-1,-100,19145.664494945202,0.012174506264161155,0.0075543933372454256,0.9998973510008564,60.69451458403821,3.7240407138449263,314.7965766441165,-91.82293876347778,-64.620849609375,4761.76025390625,True
1599386128.168412,0.0,10,0.5,0.5,-1.639315933227539,-0.05075,-0.03,-0.5,0.08656667019377313,10,1,100,-0.13705510770934948,-10,-1,-100,19145.664494945202,0.012174506264161155,0.0075543933372454256,0.9998973510008564,60.69451458403821,3.7240407138449263,314.7965766441165,-91.82293876347778,-64.620849609375,4761.76025390625,True
1599386128.1933825,0.0,10,0.5,0.5,-3.078051856994629,-0.05075,-0.03,-0.5,-0.020040359309236908,10,1,100,-0.04062035164856799,-10,-1,-100,19141.98064810899,0.011302589629699848,0.006590543651531583,0.99991440443772,61.40344802465716,3.7671473368717376,319.80722514151813,-92.18724062089214,-62.14776611328125,4761.76025390625,True
1599386128.2279968,0.0,10,0.5,0.5,-2.545645294189453,-0.05075,-0.03,-0.5,0.02411328026327845,10,1,100,-0.07870662590078054,-10,-1,-100,19140.133260450093,0.010861732618241355,0.0061218947428424,0.9999222695636334,61.7250530716729,3.786691052011207,322.15271691799387,-92.36937635639296,-61.02197265625,4761.76025390625,True
1599386128.2529337,0.0,10,0.5,0.5,-3.170155334472656,-0.05075,-0.03,-0.5,-0.040289325646224144,10,1,100,-0.02165936819206611,-10,-1,-100,19136.42755777156,0.009947561872560032,0.0051161209111633505,0.9999374337025362,62.31220993387059,3.822360471750785,326.57122361049227,-92.73362007649452,-58.9937744140625,4761.76025390625,True
1599386128.282811,0.0,10,0.5,0.5,-2.7189310455322264,-0.05075,-0.03,-0.5,0.005287349465446317,10,1,100,-0.061597635069363235,-10,-1,-100,19134.569243123173,0.009485056574927063,0.004622140086147946,0.9999443332120016,62.58110986564376,3.838693469159305,328.6606360808429,-92.91572909072433,-58.09063720703125,4761.76025390625,True
1599386128.3087447,0.0,10,0.5,0.5,-3.5828326110839845,-0.05075,-0.03,-0.5,-0.11223708206406469,10,1,100,0.04968904638522077,-10,-1,-100,19128.97244755167,0.008058804431864254,0.0031111373712024003,0.9999626875515838,63.30746147793199,3.8828101202076155,334.5403059719335,-93.4620095316216,-55.825927734375,4761.76025390625,True
1599386128.344783,0.0,10,0.5,0.5,-2.5144457702636718,-0.05075,-0.03,-0.5,0.03807348378766219,10,1,100,-0.09221088325303876,-10,-1,-100,19128.97244755167,0.008058804431864254,0.0031111373712024003,0.9999626875515838,63.30746147793199,3.8828101202076155,334.5403059719335,-93.4620095316216,-55.825927734375,4761.76025390625,True
1599386128.3756666,0.0,10,0.5,0.5,-2.902296257019043,-0.05075,-0.03,-0.5,-0.017937081583505127,10,1,100,-0.0380180558240297,-10,-1,-100,19127.09956551972,0.007572083296804066,0.002608418923487556,0.9999679293383692,63.527146308145795,3.8961526685345613,336.3923009339875,-93.64408866328041,-55.219085693359375,4761.76025390625,True
1599386128.4097521,0.0,10,0.5,0.5,-3.578240776062012,-0.05075,-0.03,-0.5,-0.19565004015966644,10,1,100,0.1348814817067432,-10,-1,-100,19119.57162466331,0.005563828579737223,0.0005423643299177702,0.9999843747041595,64.3202726648832,3.9442971084748413,343.3931260116769,-94.37234175795952,-53.532562255859375,4761.76025390625,True
1599386128.44298,0.0,10,0.5,0.5,-2.7810244064331058,-0.05075,-0.03,-0.5,0.010116897705376328,10,1,100,-0.06515823319377427,-10,-1,-100,19119.57162466331,0.005563828579737223,0.0005423643299177702,0.9999843747041595,64.3202726648832,3.9442971084748413,343.3931260116769,-94.37234175795952,-53.532562255859375,4761.76025390625,True
1599386128.478892,0.0,10,0.5,0.5,-3.083748008728027,-0.05075,-0.03,-0.5,-0.15390865525222217,10,1,100,0.10684291790831196,-10,-1,-100,19113.887438579928,0.004006191458522279,-0.0009424024887810092,0.9999915311179124,64.84120227027873,3.975841490773591,348.29455598746864,-94.9184715904517,-53.043304443359375,4761.76025390625,True
1599386128.5088065,0.0,10,0.5,0.5,-2.873851737976074,-0.05075,-0.03,-0.5,-0.006281652964946875,10,1,100,-0.04810396273261855,-10,-1,-100,19113.887438579928,0.004006191458522279,-0.0009424024887810092,0.9999915311179124,64.84120227027873,3.975841490773591,348.29455598746864,-94.9184715904517,-53.043304443359375,4761.76025390625,True
1599386128.5427215,0.0,10,0.5,0.5,-2.8038997955322262,-0.05075,-0.03,-0.5,-0.17444395255735795,10,1,100,0.13006913901096764,-10,-1,-100,19108.17048623087,0.002393069077372566,-0.0024643025340390077,0.999994100199302,65.30433398087207,4.003742395547813,352.92013794810714,-95.46455621861891,-53.21990966796875,4761.76025390625,True
1599386128.575627,0.0,10,0.5,0.5,-2.915608596801758,-0.05075,-0.03,-0.5,-0.02311256775924626,10,1,100,-0.030396232749916784,-10,-1,-100,19108.17048623087,0.002393069077372566,-0.0024643025340390077,0.999994100199302,65.30433398087207,4.003742395547813,352.92013794810714,-95.46455621861891,-53.21990966796875,4761.76025390625,True
1599386128.6114273,0.0,10,0.5,0.5,-2.2351813049316407,-0.05075,-0.03,-0.5,-0.22656026552962166,10,1,100,0.21268818608595041,-10,-1,-100,19100.496918242774,0.00019007844504212565,-0.004306935765183146,0.9999907070440701,65.81416535090453,4.034070985553744,358.55240785807047,-96.19260976498917,-54.48681640625,4761.76025390625,True
1599386128.6423707,0.0,10,0.5,0.5,-2.8794461364746096,-0.05075,-0.03,-0.5,-0.04318985000034098,10,1,100,-0.0066813793341051406,-10,-1,-100,19100.496918242774,0.00019007844504212565,-0.004306935765183146,0.9999907070440701,65.81416535090453,4.034070985553744,358.55240785807047,-96.19260976498917,-54.48681640625,4761.76025390625,True
1599386128.6763587,0.0,10,0.5,0.5,-2.2905265045166017,-0.05075,-0.03,-0.5,-0.14623047928252236,10,1,100,0.11961711148784693,-10,-1,-100,19096.63829357887,-0.0009509362660785096,-0.005236925055806262,0.9999858350677662,66.00794749495024,4.045332577790534,361.052914222453,-96.55661650178226,-55.56341552734375,4761.76025390625,True
1599386128.7095063,0.0,10,0.5,0.5,-2.4729740676879883,-0.05075,-0.03,-0.5,-0.09481066492233299,10,1,100,0.06753119978810354,-10,-1,-100,19094.703521120013,-0.0015065234055560172,-0.005607327859982821,0.9999831439886872,66.08540507912222,4.04972734198294,362.20040136107735,-96.73861616563305,-56.210968017578125,4761.76025390625,True
1599386128.7454638,0.0,10,0.5,0.5,-1.95818701171875,-0.05075,-0.03,-0.5,-0.14527812715165545,10,1,100,0.1385557769101974,-10,-1,-100,19090.823056539986,-0.002649027318279732,-0.006395383932424923,0.9999760405722848,66.19277866539612,4.055507742839289,364.24007171192665,-97.1026104794585,-57.7281494140625,4761.76025390625,True
1599386128.77541,0.0,10,0.5,0.5,-1.1472229843139647,-0.05075,-0.03,-0.5,-0.18312683226769766,10,1,100,0.21433088963488234,-10,-1,-100,19084.975059977034,-0.004369065667436593,-0.0074495706372796336,0.9999627068858687,66.2082671473007,4.055024105671238,366.50590961682866,-97.64859818074443,-60.555145263671875,4761.76025390625,True
1599386128.8094623,0.0,10,0.5,0.5,-2.539653160095215,-0.05075,-0.03,-0.5,-0.07850735527894633,10,1,100,0.04332034414391362,-10,-1,-100,19084.975059977034,-0.004369065667436593,-0.0074495706372796336,0.9999627068858687,66.2082671473007,4.055024105671238,366.50590961682866,-97.64859818074443,-60.555145263671875,4761.76025390625,True
1599386128.8423843,0.0,10,0.5,0.5,-1.2769048767089846,-0.05075,-0.03,-0.5,-0.14629626704233034,10,1,100,0.16954110602583006,-10,-1,-100,19081.058195792255,-0.005508913268975871,-0.00805991786408449,0.9999523436637462,66.09641735521583,4.047077849428716,367.3405168923024,-98.0125956138746,-62.8070068359375,4761.76025390625,True
1599386128.8783414,0.0,10,0.5,0.5,-1.6928721466064456,-0.05075,-0.03,-0.5,-0.11536080757038808,10,1,100,0.11790673262817927,-10,-1,-100,19079.09430392948,-0.006067084871553391,-0.008327077061093698,0.9999469237258445,65.99638740553507,4.04037141500386,367.51119107890975,-98.19459847039191,-64.04290771484375,4761.76025390625,True
1599386128.9094954,0.0,10,0.5,0.5,-0.7954061050415038,-0.05075,-0.03,-0.5,-0.14675542117036355,10,1,100,0.18773633676779372,-10,-1,-100,19075.15559935558,-0.007201637135212244,-0.008850024841531797,0.9999349046227344,65.69419752893155,4.0206685128475135,367.2767105199096,-98.55861736503755,-66.73550415039062,4761.76025390625,True
1599386128.9426253,0.0,10,0.5,0.5,-0.456790283203125,-0.05075,-0.03,-0.5,-0.14168733300143976,10,1,100,0.195953879533481,-10,-1,-100,19071.20233300503,-0.008299030758033281,-0.009273553183751223,0.9999225606514864,65.23783098316324,3.991530120577782,366.1660233757694,-98.92266068334331,-69.72119140625,4761.76025390625,True
1599386128.976607,0.0,10,0.5,0.5,-0.0977571868896483,-0.05075,-0.03,-0.5,-0.141610421216881,10,1,100,0.20772077892587543,-10,-1,-100,19067.234504235792,-0.00939591576488956,-0.00965336464461965,0.9999092605421639,64.60313522156306,3.9515600159754016,364.0329195417762,-99.28673748180043,-73.00067138671875,4761.76025390625,True
1599386129.011588,0.0,10,0.5,0.5,-0.7233702621459961,-0.05075,-0.03,-0.5,-0.12091133200963414,10,1,100,0.1568409386128434,-10,-1,-100,19065.245128281298,-0.009921825409904128,-0.00980561386272558,0.9999026989249056,64.21137662772453,3.9270832284560315,362.5367120223826,-99.46879140078683,-74.74118041992188,4761.76025390625,True
1599386129.0435903,0.0,10,0.5,0.5,2.489704788208008,-0.05075,-0.03,-0.5,-0.1569123858606738,10,1,100,0.32686729416371463,-10,-1,-100,19057.251208866946,-0.011937463874794543,-0.010267151197097767,0.9998760335974325,62.167849308957095,3.8007504121639064,353.7599376844446,-100.1971351156106,-82.05084228515625,4761.76025390625,True
1599386129.076413,0.0,10,0.5,0.5,-0.045638885498046955,-0.05075,-0.03,-0.5,-0.12015494824957328,10,1,100,0.17980116732225943,-10,-1,-100,19055.243623657385,-0.012423415016618746,-0.010348335865210556,0.9998692768077965,61.55579730509351,3.763221284233795,350.96195734107584,-100.37925674165223,-83.9427490234375,4761.76025390625,True
1599386129.109329,0.0,10,0.5,0.5,1.2075264434814452,-0.05075,-0.03,-0.5,-0.12377403651888941,10,1,100,0.23019792641928385,-10,-1,-100,19051.217525682878,-0.013314455330342482,-0.010451447318731615,0.9998567360018135,61.86513013932188,3.7822678569389288,354.103537100203,-100.74350370429534,-87.79290771484375,4761.76025390625,True
1599386129.1463375,0.0,10,0.5,0.5,0.4124812774658203,-0.05075,-0.03,-0.5,-0.11788298560609947,10,1,100,0.1905092583327057,-10,-1,-100,19049.199013550184,-0.013755553733247071,-0.010488901016651349,0.9998503726543061,62.6621550951043,3.8312413195459567,359.36392056255175,-100.92559604603392,-89.69635009765625,4761.76025390625,True
1599386129.1752634,0.0,10,0.5,0.5,1.617920789718628,-0.05075,-0.03,-0.5,-0.11802833306229019,10,1,100,0.2376847422451813,-10,-1,-100,19045.151065543643,-0.014576887145941193,-0.01052150814583523,0.9998383930553335,64.1617733498191,3.9237535577708487,369.39507062425463,-101.28971895142799,-93.45438385009766,4761.76025390625,True
1599386129.207176,0.0,10,0.5,0.5,0.8330596084594727,-0.05075,-0.03,-0.5,-0.11483752134839774,10,1,100,0.1990594219043767,-10,-1,-100,19043.121630506474,-0.014964170996313112,-0.010519905801983599,0.9998326885876009,64.85210266078003,3.966528307123406,374.0928822939136,-101.47175035605436,-95.27410888671875,4761.76025390625,True
1599386129.233109,0.0,10,0.5,0.5,1.9529572887420654,-0.05075,-0.03,-0.5,-0.11170292690650105,10,1,100,0.23984791228353727,-10,-1,-100,19039.051840058528,-0.0156789634218029,-0.010487959331973155,0.9998220705780947,66.16176362659961,4.048002474773058,383.12384786073363,-101.8357546675639,-98.78943634033203,4761.76025390625,True
1599386129.2643163,0.0,10,0.5,0.5,2.08584686088562,-0.05075,-0.03,-0.5,-0.10776811477722636,10,1,100,0.24020148066830854,-10,-1,-100,19034.967491637915,-0.016324282315485543,-0.010421657035797127,0.9998124358456002,67.39119860384478,4.124855362183955,391.74702159874744,-102.19968112916023,-102.04752349853516,4761.76025390625,True
1599386129.29327,0.0,10,0.5,0.5,1.394676918029785,-0.05075,-0.03,-0.5,-0.10985346671843571,10,1,100,0.20839728022211995,-10,-1,-100,19032.919859305373,-0.01661451107699764,-0.010379296235237144,0.9998080957020369,67.97099628888996,4.161225221345242,395.87579595862485,-102.38161654258741,-103.5743408203125,4761.76025390625,True
1599386129.3261518,0.0,10,0.5,0.5,2.2844196357727053,-0.05075,-0.03,-0.5,-0.10301814265913203,10,1,100,0.23749721238410088,-10,-1,-100,19028.81367987697,-0.017136337884106546,-0.010277987169106564,0.9998003345186844,69.07885689570682,4.230906789253995,403.8696304778151,-102.74543286709037,-106.40943908691406,4761.76025390625,True
1599386129.3520827,0.0,10,0.5,0.5,1.681679880142212,-0.05075,-0.03,-0.5,-0.10657271441196281,10,1,100,0.21227206267534948,-10,-1,-100,19026.75513338484,-0.017374847700058538,-0.010217772876462335,0.9997968352544654,69.56920357580516,4.26188897584548,407.5126113330505,-102.92731597364885,-107.71639251708984,4761.76025390625,True
1599386129.3839965,0.0,10,0.5,0.5,2.422592874526978,-0.05075,-0.03,-0.5,-0.09850430038686617,10,1,100,0.2339111842120467,-10,-1,-100,19022.627128752996,-0.0177834510159619,-0.010089728281394553,0.9997909512759008,70.43529044357845,4.316861361434997,414.1575065412744,-103.29103717764026,-110.10839080810547,4761.76025390625,True
1599386129.4119225,0.0,10,0.5,0.5,1.9026496982574463,-0.05075,-0.03,-0.5,-0.10371659757331814,10,1,100,0.21307899953964007,-10,-1,-100,19020.55767101387,-0.017960652318852768,-0.01002094372174051,0.9997884754562871,70.81578133623873,4.341128499525887,417.18488048674067,-103.47287719125977,-111.1933822631836,4761.76025390625,True
1599386129.444115,0.0,10,0.5,0.5,1.4303553943634035,-0.05075,-0.03,-0.5,-0.11055200317902326,10,1,100,0.1958234889494044,-10,-1,-100,19020.55767101387,-0.017960652318852768,-0.01002094372174051,0.9997884754562871,70.81578133623873,4.341128499525887,417.18488048674067,-103.47287719125977,-111.1933822631836,4761.76025390625,True
1599386129.4765363,0.0,10,0.5,0.5,3.0430703239440917,-0.05075,-0.03,-0.5,-0.08676034898964893,10,1,100,0.24147864048441936,-10,-1,-100,19014.327479562722,-0.018371876334093262,-0.009805081372105208,0.9997831437563104,71.7750423272031,4.402709044556732,425.2387145518596,-104.01832527608515,-114.00450134277344,4761.76025390625,True
1599386129.5125039,0.0,10,0.5,0.5,2.5276349925994874,-0.05075,-0.03,-0.5,-0.09111568822338624,10,1,100,0.22119399260390454,-10,-1,-100,19010.155839008163,-0.018557860467954348,-0.009649088162537754,0.9997812265253252,72.28326251125957,4.435642561021364,429.863306109238,-104.3819053373706,-115.5087661743164,4761.76025390625,True
1599386129.5434465,0.0,10,0.5,0.5,1.8362065486907961,-0.05075,-0.03,-0.5,-0.10662792741618703,10,1,100,0.2029549481649601,-10,-1,-100,19010.155839008163,-0.018557860467954348,-0.009649088162537754,0.9997812265253252,72.28326251125957,4.435642561021364,429.863306109238,-104.3819053373706,-115.5087661743164,4761.76025390625,True
1599386129.587333,0.0,10,0.5,0.5,2.8240496921539306,-0.05075,-0.03,-0.5,-0.08326528985196754,10,1,100,0.21657115897777823,-10,-1,-100,19003.87111192022,-0.018679027023483466,-0.00943746315847161,0.9997809901366341,72.88411914503509,4.475016826115113,435.8780957497301,-104.92721101159914,-117.2113265991211,4761.76025390625,True
1599386129.6212344,0.0,10,0.5,0.5,2.018260889053345,-0.05075,-0.03,-0.5,-0.1043293708708495,10,1,100,0.20468997789566623,-10,-1,-100,19003.87111192022,-0.018679027023483466,-0.00943746315847161,0.9997809901366341,72.88411914503509,4.475016826115113,435.8780957497301,-104.92721101159914,-117.2113265991211,4761.76025390625,True
1599386129.6511571,0.0,10,0.5,0.5,2.48090704536438,-0.05075,-0.03,-0.5,-0.08831122223945491,10,1,100,0.20405366446836687,-10,-1,-100,18999.66311822424,-0.01867136552328394,-0.0092926998373469,0.9997824892641543,73.1930946778494,4.4955743691525525,439.3613803611845,-105.29071200287355,-117.9770736694336,4761.76025390625,True
1599386129.678091,0.0,10,0.5,0.5,2.391988765716553,-0.05075,-0.03,-0.5,-0.08862696312503004,10,1,100,0.1958701361119254,-10,-1,-100,18995.44058510207,-0.018588609331099286,-0.00916486290558581,0.9997852113784528,73.43877582770087,4.512206328504984,442.47796063509776,-105.6541886047216,-118.44779968261719,4761.76025390625,True
1599386129.71001,0.0,10,0.5,0.5,2.2729502029418946,-0.05075,-0.03,-0.5,-0.08012139941391783,10,1,100,0.17574347607552093,-10,-1,-100,18989.07952650229,-0.01832930337275407,-0.008972281397493688,0.9997917457172736,73.70012509117674,4.530541945501726,446.5259259963822,-106.1993655352405,-118.60055541992188,4761.76025390625,True
1599386129.7489936,0.0,10,0.5,0.5,2.1689075374603273,-0.05075,-0.03,-0.5,-0.09273320152473682,10,1,100,0.18860906974665556,-10,-1,-100,18986.951904522022,-0.01821003439639892,-0.008912875906493659,0.9997944565211178,73.75983485600972,4.5349732761160615,447.7133260697823,-106.381082742703,-118.50406646728516,4761.76025390625,True
1599386129.7809076,0.0,10,0.5,0.5,2.2390840663909914,-0.05075,-0.03,-0.5,-0.09856294384321504,10,1,100,0.200560905589925,-10,-1,-100,18986.951904522022,-0.01821003439639892,-0.008912875906493659,0.9997944565211178,73.75983485600972,4.5349732761160615,447.7133260697823,-106.381082742703,-118.50406646728516,4761.76025390625,True
1599386129.8107028,0.0,10,0.5,0.5,1.64259889793396,-0.05075,-0.03,-0.5,-0.0729979780181369,10,1,100,0.12974475492746795,-10,-1,-100,18978.4050754942,-0.017566024497578814,-0.008681474460643173,0.9998080149631426,73.86091505251703,4.544323234851029,451.6369570850897,-107.10792033468587,-117.3812026977539,4761.76025390625,True
1599386129.8376281,0.0,10,0.5,0.5,2.2141608867645264,-0.05075,-0.03,-0.5,-0.09602576191203929,10,1,100,0.1940651596258271,-10,-1,-100,18978.4050754942,-0.017566024497578814,-0.008681474460643173,0.9998080149631426,73.86091505251703,4.544323234851029,451.6369570850897,-107.10792033468587,-117.3812026977539,4761.76025390625,True
1599386129.8685105,0.0,10,0.5,0.5,1.9637697029113772,-0.05075,-0.03,-0.5,-0.08976289794847511,10,1,100,0.17140532881884118,-10,-1,-100,18976.259282882093,-0.017360927704761102,-0.008625418982521584,0.9998120825118119,73.84935557433096,4.544432093239725,452.39448750359776,-107.28962408571778,-116.91636657714844,4761.76025390625,True
1599386129.895471,0.0,10,0.5,0.5,1.1890789012908938,-0.05075,-0.03,-0.5,-0.07653788064435166,10,1,100,0.11557051073014857,-10,-1,-100,18969.800101040746,-0.01666797494026888,-0.008455162635264487,0.9998253291631501,73.71195191910564,4.5385571467732255,454.03500463314134,-107.83473010016453,-115.08008575439453,4761.76025390625,True
1599386129.9214077,0.0,10,0.5,0.5,2.100825590133667,-0.05075,-0.03,-0.5,-0.09346528531774065,10,1,100,0.1846646819710494,-10,-1,-100,18969.800101040746,-0.01666797494026888,-0.008455162635264487,0.9998253291631501,73.71195191910564,4.5385571467732255,454.03500463314134,-107.83473010016453,-115.08008575439453,4761.76025390625,True
1599386129.9561455,0.0,10,0.5,0.5,1.676259870529175,-0.05075,-0.03,-0.5,-0.08702375078241648,10,1,100,0.15496461342509793,-10,-1,-100,18967.639772276627,-0.016399802546290424,-0.008397496230873547,0.9998302498591924,73.62837638062864,4.534317106242753,454.3474906246932,-108.01643227848602,-114.32080841064453,4761.76025390625,True
1599386129.988101,0.0,10,0.5,0.5,1.087004093170166,-0.05075,-0.03,-0.5,-0.07916997811433998,10,1,100,0.12054333460763829,-10,-1,-100,18963.30821243953,-0.015845153801584917,-0.008274488114996063,0.9998402192087689,73.39481978590096,4.521813009656453,454.5568752349556,-108.37984108312828,-112.58149719238281,4761.76025390625,True
1599386130.0160213,0.0,10,0.5,0.5,0.819114501953125,-0.05075,-0.03,-0.5,-0.0772967495018869,10,1,100,0.10589493284044696,-10,-1,-100,18958.962116036448,-0.015210254431723184,-0.00814644263571295,0.9998511307352238,73.06288899407551,4.503325980439361,454.1461698596471,-108.74326048242493,-110.54800415039062,4761.76025390625,True
1599386130.0469463,0.0,10,0.5,0.5,-0.17193281173706065,-0.05075,-0.03,-0.5,-0.06597247587760921,10,1,100,0.05670428235443328,-10,-1,-100,18952.41571380431,-0.014188720953740604,-0.007927840475018304,0.9998679060471435,72.34332139041646,4.46201790667429,452.12062825043705,-109.28842538071468,-106.94630432128906,4761.76025390625,True
1599386130.078273,0.0,10,0.5,0.5,0.8564803409576416,-0.05075,-0.03,-0.5,-0.07877621921329803,10,1,100,0.11896299501895564,-10,-1,-100,18950.22631050588,-0.013829698192018151,-0.00784640439146714,0.9998735787018495,72.03611403703799,4.444095721877506,451.01406023432986,-109.47016049806608,-105.60674285888672,4761.76025390625,True
1599386130.1125567,0.0,10,0.5,0.5,-0.06594911193847652,-0.05075,-0.03,-0.5,-0.06744844082394504,10,1,100,0.07305497049351055,-10,-1,-100,18945.836599091766,-0.013089950309497675,-0.00767036130425835,0.9998849027554907,71.31499851319094,4.401621640907507,448.11139609367547,-109.83365728883155,-102.7860107421875,4761.76025390625,True
1599386130.1432927,0.0,10,0.5,0.5,1.3006313705444335,-0.05075,-0.03,-0.5,-0.0849516382291855,10,1,100,0.14658215132675,-10,-1,-100,18945.836599091766,-0.013089950309497675,-0.00767036130425835,0.9998849027554907,71.31499851319094,4.401621640907507,448.11139609367547,-109.83365728883155,-102.7860107421875,4761.76025390625,True
1599386130.177128,0.0,10,0.5,0.5,-0.3857146492004393,-0.05075,-0.03,-0.5,-0.06314010114714154,10,1,100,0.059162806089501335,-10,-1,-100,18941.4323465802,-0.012299298147511852,-0.007472993797291027,0.9998964354515844,70.49027217456198,4.352628611044934,444.5250182152688,-110.19719446275765,-99.80360412597656,4761.76025390625,True
1599386130.2120733,0.0,10,0.5,0.5,-0.6684980773925782,-0.05075,-0.03,-0.5,-0.05834251509067623,10,1,100,0.04868439667203761,-10,-1,-100,18937.01355129108,-0.01148986666878166,-0.007251002031521259,0.9999076987069719,69.65064555934589,4.302514906901851,440.8091695360907,-110.56077338354282,-96.67578125,4761.76025390625,True
1599386130.247143,0.0,10,0.5,0.5,-0.07102120971679682,-0.05075,-0.03,-0.5,-0.06702535984154259,10,1,100,0.08248869345034787,-10,-1,-100,18934.79869985499,-0.011066039029985658,-0.007129220979105476,0.9999133547405086,69.18685375595194,4.274642393624671,438.65889245860626,-110.7425797764913,-95.02127075195312,4761.76025390625,True
1599386130.2780628,0.0,10,0.5,0.5,-2.0168710536956787,-0.05075,-0.03,-0.5,-0.035508578043030245,10,1,100,-0.013168202004646731,-10,-1,-100,18928.13232575939,-0.009816225705044144,-0.006733200134792069,0.9999291503545901,67.7749435836248,4.18924535019127,432.0165600447853,-111.28806661369033,-90.09539031982422,4761.76025390625,True
1599386130.3108244,0.0,10,0.5,0.5,0.3733929080963135,-0.05075,-0.03,-0.5,-0.07494423286476279,10,1,100,0.11115477280538,-10,-1,-100,18928.13232575939,-0.009816225705044144,-0.006733200134792069,0.9999291503545901,67.7749435836248,4.18924535019127,432.0165600447853,-111.28806661369033,-90.09539031982422,4761.76025390625,True
1599386130.343925,0.0,10,0.5,0.5,-1.44653466796875,-0.05075,-0.03,-0.5,-0.04164530972626785,10,1,100,0.014588630655096385,-10,-1,-100,18923.669891542522,-0.00894383252922024,-0.006431883822605937,0.9999393175239095,66.75364228204256,4.126888325952885,427.0245034796395,-111.65178256432156,-86.91342163085938,4761.76025390625,True
1599386130.38054,0.0,10,0.5,0.5,-0.7729330215454102,-0.05075,-0.03,-0.5,-0.05491770285265787,10,1,100,0.055401561225904956,-10,-1,-100,18921.433218261576,-0.00852747121266268,-0.006280176711597641,0.9999439192350679,66.2188182528684,4.094060947553318,424.3564412201657,-111.83365838354844,-85.37646484375,4761.76025390625,True
1599386130.410462,0.0,10,0.5,0.5,-3.210563621520996,-0.05075,-0.03,-0.5,0.005205137773913848,10,1,100,-0.0921480018587144,-10,-1,-100,18912.450149853365,-0.006812747851151156,-0.0055971877538607395,0.999961128222475,66.94618352008753,4.139017251924962,432.0643999971155,-112.56113462543995,-79.672607421875,4761.76025390625,True
1599386130.4442642,0.0,10,0.5,0.5,-0.4364373168945313,-0.05075,-0.03,-0.5,-0.06286883633601568,10,1,100,0.07862263925835125,-10,-1,-100,18912.450149853365,-0.006812747851151156,-0.0055971877538607395,0.999961128222475,66.94618352008753,4.139017251924962,432.0643999971155,-112.56113462543995,-79.672607421875,4761.76025390625,True
1599386130.4782665,0.0,10,0.5,0.5,-2.5380631790161132,-0.05075,-0.03,-0.5,-0.0015108129679760746,10,1,100,-0.060505699773072116,-10,-1,-100,18905.6746638614,-0.005553651316736713,-0.00504127224465165,0.9999718708699797,68.47540770948883,4.2327513680966895,444.2708782717546,-113.10655484872696,-75.98257446289062,4761.76025390625,True
1599386130.5138912,0.0,10,0.5,0.5,-0.7734570083618164,-0.05075,-0.03,-0.5,-0.05683945498292436,10,1,100,0.06465032376909607,-10,-1,-100,18905.6746638614,-0.005553651316736713,-0.00504127224465165,0.9999718708699797,68.47540770948883,4.2327513680966895,444.2708782717546,-113.10655484872696,-75.98257446289062,4761.76025390625,True
1599386130.5458841,0.0,10,0.5,0.5,-2.056223861694336,-0.05075,-0.03,-0.5,-0.010592006176264213,10,1,100,-0.030776869658848724,-10,-1,-100,18901.139495423646,-0.004692263782692465,-0.004623051547820775,0.9999783047921489,69.31377735509415,4.283791171135812,451.2869690068098,-113.47008651337599,-73.783203125,4761.76025390625,True
1599386130.5776067,0.0,10,0.5,0.5,-1.5872101821899416,-0.05075,-0.03,-0.5,-0.031178630230507296,10,1,100,0.011110000486619434,-10,-1,-100,18898.866458691075,-0.004296153573871122,-0.004432391087998281,0.9999809483053729,69.6929387677012,4.30678306305085,454.54815348411125,-113.651830031473,-72.76278686523438,4761.76025390625,True
1599386130.6111605,0.0,10,0.5,0.5,-3.0232992782592776,-0.05075,-0.03,-0.5,0.041314257675281026,10,1,100,-0.12572766873190144,-10,-1,-100,18889.73796866869,-0.0026982290142798155,-0.003602488807098945,0.9999898707659899,70.91025908286146,4.380042649666511,465.7125752173017,-114.3786745826941,-69.35012817382812,4761.76025390625,True
1599386130.647913,0.0,10,0.5,0.5,-1.3792057189941405,-0.05075,-0.03,-0.5,-0.04136289928188329,10,1,100,0.033352987558152775,-10,-1,-100,18889.73796866869,-0.0026982290142798155,-0.003602488807098945,0.9999898707659899,70.91025908286146,4.380042649666511,465.7125752173017,-114.3786745826941,-69.35012817382812,4761.76025390625,True
1599386130.6778014,0.0,10,0.5,0.5,-2.145140266418457,-0.05075,-0.03,-0.5,0.0069288816005480605,10,1,100,-0.053248726652816825,-10,-1,-100,18885.15192074841,-0.001917411609353514,-0.0031663187184656537,0.9999931489557783,71.35383084207525,4.406417823341864,470.2480988444772,-114.74203092936185,-68.07241821289062,4761.76025390625,True
1599386130.7107127,0.0,10,0.5,0.5,-2.3127110290527346,-0.05075,-0.03,-0.5,0.034427516502837124,10,1,100,-0.0989447328452223,-10,-1,-100,18878.245599647867,-0.0007985470221439781,-0.0025227815616001613,0.9999964989417941,71.84118833529767,4.434996282563442,475.91020438834244,-115.28700057600167,-66.7108154296875,4761.76025390625,True
1599386130.7442315,0.0,10,0.5,0.5,-1.6879065856933595,-0.05075,-0.03,-0.5,-0.029550459668712364,10,1,100,0.012168833456679426,-10,-1,-100,18878.245599647867,-0.0007985470221439781,-0.0025227815616001613,0.9999964989417941,71.84118833529767,4.434996282563442,475.91020438834244,-115.28700057600167,-66.7108154296875,4761.76025390625,True
1599386130.7802336,0.0,10,0.5,0.5,-1.8951028289794922,-0.05075,-0.03,-0.5,-0.006666533191321718,10,1,100,-0.027498715867608298,-10,-1,-100,18875.93622679473,-0.0004434003926768235,-0.0023175407810713923,0.9999972161965353,71.96121126088543,4.441912836301254,477.5235324739989,-115.46864272693446,-66.40521240234375,4761.76025390625,True
1599386130.8131106,0.0,10,0.5,0.5,-2.047999038696289,-0.05075,-0.03,-0.5,0.06619243695556554,10,1,100,-0.1453560322111379,-10,-1,-100,18866.662408861448,0.000945100012272246,-0.001471585476503345,0.9999984706099065,72.25777770920067,4.458326645273125,482.77912531660047,-116.19515617361661,-65.92242431640625,4761.76025390625,True
1599386130.8443446,0.0,10,0.5,0.5,-1.8013551177978515,-0.05075,-0.03,-0.5,0.004575469079723695,10,1,100,-0.04353713186034985,-10,-1,-100,18864.334873400978,0.0012758387851015004,-0.0012659346228292715,0.9999983848211581,72.2890045193053,4.459801938289648,483.81042798802736,-116.37677383050735,-65.98675537109375,4761.76025390625,True
1599386130.8792534,0.0,10,0.5,0.5,-1.8635081024169922,-0.05075,-0.03,-0.5,-0.015612082525501407,10,1,100,-0.011146203587608228,-10,-1,-100,18864.334873400978,0.0012758387851015004,-0.0012659346228292715,0.9999983848211581,72.2890045193053,4.459801938289648,483.81042798802736,-116.37677383050735,-65.98675537109375,4761.76025390625,True
1599386130.9147055,0.0,10,0.5,0.5,-1.6936441650390623,-0.05075,-0.03,-0.5,0.02729658652844584,10,1,100,-0.08099540302289121,-10,-1,-100,18859.668905482045,0.001905405959451533,-0.0008789077377251978,0.9999977984722357,72.30229951634782,4.459744395859718,485.5456609987699,-116.74000033981275,-66.337646484375,4761.76025390625,True
1599386130.945345,0.0,10,0.5,0.5,-1.532481948852539,-0.05075,-0.03,-0.5,0.03338221135601839,10,1,100,-0.08719066929959682,-10,-1,-100,18854.98840883933,0.002528422575436775,-0.00047497169224381054,0.9999966907351101,72.25111987547207,4.455742591910517,486.8480191023883,-117.10321872442975,-66.98382568359375,4761.76025390625,True
1599386130.9789786,0.0,10,0.5,0.5,-1.6237006225585937,-0.05075,-0.03,-0.5,0.01539067470046962,10,1,100,-0.05885728460437309,-10,-1,-100,18852.642712071654,0.0028324735912943094,-0.00027415972696104285,0.999995950956702,72.20066164536958,4.452220405263101,487.33088744343837,-117.28482644123625,-67.417724609375,4761.76025390625,True
1599386131.0114088,0.0,10,0.5,0.5,-1.2462662734985352,-0.05075,-0.03,-0.5,0.03690963952367865,10,1,100,-0.09221903468711093,-10,-1,-100,18847.94042232877,0.0034071443313664356,0.00010099780434324812,0.9999941905665996,72.04710093871184,4.441957399680056,487.9375704586372,-117.6480417260135,-68.50747680664062,4761.76025390625,True
1599386131.0467997,0.0,10,0.5,0.5,-1.026891799926758,-0.05075,-0.03,-0.5,0.03849589950861031,10,1,100,-0.09468810456851713,-10,-1,-100,18843.223603929626,0.003947177861316861,0.00045350036309851964,0.9999921070310265,71.81925523558459,4.427158754044788,488.03383212731626,-118.01126102346404,-69.89276123046875,4761.76025390625,True
1599386131.0787013,0.0,10,0.5,0.5,-0.784530517578125,-0.05075,-0.03,-0.5,0.0419719335785441,10,1,100,-0.09830054270286617,-10,-1,-100,18838.492256497615,0.004466643485326366,0.0008028518335802566,0.999989702209432,71.50981353382463,4.407388334567347,487.5648877144895,-118.37448966502777,-71.5731201171875,4761.76025390625,True
1599386131.1115868,0.0,10,0.5,0.5,-1.0863491744995117,-0.05075,-0.03,-0.5,0.0248786016038536,10,1,100,-0.07334424839687761,-10,-1,-100,18836.121134132263,0.004707223022091956,0.0009620268493435763,0.9999884582112742,71.32145542022118,4.395458104679412,487.0960036600759,-118.5561093522026,-72.52413940429688,4761.76025390625,True
1599386131.1455042,0.0,10,0.5,0.5,-0.374099510192871,-0.05075,-0.03,-0.5,0.04279667208439775,10,1,100,-0.09996459031324276,-10,-1,-100,18831.367992024054,0.005163252415286931,0.001266641533832982,0.9999858681220054,70.87071313941853,4.367109974919977,485.63937033103434,-118.91936344748181,-74.64743041992188,4761.76025390625,True
1599386131.1814413,0.0,10,0.5,0.5,-0.7692021102905273,-0.05075,-0.03,-0.5,0.028411524308565278,10,1,100,-0.07828659868217064,-10,-1,-100,18828.98597199237,0.005376917255724421,0.0014103006063063861,0.9999845497871578,70.60515551114803,4.350505678488979,484.6281681916317,-119.10099952026722,-75.81015014648438,4761.76025390625,True
1599386131.2113538,0.0,10,0.5,0.5,0.7991646118164062,-0.05075,-0.03,-0.5,0.058222413133868334,10,1,100,-0.12149109684655587,-10,-1,-100,18821.81811403879,0.005960197931734166,0.0018094749022130217,0.9999806007324308,69.64666441487014,4.290970291645882,480.44459661351954,-119.64595379454062,-79.659912109375,4761.76025390625,True
1599386131.245819,0.0,10,0.5,0.5,-0.3305586624145507,-0.05075,-0.03,-0.5,0.03177828428801115,10,1,100,-0.08249737020435059,-10,-1,-100,18819.42156147177,0.0061317061594078565,0.0019291636275975865,0.9999793400402194,69.27354836643508,4.26792390611575,478.6658503679418,-119.82762317168506,-81.02920532226562,4761.76025390625,True
1599386131.2784333,0.0,10,0.5,0.5,1.4202989196777345,-0.05075,-0.03,-0.5,0.056543255508597526,10,1,100,-0.11583492944340062,-10,-1,-100,18812.210101493285,0.0065868493592844335,0.00226055486962041,0.9999757513596015,68.00275678867956,4.18984239790538,472.2291091986802,-120.37269468690022,-85.371337890625,4761.76025390625,True
1599386131.3149464,0.0,10,0.5,0.5,-0.6956048278808593,-0.05075,-0.03,-0.5,0.023677683962501594,10,1,100,-0.0707264521341277,-10,-1,-100,18812.210101493285,0.0065868493592844335,0.00226055486962041,0.9999757513596015,68.00275678867956,4.18984239790538,472.2291091986802,-120.37269468690022,-85.371337890625,4761.76025390625,True
1599386131.345202,0.0,10,0.5,0.5,1.7768801498413087,-0.05075,-0.03,-0.5,0.055757431762199765,10,1,100,-0.1102877769413286,-10,-1,-100,18804.965933179134,0.006943084697742632,0.002549884654529865,0.9999726454574288,67.2781090227544,4.14610013457418,469.5193849364044,-120.91785068385525,-89.76284790039062,4761.76025390625,True
1599386131.3801053,0.0,10,0.5,0.5,1.175088987350464,-0.05075,-0.03,-0.5,0.045924130914639885,10,1,100,-0.09488328796721665,-10,-1,-100,18800.118317208486,0.007123679705334181,0.002721291826878655,0.9999709234564018,68.26278135051629,4.207804000062911,477.96348453307894,-121.28123379508597,-92.5412368774414,4761.76025390625,True
1599386131.4120228,0.0,10,0.5,0.5,1.3084750843048096,-0.05075,-0.03,-0.5,0.04535390797792255,10,1,100,-0.09056423726481042,-10,-1,-100,18795.2561679848,0.007245705158719152,0.002869871055531234,0.999969631337311,69.17626420224413,4.2654309230682985,485.9536151936591,-121.64455122354647,-95.18242645263672,4761.76025390625,True
