Timestamp,Input Throttle,horizon,dT,dt,Input Roll,Roll P,Roll I,Roll D,Input Pitch,Pitch P,Pitch I,Pitch D,Input Yaw,Yaw P,Yaw I,Yaw D,Altitude,Direction X,Direction Y,Direction Z,Drag X,Drag Y,Drag Z,Vertical Velocity,Roll,Mass,Has Fuel
1599387847.0895905,0.0,10,0.5,0.5,-8.424506675720215,-0.15025,-0.03,-0.5,-0.00014761118612054104,10,1,100,0.49821586228656334,-10,-1,-100,19348.346772916382,-0.048847974929057604,-0.00017369950122421256,0.9988062100196481,61.16628067567354,3.6919000570597533,234.7099877749728,-68.84811703601646,-33.922760009765625,4761.76025390625,True
1599387847.124533,0.0,10,0.5,0.5,-8.592289192199708,-0.15025,-0.03,-0.5,0.00015449867700883775,10,1,100,0.5048242416904436,-10,-1,-100,19345.581900815247,-0.04895215397366635,-0.00015634619541172724,0.9988011124228915,61.34624585105577,3.704117433416799,236.6959848225104,-69.21302012157624,-33.925140380859375,4761.76025390625,True
1599387847.1624339,0.0,10,0.5,0.5,-8.761703956604004,-0.15025,-0.03,-0.5,-0.0015964665237808665,10,1,100,0.4993015526269359,-10,-1,-100,19345.581900815247,-0.04895215397366635,-0.00015634619541172724,0.9988011124228915,61.34624585105577,3.704117433416799,236.6959848225104,-69.21302012157624,-33.925140380859375,4761.76025390625,True
1599387847.2033222,0.0,10,0.5,0.5,-8.900261672973631,-0.15025,-0.03,-0.5,0.011084413338413241,10,1,100,0.5093456284997141,-10,-1,-100,19342.80243307259,-0.04899896179617009,-4.0923336486861053e-05,0.9987988286277562,61.52728696524035,3.716414794709731,238.69446754772366,-69.57790957375174,-33.97076416015625,4761.76025390625,True
1599387847.2422218,0.0,10,0.5,0.5,-8.539099655151368,-0.15025,-0.03,-0.5,0.058672010396513395,10,1,100,0.49943429628580993,-10,-1,-100,19337.19971250731,-0.04890686683123239,0.0004966582570061885,0.9988032197121353,61.92194521478459,3.742983147659762,242.844178450063,-70.30764376180909,-34.81976318359375,4761.76025390625,True
1599387847.2811153,0.0,10,0.5,0.5,-8.570509880065917,-0.15025,-0.03,-0.5,0.05607155306649795,10,1,100,0.49391152342559497,-10,-1,-100,19334.37646120868,-0.04872847632180413,0.0009612767678569967,0.998811599623438,62.13666165075366,3.757280924427289,245.0010242068827,-70.67248606745001,-35.678863525390625,4761.76025390625,True
1599387847.3209853,0.0,10,0.5,0.5,-9.163023460388182,-0.15025,-0.03,-0.5,0.009705829658202833,10,1,100,0.516623422000601,-10,-1,-100,19334.37646120868,-0.04872847632180413,0.0009612767678569967,0.998811599623438,62.13666165075366,3.757280924427289,245.0010242068827,-70.67248606745001,-35.678863525390625,4761.76025390625,True
1599387847.359904,0.0,10,0.5,0.5,-7.636166351318359,-0.15025,-0.03,-0.5,0.15646037142758368,10,1,100,0.44458553990803196,-10,-1,-100,19328.686179821263,-0.048029287869760955,0.00229453507778968,0.9988432923214234,62.566707559657694,3.7857144244728387,249.3459976215139,-71.40211546264231,-38.277587890625,4761.76025390625,True
1599387847.3988023,0.0,10,0.5,0.5,-7.959664001464844,-0.15025,-0.03,-0.5,0.12120031262623099,10,1,100,0.4623681490865078,-10,-1,-100,19325.819151493022,-0.04751165909873534,0.003183956156736377,0.9988656089148717,62.760459753160795,3.798486178727917,251.44764471372238,-71.76690218150287,-40.0169677734375,4761.76025390625,True
1599387847.4380484,0.0,10,0.5,0.5,-8.97930303955078,-0.15025,-0.03,-0.5,0.03257660034723494,10,1,100,0.5188821920989432,-10,-1,-100,19325.819151493022,-0.04751165909873534,0.003183956156736377,0.9988656089148717,62.760459753160795,3.798486178727917,251.44764471372238,-71.76690218150287,-40.0169677734375,4761.76025390625,True
1599387847.4779735,0.0,10,0.5,0.5,-7.806764923095702,-0.15025,-0.03,-0.5,0.1371796625107206,10,1,100,0.4494986923362487,-10,-1,-100,19322.93753207894,-0.04683770759262108,0.004131998579898304,0.9988939662122321,62.92179958015881,3.8091483197661233,253.42742504730253,-72.13167126391308,-42.05078125,4761.76025390625,True
1599387847.517833,0.0,10,0.5,0.5,-5.582070152282714,-0.15025,-0.03,-0.5,0.2953644733813645,10,1,100,0.3257240390078966,-10,-1,-100,19317.13052290352,-0.04510162779983805,0.006427984792432163,0.9989617230811764,63.07261582675653,3.819492074245594,256.70956961387037,-72.86116664539404,-46.998443603515625,4761.76025390625,True
1599387847.5572836,0.0,10,0.5,0.5,-8.016681419372558,-0.15025,-0.03,-0.5,0.06642428522676307,10,1,100,0.4989469656688173,-10,-1,-100,19317.13052290352,-0.04510162779983805,0.006427984792432163,0.9989617230811764,63.07261582675653,3.819492074245594,256.70956961387037,-72.86116664539404,-46.998443603515625,4761.76025390625,True
1599387847.5971687,0.0,10,0.5,0.5,-6.08197720336914,-0.15025,-0.03,-0.5,0.2037412111924985,10,1,100,0.3776902043133448,-10,-1,-100,19314.205133913085,-0.04400279408403723,0.007670334727586263,0.9990019619990567,63.02114660100081,3.816637093557348,257.83729116167234,-73.22590083756218,-49.9134521484375,4761.76025390625,True
1599387847.6360683,0.0,10,0.5,0.5,-5.4044358444213865,-0.15025,-0.03,-0.5,0.21650277010198088,10,1,100,0.3495488232684535,-10,-1,-100,19311.265155716916,-0.04275256557627578,0.008908747696845219,0.9990459710899795,62.853092818588294,3.8064704029816125,258.4841793719129,-73.59063380663302,-53.123321533203125,4761.76025390625,True
1599387847.6739717,0.0,10,0.5,0.5,-2.2073649826049806,-0.15025,-0.03,-0.5,0.3938117444538325,10,1,100,0.14635203464193902,-10,-1,-100,19305.34143022832,-0.03977434549193793,0.011638830081697612,0.9991409005115431,62.05937956409652,3.7576984746261615,257.8583640473579,-74.32012813464118,-60.423736572265625,4761.76025390625,True
1599387847.7118642,0.0,10,0.5,0.5,-4.476745758056641,-0.15025,-0.03,-0.5,0.19566152271068749,10,1,100,0.35097271891458426,-10,-1,-100,19303.85137978464,-0.0389352008457729,0.012309650639976796,0.999165913467939,61.74557870694451,3.7383937025559963,257.21157657605124,-74.5025143821707,-62.43310546875,4761.76025390625,True
1599387847.7507303,0.0,10,0.5,0.5,-5.40116748046875,-0.15025,-0.03,-0.5,0.12971430426998107,10,1,100,0.43390785598348425,-10,-1,-100,19303.85137978464,-0.0389352008457729,0.012309650639976796,0.999165913467939,61.74557870694451,3.7383937025559963,257.21157657605124,-74.5025143821707,-62.43310546875,4761.76025390625,True
1599387847.7906227,0.0,10,0.5,0.5,0.377020568847656,-0.15025,-0.03,-0.5,0.41564512889242067,10,1,100,0.024172638064224983,-10,-1,-100,19297.85469775356,-0.03521860258016508,0.014899917122396985,0.9992685537442105,59.92177421517573,3.6265335438133928,252.16878946824338,-75.23215023766015,-71.207763671875,4761.76025390625,True
1599387847.830517,0.0,10,0.5,0.5,-0.7765731658935544,-0.15025,-0.03,-0.5,0.2971690723553688,10,1,100,0.16266915343684568,-10,-1,-100,19294.83446494455,-0.03311011162074413,0.016166998900655177,0.9993209437688214,58.61989115442908,3.5470722852388543,247.94218563031745,-75.59704146999911,-76.03692626953125,4761.76025390625,True
1599387847.868451,0.0,10,0.5,0.5,0.11548928833007821,-0.15025,-0.03,-0.5,0.2865624755191151,10,1,100,0.1418779515020192,-10,-1,-100,19291.79963449866,-0.031017383046843015,0.0172106650526113,0.9993706594439183,57.04435159461913,3.4512872744004084,242.4983197950109,-75.96199358427445,-80.9559326171875,4761.76025390625,True
1599387847.9063487,0.0,10,0.5,0.5,-2.227298431396484,-0.15025,-0.03,-0.5,0.18350372697077405,10,1,100,0.3495687764375527,-10,-1,-100,19291.79963449866,-0.031017383046843015,0.0172106650526113,0.9993706594439183,57.04435159461913,3.4512872744004084,242.4983197950109,-75.96199358427445,-80.9559326171875,4761.76025390625,True
1599387847.9472413,0.0,10,0.5,0.5,4.44121498298645,-0.15025,-0.03,-0.5,0.3971514357311292,10,1,100,-0.1544586861284596,-10,-1,-100,19285.68617156928,-0.026448119064200172,0.01914311451383255,0.9994668769722568,53.24779754063678,3.2218468255687727,228.64050677928506,-76.69209322800371,-91.05457305908203,4761.76025390625,True
1599387847.987125,0.0,10,0.5,0.5,2.929833847045898,-0.15025,-0.03,-0.5,0.2933516544029253,10,1,100,0.030625906274418635,-10,-1,-100,19282.60753418028,-0.023993787655219787,0.01994469316675783,0.9995131351655365,53.181011564827394,3.2187066997143643,229.49400968513726,-77.05719949599967,-96.29220581054688,4761.76025390625,True
1599387848.0260296,0.0,10,0.5,0.5,0.45015373229980465,-0.15025,-0.03,-0.5,0.21442122495431445,10,1,100,0.27405814652957533,-10,-1,-100,19282.60753418028,-0.023993787655219787,0.01994469316675783,0.9995131351655365,53.181011564827394,3.2187066997143643,229.49400968513726,-77.05719949599967,-96.29220581054688,4761.76025390625,True
1599387848.0679226,0.0,10,0.5,0.5,7.191203468322754,-0.15025,-0.03,-0.5,0.3419870417571286,10,1,100,-0.24188906044288205,-10,-1,-100,19276.406457344536,-0.019320411935398407,0.021094349732719855,0.9995907913201282,56.14471048769364,3.4013812251190463,244.6901206421086,-77.78716508981398,-106.45989990234375,4761.76025390625,True
1599387848.1067789,0.0,10,0.5,0.5,2.2454649124145507,-0.15025,-0.03,-0.5,0.2279669371260282,10,1,100,0.22340311818360198,-10,-1,-100,19276.406457344536,-0.019320411935398407,0.021094349732719855,0.9995907913201282,56.14471048769364,3.4013812251190463,244.6901206421086,-77.78716508981398,-106.45989990234375,4761.76025390625,True
1599387848.1477036,0.0,10,0.5,0.5,5.468083253860473,-0.15025,-0.03,-0.5,0.27175157457257826,10,1,100,-0.049996024333102684,-10,-1,-100,19273.28402463044,-0.016852796811528705,0.021484405801240544,0.9996271322583221,57.348975302094814,3.4764027512961517,251.16657217664954,-78.1520281818615,-111.2127456665039,4761.76025390625,True
1599387848.1885605,0.0,10,0.5,0.5,6.1808974800109855,-0.15025,-0.03,-0.5,0.2671002015437598,10,1,100,-0.04835885532705003,-10,-1,-100,19270.14699945692,-0.014644468602642404,0.021788376331305308,0.9996553437041146,58.43299545892324,3.5442660107670703,257.1644406184203,-78.51681775260852,-115.73854064941406,4761.76025390625,True
1599387848.2294514,0.0,10,0.5,0.5,6.810436895370484,-0.15025,-0.03,-0.5,0.25330685475896675,10,1,100,-0.09525838248744914,-10,-1,-100,19266.995384833077,-0.012229241923994431,0.02193305687949433,0.9996846436041145,59.30828138882256,3.5994620168476037,262.2847087752927,-78.88154174192196,-119.98128509521484,4761.76025390625,True
1599387848.2693772,0.0,10,0.5,0.5,8.601115844726563,-0.15025,-0.03,-0.5,0.24930784324444247,10,1,100,-0.22027910052927846,-10,-1,-100,19262.24061201734,-0.008916011933658508,0.02202298812955337,0.9997177065177171,60.17865197214665,3.6551485609098577,268.0626940366514,-79.42853210134506,-125.79476928710938,4761.76025390625,True
1599387848.311275,0.0,10,0.5,0.5,9.178070671081542,-0.15025,-0.03,-0.5,0.229761674800889,10,1,100,-0.2420381192759312,-10,-1,-100,19257.45302310458,-0.005726267563940993,0.021922676531868423,0.9997432701016122,60.630807307260135,3.684949165005065,272.0193979694095,-79.97544182542785,-130.94537353515625,4761.76025390625,True
1599387848.3551567,0.0,10,0.5,0.5,7.773038810729981,-0.15025,-0.03,-0.5,0.23509282950188137,10,1,100,-0.035389375465050485,-10,-1,-100,19255.84986853262,-0.004728116822008442,0.021875665566273624,0.9997495187132376,60.7084622245904,3.6903193317202283,273.016135024424,-80.15773281112152,-132.51446533203125,4761.76025390625,True
1599387848.395044,0.0,10,0.5,0.5,8.085211448669433,-0.15025,-0.03,-0.5,0.23336772483214713,10,1,100,-0.0450895905578373,-10,-1,-100,19254.243067952106,-0.003752268739628236,0.02181476141777855,0.9997549883164331,60.75702686000074,3.693859142457047,273.8834296418437,-80.34001935980268,-134.00979614257812,4761.76025390625,True
1599387848.4369347,0.0,10,0.5,0.5,9.251229316711425,-0.15025,-0.03,-0.5,0.2245878360773791,10,1,100,-0.15520551110266,-10,-1,-100,19251.018530031084,-0.0018824816769801977,0.02167787677751148,0.9997632349317287,60.782010391579064,3.696374290732661,275.2945714119999,-80.70458213899997,-136.77877807617188,4761.76025390625,True
1599387848.4758337,0.0,10,0.5,0.5,11.014138664245605,-0.15025,-0.03,-0.5,0.18825070470902208,10,1,100,-0.3540691034270079,-10,-1,-100,19244.52570804837,0.0016050743956682368,0.021221523016092033,0.9997735096996028,60.629968863912836,3.688495129928431,277.1977963890646,-81.433683180383,-141.43228149414062,4761.76025390625,True
1599387848.5157273,0.0,10,0.5,0.5,8.79230410003662,-0.15025,-0.03,-0.5,0.2338987981793041,10,1,100,-0.007406044795271157,-10,-1,-100,19244.52570804837,0.0016050743956682368,0.021221523016092033,0.9997735096996028,60.629968863912836,3.688495129928431,277.1977963890646,-81.433683180383,-141.43228149414062,4761.76025390625,True
1599387848.555617,0.0,10,0.5,0.5,11.153639148712157,-0.15025,-0.03,-0.5,0.1888177944700307,10,1,100,-0.33943870310685814,-10,-1,-100,19237.974558680668,0.004604529938199876,0.0208115800975683,0.9997728124118453,60.34634207826738,3.671977805301042,278.48311475299585,-82.16277005098458,-144.90235900878906,4761.76025390625,True
1599387848.59551,0.0,10,0.5,0.5,10.360739665985108,-0.15025,-0.03,-0.5,0.19528147571678645,10,1,100,-0.19486886900999875,-10,-1,-100,19234.677111311816,0.0059975298243938,0.02049827711542966,0.9997718991206467,60.20546075713594,3.663614174454961,279.12195374055165,-82.52731040961415,-146.19581604003906,4761.76025390625,True
1599387848.6334183,0.0,10,0.5,0.5,10.452606758117676,-0.15025,-0.03,-0.5,0.21047198764795436,10,1,100,-0.19015797082030395,-10,-1,-100,19231.365082561155,0.007202301557002837,0.020352724603055948,0.9997669195635122,60.078921009191106,3.65605106976042,279.8221948483064,-82.89184825990394,-147.191162109375,4761.76025390625,True
1599387848.6713188,0.0,10,0.5,0.5,10.036563354492188,-0.15025,-0.03,-0.5,0.22486920565768184,10,1,100,-0.07162395190750002,-10,-1,-100,19231.365082561155,0.007202301557002837,0.020352724603055948,0.9997669195635122,60.078921009191106,3.65605106976042,279.8221948483064,-82.89184825990394,-147.191162109375,4761.76025390625,True
1599387848.709216,0.0,10,0.5,0.5,10.556530792236329,-0.15025,-0.03,-0.5,0.20182020287290134,10,1,100,-0.19841007603917238,-10,-1,-100,19228.03847204335,0.008340249673208348,0.020144706635491123,0.9997622872613062,59.98217912837381,3.6502514484363955,280.6570577504549,-83.25638212400276,-147.89208984375,4761.76025390625,True
1599387849.0986338,0.0,10,0.5,0.5,10.580156810760498,-0.15025,-0.03,-0.5,0.1926711243271384,10,1,100,-0.24962006423697358,-10,-1,-100,19223.021217410336,0.009827505564977778,0.01987404228719469,0.9997541910777554,59.902787896304346,3.645501201936182,282.21228915339765,-83.8031716985468,-148.3892059326172,4761.76025390625,True
1599387849.1385357,0.0,10,0.5,0.5,10.391059967041016,-0.15025,-0.03,-0.5,0.20903701828660004,10,1,100,-0.15167328143480677,-10,-1,-100,19221.3415088295,0.010275898693487575,0.019778584300446746,0.9997515758972882,59.895547423615014,3.645082595137266,282.82060575381024,-83.98543082725426,-148.40740966796875,4761.76025390625,True
1599387849.175429,0.0,10,0.5,0.5,9.991290439605713,-0.15025,-0.03,-0.5,0.19141871683117845,10,1,100,-0.2717321655967667,-10,-1,-100,19214.586222843267,0.011762220332302375,0.019533489005733266,0.9997400126933589,59.96442164263648,3.649385185017994,285.7197024725216,-84.71444043315148,-147.7401885986328,4761.76025390625,True
1599387849.2233078,0.0,10,0.5,0.5,10.357785205841065,-0.15025,-0.03,-0.5,0.21571380752534863,10,1,100,-0.12446447191621494,-10,-1,-100,19214.586222843267,0.011762220332302375,0.019533489005733266,0.9997400126933589,59.96442164263648,3.649385185017994,285.7197024725216,-84.71444043315148,-147.7401885986328,4761.76025390625,True
1599387849.2622082,0.0,10,0.5,0.5,9.547604457855224,-0.15025,-0.03,-0.5,0.1976231262278459,10,1,100,-0.21803048011644174,-10,-1,-100,19209.48148688674,0.012603586637816588,0.019370562843038112,0.999732929786254,60.11647657723444,3.6588009048080337,288.38067452067,-85.26116200908527,-146.4651336669922,4761.76025390625,True
1599387849.3001077,0.0,10,0.5,0.5,9.407887123107908,-0.15025,-0.03,-0.5,0.20136555466361733,10,1,100,-0.1830107002374792,-10,-1,-100,19206.060106521007,0.013040104814618805,0.019258152917434126,0.9997295030220087,60.25588119598402,3.667462532109402,290.34386172234167,-85.62562271254002,-145.24661254882812,4761.76025390625,True
1599387849.3370416,0.0,10,0.5,0.5,10.018180442810058,-0.15025,-0.03,-0.5,0.21245120450600255,10,1,100,-0.14020244004489937,-10,-1,-100,19206.060106521007,0.013040104814618805,0.019258152917434126,0.9997295030220087,60.25588119598402,3.667462532109402,290.34386172234167,-85.62562271254002,-145.24661254882812,4761.76025390625,True
1599387849.3739479,0.0,10,0.5,0.5,7.854652572631835,-0.15025,-0.03,-0.5,0.19873967626981298,10,1,100,-0.19833005374529425,-10,-1,-100,19199.173612354673,0.013562135325540372,0.019134630046376035,0.9997249293772762,60.583921881333104,3.688041168343081,294.52869711348774,-86.3544909891083,-141.92376708984375,4761.76025390625,True
1599387849.4118419,0.0,10,0.5,0.5,8.13273989868164,-0.15025,-0.03,-0.5,0.20292666609406035,10,1,100,-0.15893178662923807,-10,-1,-100,19195.70850020775,0.013672760785533524,0.019061507429777,0.9997248194113248,60.74891009397423,3.6985661067396123,296.63703020493386,-86.71889830348951,-139.8206787109375,4761.76025390625,True
1599387849.4497046,0.0,10,0.5,0.5,9.162172637939452,-0.15025,-0.03,-0.5,0.21010980603663584,10,1,100,-0.1485162865527759,-10,-1,-100,19195.70850020775,0.013672760785533524,0.019061507429777,0.9997248194113248,60.74891009397423,3.6985661067396123,296.63703020493386,-86.71889830348951,-139.8206787109375,4761.76025390625,True
1599387849.489598,0.0,10,0.5,0.5,5.82826766204834,-0.15025,-0.03,-0.5,0.1969701487513815,10,1,100,-0.13702409274467936,-10,-1,-100,19188.734549090266,0.01356343855899417,0.0189430407264617,0.9997285603314991,61.001031109992375,3.715354972336899,300.49300489359297,-87.44766581459686,-134.73080444335938,4761.76025390625,True
1599387849.5286226,0.0,10,0.5,0.5,8.332229591369629,-0.15025,-0.03,-0.5,0.20872371892683816,10,1,100,-0.14832990869801652,-10,-1,-100,19188.734549090266,0.01356343855899417,0.0189430407264617,0.9997285603314991,61.001031109992375,3.715354972336899,300.49300489359297,-87.44766581459686,-134.73080444335938,4761.76025390625,True
1599387849.5685158,0.0,10,0.5,0.5,6.3495780410766605,-0.15025,-0.03,-0.5,0.19958762049929318,10,1,100,-0.1260009426921232,-10,-1,-100,19185.22571127501,0.013357459286335588,0.01886074487127855,0.9997328896181792,61.049740390532236,3.719324189883285,302.04743577548265,-87.812032081838,-131.74484252929688,4761.76025390625,True
1599387849.60746,0.0,10,0.5,0.5,5.661852973937988,-0.15025,-0.03,-0.5,0.19690771888421016,10,1,100,-0.11387006429069262,-10,-1,-100,19181.70229888556,0.013058474472129296,0.018762179301097165,0.9997386942958316,61.01712609550765,3.7185496963230866,303.20075744544295,-88.17639311131367,-128.46499633789062,4761.76025390625,True
1599387849.6463923,0.0,10,0.5,0.5,4.920320774078369,-0.15025,-0.03,-0.5,0.1927899368954215,10,1,100,-0.09960479804230125,-10,-1,-100,19178.16431233869,0.012655807444101995,0.018635841046220222,0.9997462357850806,60.87803759238106,3.7114976826208506,303.82241543023434,-88.54075538301485,-124.89155578613281,4761.76025390625,True
1599387849.6852527,0.0,10,0.5,0.5,4.127929695129394,-0.15025,-0.03,-0.5,0.1875587343770175,10,1,100,-0.08671713551948432,-10,-1,-100,19174.61175067525,0.012172538467682216,0.018474099629616436,0.999755238520973,60.60658004282714,3.6965696205724465,303.7759745641003,-88.9051270556886,-121.02474975585938,4761.76025390625,True
1599387849.7231522,0.0,10,0.5,0.5,1.8596847953796383,-0.15025,-0.03,-0.5,0.16824274634110004,10,1,100,-0.03831752437242564,-10,-1,-100,19169.25557922048,0.011293995266279099,0.018152174862639033,0.9997714459908732,59.888684824576245,3.655491349086829,302.12003561601057,-89.4517234776312,-114.67491149902344,4761.76025390625,True
1599387849.761049,0.0,10,0.5,0.5,1.952161499023438,-0.15025,-0.03,-0.5,0.16980279022099773,10,1,100,-0.05181853632644104,-10,-1,-100,19165.666577013326,0.010619643473265805,0.017874703635253914,0.9997838357077257,59.16019867744995,3.612919351209175,299.72658643640517,-89.81616290805322,-110.0755615234375,4761.76025390625,True
1599387849.798948,0.0,10,0.5,0.5,2.589549142837524,-0.15025,-0.03,-0.5,0.17989698534253168,10,1,100,-0.08053423650599253,-10,-1,-100,19163.86660885287,0.010270323201115346,0.017715367862746044,0.9997903211187996,58.73901318746091,3.588136160835998,298.22969847973786,-89.99839886227636,-107.6661148071289,4761.76025390625,True
1599387849.8388414,0.0,10,0.5,0.5,-1.2877719249725343,-0.15025,-0.03,-0.5,0.13333711028389003,10,1,100,0.00981651629828155,-10,-1,-100,19158.444834020105,0.00913448196238009,0.01714846933226672,0.9998112278019483,57.28782523769353,3.5020577804387796,292.7285688064392,-90.54517941423333,-99.99893951416016,4761.76025390625,True
1599387849.8777378,0.0,10,0.5,0.5,2.4263505039215087,-0.15025,-0.03,-0.5,0.18983565952207135,10,1,100,-0.10331377969292868,-10,-1,-100,19158.444834020105,0.00913448196238009,0.01714846933226672,0.9998112278019483,57.28782523769353,3.5020577804387796,292.7285688064392,-90.54517941423333,-99.99893951416016,4761.76025390625,True
1599387849.9156365,0.0,10,0.5,0.5,-1.2391683750152587,-0.15025,-0.03,-0.5,0.1388457139888144,10,1,100,-0.012819463477307017,-10,-1,-100,19154.81208914763,0.008315832684598633,0.016686555801413653,0.9998261877857811,56.13534023711603,3.4329729564500417,288.06147570798566,-90.90976845106555,-94.52208709716797,4761.76025390625,True
1599387849.9555297,0.0,10,0.5,0.5,-2.1770410079956055,-0.15025,-0.03,-0.5,0.12876127953986188,10,1,100,-0.005314754601092889,-10,-1,-100,19151.164759019972,0.0075081519930811766,0.01617700908285225,0.9998409533674755,54.7449889691193,3.3488797883409216,282.1198092485907,-91.27441782470294,-89.05392456054688,4761.76025390625,True
1599387849.995423,0.0,10,0.5,0.5,-3.1583018798828126,-0.15025,-0.03,-0.5,0.11279603607494698,10,1,100,0.011558967020357871,-10,-1,-100,19147.502843713854,0.006625816901773258,0.01557108597610486,0.9998568096642183,56.50392478928617,3.456969196223174,292.41635496089674,-91.6390254613348,-83.53717041015625,4761.76025390625,True
1599387850.034319,0.0,10,0.5,0.5,-7.479552116394043,-0.15025,-0.03,-0.5,0.024302883978977813,10,1,100,0.1129359733114331,-10,-1,-100,19140.1352730809,0.004907932813911154,0.014218664581212053,0.9998868644866883,60.26327567422876,3.6869028903598284,314.49995558860513,-92.36794146954469,-72.85690307617188,4761.76025390625,True
1599387850.074213,0.0,10,0.5,0.5,-5.494304725646972,-0.15025,-0.03,-0.5,0.0756994163853944,10,1,100,0.036261325480329974,-10,-1,-100,19136.429625423858,0.004050305782164898,0.013460447404517841,0.9999012008087305,61.73337171498546,3.7765341642358012,323.51769237258503,-92.73226352921813,-67.93759155273438,4761.76025390625,True
1599387850.1121109,0.0,10,0.5,0.5,-6.200165733337402,-0.15025,-0.03,-0.5,0.06842337446444208,10,1,100,0.04144607648251694,-10,-1,-100,19132.709407184506,0.003230894592089799,0.012709571092082718,0.9999140103642865,62.94914470894604,3.850590749559154,331.2607100061303,-93.09650900122509,-63.314361572265625,4761.76025390625,True
1599387850.151006,0.0,10,0.5,0.5,-6.85507080078125,-0.15025,-0.03,-0.5,0.05298625957284972,10,1,100,0.05044446641878774,-10,-1,-100,19128.97462114878,0.0024115018750319648,0.011891566676100453,0.9999263849407589,63.937211110820364,3.910809971400645,337.85316280453617,-93.46068915188832,-58.98919677734375,4761.76025390625,True
1599387850.1909027,0.0,10,0.5,0.5,-4.845747497558594,-0.15025,-0.03,-0.5,0.13418838747516085,10,1,100,-0.03067399112717229,-10,-1,-100,19128.97462114878,0.0024115018750319648,0.011891566676100453,0.9999263849407589,63.937211110820364,3.910809971400645,337.85316280453617,-93.46068915188832,-58.98919677734375,4761.76025390625,True
1599387850.2322237,0.0,10,0.5,0.5,-8.848252090454102,-0.15025,-0.03,-0.5,-0.002008248259000006,10,1,100,0.09884835484547802,-10,-1,-100,19123.34513184696,0.0012411703855770377,0.010658709806868668,0.9999424240431681,65.05533916815219,3.979218132800404,345.8873768366345,-94.00686137691224,-53.058441162109375,4761.76025390625,True
1599387850.2711198,0.0,10,0.5,0.5,-7.212572967529296,-0.15025,-0.03,-0.5,0.07486062818579747,10,1,100,0.02428662750005743,-10,-1,-100,19121.461353888968,0.0008622422906462031,0.010242638583906475,0.9999471710510869,65.34561813779301,3.997094536246984,348.1426700328539,-94.18889776689429,-51.2301025390625,4761.76025390625,True
1599387850.3120842,0.0,10,0.5,0.5,-8.677047309875487,-0.15025,-0.03,-0.5,0.017386564639246885,10,1,100,0.06909972717847788,-10,-1,-100,19117.682876177714,0.00011789060697047107,0.00934817855874344,0.9999562978747816,65.82338438836834,4.026750056573241,352.12280035145443,-94.55294593131615,-47.79705810546875,4761.76025390625,True
1599387850.3519437,0.0,10,0.5,0.5,-10.987079010009765,-0.15025,-0.03,-0.5,-0.08324755958387496,10,1,100,0.15199221378570177,-10,-1,-100,19110.082238341216,-0.001304908127275295,0.007626848658605638,0.9999700637490695,66.46259505503284,4.067455429691535,358.442336583453,-95.28096896327114,-41.8203125,4761.76025390625,True
1599387850.3928342,0.0,10,0.5,0.5,-8.140407043457031,-0.15025,-0.03,-0.5,0.08803041438748063,10,1,100,0.010593646373160804,-10,-1,-100,19110.082238341216,-0.001304908127275295,0.007626848658605638,0.9999700637490695,66.46259505503284,4.067455429691535,358.442336583453,-95.28096896327114,-41.8203125,4761.76025390625,True
1599387850.4392302,0.0,10,0.5,0.5,-9.919440551757813,-0.15025,-0.03,-0.5,-0.00687123536734309,10,1,100,0.08700567344268936,-10,-1,-100,19106.260079808533,-0.001992353168790056,0.00677132842203224,0.9999750895098597,66.67301848585657,4.081462499563487,361.0335970977055,-95.64495479563413,-39.27685546875,4761.76025390625,True
1599387850.4790661,0.0,10,0.5,0.5,-11.478160720825196,-0.15025,-0.03,-0.5,-0.10607740711340885,10,1,100,0.16547915661379767,-10,-1,-100,19098.572085918975,-0.0033244255208292766,0.005098478769418716,0.9999814766830405,66.9824147529255,4.10318085741551,365.6395412921397,-96.37289108501277,-35.07891845703125,4761.76025390625,True
1599387850.5189629,0.0,10,0.5,0.5,-10.554070098876952,-0.15025,-0.03,-0.5,-0.025775834653787986,10,1,100,0.10514395753383111,-10,-1,-100,19094.70625154802,-0.003980194275317059,0.004315322442707611,0.9999827678744,67.11601916109805,4.1129513690845085,367.8392781710849,-96.73684429043328,-33.4237060546875,4761.76025390625,True
1599387850.5618815,0.0,10,0.5,0.5,-9.816135864257813,-0.15025,-0.03,-0.5,0.05170037315238504,10,1,100,0.04028819097179353,-10,-1,-100,19094.70625154802,-0.003980194275317059,0.004315322442707611,0.9999827678744,67.11601916109805,4.1129513690845085,367.8392781710849,-96.73684429043328,-33.4237060546875,4761.76025390625,True
1599387850.6017733,0.0,10,0.5,0.5,-11.46868844604492,-0.15025,-0.03,-0.5,-0.10916869237380021,10,1,100,0.18439512309337341,-10,-1,-100,19086.930909279035,-0.0052844466617401956,0.002859763887227193,0.9999819480240574,67.4120037453894,4.134523518621898,372.4197164715453,-97.46471968466156,-31.000244140625,4761.76025390625,True
1599387850.6416707,0.0,10,0.5,0.5,-10.840141242980957,-0.15025,-0.03,-0.5,-0.043452482840957735,10,1,100,0.12428988982002437,-10,-1,-100,19083.02140277333,-0.005916723120970081,0.0021421596532607205,0.9999802015737761,67.59446546319798,4.147514999494123,374.9129934614841,-97.82863916526152,-30.232513427734375,4761.76025390625,True
1599387850.6825538,0.0,10,0.5,0.5,-10.52475366973877,-0.15025,-0.03,-0.5,0.027456285540328734,10,1,100,0.06177803324769057,-10,-1,-100,19083.02140277333,-0.005916723120970081,0.0021421596532607205,0.9999802015737761,67.59446546319798,4.147514999494123,374.9129934614841,-97.82863916526152,-30.232513427734375,4761.76025390625,True
1599387850.723416,0.0,10,0.5,0.5,-11.011357482910157,-0.15025,-0.03,-0.5,-0.10433986939657959,10,1,100,0.2057766981026697,-10,-1,-100,19075.158721210086,-0.0072196391965502395,0.0009513768619530501,0.9999734854944596,68.06056130575949,4.179799556070903,380.49312162731235,-98.55643095630239,-29.5810546875,4761.76025390625,True
1599387850.7613482,0.0,10,0.5,0.5,-10.663757446289063,-0.15025,-0.03,-0.5,-0.04979845418910646,10,1,100,0.14608868785691909,-10,-1,-100,19071.205547580845,-0.007854819599567632,0.0003723115551020058,0.9999690811185935,68.35017961343695,4.199432744744588,383.6178580167845,-98.92029811801197,-29.69873046875,4761.76025390625,True
1599387850.8002102,0.0,10,0.5,0.5,-10.491482063293457,-0.15025,-0.03,-0.5,-0.04186907568730395,10,1,100,0.1553874311222907,-10,-1,-100,19067.2378201175,-0.00851083589429383,-7.54311582884629e-05,0.999963779335292,68.67723825855258,4.221356878366067,386.96737938295115,-99.28414256388656,-30.110076904296875,4761.76025390625,True
1599387850.8385346,0.0,10,0.5,0.5,-10.272677825927733,-0.15025,-0.03,-0.5,-0.04694060670921919,10,1,100,0.16133437119702487,-10,-1,-100,19063.255539408652,-0.009154726592208848,-0.0005215727435545784,0.9999579585877073,69.03807257214805,4.245330494673085,390.52334910207173,-99.64796192275324,-30.81689453125,4761.76025390625,True
1599387850.8724442,0.0,10,0.5,0.5,-10.651466522216795,-0.15025,-0.03,-0.5,-0.0030557382991663246,10,1,100,0.0976615387478649,-10,-1,-100,19063.255539408652,-0.009154726592208848,-0.0005215727435545784,0.9999579585877073,69.03807257214805,4.245330494673085,390.52334910207173,-99.64796192275324,-30.81689453125,4761.76025390625,True
1599387850.9119196,0.0,10,0.5,0.5,-10.362682487487792,-0.15025,-0.03,-0.5,-0.024992921536761862,10,1,100,0.13353713695604913,-10,-1,-100,19061.258942154935,-0.009475568120400178,-0.0007158925443391075,0.999954849534048,69.22943307064956,4.2579742538690155,392.36966355299967,-99.82986145242872,-31.280670166015625,4761.76025390625,True
1599387850.9527843,0.0,10,0.5,0.5,-9.854307304382324,-0.15025,-0.03,-0.5,-0.04352575624951278,10,1,100,0.17262268099061556,-10,-1,-100,19057.254833998624,-0.010117569570120097,-0.0010564533924527363,0.9999482580074947,69.62949331047407,4.284281401651181,396.174236939491,-100.19363898039654,-32.428985595703125,4761.76025390625,True
1599387850.9937086,0.0,10,0.5,0.5,-9.493023811340331,-0.15025,-0.03,-0.5,-0.044761205714679494,10,1,100,0.1791120657985015,-10,-1,-100,19053.23617563548,-0.010754622226941893,-0.0013724020896619504,0.9999412255794138,70.04405197412919,4.311394329532286,400.08005662795176,-100.55738651522267,-33.872161865234375,4761.76025390625,True
1599387851.0355988,0.0,10,0.5,0.5,-7.755493507385253,-0.15025,-0.03,-0.5,-0.06076486348658792,10,1,100,0.25309359864084763,-10,-1,-100,19045.155213546474,-0.012001347508469215,-0.0018012685523450497,0.9999263588332808,70.86625646795476,4.364791135071387,407.909014861083,-101.28479043349076,-37.640716552734375,4761.76025390625,True
1599387851.0744855,0.0,10,0.5,0.5,-8.105449081420899,-0.15025,-0.03,-0.5,-0.03284076609550472,10,1,100,0.195366257410283,-10,-1,-100,19041.09291185753,-0.01260440864013665,-0.0019337067892238329,0.9999186915249088,71.23973541140704,4.388885728111139,411.6344652924299,-101.64844837738687,-39.96612548828125,4761.76025390625,True
1599387851.115387,0.0,10,0.5,0.5,-7.536054962158204,-0.15025,-0.03,-0.5,-0.024561490846992856,10,1,100,0.19827955578073486,-10,-1,-100,19037.016064657946,-0.013173050849093728,-0.0019751337146339965,0.9999112808535248,71.56071501667965,4.4094944217355945,415.0727710652754,-102.0120804411945,-42.5849609375,4761.76025390625,True
1599387851.1572754,0.0,10,0.5,0.5,-6.912385589599609,-0.15025,-0.03,-0.5,-0.02098820572683289,10,1,100,0.2027543982202953,-10,-1,-100,19032.924672753667,-0.013725266505184764,-0.0019776496815721574,0.9999038483579802,71.8043697761231,4.4250443600690685,418.07608490398303,-102.3756912744754,-45.497802734375,4761.76025390625,True
1599387851.1961703,0.0,10,0.5,0.5,-8.321409271240235,-0.15025,-0.03,-0.5,-0.02097160515668422,10,1,100,0.14811987730175344,-10,-1,-100,19032.924672753667,-0.013725266505184764,-0.0019776496815721574,0.9999038483579802,71.8043697761231,4.4250443600690685,418.07608490398303,-102.3756912744754,-45.497802734375,4761.76025390625,True
1599387851.2360265,0.0,10,0.5,0.5,-6.19038996887207,-0.15025,-0.03,-0.5,-0.013411457061245429,10,1,100,0.2051153590277578,-10,-1,-100,19028.81873708195,-0.014238666856683993,-0.0019071917729560923,0.9998968061683593,71.94541180962705,4.433942166931056,420.49173636596936,-102.7392873808511,-48.70404052734375,4761.76025390625,True
1599387851.2779555,0.0,10,0.5,0.5,-2.997554809570312,-0.15025,-0.03,-0.5,0.012359209687433259,10,1,100,0.25626060922459837,-10,-1,-100,19020.563234660774,-0.015165729505050502,-0.0016076006864722255,0.9998837013716207,71.8033021446652,4.424558346210225,422.8490241214268,-103.46647105854208,-55.9970703125,4761.76025390625,True
1599387851.3178477,0.0,10,0.5,0.5,-6.568529174804688,-0.15025,-0.03,-0.5,-0.017708501755245187,10,1,100,0.1641554446792316,-10,-1,-100,19020.563234660774,-0.015165729505050502,-0.0016076006864722255,0.9998837013716207,71.8033021446652,4.424558346210225,422.8490241214268,-103.46647105854208,-55.9970703125,4761.76025390625,True
1599387851.3587358,0.0,10,0.5,0.5,-0.9890635910034185,-0.15025,-0.03,-0.5,0.03635861426042152,10,1,100,0.24229431701428478,-10,-1,-100,19012.249554621754,-0.015870910015928576,-0.001115270806200589,0.9998734271828085,70.88540172557373,4.36620324647573,420.6006053938633,-104.19372185834297,-64.46353149414062,4761.76025390625,True
1599387851.4005876,0.0,10,0.5,0.5,-2.0874505310058593,-0.15025,-0.03,-0.5,0.019651425330643686,10,1,100,0.20579901619949664,-10,-1,-100,19008.070895300363,-0.016174977436187107,-0.0008195282531209471,0.9998688406378015,70.04806486620089,4.313514142552357,417.1969850411576,-104.55740808386429,-69.13671875,4761.76025390625,True
1599387851.457469,0.0,10,0.5,0.5,-4.31825048828125,-0.15025,-0.03,-0.5,-0.009867542593666397,10,1,100,0.17593430969456805,-10,-1,-100,19008.070895300363,-0.016174977436187107,-0.0008195282531209471,0.9998688406378015,70.04806486620089,4.313514142552357,417.1969850411576,-104.55740808386429,-69.13671875,4761.76025390625,True
1599387851.4963634,0.0,10,0.5,0.5,-0.9953133010864255,-0.15025,-0.03,-0.5,0.02479705770819307,10,1,100,0.197706257363634,-10,-1,-100,19003.87768655317,-0.016369110024153418,-0.0005052880142851556,0.9998658894677026,68.91613634556808,4.24276475878739,411.9984281413431,-104.92115585810951,-74.10165405273438,4761.76025390625,True
1599387851.5402493,0.0,10,0.5,0.5,1.8233116760253907,-0.15025,-0.03,-0.5,0.049626221892717357,10,1,100,0.20203244661490022,-10,-1,-100,18997.560586828622,-0.01658150073242156,4.806041993113099e-06,0.9998625174544562,66.59420650893543,4.098831584844496,400.36042032560664,-105.46692728639208,-82.0965576171875,4761.76025390625,True
1599387851.5781481,0.0,10,0.5,0.5,1.648287582397461,-0.15025,-0.03,-0.5,0.03682899387867786,10,1,100,0.1874714923557237,-10,-1,-100,18993.330990956514,-0.016639112292233423,0.00035038952961242824,0.9998614989933876,64.59371338808094,3.9757419242079655,389.78759245632494,-105.83089557842457,-87.79266357421875,4761.76025390625,True
1599387851.6180422,0.0,10,0.5,0.5,0.8503206768035889,-0.15025,-0.03,-0.5,0.021111800935486313,10,1,100,0.18245059143848916,-10,-1,-100,18991.210732711712,-0.016643192933008394,0.0005195563650453511,0.9998613574842156,64.1470437484715,3.948557392962433,387.81488013126705,-106.01290287131404,-90.75029754638672,4761.76025390625,True
1599387851.6589296,0.0,10,0.5,0.5,6.93087756729126,-0.15025,-0.03,-0.5,0.07413133173266889,10,1,100,0.16875195546926713,-10,-1,-100,18982.693310917006,-0.0165197168917856,0.0011530699444618339,0.9998628752901662,68.20892868972028,4.2017263453130305,415.44658339650977,-106.74062656914039,-102.16685485839844,4761.76025390625,True
1599387851.6968303,0.0,10,0.5,0.5,4.839524105072021,-0.15025,-0.03,-0.5,0.04278175028172485,10,1,100,0.1653577136988036,-10,-1,-100,18978.412774843746,-0.016374535520001482,0.0014412131291796743,0.9998648896182026,69.90339577474859,4.308413628380044,427.3414196291167,-107.10431313193308,-107.48255920410156,4761.76025390625,True
1599387851.735727,0.0,10,0.5,0.5,2.3361283988952635,-0.15025,-0.03,-0.5,0.014272313191505997,10,1,100,0.17999673147871054,-10,-1,-100,18978.412774843746,-0.016374535520001482,0.0014412131291796743,0.9998648896182026,69.90339577474859,4.308413628380044,427.3414196291167,-107.10431313193308,-107.48255920410156,4761.76025390625,True
1599387851.7756178,0.0,10,0.5,0.5,5.766957439422607,-0.15025,-0.03,-0.5,0.04035908552797122,10,1,100,0.16003903955004772,-10,-1,-100,18974.117694430985,-0.016192003042454592,0.0016755939560424019,0.9998674969326523,71.42659072748103,4.404790216041275,438.26004259361906,-107.46789269838982,-112.52119445800781,4761.76025390625,True
1599387851.8195434,0.0,10,0.5,0.5,9.370211460113525,-0.15025,-0.03,-0.5,0.058975433820099746,10,1,100,0.12249344966120194,-10,-1,-100,18965.483916191268,-0.015684448979307434,0.0020553698151531017,0.9998748789299281,73.66697524546638,4.547688930551047,455.31649361547466,-108.19478167142287,-121.71519470214844,4761.76025390625,True
1599387851.8603945,0.0,10,0.5,0.5,4.930946765899658,-0.15025,-0.03,-0.5,0.021285337715857167,10,1,100,0.17319980313022978,-10,-1,-100,18965.483916191268,-0.015684448979307434,0.0020553698151531017,0.9998748789299281,73.66697524546638,4.547688930551047,455.31649361547466,-108.19478167142287,-121.71519470214844,4761.76025390625,True
1599387851.9012864,0.0,10,0.5,0.5,7.789165403366089,-0.15025,-0.03,-0.5,0.03456331089247961,10,1,100,0.14039778083894833,-10,-1,-100,18961.145224161795,-0.01538669471162022,0.002173465118514875,0.9998792555480038,74.38166642668936,4.593708650624364,461.4033363022414,-108.55812628361954,-125.8681869506836,4761.76025390625,True
1599387851.9412253,0.0,10,0.5,0.5,8.37584568786621,-0.15025,-0.03,-0.5,0.03144884028763659,10,1,100,0.13569736461393908,-10,-1,-100,18956.79199960979,-0.015074171061961336,0.002250075885951732,0.9998838465168353,74.87506801799732,4.625666590855958,466.1443776279878,-108.92142560116687,-129.7249755859375,4761.76025390625,True
1599387851.9805071,0.0,10,0.5,0.5,8.905800514221191,-0.15025,-0.03,-0.5,0.02682069705013644,10,1,100,0.12683156641502558,-10,-1,-100,18952.424244416878,-0.014710830787436282,0.0022756068543316383,0.999889200397218,75.18415309572246,4.64581131479481,469.75631626676375,-109.28469324845456,-133.28585815429688,4761.76025390625,True
1599387852.0223951,0.0,10,0.5,0.5,10.374349102020265,-0.15025,-0.03,-0.5,0.019280511130420674,10,1,100,0.1024771559063259,-10,-1,-100,18945.845367917558,-0.01416087069824787,0.0022285194832934833,0.9998972464418433,75.3723770602802,4.658234773586114,473.47203875064804,-109.82955934205077,-138.07249450683594,4761.76025390625,True
1599387852.0646324,0.0,10,0.5,0.5,10.802947090148924,-0.15025,-0.03,-0.5,0.007221497007658789,10,1,100,0.09286565527275858,-10,-1,-100,18939.233800029848,-0.013575786358893938,0.002074531778398918,0.9999056927243879,75.3259064443763,4.655345258367189,475.7215544757266,-110.37440756852067,-142.19390869140625,4761.76025390625,True
1599387852.1045263,0.0,10,0.5,0.5,8.862321159362793,-0.15025,-0.03,-0.5,0.02271241368050904,10,1,100,0.15107969615486258,-10,-1,-100,18939.233800029848,-0.013575786358893938,0.002074531778398918,0.9999056927243879,75.3259064443763,4.655345258367189,475.7215544757266,-110.37440756852067,-142.19390869140625,4761.76025390625,True
1599387852.1444187,0.0,10,0.5,0.5,11.867060752868651,-0.15025,-0.03,-0.5,-0.01451651991501765,10,1,100,0.06268189941855933,-10,-1,-100,18930.3675238922,-0.012774714342346734,0.0017355111833039305,0.9999168938838887,75.06093050975618,4.638010713464909,477.43115660122066,-111.10087286303705,-146.6546630859375,4761.76025390625,True
1599387852.1833143,0.0,10,0.5,0.5,9.754199867248534,-0.15025,-0.03,-0.5,0.019414969399893515,10,1,100,0.1424291189555143,-10,-1,-100,18930.3675238922,-0.012774714342346734,0.0017355111833039305,0.9999168938838887,75.06093050975618,4.638010713464909,477.43115660122066,-111.10087286303705,-146.6546630859375,4761.76025390625,True
1599387852.2232118,0.0,10,0.5,0.5,11.01906502532959,-0.15025,-0.03,-0.5,-0.008379709081768976,10,1,100,0.09643954426490756,-10,-1,-100,18925.9125916349,-0.012359733925795861,0.0014827778178094883,0.9999225161717413,74.89413154392045,4.626946020626374,478.060896636362,-111.46411058074389,-148.4423828125,4761.76025390625,True
1599387852.2631016,0.0,10,0.5,0.5,11.175522895812987,-0.15025,-0.03,-0.5,-0.010498859911473564,10,1,100,0.09232818300054674,-10,-1,-100,18921.443129883846,-0.01194812545839498,0.0012342757434511751,0.9999278568283911,74.72885405519715,4.61585134747674,478.69475301501825,-111.82735184134431,-149.934326171875,4761.76025390625,True
1599387852.3000033,0.0,10,0.5,0.5,11.292929023742674,-0.15025,-0.03,-0.5,-0.02220577867117847,10,1,100,0.08669698448135035,-10,-1,-100,18916.95913831482,-0.011526139886511405,0.0009026846817387567,0.9999331643963421,74.58199710836158,4.605805504317571,479.44135960553035,-112.19059535940556,-151.13189697265625,4761.76025390625,True
1599387852.334949,0.0,10,0.5,0.5,11.578093822479246,-0.15025,-0.03,-0.5,-0.04680242077719649,10,1,100,0.0580856527090569,-10,-1,-100,18910.20590754354,-0.010885923218528314,0.0003787876796152816,0.9999406748380496,74.42124960697048,4.594301503463749,480.9366713292264,-112.73545965918794,-152.37474060058594,4761.76025390625,True
1599387852.3748426,0.0,10,0.5,0.5,11.198207176208495,-0.15025,-0.03,-0.5,-0.01605503678558378,10,1,100,0.09791610919415913,-10,-1,-100,18907.9475659373,-0.010669810622811372,0.00018374052143254387,0.9999430590692122,74.38861358168919,4.591738798954482,481.56903426603765,-112.91707936929883,-152.64169311523438,4761.76025390625,True
1599387852.4137383,0.0,10,0.5,0.5,11.248450981140136,-0.15025,-0.03,-0.5,-0.018853925956096366,10,1,100,0.09507539932285977,-10,-1,-100,18905.685591911897,-0.010451193646206544,-1.711782725378747e-05,0.9999453846377558,74.36804256258411,4.589912809786325,482.2792428078099,-113.0986975052451,-152.83493041992188,4761.76025390625,True
1599387852.455139,0.0,10,0.5,0.5,11.303604961395264,-0.15025,-0.03,-0.5,-0.04379794718046516,10,1,100,0.06743553624909296,-10,-1,-100,18901.15074688429,-0.01000455189139704,-0.00042443866690785296,0.9999498631397828,74.36541116201228,4.588617385098846,483.9498181809581,-113.46192703740869,-153.00022888183594,4761.76025390625,True
1599387852.4970276,0.0,10,0.5,0.5,10.894266746520996,-0.15025,-0.03,-0.5,-0.1054593587219547,10,1,100,0.011522836730200534,-10,-1,-100,18892.037470906973,-0.009093463240914375,-0.0013530168347475385,0.9999577382428375,74.52338773980766,4.596039070165933,488.3634918721071,-114.18834576208093,-152.44796752929688,4761.76025390625,True
1599387852.537498,0.0,10,0.5,0.5,10.734407577514647,-0.15025,-0.03,-0.5,-0.06628307626637729,10,1,100,0.0499624166499088,-10,-1,-100,18887.45904145157,-0.008618726397125645,-0.0018379148299027795,0.9999611690582636,74.68332166629807,4.604723058557616,491.109220967402,-114.55152691243634,-151.73016357421875,4761.76025390625,True
1599387852.5773911,0.0,10,0.5,0.5,10.450209526062013,-0.15025,-0.03,-0.5,-0.07024702452356685,10,1,100,0.04227221608865166,-10,-1,-100,18882.86608549801,-0.008121014704892845,-0.002311518513279079,0.9999643523657858,74.89296747328962,4.616468588191635,494.1908330622821,-114.91468417920001,-150.71774291992188,4761.76025390625,True
1599387852.6182811,0.0,10,0.5,0.5,10.968609092712402,-0.15025,-0.03,-0.5,-0.02329135915559517,10,1,100,0.0915780153481863,-10,-1,-100,18882.86608549801,-0.008121014704892845,-0.002311518513279079,0.9999643523657858,74.89296747328962,4.616468588191635,494.1908330622821,-114.91468417920001,-150.71774291992188,4761.76025390625,True
1599387852.658685,0.0,10,0.5,0.5,10.12610961151123,-0.15025,-0.03,-0.5,-0.07937990376012193,10,1,100,0.03548857198049643,-10,-1,-100,18878.258603950846,-0.007614964055387394,-0.002817965013019242,0.9999670351544697,75.14550497218843,4.630868490997713,497.56638984099544,-115.27781420743821,-149.41159057617188,4761.76025390625,True
1599387852.6985781,0.0,10,0.5,0.5,9.73691594696045,-0.15025,-0.03,-0.5,-0.08369575374778894,10,1,100,0.027701927302654403,-10,-1,-100,18873.636598163517,-0.007088069569132064,-0.0033139220665286623,0.9999693881266166,75.43172586461849,4.64737470592704,501.1774755164092,-115.64091396379717,-147.81112670898438,4761.76025390625,True
1599387852.7394693,0.0,10,0.5,0.5,9.295683349609375,-0.15025,-0.03,-0.5,-0.09254882732112853,10,1,100,0.0205518966141974,-10,-1,-100,18869.000069353264,-0.006548108912020682,-0.0038414413233418885,0.9999711823838904,75.74017391285689,4.665308298341827,504.9498848800928,-116.00398130324554,-145.917236328125,4761.76025390625,True
1599387852.7803595,0.0,10,0.5,0.5,8.80044719314575,-0.15025,-0.03,-0.5,-0.09487596123668095,10,1,100,0.012007134681225919,-10,-1,-100,18864.349018632085,-0.005983499400989236,-0.004338323475128973,0.9999726879691982,76.05676947806712,4.683836746636295,508.7908510975396,-116.36701501583974,-143.72914123535156,4761.76025390625,True
1599387852.8192546,0.0,10,0.5,0.5,8.254098049163819,-0.15025,-0.03,-0.5,-0.10109367157187646,10,1,100,0.00422114174748503,-10,-1,-100,18859.683447668212,-0.005403696556310116,-0.004842448194349408,0.9999736750330043,76.36482056660854,4.701975320284986,512.5888554922636,-116.73001534845994,-141.24754333496094,4761.76025390625,True
1599387852.8601465,0.0,10,0.5,0.5,5.660186790466309,-0.15025,-0.03,-0.5,-0.1573772715931228,10,1,100,-0.07218553420673166,-10,-1,-100,18850.308750011143,-0.004186585549827034,-0.005808025820772865,0.9999743693402844,76.8743870867862,4.732313155179208,519.5071079874864,-117.45592172567889,-135.40371704101562,4761.76025390625,True
1599387852.8980439,0.0,10,0.5,0.5,8.529310401916504,-0.15025,-0.03,-0.5,-0.0613578676661636,10,1,100,0.04894376980741957,-10,-1,-100,18850.308750011143,-0.004186585549827034,-0.005808025820772865,0.9999743693402844,76.8743870867862,4.732313155179208,519.5071079874864,-117.45592172567889,-135.40371704101562,4761.76025390625,True
1599387852.9359431,0.0,10,0.5,0.5,6.2919680137634275,-0.15025,-0.03,-0.5,-0.11115985934509814,10,1,100,-0.021367925612596067,-10,-1,-100,18845.599625453935,-0.0035518491166369715,-0.006256721191503156,0.999974118568968,77.02902578163223,4.7417392044898685,522.305009646499,-117.81883597786805,-132.04161071777344,4761.76025390625,True
1599387852.9806163,0.0,10,0.5,0.5,5.536627784729003,-0.15025,-0.03,-0.5,-0.10856514053946761,10,1,100,-0.028735516544937743,-10,-1,-100,18840.875985002378,-0.0029124441482433435,-0.006637020624514415,0.9999737334681912,77.08164620701254,4.745233917300345,524.4165905200847,-118.18173284236467,-128.38558959960938,4761.76025390625,True
1599387853.0199378,0.0,10,0.5,0.5,1.9719241218566887,-0.15025,-0.03,-0.5,-0.15188818145296812,10,1,100,-0.11168712320485627,-10,-1,-100,18831.38515692437,-0.0015817964533013764,-0.007372660933637169,0.9999715704912505,76.76055448145529,4.7271288195700265,525.7311310168241,-118.90751417992622,-120.19532775878906,4761.76025390625,True
1599387853.0618572,0.0,10,0.5,0.5,4.524912168502807,-0.15025,-0.03,-0.5,-0.09574405255993226,10,1,100,-0.01587238402731947,-10,-1,-100,18829.00337764062,-0.0012491045579240967,-0.007526422640702657,0.9999708959264949,76.56842162290405,4.715948004562801,525.2890742240932,-119.08896591663364,-117.96453094482422,4761.76025390625,True
1599387853.103746,0.0,10,0.5,0.5,0.9083392868041988,-0.15025,-0.03,-0.5,-0.12123244419772196,10,1,100,-0.09027618142246514,-10,-1,-100,18821.836263718433,-0.00027604636716839395,-0.007893638245989659,0.9999688066503098,75.65939740787607,4.6623530687772865,521.6475682414839,-119.63336695087703,-110.83245849609375,4761.76025390625,True
1599387853.1426332,0.0,10,0.5,0.5,4.363439506530762,-0.15025,-0.03,-0.5,-0.0849688552869679,10,1,100,0.006348435332908768,-10,-1,-100,18821.836263718433,-0.00027604636716839395,-0.007893638245989659,0.9999688066503098,75.65939740787607,4.6623530687772865,521.6475682414839,-119.63336695087703,-110.83245849609375,4761.76025390625,True
1599387853.1825342,0.0,10,0.5,0.5,0.9287694396972652,-0.15025,-0.03,-0.5,-0.10869153878540844,10,1,100,-0.06662347076047885,-10,-1,-100,18817.04003908485,0.00038163272227617325,-0.008105615189682166,0.9999670761374406,74.73567368334605,4.607253287907465,516.9917091660146,-119.99636062679744,-105.71224975585938,4761.76025390625,True
1599387853.2243884,0.0,10,0.5,0.5,-3.8297297706604008,-0.15025,-0.03,-0.5,-0.11452891614953202,10,1,100,-0.13645727797832005,-10,-1,-100,18807.404021838913,0.0016085891127304585,-0.008347963758426884,0.9999638613180751,72.22248330191812,4.45568421700048,502.92784215336314,-120.72256272848979,-94.63258361816406,4761.76025390625,True
1599387853.2653046,0.0,10,0.5,0.5,-2.305275634765625,-0.15025,-0.03,-0.5,-0.09619957811986579,10,1,100,-0.07615795773228819,-10,-1,-100,18802.56422246853,0.002169453569389482,-0.008398463461048682,0.9999623789336796,70.64593008763296,4.359577127743895,493.57842294640756,-121.0857916427888,-88.67251586914062,4761.76025390625,True
1599387853.3052063,0.0,10,0.5,0.5,-1.414101737976074,-0.15025,-0.03,-0.5,-0.09274624740593049,10,1,100,-0.0488994793841381,-10,-1,-100,18800.138873573393,0.0024257477821697606,-0.008410623422723381,0.9999616878467588,69.81358630025024,4.308569984210146,488.56880999484173,-121.26744103954613,-85.67572021484375,4761.76025390625,True
1599387853.347094,0.0,10,0.5,0.5,-1.9798590698242187,-0.15025,-0.03,-0.5,-0.0922368201731375,10,1,100,-0.05125502684305806,-10,-1,-100,18797.7098912379,0.002674145376749289,-0.008414680778855035,0.999961020287238,68.92180451885399,4.253717273068189,483.1235995514168,-121.44911474370274,-82.73074340820312,4761.76025390625,True
1599387853.4039054,0.0,10,0.5,0.5,-4.353818428039551,-0.15025,-0.03,-0.5,-0.09040749356662703,10,1,100,-0.08070154134470614,-10,-1,-100,18792.84102567169,0.003161996963206219,-0.00839977726110885,0.9999597219474237,69.42241297434471,4.2844501470638034,488.2356028807065,-121.81245651477269,-77.04290771484375,4761.76025390625,True
1599387853.4447963,0.0,10,0.5,0.5,-5.172972747802735,-0.15025,-0.03,-0.5,-0.08646683225599935,10,1,100,-0.08081776687683043,-10,-1,-100,18787.95763081254,0.0036010327819941492,-0.008348801908846072,0.9999586641804699,71.44310342958907,4.408420373323963,504.09535117566907,-122.175655908519,-71.64645385742188,4761.76025390625,True
1599387853.4857275,0.0,10,0.5,0.5,-5.936036399841308,-0.15025,-0.03,-0.5,-0.08315553717553607,10,1,100,-0.0801122372371452,-10,-1,-100,18783.05971183721,0.003989030684863042,-0.008271470596080055,0.9999578343152142,73.13637162566584,4.5118098938619475,517.728952091934,-122.53872858852807,-66.54742431640625,4761.76025390625,True
1599387853.5295694,0.0,10,0.5,0.5,-9.589935508728026,-0.15025,-0.03,-0.5,-0.06841781297419797,10,1,100,-0.10975375156036146,-10,-1,-100,18773.220319345244,0.004606462422006923,-0.008066512775412076,0.999956855007054,75.65206030530541,4.664548661922546,539.020367193773,-123.2645608640502,-57.244598388671875,4761.76025390625,True
1599387853.5694914,0.0,10,0.5,0.5,-5.099286125183105,-0.15025,-0.03,-0.5,-0.08893088249393806,10,1,100,-0.04849882872489093,-10,-1,-100,18773.220319345244,0.004606462422006923,-0.008066512775412076,0.999956855007054,75.65206030530541,4.664548661922546,539.020367193773,-123.2645608640502,-57.244598388671875,4761.76025390625,True
1599387853.6113884,0.0,10,0.5,0.5,-10.53303189086914,-0.15025,-0.03,-0.5,-0.06283608433701887,10,1,100,-0.0933258110927234,-10,-1,-100,18763.322876401013,0.005009541799178877,-0.00782913017895879,0.9999568036728402,77.22120181339056,4.759534001430118,553.7513101426367,-123.99008476155481,-49.13543701171875,4761.76025390625,True
1599387853.6507912,0.0,10,0.5,0.5,-6.648181640624999,-0.15025,-0.03,-0.5,-0.0865466954812751,10,1,100,-0.05348066428321828,-10,-1,-100,18763.322876401013,0.005009541799178877,-0.00782913017895879,0.9999568036728402,77.22120181339056,4.759534001430118,553.7513101426367,-123.99008476155481,-49.13543701171875,4761.76025390625,True
1599387853.6917195,0.0,10,0.5,0.5,-11.282090057373047,-0.15025,-0.03,-0.5,-0.05822033579323213,10,1,100,-0.07539368494753666,-10,-1,-100,18753.367402050062,0.005205659302775909,-0.0075720894850488255,0.9999577813948216,78.1038085331105,4.813476008066983,563.6721571177576,-124.71541210843264,-42.218994140625,4761.76025390625,True
1599387853.7336051,0.0,10,0.5,0.5,-7.963229187011719,-0.15025,-0.03,-0.5,-0.08384176778662866,10,1,100,-0.056085555161172085,-10,-1,-100,18753.367402050062,0.005205659302775909,-0.0075720894850488255,0.9999577813948216,78.1038085331105,4.813476008066983,563.6721571177576,-124.71541210843264,-42.218994140625,4761.76025390625,True
1599387853.7724926,0.0,10,0.5,0.5,-10.051771041870117,-0.15025,-0.03,-0.5,-0.06861155264241697,10,1,100,-0.058591313948920525,-10,-1,-100,18748.367906835163,0.0052259117358276165,-0.007434395287317514,0.9999587089541454,78.36376984138352,4.8297936741313885,567.3516251892725,-125.07802889471093,-39.20758056640625,4761.76025390625,True
1599387853.8133934,0.0,10,0.5,0.5,-10.440968688964844,-0.15025,-0.03,-0.5,-0.06959194876769798,10,1,100,-0.05372943666160797,-10,-1,-100,18743.353907512035,0.00519780436657262,-0.007319022604602093,0.9999597065571594,78.53959496642504,4.841248756381811,570.4335621987816,-125.44062484137154,-36.4942626953125,4761.76025390625,True
1599387853.8552861,0.0,10,0.5,0.5,-12.154306030273437,-0.15025,-0.03,-0.5,-0.05439221128085063,10,1,100,-0.03403071721718405,-10,-1,-100,18733.282399544376,0.0049913222110247995,-0.007076941420122649,0.9999625010982772,78.73652551142119,4.855441358140699,575.4967463029938,-126.16577249944157,-31.9600830078125,4761.76025390625,True
1599387853.8962111,0.0,10,0.5,0.5,-10.006275299072264,-0.15025,-0.03,-0.5,-0.07847314367992267,10,1,100,-0.05481796171486915,-10,-1,-100,18733.282399544376,0.0049913222110247995,-0.007076941420122649,0.9999625010982772,78.73652551142119,4.855441358140699,575.4967463029938,-126.16577249944157,-31.9600830078125,4761.76025390625,True
1599387853.9368794,0.0,10,0.5,0.5,-11.294151939392089,-0.15025,-0.03,-0.5,-0.06590144177861589,10,1,100,-0.035880549488371216,-10,-1,-100,18728.224891617312,0.004818252743941944,-0.006963739156634367,0.9999641447459273,78.79975662662342,4.860692677135048,577.7800619742014,-126.52832935135177,-30.139068603515625,4761.76025390625,True
1599387853.9797435,0.0,10,0.5,0.5,-12.253744148254395,-0.15025,-0.03,-0.5,-0.05328377946513027,10,1,100,-0.0009229964738661223,-10,-1,-100,18718.06637069548,0.004342928391623906,-0.006747124508448585,0.9999678071237358,78.94001266429962,4.872511381982054,582.4639951610221,-127.25341170829275,-27.388153076171875,4761.76025390625,True
1599387854.0195608,0.0,10,0.5,0.5,-10.96785572052002,-0.15025,-0.03,-0.5,-0.07481330545701216,10,1,100,-0.04842907830263159,-10,-1,-100,18718.06637069548,0.004342928391623906,-0.006747124508448585,0.9999678071237358,78.94001266429962,4.872511381982054,582.4639951610221,-127.25341170829275,-27.388153076171875,4761.76025390625,True
1599387854.0594537,0.0,10,0.5,0.5,-12.050204620361328,-0.15025,-0.03,-0.5,-0.05052104064639069,10,1,100,0.02107311903215659,-10,-1,-100,18707.849845244433,0.003711696246223609,-0.0065272693789615805,0.9999718086353386,79.18441515507959,4.891180944529109,587.9429095964169,-127.97844202638953,-25.823974609375,4761.76025390625,True
1599387854.0993474,0.0,10,0.5,0.5,-11.557405960083008,-0.15025,-0.03,-0.5,-0.06146983476044866,10,1,100,0.0010184225616721096,-10,-1,-100,18702.719832747825,0.0033213441233667937,-0.006428119081192101,0.9999738236365451,79.36586952606034,4.904278708069078,591.1352515174408,-128.34093131321907,-25.48663330078125,4761.76025390625,True
1599387854.1372457,0.0,10,0.5,0.5,-11.438932388305664,-0.15025,-0.03,-0.5,-0.07127046749701091,10,1,100,-0.03782835820606853,-10,-1,-100,18702.719832747825,0.0033213441233667937,-0.006428119081192101,0.9999738236365451,79.36586952606034,4.904278708069078,591.1352515174408,-128.34093131321907,-25.48663330078125,4761.76025390625,True
1599387854.177139,0.0,10,0.5,0.5,-11.516196762084961,-0.15025,-0.03,-0.5,-0.05716883074050306,10,1,100,0.006742515227200652,-10,-1,-100,18697.57532137842,0.0029178673786819913,-0.006300962356500081,0.9999758916710654,79.59534962286084,4.920391341525909,594.6967243746261,-128.70339882521654,-25.44500732421875,4761.76025390625,True
1599387854.2190263,0.0,10,0.5,0.5,-11.371291137695312,-0.15025,-0.03,-0.5,-0.056243560522505204,10,1,100,0.016298396725727225,-10,-1,-100,18692.416312068235,0.002466296910215698,-0.006177984180189917,0.9999778747007455,79.87195343633752,4.93945040676515,598.6237951498847,-129.06584091363493,-25.6993408203125,4761.76025390625,True
1599387854.2605524,0.0,10,0.5,0.5,-11.173133712768553,-0.15025,-0.03,-0.5,-0.05508579159330503,10,1,100,0.02589819605673052,-10,-1,-100,18687.242805549526,0.001970990588106635,-0.006056697973664686,0.9999797155971502,80.19707232325582,4.961529233526582,602.9300888567238,-129.42825398532307,-26.24945068359375,4761.76025390625,True
1599387854.3004458,0.0,10,0.5,0.5,-10.915679901123047,-0.15025,-0.03,-0.5,-0.05112546322739567,10,1,100,0.03344705740580185,-10,-1,-100,18682.054803730687,0.0014548318572185823,-0.00591136229481208,0.9999814694583529,80.56975295023126,4.986553629417214,607.6116850127642,-129.790634210685,-27.0947265625,4761.76025390625,True
1599387854.3413363,0.0,10,0.5,0.5,-10.611301879882811,-0.15025,-0.03,-0.5,-0.04860077689454106,10,1,100,0.04301348423591349,-10,-1,-100,18676.852307695895,0.0009018441219137068,-0.005757346873852224,0.9999830196729113,80.98310497821481,5.014077881442736,612.6196666772493,-130.1529782589307,-28.2352294921875,4761.76025390625,True
1599387854.3812299,0.0,10,0.5,0.5,-9.715371757507324,-0.15025,-0.03,-0.5,-0.03495891252187764,10,1,100,0.08519876539165405,-10,-1,-100,18669.021390964743,1.918581442256778e-05,-0.00549441262621249,0.9999849054169755,81.66053920597163,5.058828197150087,620.6063425564182,-130.6964209141466,-30.498809814453125,4761.76025390625,True
1599387854.4211528,0.0,10,0.5,0.5,-8.935082717895506,-0.15025,-0.03,-0.5,-0.026856735693571814,10,1,100,0.10038827294629714,-10,-1,-100,18661.157870984054,-0.000917386585995949,-0.005182864167993802,0.9999861480644959,82.37140606821335,5.105434330250227,628.8981917001593,-131.23977026616495,-33.42498779296875,4761.76025390625,True
1599387854.463431,0.0,10,0.5,0.5,-10.380061203002928,-0.15025,-0.03,-0.5,-0.057855155481395124,10,1,100,0.007257064402207448,-10,-1,-100,18661.157870984054,-0.000917386585995949,-0.005182864167993802,0.9999861480644959,82.37140606821335,5.105434330250227,628.8981917001593,-131.23977026616495,-33.42498779296875,4761.76025390625,True
1599387854.5033243,0.0,10,0.5,0.5,-8.024391036987303,-0.15025,-0.03,-0.5,-0.01532140098288718,10,1,100,0.11273831153658494,-10,-1,-100,18653.26175393921,-0.0018720987573700902,-0.004797415859108246,0.999986739935744,83.06134309544626,5.150373239635939,637.0817710570883,-131.78302593290763,-37.01263427734375,4761.76025390625,True
1599387854.5437646,0.0,10,0.5,0.5,-8.910517692565918,-0.15025,-0.03,-0.5,-0.03781812235657636,10,1,100,0.053236774174706576,-10,-1,-100,18650.622471918003,-0.0021943745345288364,-0.0046530064119022635,0.9999867670383109,83.27456471554727,5.164200555169945,639.6922452859175,-131.96409131993542,-38.355377197265625,4761.76025390625,True
1599387854.5841706,0.0,10,0.5,0.5,-6.637418701171875,-0.15025,-0.03,-0.5,-0.0012665542189220572,10,1,100,0.13200582991357931,-10,-1,-100,18642.682900307467,-0.003198420548973907,-0.0041910518519811405,0.9999861024986128,83.82708454847598,5.19983943659872,646.883245346496,-132.50723510578095,-42.82421875,4761.76025390625,True
1599387854.6260571,0.0,10,0.5,0.5,-7.755782669067383,-0.15025,-0.03,-0.5,-0.027899450251056546,10,1,100,0.06774626369886558,-10,-1,-100,18640.02913486131,-0.0035214515165832502,-0.0040151284982581775,0.9999857389594908,83.97248573720249,5.209145439349905,648.9900766272341,-132.68826798449996,-44.46038818359375,4761.76025390625,True
1599387854.6659482,0.0,10,0.5,0.5,-6.2466504135131835,-0.15025,-0.03,-0.5,-0.005773777672140712,10,1,100,0.11092752216827545,-10,-1,-100,18634.71074228047,-0.004202229520107471,-0.0036560219311398234,0.9999844872650272,84.18137865067766,5.22239098878029,652.5806479445183,-133.0503172206535,-47.952789306640625,4761.76025390625,True
