Timestamp,Input Throttle,horizon,dT,dt,Input Roll,Roll P,Roll I,Roll D,Input Pitch,Pitch P,Pitch I,Pitch D,Input Yaw,Yaw P,Yaw I,Yaw D,Altitude,Direction X,Direction Y,Direction Z,Drag X,Drag Y,Drag Z,Vertical Velocity,Roll,Mass,Has Fuel
1599386496.0362542,0.0,10,0.5,0.5,-5.635781890869142,-0.1005,-0.0155,-0.001,-0.0001881565108959038,10,1,100,0.4982042348209751,-10,-1,-100,19348.346769744297,-0.048847321982206295,-0.00017577833385090972,0.998806241589,61.16629150156062,3.6919002490528574,234.71001577359996,-68.84811601062496,-33.92254638671875,4761.76025390625,True
1599386496.079137,0.0,10,0.5,0.5,-5.72233863220215,-0.1005,-0.0155,-0.001,0.0011186351883280487,10,1,100,0.5108848170110367,-10,-1,-100,19344.19398805895,-0.04900665711848587,-0.00014946927603070757,0.998798440736171,61.4365986599121,3.710253542797682,237.69351789847295,-69.39546555552742,-33.9261474609375,4761.76025390625,True
1599386496.111051,0.0,10,0.5,0.5,-5.809256704711915,-0.1005,-0.0155,-0.001,-0.0015272175212952374,10,1,100,0.4998519690949279,-10,-1,-100,19344.19398805895,-0.04900665711848587,-0.00014946927603070757,0.998798440736171,61.4365986599121,3.710253542797682,237.69351789847295,-69.39546555552742,-33.9261474609375,4761.76025390625,True
1599386496.144962,0.0,10,0.5,0.5,-5.880863162231446,-0.1005,-0.0155,-0.001,0.02173350916895448,10,1,100,0.5031986136974081,-10,-1,-100,19341.407222624635,-0.04899252965385525,6.212775685886323e-05,0.9987991430604344,61.62093173702856,3.722755475618456,239.708980421292,-69.76034784608301,-34.07696533203125,4761.76025390625,True
1599386496.171891,0.0,10,0.5,0.5,-5.892334774780274,-0.1005,-0.0155,-0.001,0.04821407078575886,10,1,100,0.49981706529867725,-10,-1,-100,19337.199709549663,-0.04890440649178999,0.0004951645944050048,0.9988033409223811,61.92195643788185,3.7429831033250713,242.84421098498873,-70.30764285447164,-34.819427490234375,4761.76025390625,True
1599386496.2038054,0.0,10,0.5,0.5,-5.891402244567871,-0.1005,-0.0155,-0.001,0.05579993971415006,10,1,100,0.49408579133859015,-10,-1,-100,19334.37645842589,-0.048727733484373696,0.000957346741891958,0.9988116396381711,62.136554818609845,3.7572737269285983,245.00059111149125,-70.67248509431171,-35.6785888671875,4761.76025390625,True
1599386496.230731,0.0,10,0.5,0.5,-5.976459593200683,-0.1005,-0.0155,-0.001,0.009677459639643931,10,1,100,0.5166258654286566,-10,-1,-100,19334.37645842589,-0.048727733484373696,0.000957346741891958,0.9988116396381711,62.136554818609845,3.7572737269285983,245.00059111149125,-70.67248509431171,-35.6785888671875,4761.76025390625,True
1599386496.262649,0.0,10,0.5,0.5,-5.874009663391113,-0.1005,-0.0155,-0.001,0.11444845190315694,10,1,100,0.4688786364058499,-10,-1,-100,19330.11421938974,-0.048249369826453295,0.0019089399927039927,0.9988334967648284,62.46235649686187,3.778830196027786,248.2687039747438,-71.21971407555606,-37.517486572265625,4761.76025390625,True
1599386496.290571,0.0,10,0.5,0.5,-5.9571964569091795,-0.1005,-0.0155,-0.001,0.019480020821223874,10,1,100,0.5215399391805353,-10,-1,-100,19330.11421938974,-0.048249369826453295,0.0019089399927039927,0.9988334967648284,62.46235649686187,3.778830196027786,248.2687039747438,-71.21971407555606,-37.517486572265625,4761.76025390625,True
1599386496.323484,0.0,10,0.5,0.5,-5.961446726989746,-0.1005,-0.0155,-0.001,0.0632779243998474,10,1,100,0.5031720118384565,-10,-1,-100,19328.686177144875,-0.04803852560531944,0.002305367352516294,0.9988428231403763,62.56695473686919,3.7857287310885623,249.34696997062753,-71.40211442818047,-38.277069091796875,4761.76025390625,True
1599386496.353403,0.0,10,0.5,0.5,-5.865801916503907,-0.1005,-0.0155,-0.001,0.11930247844838575,10,1,100,0.47114380684447243,-10,-1,-100,19325.819148587063,-0.04751201215379306,0.003172974200648265,0.9988656270669344,62.76132412429654,3.7985380279798493,251.4510963728063,-71.76690113751849,-40.0167236328125,4761.76025390625,True
1599386496.385319,0.0,10,0.5,0.5,-5.7586523590087895,-0.1005,-0.0155,-0.001,0.08741021617533579,10,1,100,0.4900389529259585,-10,-1,-100,19324.380162910442,-0.04720635153480842,0.003668733721436422,0.998878421414565,62.847265427103935,3.804208949418928,252.4612583559734,-71.94928791263749,-40.9964599609375,4761.76025390625,True
1599386496.4142432,0.0,10,0.5,0.5,-5.527428634643555,-0.1005,-0.0155,-0.001,0.15647097789415015,10,1,100,0.44183697709523123,-10,-1,-100,19321.491248190636,-0.04649191510598275,0.004743778207780816,0.9989074023141952,62.986591467968495,3.813452695020523,254.35593745474475,-72.31404900826729,-43.17620849609375,4761.76025390625,True
1599386496.4471521,0.0,10,0.5,0.5,-5.393454061889648,-0.1005,-0.0155,-0.001,0.11138813052563348,10,1,100,0.4674061932977611,-10,-1,-100,19320.041319689946,-0.04607716099253924,0.00530679890339483,0.9989237874433997,63.035399726863425,3.8167404263901163,255.22124688103986,-72.4964240969656,-44.376373291015625,4761.76025390625,True
1599386496.480064,0.0,10,0.5,0.5,-5.112720372009278,-0.1005,-0.0155,-0.001,0.19009008395082194,10,1,100,0.406166904670929,-10,-1,-100,19317.13051999535,-0.045146041327947854,0.0065293403204124325,0.9989590595551929,63.078012581580126,3.8198238019660433,256.73153295624473,-72.86116561867345,-46.99676513671875,4761.76025390625,True
1599386496.512685,0.0,10,0.5,0.5,-4.952284967041016,-0.1005,-0.0155,-0.001,0.13788834559281993,10,1,100,0.441301900243619,-10,-1,-100,19315.66964928445,-0.04462239465185636,0.007160694736513864,0.9989782611981226,63.06637874165404,3.8192836250596676,257.35317662973404,-73.04353326120032,-48.417266845703125,4761.76025390625,True
1599386496.5444613,0.0,10,0.5,0.5,-4.623246864318848,-0.1005,-0.0155,-0.001,0.22203043591460506,10,1,100,0.36547731956572793,-10,-1,-100,19312.73696575244,-0.04346076997545829,0.008493941983172647,0.9990190260564245,62.96220011694635,3.813117448737304,258.26439957660995,-73.40826577579875,-51.478485107421875,4761.76025390625,True
1599386496.5773733,0.0,10,0.5,0.5,-4.261216482543945,-0.1005,-0.0155,-0.001,0.23882834479597603,10,1,100,0.33586046595133645,-10,-1,-100,19309.78969279572,-0.0421402915672464,0.009851841747019204,0.9990631296573902,62.72904713738354,3.7988884770083438,258.6403168723406,-73.7730007205613,-54.83416748046875,4761.76025390625,True
1599386496.6132853,0.0,10,0.5,0.5,-3.8673157821655275,-0.1005,-0.0155,-0.001,0.26082865482611917,10,1,100,0.3041651623461536,-10,-1,-100,19306.82783038891,-0.04065727123451503,0.011279078076467997,0.9991094878408012,62.3399799283176,3.774978018320408,258.36124926826267,-74.13774608319589,-58.48358154296875,4761.76025390625,True
1599386496.6461968,0.0,10,0.5,0.5,-3.4380990661621094,-0.1005,-0.0155,-0.001,0.271455180935517,10,1,100,0.27204446521062325,-10,-1,-100,19303.85137738241,-0.039023966502247084,0.012664652124158004,0.9991580138421579,61.76732415974733,3.739748442009447,257.3021776384737,-74.50251159758807,-62.4281005859375,4761.76025390625,True
1599386496.683097,0.0,10,0.5,0.5,-2.9743434036254883,-0.1005,-0.0155,-0.001,0.28526571198520057,10,1,100,0.23813029324866536,-10,-1,-100,19300.86033291812,-0.037239028417897585,0.01404039764544455,0.9992077471659477,60.98230179890139,3.6915265554322514,255.33107802778792,-74.86730774080642,-66.66717529296875,4761.76025390625,True
1599386496.717007,0.0,10,0.5,0.5,-2.9372742782592773,-0.1005,-0.0155,-0.001,0.14877790220102557,10,1,100,0.41559680331002574,-10,-1,-100,19300.86033291812,-0.037239028417897585,0.01404039764544455,0.9992077471659477,60.98230179890139,3.6915265554322514,255.33107802778792,-74.86730774080642,-66.66717529296875,4761.76025390625,True
1599386496.7529109,0.0,10,0.5,0.5,-2.4372716262817384,-0.1005,-0.0155,-0.001,0.29550284230725593,10,1,100,0.20286765304360835,-10,-1,-100,19297.854695419664,-0.0353141882546728,0.015364831951933909,0.9992581398452566,59.95644124251756,3.6286887479960344,252.31469394795158,-75.23214524947541,-71.2012939453125,4761.76025390625,True
1599386496.7868204,0.0,10,0.5,0.5,-1.908172785949707,-0.1005,-0.0155,-0.001,0.3008652094298724,10,1,100,0.16938047586783975,-10,-1,-100,19294.834462919272,-0.033270066247280836,0.01660795642827152,0.999308400082366,58.6624065757446,3.5497098979191692,248.12201884405002,-75.5970347490828,-76.03079223632812,4761.76025390625,True
1599386496.8175573,0.0,10,0.5,0.5,-1.072530342102051,-0.1005,-0.0155,-0.001,0.37194547326118277,10,1,100,0.0037121152764389986,-10,-1,-100,19290.27674298419,-0.02991734032131655,0.018373980025658643,0.9993834847575355,56.163603388007175,3.3979780818835064,239.35545766675412,-76.1444865317454,-83.82791137695312,4761.76025390625,True
1599386496.8524642,0.0,10,0.5,0.5,-0.7444146453857422,-0.1005,-0.0155,-0.001,0.25365620762522006,10,1,100,0.21094775895096746,-10,-1,-100,19288.750202799798,-0.02876721233203258,0.018893331208678872,0.9994075692781613,55.17160095522995,3.337979172213013,235.71870964826084,-76.32700529137459,-86.574951171875,4761.76025390625,True
1599386496.8893652,0.0,10,0.5,0.5,-0.4017028976440429,-0.1005,-0.0155,-0.001,0.25780676156759375,10,1,100,0.19512530110081922,-10,-1,-100,19287.220012054546,-0.027592214708882006,0.01939253492319869,0.9994311378362751,54.09644130857379,3.2730768005007462,231.70478927481963,-76.5095423618451,-89.39578247070312,4761.76025390625,True
1599386496.9252732,0.0,10,0.5,0.5,0.24942146377563482,-0.1005,-0.0155,-0.001,0.3059608434082826,10,1,100,0.05405945133997897,-10,-1,-100,19284.14867667202,-0.025256044194798006,0.02027421305045931,0.999475406659321,52.71589587296683,3.190282706063065,226.921830419081,-76.87465364204117,-95.25955963134766,4761.76025390625,True
1599386496.9561903,0.0,10,0.5,0.5,0.9274584995269776,-0.1005,-0.0155,-0.001,0.30525171825012093,10,1,100,0.013490432463936886,-10,-1,-100,19281.06273863034,-0.022778792871641668,0.021059817145346185,0.999518689518668,54.602021417596895,3.305796597193884,236.21144211804256,-77.23969520324135,-101.38016510009766,4761.76025390625,True
1599386496.9900994,0.0,10,0.5,0.5,1.3055858192443848,-0.1005,-0.0155,-0.001,0.26413253913720935,10,1,100,0.12368287952056893,-10,-1,-100,19279.51429488347,-0.021544748895071537,0.02139130038597244,0.9995390117763516,55.453300882604026,3.3582108161119315,240.48828898745137,-77.42218038819166,-104.51078796386719,4761.76025390625,True
1599386497.0275102,0.0,10,0.5,0.5,2.0104511306762696,-0.1005,-0.0155,-0.001,0.2934720022209495,10,1,100,-0.024740746443744743,-10,-1,-100,19276.406460364466,-0.01908947524179327,0.021951437861610478,0.9995767735951055,57.18895214571792,3.465353963792033,249.24007782130172,-77.78707414699315,-110.84347534179688,4761.76025390625,True
1599386497.0624166,0.0,10,0.5,0.5,3.006636878204346,-0.1005,-0.0155,-0.001,0.3051823329671932,10,1,100,-0.18472085448323178,-10,-1,-100,19271.71734803985,-0.015419543259523242,0.02255991944605076,0.99962657413669,59.30156131414425,3.5966500481502046,260.34944950733296,-78.33423836000634,-120.04589080810547,4761.76025390625,True
1599386497.095328,0.0,10,0.5,0.5,3.3778592197418216,-0.1005,-0.0155,-0.001,0.2600107530524712,10,1,100,0.04525091610154694,-10,-1,-100,19270.147016118746,-0.014193729812919727,0.022694688776498446,0.9996416803711897,59.843373493993056,3.630533478640794,263.3673696947962,-78.51658568164345,-122.97877502441406,4761.76025390625,True
1599386497.1297486,0.0,10,0.5,0.5,3.7454776882171634,-0.1005,-0.0155,-0.001,0.26018965218735624,10,1,100,0.03596981758918169,-10,-1,-100,19268.57303763379,-0.013014180746296622,0.02281216919920024,0.9996550585256545,60.28296242263895,3.658154877608043,265.9456434416919,-78.69891705025007,-125.83883666992188,4761.76025390625,True
1599386497.165652,0.0,10,0.5,0.5,4.378043766403199,-0.1005,-0.0155,-0.001,0.26796034751833203,10,1,100,-0.10151308457403246,-10,-1,-100,19265.41414196475,-0.010710433289247293,0.022983972074873533,0.9996784601292648,60.88121669497288,3.696096661910399,269.88451513845484,-79.06354275737057,-131.3385772705078,4761.76025390625,True
1599386497.1985636,0.0,10,0.5,0.5,4.974552096939087,-0.1005,-0.0155,-0.001,0.25551815249239657,10,1,100,-0.12602782475993268,-10,-1,-100,19262.24066233344,-0.008410716969359782,0.023022854741568736,0.9996995588673678,61.14912832933294,3.7135807005343615,272.37725210935383,-79.42813621296428,-136.54415893554688,4761.76025390625,True
1599386497.2344692,0.0,10,0.5,0.5,5.29974807472229,-0.1005,-0.0155,-0.001,0.251035523701235,10,1,100,-0.019896965726666077,-10,-1,-100,19260.648453716538,-0.0073033976655487165,0.02301369733725119,0.9997084725645812,61.17367871281942,3.71552016194107,273.13949523961,-79.61042681237622,-139.03627014160156,4761.76025390625,True
1599386497.2753606,0.0,10,0.5,0.5,5.85759680595398,-0.1005,-0.0155,-0.001,0.24626247431317022,10,1,100,-0.1457570307589861,-10,-1,-100,19257.453098838218,-0.005171005722738778,0.022958689100330963,0.9997230412942426,61.03453881267767,3.7076647749176113,273.82149610534304,-79.97500577861831,-143.79881286621094,4761.76025390625,True
1599386497.3122602,0.0,10,0.5,0.5,6.381457732391357,-0.1005,-0.0155,-0.001,0.24148877768224541,10,1,100,-0.15838310323719515,-10,-1,-100,19254.243160687853,-0.0031359442417206234,0.02286284393734974,0.9997336926506024,60.68711265227366,3.68680881378351,273.55957465029655,-80.33959261474983,-148.26568603515625,4761.76025390625,True
1599386497.347167,0.0,10,0.5,0.5,6.873121119308473,-0.1005,-0.0155,-0.001,0.23104911387745913,10,1,100,-0.17251934047921355,-10,-1,-100,19251.01863874367,-0.001175234237349335,0.02267916682114875,0.9997421038531816,60.178997842304874,3.6559276890023753,272.55620825089005,-80.70419753961612,-152.43768310546875,4761.76025390625,True
1599386497.3800778,0.0,10,0.5,0.5,7.336591675186157,-0.1005,-0.0155,-0.001,0.2321928659816604,10,1,100,-0.17953424228167292,-10,-1,-100,19247.779531708453,0.0006524834969580832,0.022521414583335883,0.99974614785477,59.55119759300034,3.61760449668429,270.9878004666463,-81.06882716359368,-156.3131103515625,4761.76025390625,True
1599386497.4159813,0.0,10,0.5,0.5,7.936914809036255,-0.1005,-0.0155,-0.001,0.21924004922910814,10,1,100,-0.2793423830449428,-10,-1,-100,19242.89352242893,0.0032034445725956885,0.022259732417826687,0.9997470891458283,58.474461330265974,3.5517831773295985,267.9684930076806,-81.61582546900308,-161.57144165039062,4761.76025390625,True
1599386497.4558752,0.0,10,0.5,0.5,7.996021081542969,-0.1005,-0.0155,-0.001,0.2453782470772053,10,1,100,-0.026108574264394176,-10,-1,-100,19242.89352242893,0.0032034445725956885,0.022259732417826687,0.9997470891458283,58.474461330265974,3.5517831773295985,267.9684930076806,-81.61582546900308,-161.57144165039062,4761.76025390625,True
1599386497.495768,0.0,10,0.5,0.5,8.662123177337648,-0.1005,-0.0155,-0.001,0.22008957424058515,10,1,100,-0.35908757817605463,-10,-1,-100,19236.327784811612,0.006214710813260315,0.02203023080691075,0.9997379888251229,56.96325663043184,3.459528085540163,263.4898790288219,-82.34525970851026,-167.544677734375,4761.76025390625,True
1599386497.5420616,0.0,10,0.5,0.5,8.978933200836183,-0.1005,-0.0155,-0.001,0.22679277031576128,10,1,100,-0.2086324367111054,-10,-1,-100,19233.02303157607,0.007566970753674476,0.02188324197802722,0.9997318963973012,56.239457168715276,3.415467693190659,261.3512966659177,-82.7100172346732,-170.08792114257812,4761.76025390625,True
1599386497.5759704,0.0,10,0.5,0.5,9.1540988861084,-0.1005,-0.0155,-0.001,0.24448258267500983,10,1,100,-0.1443357525417251,-10,-1,-100,19231.36518353084,0.008195166839744873,0.021911432909668856,0.9997263267256263,55.89357227542918,3.3944535059597105,260.3452776548483,-82.89240474300198,-171.24700927734375,4761.76025390625,True
1599386497.6138666,0.0,10,0.5,0.5,9.514681417846681,-0.1005,-0.0155,-0.001,0.24777898243202418,10,1,100,-0.2751667364419994,-10,-1,-100,19226.369751603343,0.009940530513621268,0.021968038683344928,0.9997092532979349,54.95798765833095,3.3377904607112208,257.7625076088546,-83.43959657873589,-174.28102111816406,4761.76025390625,True
1599386497.6507683,0.0,10,0.5,0.5,9.566276770019531,-0.1005,-0.0155,-0.001,0.24201383919902633,10,1,100,-0.10235476187227685,-10,-1,-100,19226.369751603343,0.009940530513621268,0.021968038683344928,0.9997092532979349,54.95798765833095,3.3377904607112208,257.7625076088546,-83.43959657873589,-174.28102111816406,4761.76025390625,True
1599386497.6926563,0.0,10,0.5,0.5,9.78123243713379,-0.1005,-0.0155,-0.001,0.2514303369627327,10,1,100,-0.21726986990988734,-10,-1,-100,19223.02122301038,0.010971475553748309,0.0220545437997577,0.9996965658748448,54.436039611083075,3.306342110307991,256.4875118892509,-83.80441022715445,-175.93331909179688,4761.76025390625,True
1599386497.734544,0.0,10,0.5,0.5,10.06748921661377,-0.1005,-0.0155,-0.001,0.2875516665532152,10,1,100,-0.3088799617772343,-10,-1,-100,19216.280386825558,0.012728692407389256,0.022462295356535145,0.9996666572797724,53.68542576994396,3.2615560710719014,255.2663483276625,-84.5340634424723,-178.34735107421875,4761.76025390625,True
1599386497.7704487,0.0,10,0.5,0.5,10.105235169982912,-0.1005,-0.0155,-0.001,0.24675482372900934,10,1,100,-0.13454866907761348,-10,-1,-100,19216.280386825558,0.012728692407389256,0.022462295356535145,0.9996666572797724,53.68542576994396,3.2615560710719014,255.2663483276625,-84.5340634424723,-178.34735107421875,4761.76025390625,True
1599386497.811338,0.0,10,0.5,0.5,10.244072508239746,-0.1005,-0.0155,-0.001,0.3044032255016802,10,1,100,-0.24997202545338723,-10,-1,-100,19211.186453119502,0.013767017275432262,0.022986425481038335,0.9996409822926142,53.40643413426264,3.245410419473415,255.66883290436786,-85.0813081958816,-179.37872314453125,4761.76025390625,True
1599386497.8452475,0.0,10,0.5,0.5,10.302853680419922,-0.1005,-0.0155,-0.001,0.2977416742826253,10,1,100,-0.20929062871735782,-10,-1,-100,19207.77225581021,0.014331514846323057,0.023401687225810545,0.9996234134498827,53.36817235913607,3.2436794025910562,256.6381921121017,-85.4461317220162,-179.69607543945312,4761.76025390625,True
1599386497.8791566,0.0,10,0.5,0.5,10.332735833740236,-0.1005,-0.0155,-0.001,0.31115559897905054,10,1,100,-0.20345420528513083,-10,-1,-100,19204.343465718208,0.014781519633863783,0.02390010453210916,0.9996050678546342,53.44849384794877,3.249177613889677,258.1792329595045,-85.81094471665983,-179.71682739257812,4761.76025390625,True
1599386497.9170556,0.0,10,0.5,0.5,10.351581913757325,-0.1005,-0.0155,-0.001,0.26150085572170884,10,1,100,-0.1593104074131186,-10,-1,-100,19204.343465718208,0.014781519633863783,0.02390010453210916,0.9996050678546342,53.44849384794877,3.249177613889677,258.1792329595045,-85.81094471665983,-179.71682739257812,4761.76025390625,True
1599386497.9529605,0.0,10,0.5,0.5,10.338520497131348,-0.1005,-0.0155,-0.001,0.32535415787016686,10,1,100,-0.19668766021049364,-10,-1,-100,19200.900083824527,0.015114754160312474,0.02447875558568234,0.9995860817016461,53.64706777906435,3.261867131616819,260.29804518894684,-86.17574250236788,-179.44110107421875,4761.76025390625,True
1599386497.9858718,0.0,10,0.5,0.5,10.29344462890625,-0.1005,-0.0155,-0.001,0.3390924667856732,10,1,100,-0.1874114239873794,-10,-1,-100,19197.442110409844,0.015327074684764276,0.025127361785729822,0.9995667543847668,53.96297948648494,3.28167538894528,262.9978516794732,-86.54052059659726,-178.86915588378906,4761.76025390625,True
1599386498.0257645,0.0,10,0.5,0.5,10.260846299743653,-0.1005,-0.0155,-0.001,0.31221343065812673,10,1,100,-0.17471533096854375,-10,-1,-100,19195.707652330748,0.01539977745757546,0.025469776799974943,0.9995569705244503,54.16376807530995,3.2941729320883453,264.5622989528365,-86.72290066636293,-178.4722900390625,4761.76025390625,True
1599386498.0646615,0.0,10,0.5,0.5,10.164619622039794,-0.1005,-0.0155,-0.001,0.36051552771623785,10,1,100,-0.17200308683475862,-10,-1,-100,19192.227793812403,0.015436251170783986,0.026216989751529127,0.999537088655624,54.645789232298995,3.324027948530294,268.0993000033994,-87.08764027942357,-177.45632934570312,4761.76025390625,True
1599386498.1005645,0.0,10,0.5,0.5,10.034851839447022,-0.1005,-0.0155,-0.001,0.37529389814806613,10,1,100,-0.15756579115102914,-10,-1,-100,19188.733346668072,0.015334102062378709,0.027026839033275213,0.9995170910423743,55.23041831180456,3.3600691944187653,272.1633176257619,-87.45234827510944,-176.14456176757812,4761.76025390625,True
1599386498.1389778,0.0,10,0.5,0.5,9.869602158355713,-0.1005,-0.0155,-0.001,0.3896748880354245,10,1,100,-0.14411046854066709,-10,-1,-100,19185.22431227041,0.015116549567684266,0.027889652339586967,0.999496701956312,55.909998999048824,3.401820476425511,276.72309957477586,-87.81702011561421,-174.53720092773438,4761.76025390625,True
1599386498.1748788,0.0,10,0.5,0.5,9.449081923675537,-0.1005,-0.0155,-0.001,0.5092739266592092,10,1,100,-0.06686994813253822,-10,-1,-100,19178.162488259026,0.01421441724410606,0.02975635809919292,0.9994561068376555,57.50666313123825,3.4995562377611833,287.1180209341104,-88.54623704307035,-170.43649291992188,4761.76025390625,True
1599386498.2058012,0.0,10,0.5,0.5,9.316554505157471,-0.1005,-0.0155,-0.001,0.3768649457267162,10,1,100,-0.12177377279767397,-10,-1,-100,19176.387917960645,0.013893015901473767,0.030243490842522803,0.9994460042297532,57.945326672204416,3.5263509526855596,289.93620477891926,-88.72851184171982,-169.22695922851562,4761.76025390625,True
1599386498.244691,0.0,10,0.5,0.5,9.033607946014405,-0.1005,-0.0155,-0.001,0.4356387030744353,10,1,100,-0.06757199897137166,-10,-1,-100,19172.827841759543,0.013108488099700616,0.03121442585451404,0.9994267492709572,58.854813913836296,3.5818589738085453,295.762866364327,-89.09302318166141,-166.58726501464844,4761.76025390625,True
1599386498.2766063,0.0,10,0.5,0.5,8.870710745239258,-0.1005,-0.0155,-0.001,0.3942945538605222,10,1,100,-0.09780304036592177,-10,-1,-100,19171.0423365779,0.012671629593979264,0.03171458876226831,0.999416637175444,59.32082689407576,3.610286318253177,298.74778840214066,-89.27525889512975,-165.1568603515625,4761.76025390625,True
1599386498.3115118,0.0,10,0.5,0.5,8.69692361907959,-0.1005,-0.0155,-0.001,0.40016926889803817,10,1,100,-0.08843196508685214,-10,-1,-100,19169.253186963266,0.012191211986277296,0.03221558473854038,0.9994065891569155,59.79051133029724,3.6389346829618563,301.76136057158106,-89.45748090536401,-163.65292358398438,4761.76025390625,True
1599386498.344424,0.0,10,0.5,0.5,8.34631265411377,-0.1005,-0.0155,-0.001,0.45815755240643774,10,1,100,-0.014771801630190262,-10,-1,-100,19165.663955183816,0.011087488622554978,0.03319116835872511,0.9993875194032731,60.727881389112106,3.696126147335794,307.8089310528655,-89.82188337557548,-160.42491149902344,4761.76025390625,True
1599386498.377337,0.0,10,0.5,0.5,7.773606956481935,-0.1005,-0.0155,-0.001,0.5189907852097708,10,1,100,0.09020154909839061,-10,-1,-100,19160.252781089162,0.009133654727149597,0.03462376121476608,0.9993586801097332,62.07626662638532,3.778560337385405,316.66222426070027,-90.36838328684811,-155.0323486328125,4761.76025390625,True
1599386498.4132395,0.0,10,0.5,0.5,7.742667610168458,-0.1005,-0.0155,-0.001,0.3766468980471529,10,1,100,-0.10455522816910483,-10,-1,-100,19160.252781089162,0.009133654727149597,0.03462376121476608,0.9993586801097332,62.07626662638532,3.778560337385405,316.66222426070027,-90.36838328684811,-155.0323486328125,4761.76025390625,True
1599386498.4441576,0.0,10,0.5,0.5,7.305859796142578,-0.1005,-0.0155,-0.001,0.4747215759008203,10,1,100,0.06225526409558027,-10,-1,-100,19156.627117488184,0.007622925339692128,0.035507706675741935,0.9993403293052346,62.890836087282466,3.8285966701100063,322.1809592208231,-90.73265037026403,-151.07125854492188,4761.76025390625,True
1599386498.4800608,0.0,10,0.5,0.5,6.612285208129883,-0.1005,-0.0155,-0.001,0.5140955242931693,10,1,100,0.19325005570946083,-10,-1,-100,19151.1613053201,0.0050656834061706835,0.036661528564157275,0.9993149009071004,63.895352757664305,3.8909578425210696,329.4050891809055,-91.27896515970806,-144.58187866210938,4761.76025390625,True
1599386498.5159652,0.0,10,0.5,0.5,6.572343838500977,-0.1005,-0.0155,-0.001,0.39959052307409226,10,1,100,-0.06146905102653223,-10,-1,-100,19151.1613053201,0.0050656834061706835,0.036661528564157275,0.9993149009071004,63.895352757664305,3.8909578425210696,329.4050891809055,-91.27896515970806,-144.58187866210938,4761.76025390625,True
1599386498.5548604,0.0,10,0.5,0.5,6.056178182983398,-0.1005,-0.0155,-0.001,0.4674741028707673,10,1,100,0.14686223610003168,-10,-1,-100,19147.499221434235,0.003180079644872771,0.0372723745891589,0.9993000836515215,64.36289168261169,3.9206998414365546,333.2115956009551,-91.64313090746698,-139.89132690429688,4761.76025390625,True
1599386498.5907643,0.0,10,0.5,0.5,5.5098174270629885,-0.1005,-0.0155,-0.001,0.4547041570730301,10,1,100,0.17846481952354695,-10,-1,-100,19143.822571518947,0.0011883372273487124,0.037705208846684005,0.9992881992100487,64.61764435226105,3.937929631858273,335.93317849103687,-92.0072762126659,-134.9102325439453,4761.76025390625,True
1599386498.6236768,0.0,10,0.5,0.5,4.6517980094909674,-0.1005,-0.0155,-0.001,0.4644052659456286,10,1,100,0.3368560437649656,-10,-1,-100,19138.28028623003,-0.002051421417256645,0.03818098572237393,0.9992687346251942,64.50316063548877,3.934357134049167,337.44157195514674,-92.55349241453614,-126.8915023803711,4761.76025390625,True
1599386498.6755402,0.0,10,0.5,0.5,4.600505434799195,-0.1005,-0.0155,-0.001,0.41747421807264645,10,1,100,0.014352484405553471,-10,-1,-100,19138.28028623003,-0.002051421417256645,0.03818098572237393,0.9992687346251942,64.50316063548877,3.934357134049167,337.44157195514674,-92.55349241453614,-126.8915023803711,4761.76025390625,True
1599386498.7289093,0.0,10,0.5,0.5,3.355332803344727,-0.1005,-0.0155,-0.001,0.4081907154126515,10,1,100,0.5067098344531173,-10,-1,-100,19130.839587913943,-0.006514449478231286,0.03809116715184322,0.9992530334870173,63.182212736856805,3.8594463506927066,333.2879115582144,-93.28188437760512,-115.18517303466797,4761.76025390625,True
1599386498.78476,0.0,10,0.5,0.5,2.6585645298004152,-0.1005,-0.0155,-0.001,0.3878446337335033,10,1,100,0.32285014289249914,-10,-1,-100,19127.097383959335,-0.008884294212110988,0.03782009498264748,0.9992450699062048,62.134817554768205,3.7984078146361555,329.1235657313646,-93.64616839438565,-108.89598083496094,4761.76025390625,True
1599386498.8525798,0.0,10,0.5,0.5,1.9256773777008056,-0.1005,-0.0155,-0.001,0.3554193518389619,10,1,100,0.3224332697036356,-10,-1,-100,19123.340606306447,-0.011018528805794448,0.03727598469000291,0.9992442609233972,60.737279343587154,3.7156298703463952,323.0545734022996,-94.01053116110025,-102.31800079345703,4761.76025390625,True
1599386498.9014487,0.0,10,0.5,0.5,1.1533814544677734,-0.1005,-0.0155,-0.001,0.33478166065085346,10,1,100,0.35154872888146926,-10,-1,-100,19119.5692516719,-0.013205107898457042,0.036591312482729364,0.9992430640120458,59.07893712040254,3.6162615029590968,315.5343514736152,-94.37498150558578,-95.4493637084961,4761.76025390625,True
1599386498.9642801,0.0,10,0.5,0.5,0.347432848739624,-0.1005,-0.0155,-0.001,0.3085870764480504,10,1,100,0.3613750931731619,-10,-1,-100,19115.78331855731,-0.015263303082403742,0.035729765523539764,0.9992449226464188,60.58240044251679,3.7096560343454956,324.8996571186944,-94.73942641041337,-88.29071044921875,4761.76025390625,True
1599386499.0251164,0.0,10,0.5,0.5,-0.48873382911682134,-0.1005,-0.0155,-0.001,0.28367396199969086,10,1,100,0.368909389884079,-10,-1,-100,19111.982811838272,-0.017184402322919467,0.03472090521387378,0.9992492957505315,63.54442355302638,3.8917373151168553,342.1861122265005,-95.10372554947894,-80.84170532226562,4761.76025390625,True
1599386499.0819664,0.0,10,0.5,0.5,-1.355686066055298,-0.1005,-0.0155,-0.001,0.26070546689314555,10,1,100,0.3749166506364441,-10,-1,-100,19108.16773764405,-0.01896524028865609,0.03359671917989092,0.9992555129300719,66.14864260993735,4.051500857570396,357.6676574482627,-95.46787887851981,-73.20028686523438,4761.76025390625,True
1599386499.1228542,0.0,10,0.5,0.5,-2.2257559391021733,-0.1005,-0.0155,-0.001,0.23952092985507356,10,1,100,0.3777624555424592,-10,-1,-100,19104.338101330795,-0.020589922738531767,0.03238548668084154,0.9992633463377241,68.26360938279544,4.181228282619453,370.6061001765709,-95.83189882560474,-65.57131958007812,4761.76025390625,True
1599386499.163745,0.0,10,0.5,0.5,-2.705852485275269,-0.1005,-0.0155,-0.001,0.29117907334436877,10,1,100,0.300121381504496,-10,-1,-100,19102.417824022123,-0.021341280419922826,0.031758821824486465,0.9992676953581352,69.10731981889064,4.233093944142949,375.9466654360418,-96.01386609395043,-61.82501220703125,4761.76025390625,True
1599386499.203639,0.0,10,0.5,0.5,-3.176416543579102,-0.1005,-0.0155,-0.001,0.28287476753628443,10,1,100,0.30494156433752534,-10,-1,-100,19100.493907545926,-0.022050616466030723,0.031119471142179164,0.9992724097208423,69.80166714749387,4.2759341826854245,380.49129253174345,-96.1958102988225,-58.1456298828125,4761.76025390625,True
1599386499.2415373,0.0,10,0.5,0.5,-4.004258748245239,-0.1005,-0.0155,-0.001,0.20409250540356144,10,1,100,0.3784786344895865,-10,-1,-100,19096.635159741738,-0.02334580515019412,0.02982846042485704,0.9992823606621765,70.75310953523982,4.335325969262841,387.2329033353166,-96.55964718790548,-51.00311279296875,4761.76025390625,True
1599386499.279436,0.0,10,0.5,0.5,-4.791489949798584,-0.1005,-0.0155,-0.001,0.18553091203339128,10,1,100,0.3758006881467662,-10,-1,-100,19092.76185954816,-0.024483603209342508,0.028493584111859913,0.999294085261365,71.15864173439202,4.362036263332241,391.01728226759866,-96.92344583156792,-44.156890869140625,4761.76025390625,True
1599386499.3173344,0.0,10,0.5,0.5,-6.184271711730958,-0.1005,-0.0155,-0.001,0.03614047044013857,10,1,100,0.46266043928749206,-10,-1,-100,19084.97160346154,-0.026293417992577433,0.02593044391362458,0.9993179014951697,70.56139929851685,4.331161404316599,390.84654343741335,-97.65106212958975,-31.3560791015625,4761.76025390625,True
1599386499.3552332,0.0,10,0.5,0.5,-6.281461878585816,-0.1005,-0.0155,-0.001,0.291319936186034,10,1,100,0.2832064498826779,-10,-1,-100,19084.97160346154,-0.026293417992577433,0.02593044391362458,0.9993179014951697,70.56139929851685,4.331161404316599,390.84654343741335,-97.65106212958975,-31.3560791015625,4761.76025390625,True
1599386499.3931308,0.0,10,0.5,0.5,-6.985212826538087,-0.1005,-0.0155,-0.001,0.15801167624172643,10,1,100,0.36201315544296697,-10,-1,-100,19081.05464473518,-0.026997944124858134,0.024728242340102787,0.9993295877956383,69.68323530602659,4.280740950996185,387.5242223240362,-98.01493451185289,-25.401336669921875,4761.76025390625,True
1599386499.4290352,0.0,10,0.5,0.5,-8.195299571228027,-0.1005,-0.0155,-0.001,0.04431037048314984,10,1,100,0.41116043440962535,-10,-1,-100,19073.17705386423,-0.028074548016589797,0.022611684969262677,0.9993500545136899,67.31889640811725,4.142240830456686,377.36745564994897,-98.74288932640796,-14.381011962890625,4761.76025390625,True
1599386499.4609504,0.0,10,0.5,0.5,-8.54816455230713,-0.1005,-0.0155,-0.001,0.20530698704572314,10,1,100,0.3288067049807845,-10,-1,-100,19071.198555295123,-0.028294708427271237,0.022162155892017435,0.9993539154479927,66.6445249984587,4.1022399420147515,374.330050504476,-98.92492445826667,-11.81085205078125,4761.76025390625,True
1599386499.5028377,0.0,10,0.5,0.5,-9.139959014892579,-0.1005,-0.0155,-0.001,0.15931601854648852,10,1,100,0.35112464637050417,-10,-1,-100,19067.230634605512,-0.028689263296762166,0.021345788438426785,0.9993604372234428,65.39309471971549,4.027761113408319,368.7612101141878,-99.28904598348124,-6.89251708984375,4761.76025390625,True
1599386499.538742,0.0,10,0.5,0.5,-9.225992823791504,-0.1005,-0.0155,-0.001,0.239848794081312,10,1,100,0.31247909347723435,-10,-1,-100,19067.230634605512,-0.028689263296762166,0.021345788438426785,0.9993604372234428,65.39309471971549,4.027761113408319,368.7612101141878,-99.28904598348124,-6.89251708984375,4761.76025390625,True
1599386499.574646,0.0,10,0.5,0.5,-9.780259742736819,-0.1005,-0.0155,-0.001,0.15749293591752822,10,1,100,0.34312733654720223,-10,-1,-100,19063.24814703816,-0.02896120370387384,0.02060656521274335,0.9993681094322331,64.02278649909749,3.9452484123208658,362.4658159691318,-99.65323506312434,-2.2706298828125,4761.76025390625,True
1599386499.6085558,0.0,10,0.5,0.5,-10.509693797302246,-0.1005,-0.0155,-0.001,0.13632220759999586,10,1,100,0.35296955514197637,-10,-1,-100,19057.24710063939,-0.029291614618257085,0.01975164011917124,0.9993757421639062,65.37200692252351,4.029982928855612,372.300243410334,-100.19950896493017,4.108184814453125,4761.76025390625,True
1599386499.643462,0.0,10,0.5,0.5,-10.588737493896485,-0.1005,-0.0155,-0.001,0.22080703492663842,10,1,100,0.320523044650458,-10,-1,-100,19057.24710063939,-0.029291614618257085,0.01975164011917124,0.9993757421639062,65.37200692252351,4.029982928855612,372.300243410334,-100.19950896493017,4.108184814453125,4761.76025390625,True
1599386499.6783683,0.0,10,0.5,0.5,-11.421824728393554,-0.1005,-0.0155,-0.001,0.1429167137049513,10,1,100,0.3532980468645882,-10,-1,-100,19049.194736153004,-0.029585198264377437,0.01905149351169471,0.9993806865447379,68.58245154011392,4.228189887796303,393.65656765630195,-100.92753206351937,11.578887939453125,4761.76025390625,True
1599386499.7122784,0.0,10,0.5,0.5,-11.48090322418213,-0.1005,-0.0155,-0.001,0.21224347941241128,10,1,100,0.324268860279733,-10,-1,-100,19049.194736153004,-0.029585198264377437,0.01905149351169471,0.9993806865447379,68.58245154011392,4.228189887796303,393.65656765630195,-100.92753206351937,11.578887939453125,4761.76025390625,True
1599386499.7441926,0.0,10,0.5,0.5,-11.88162060546875,-0.1005,-0.0155,-0.001,0.1939625945715723,10,1,100,0.3321471132669623,-10,-1,-100,19045.146718238946,-0.029653826218559703,0.018891557240779747,0.9993816886733605,69.85908300202222,4.306538803890294,402.54861404541356,-101.29141288792363,14.871185302734375,4761.76025390625,True
1599386499.7816718,0.0,10,0.5,0.5,-12.385844696044922,-0.1005,-0.0155,-0.001,0.21147162016884388,10,1,100,0.3382242380024073,-10,-1,-100,19039.047405320103,-0.029769047418053352,0.01891063966819527,0.9993779022587809,71.42647566253996,4.402332574630868,413.97841673613226,-101.83709308449211,19.25634765625,4761.76025390625,True
1599386500.0569396,0.0,10,0.5,0.5,-12.433597441101075,-0.1005,-0.0155,-0.001,0.20919327289718484,10,1,100,0.32687156799318867,-10,-1,-100,19039.047405320103,-0.029769047418053352,0.01891063966819527,0.9993779022587809,71.42647566253996,4.402332574630868,413.97841673613226,-101.83709308449211,19.25634765625,4761.76025390625,True
1599386500.0848656,0.0,10,0.5,0.5,-12.741053930664064,-0.1005,-0.0155,-0.001,0.22888837930652584,10,1,100,0.3327128617605373,-10,-1,-100,19034.963010134525,-0.029820809780492175,0.019092642013938208,0.9993728985343577,72.27463062473322,4.454004275831107,420.51123135294307,-102.20079750342958,21.811050415039062,4761.76025390625,True
1599386500.1177773,0.0,10,0.5,0.5,-12.782989757537841,-0.1005,-0.0155,-0.001,0.21046283008978312,10,1,100,0.3276497801650281,-10,-1,-100,19034.963010134525,-0.029820809780492175,0.019092642013938208,0.9993728985343577,72.27463062473322,4.454004275831107,420.51123135294307,-102.20079750342958,21.811050415039062,4761.76025390625,True
1599386500.1526973,0.0,10,0.5,0.5,-13.056860437011718,-0.1005,-0.0155,-0.001,0.2457439056831544,10,1,100,0.3322887308169387,-10,-1,-100,19030.86406840477,-0.029861953380524334,0.01941542737971839,0.9993654511338493,72.99031358029805,4.497551706484433,426.30792753778866,-102.56444503322513,24.070953369140625,4761.76025390625,True
1599386500.1806223,0.0,10,0.5,0.5,-13.294901896667481,-0.1005,-0.0155,-0.001,0.26463722591351013,10,1,100,0.3314996943580424,-10,-1,-100,19026.750582385925,-0.029891364731221195,0.019881708930551814,0.9993554042303998,73.59376686168736,4.5342787682301005,431.47847970230845,-102.92804242475212,26.03619384765625,4761.76025390625,True
1599386500.271445,0.0,10,0.5,0.5,-13.415443304443361,-0.1005,-0.0155,-0.001,0.24917799620628994,10,1,100,0.3304899420341766,-10,-1,-100,19024.68838575878,-0.029908377528807775,0.020164944553233487,0.9993492202252221,73.85927128316192,4.550458744654872,433.86110883164093,-103.10982426133148,26.908294677734375,4761.76025390625,True
1599386500.3033092,0.0,10,0.5,0.5,-13.604540280151367,-0.1005,-0.0155,-0.001,0.2956119478622924,10,1,100,0.3315091634184262,-10,-1,-100,19020.5530862686,-0.029932548663824617,0.020844182584876792,0.9993345598861554,74.32927510573063,4.579172964405607,438.2846055266835,-103.47335758394183,28.431732177734375,4761.76025390625,True
1599386500.3302376,0.0,10,0.5,0.5,-13.753901232910156,-0.1005,-0.0155,-0.001,0.3193117740818487,10,1,100,0.3302219210248602,-10,-1,-100,19016.403246856295,-0.029942504446262556,0.021675494952845598,0.9993165761389304,74.73082250005668,4.60383217966648,442.3243097030138,-103.83685464384787,29.660919189453125,4761.76025390625,True
1599386500.364146,0.0,10,0.5,0.5,-13.875593702697753,-0.1005,-0.0155,-0.001,0.3437140549361391,10,1,100,0.3306840455967978,-10,-1,-100,19012.238868528162,-0.02995543146624022,0.02265068693018247,0.9992945604311386,75.07719446681428,4.6252595995105725,446.0547188135655,-104.20031936482194,30.595840454101562,4761.76025390625,True
1599386500.3945842,0.0,10,0.5,0.5,-13.964104994964599,-0.1005,-0.0155,-0.001,0.3720521145507475,10,1,100,0.3275222304967843,-10,-1,-100,19008.059952444048,-0.029938165342358266,0.023791426424540244,0.9992685696471291,75.3807554616264,4.6442132127204765,449.5460440416688,-104.56375507669298,31.236953735351562,4761.76025390625,True
1599386500.4444506,0.0,10,0.5,0.5,-14.017282211303712,-0.1005,-0.0155,-0.001,0.40143602774459425,10,1,100,0.32548066578644913,-10,-1,-100,19003.866499569383,-0.029903755443349528,0.02509115173321288,0.9992378092902037,75.64957777177396,4.661179813105974,452.8438892582491,-104.92716438517503,31.584228515625,4761.76025390625,True
1599386500.476919,0.0,10,0.5,0.5,-14.03604315185547,-0.1005,-0.0155,-0.001,0.2720815480838326,10,1,100,0.32893512648985257,-10,-1,-100,19003.866499569383,-0.029903755443349528,0.02509115173321288,0.9992378092902037,75.64957777177396,4.661179813105974,452.8438892582491,-104.92716438517503,31.584228515625,4761.76025390625,True
1599386500.5068398,0.0,10,0.5,0.5,-14.048214847564699,-0.1005,-0.0155,-0.001,0.5223275220964436,10,1,100,0.31510157367180325,-10,-1,-100,18997.549066352076,-0.0297779204671283,0.02736066194267364,0.9991820002535636,76.00081817643414,4.683682821955035,457.502178924193,-105.47223399251932,31.554901123046875,4761.76025390625,True
1599386500.5387533,0.0,10,0.5,0.5,-14.063347143554688,-0.1005,-0.0155,-0.001,0.29620330314324117,10,1,100,0.32768078236258963,-10,-1,-100,18997.549066352076,-0.0297779204671283,0.02736066194267364,0.9991820002535636,76.00081817643414,4.683682821955035,457.502178924193,-105.47223399251932,31.554901123046875,4761.76025390625,True
1599386500.5736623,0.0,10,0.5,0.5,-14.035729382324218,-0.1005,-0.0155,-0.001,0.4855914443528727,10,1,100,0.315367747271366,-10,-1,-100,18993.319276231225,-0.029666060178038446,0.029075149376794875,0.9991369078170569,76.20518542028857,4.69699529558021,460.44226127357734,-105.83558681784135,31.16851806640625,4761.76025390625,True
1599386500.60358,0.0,10,0.5,0.5,-13.975158476257324,-0.1005,-0.0155,-0.001,0.5270969112509587,10,1,100,0.30028627903827076,-10,-1,-100,18989.07495252439,-0.02942746957179515,0.031002739070118378,0.9990860094129792,76.38934609108084,4.709158513541418,463.27024975164545,-106.19892016538068,30.489578247070312,4761.76025390625,True
1599386500.6370769,0.0,10,0.5,0.5,-13.822195282745362,-0.1005,-0.0155,-0.001,0.6837954550645667,10,1,100,0.2836114170685099,-10,-1,-100,18982.6812182921,-0.02905941655544616,0.03416977301279356,0.9989934819215345,76.62215235656983,4.724867889596588,467.26549828192736,-106.74388735127036,28.921173095703125,4761.76025390625,True
1599386500.665999,0.0,10,0.5,0.5,-13.82452232131958,-0.1005,-0.0155,-0.001,0.36842461983984043,10,1,100,0.3203294054925713,-10,-1,-100,18982.6812182921,-0.02905941655544616,0.03416977301279356,0.9989934819215345,76.62215235656983,4.724867889596588,467.26549828192736,-106.74388735127036,28.921173095703125,4761.76025390625,True
1599386500.6999085,0.0,10,0.5,0.5,-13.755471570587158,-0.1005,-0.0155,-0.001,0.4969362718844136,10,1,100,0.29901413281542,-10,-1,-100,18980.542707464076,-0.028866444156463708,0.03532670232405336,0.9989588342392641,76.68844022615465,4.729435899817615,468.53237786012505,-106.92553532413984,28.252166748046875,4761.76025390625,True
1599386500.732821,0.0,10,0.5,0.5,-13.406626374816895,-0.1005,-0.0155,-0.001,0.9372830278847433,10,1,100,0.2149179376391607,-10,-1,-100,18971.952336065704,-0.02792749382606801,0.040370084920298116,0.9987944289653016,76.86254943711135,4.742200165308189,473.05874817409295,-107.65209559596009,24.844467163085938,4761.76025390625,True
1599386500.7647347,0.0,10,0.5,0.5,-13.29511466522217,-0.1005,-0.0155,-0.001,0.5858163784761722,10,1,100,0.27363062961563156,-10,-1,-100,18969.795661235927,-0.027609482245054648,0.041744755323628376,0.9987467606421212,76.88071615109189,4.743849609044054,474.03757875057704,-107.83372957331267,23.80987548828125,4761.76025390625,True
1599386500.7981708,0.0,10,0.5,0.5,-13.051845896911622,-0.1005,-0.0155,-0.001,0.7678348044801879,10,1,100,0.21573943336903761,-10,-1,-100,18965.47141416918,-0.02679618290843555,0.04463402901433747,0.9986439646017418,76.87915655189335,4.7448369747304335,475.763527087951,-108.19699333302806,21.52166748046875,4761.76025390625,True
1599386500.8330786,0.0,10,0.5,0.5,-12.776600352478027,-0.1005,-0.0155,-0.001,0.8143862467556595,10,1,100,0.20039511771859123,-10,-1,-100,18961.13263646851,-0.02592015116244587,0.04766607013813991,0.9985269608384653,76.8067289564341,4.741494251818923,477.0514592335087,-108.56025498997624,18.941009521484375,4761.76025390625,True
1599386500.862998,0.0,10,0.5,0.5,-12.75962947845459,-0.1005,-0.0155,-0.001,0.5132126751949622,10,1,100,0.28761251538709093,-10,-1,-100,18961.13263646851,-0.02592015116244587,0.04766607013813991,0.9985269608384653,76.8067289564341,4.741494251818923,477.0514592335087,-108.56025498997624,18.941009521484375,4761.76025390625,True
1599386500.896907,0.0,10,0.5,0.5,-12.598001797485352,-0.1005,-0.0155,-0.001,0.6890639249379302,10,1,100,0.2255237987601562,-10,-1,-100,18958.957798693213,-0.02535921534702345,0.0492462584010801,0.9984646795107363,76.74112642633357,4.738030984724485,477.51221170899663,-108.74188657679719,17.541244506835938,4761.76025390625,True
1599386500.9268265,0.0,10,0.5,0.5,-12.271892890167237,-0.1005,-0.0155,-0.001,0.8926973330394838,10,1,100,0.13988567380679442,-10,-1,-100,18954.59722490562,-0.024074660601455244,0.05251566861465414,0.9983298629545652,76.53865521251089,4.726767679503466,477.986074773295,-109.10515484017273,14.522659301757812,4761.76025390625,True
1599386500.9627328,0.0,10,0.5,0.5,-11.91414998703003,-0.1005,-0.0155,-0.001,0.9434417316030361,10,1,100,0.11539130808661877,-10,-1,-100,18950.22212008084,-0.022689073698001043,0.05592961522344053,0.9981768801548573,76.22829920256203,4.708960919643358,477.77717399889343,-109.4684349333443,11.212188720703125,4761.76025390625,True
1599386500.9976392,0.0,10,0.5,0.5,-11.330367641448976,-0.1005,-0.0155,-0.001,1.1869502067606659,10,1,100,-0.0493601049235457,-10,-1,-100,18943.632215465652,-0.01993750034282068,0.06122713478539693,0.9979247136162381,75.5421412819253,4.668964090037531,476.0521786668076,-110.01339170030093,5.698455810546875,4761.76025390625,True
1599386501.032545,0.0,10,0.5,0.5,-11.098499977874756,-0.1005,-0.0155,-0.001,0.8581423877981725,10,1,100,0.10854738863246473,-10,-1,-100,18941.42831429746,-0.01887988533972283,0.06302930206772317,0.9978330807356582,75.24050840632182,4.65125152857985,475.0078303169907,-110.19505727436002,3.71435546875,4761.76025390625,True
1599386501.0634623,0.0,10,0.5,0.5,-10.63736346511841,-0.1005,-0.0155,-0.001,1.0771386519258206,10,1,100,-0.04672892573170159,-10,-1,-100,18937.009611195885,-0.016515892987065763,0.06663332690759503,0.997640829669709,74.51042986945606,4.608233366512509,472.0969707468359,-110.55841419098974,-0.47369384765625,4761.76025390625,True
1599386501.1003625,0.0,10,0.5,0.5,-10.378598251342773,-0.1005,-0.0155,-0.001,0.9164036637859578,10,1,100,0.043878908868427546,-10,-1,-100,18934.794808915467,-0.015200890799959607,0.06842461028621862,0.9975404781892646,74.07606174931291,4.582580479807877,470.1898867476307,-110.74010759177447,-2.677734375,4761.76025390625,True
1599386501.134273,0.0,10,0.5,0.5,-10.108658056640625,-0.1005,-0.0155,-0.001,0.9410293757706693,10,1,100,0.023052359368980285,-10,-1,-100,18932.576372569078,-0.013827382535727304,0.07025266541668053,0.9974333895023079,73.59155994322388,4.553934826148235,467.9546157168065,-110.9218122113074,-4.9544677734375,4761.76025390625,True
1599386501.169179,0.0,10,0.5,0.5,-9.331794653320312,-0.1005,-0.0155,-0.001,1.342439046801931,10,1,100,-0.3618794029865076,-10,-1,-100,18925.899256405188,-0.009091148819895964,0.0755404228752007,0.9971012965215572,71.82889797483993,4.449598338564254,459.2082158632685,-111.46700311018775,-12.226409912109375,4761.76025390625,True
1599386501.20608,0.0,10,0.5,0.5,-8.761441162109376,-0.1005,-0.0155,-0.001,1.193093677079624,10,1,100,-0.2842621858247628,-10,-1,-100,18921.429670150857,-0.005506391963649289,0.07896444961025528,0.9968622248562197,70.37948567061305,4.363721955458055,451.55101926561116,-111.83053662462758,-17.44134521484375,4761.76025390625,True
1599386501.2449772,0.0,10,0.5,0.5,-8.150799214172364,-0.1005,-0.0155,-0.001,1.1953604154370527,10,1,100,-0.35538213680463515,-10,-1,-100,18916.945540755754,-0.0016195350483341972,0.08206935482767051,0.9966253047682451,68.6996453281429,4.264106664529581,442.3432164070212,-112.19413569552333,-22.95330810546875,4761.76025390625,True
1599386501.2808802,0.0,10,0.5,0.5,-8.093544620513917,-0.1005,-0.0155,-0.001,0.8881522033381887,10,1,100,0.030929586697005164,-10,-1,-100,18916.945540755754,-0.0016195350483341972,0.08206935482767051,0.9966253047682451,68.6996453281429,4.264106664529581,442.3432164070212,-112.19413569552333,-22.95330810546875,4761.76025390625,True
1599386501.3147893,0.0,10,0.5,0.5,-7.446095237731933,-0.1005,-0.0155,-0.001,1.2144966275533537,10,1,100,-0.43372029493288267,-10,-1,-100,18912.44686591183,0.0025841410341619457,0.08500925533306927,0.996376810610741,67.88734039725529,4.2189142195426275,438.6623467436678,-112.5577752700583,-28.75982666015625,4761.76025390625,True
1599386501.349696,0.0,10,0.5,0.5,-6.770416613769531,-0.1005,-0.0155,-0.001,1.2092099157660572,10,1,100,-0.5060620727336925,-10,-1,-100,18907.933648009785,0.007040341621227472,0.0876073951034476,0.9961302012854769,69.11424263817132,4.3011284833651855,448.1642610714775,-112.92132549367979,-34.863555908203125,4761.76025390625,True
1599386501.3836052,0.0,10,0.5,0.5,-5.728035531616212,-0.1005,-0.0155,-0.001,1.3260213692779508,10,1,100,-0.8525420996839329,-10,-1,-100,18901.136561772437,0.014216726179958273,0.09100728059906507,0.9957487431951331,70.78540816713858,4.415037593034323,461.4110567412731,-113.46645958485325,-44.57403564453125,4761.76025390625,True
1599386501.4175148,0.0,10,0.5,0.5,-5.662899005126953,-0.1005,-0.0155,-0.001,0.988830617569338,10,1,100,-0.13821330496282086,-10,-1,-100,18901.136561772437,0.014216726179958273,0.09100728059906507,0.9957487431951331,70.78540816713858,4.415037593034323,461.4110567412731,-113.46645958485325,-44.57403564453125,4761.76025390625,True
1599386501.4484313,0.0,10,0.5,0.5,-4.899540438842775,-0.1005,-0.0155,-0.001,1.1796357439447749,10,1,100,-0.6838884252020778,-10,-1,-100,18896.587003917433,0.01914947034652695,0.09271971451730407,0.9955080875237916,71.72082890338868,4.480188770138923,469.13079291176024,-113.82976060086088,-51.421356201171875,4761.76025390625,True
1599386501.4833386,0.0,10,0.5,0.5,-3.7314892898559573,-0.1005,-0.0155,-0.001,1.2067415274800002,10,1,100,-1.0218939793985164,-10,-1,-100,18889.73542520695,0.02667533338960566,0.09450080238035877,0.9951673351442069,72.85393871613941,4.560846813065103,479.0063174210541,-114.37455947525658,-62.252349853515625,4761.76025390625,True
1599386501.5177598,0.0,10,0.5,0.5,-3.65350856628418,-0.1005,-0.0155,-0.001,1.0310575548708982,10,1,100,-0.2733579466831791,-10,-1,-100,18889.73542520695,0.02667533338960566,0.09450080238035877,0.9951673351442069,72.85393871613941,4.560846813065103,479.0063174210541,-114.37455947525658,-62.252349853515625,4761.76025390625,True
1599386501.5476797,0.0,10,0.5,0.5,-2.4080895599365233,-0.1005,-0.0155,-0.001,1.1069102526230514,10,1,100,-1.0803270063659982,-10,-1,-100,18882.85116399906,0.03397890076653174,0.09517313565128274,0.9948806504063694,73.29481459237172,4.5971570573694835,484.3773599861787,-114.91923608820494,-73.758544921875,4761.76025390625,True
1599386501.5825865,0.0,10,0.5,0.5,-2.3323040954589844,-0.1005,-0.0155,-0.001,1.0412977941347565,10,1,100,-0.3539187979464081,-10,-1,-100,18882.85116399906,0.03397890076653174,0.09517313565128274,0.9948806504063694,73.29481459237172,4.5971570573694835,484.3773599861787,-114.91923608820494,-73.758544921875,4761.76025390625,True
1599386501.6175332,0.0,10,0.5,0.5,-0.5900097595214844,-0.1005,-0.0155,-0.001,0.9715346026893561,10,1,100,-1.3638045642344767,-10,-1,-100,18873.62131427205,0.043127318245682486,0.09452701229193945,0.9945876926486147,72.44458738058967,4.553056650900059,482.0161263868548,-115.64545835437032,-90.14816284179688,4761.76025390625,True
1599386501.6474545,0.0,10,0.5,0.5,-0.5022473526000976,-0.1005,-0.0155,-0.001,1.0373927043701119,10,1,100,-0.4534375016488039,-10,-1,-100,18873.62131427205,0.043127318245682486,0.09452701229193945,0.9945876926486147,72.44458738058967,4.553056650900059,482.0161263868548,-115.64545835437032,-90.14816284179688,4761.76025390625,True
1599386501.6823602,0.0,10,0.5,0.5,0.027772812652587943,-0.1005,-0.0155,-0.001,0.9911449750368401,10,1,100,-0.7024838988095592,-10,-1,-100,18871.304773465847,0.0453545189678607,0.09409792588258346,0.9945293097509946,71.94152754350247,4.523410889878937,479.478841580674,-115.82703888657154,-94.43257904052734,4761.76025390625,True
1599386501.7159898,0.0,10,0.5,0.5,1.0064350254058838,-0.1005,-0.0155,-0.001,0.9098195337625228,10,1,100,-0.9261739383004299,-10,-1,-100,18866.66079524823,0.04937796164035187,0.0929626246526941,0.9944444516019617,70.54701953185646,4.439411065023176,471.7750363832118,-116.19025790986706,-103.20710754394531,4761.76025390625,True
1599386501.7498653,0.0,10,0.5,0.5,1.9982155292510988,-0.1005,-0.0155,-0.001,0.8580424415579722,10,1,100,-0.9448706349156475,-10,-1,-100,18862.00228548015,0.05317364200688182,0.09145805420179547,0.9943882481794248,68.6412974780839,4.32305541394846,460.58055794266727,-116.55357693764668,-112.1694107055664,4761.76025390625,True
1599386501.7897584,0.0,10,0.5,0.5,3.46583489151001,-0.1005,-0.0155,-0.001,0.7173267496682565,10,1,100,-1.0956669716066652,-10,-1,-100,18854.98726366961,0.05795972093198474,0.08881061952597863,0.9943607718574271,64.89797332032286,4.092814951655706,437.6625870553322,-117.09878775201824,-125.68476867675781,4761.76025390625,True
1599386501.827657,0.0,10,0.5,0.5,3.5674278228759766,-0.1005,-0.0155,-0.001,0.9816793077508077,10,1,100,-0.6209401041549193,-10,-1,-100,18854.98726366961,0.05795972093198474,0.08881061952597863,0.9943607718574271,64.89797332032286,4.092814951655706,437.6625870553322,-117.09878775201824,-125.68476867675781,4761.76025390625,True
1599386501.862563,0.0,10,0.5,0.5,4.555265413665771,-0.1005,-0.0155,-0.001,0.771316624019249,10,1,100,-0.9162610362172745,-10,-1,-100,18850.29240288632,0.060616016325694896,0.08690340438555935,0.9943709050806964,61.98123816536009,3.9128111895304554,419.39135090985496,-117.46243255014903,-134.448486328125,4761.76025390625,True
1599386501.89747,0.0,10,0.5,0.5,6.348843169403077,-0.1005,-0.0155,-0.001,0.530563272075241,10,1,100,-1.0881826182077288,-10,-1,-100,18840.85905194236,0.06456289862631182,0.08298781232931884,0.9944569649440655,65.09828840900624,4.118274297711511,443.4114571273845,-118.18948942232774,-151.10304260253906,4761.76025390625,True
1599386501.9283874,0.0,10,0.5,0.5,6.452072584533692,-0.1005,-0.0155,-0.001,0.9209039453670954,10,1,100,-0.6965527879320149,-10,-1,-100,18840.85905194236,0.06456289862631182,0.08298781232931884,0.9944569649440655,65.09828840900624,4.118274297711511,443.4114571273845,-118.18948942232774,-151.10304260253906,4761.76025390625,True
1599386501.963805,0.0,10,0.5,0.5,6.9754583946228035,-0.1005,-0.0155,-0.001,0.8237035434175202,10,1,100,-0.7770016394256887,-10,-1,-100,18838.491628031596,0.06526644818729087,0.08211524987825176,0.9944834721997385,65.66265791490132,4.156054019064844,447.9926164257564,-118.37118934449106,-155.07843017578125,4761.76025390625,True
1599386501.9987116,0.0,10,0.5,0.5,7.856191358184815,-0.1005,-0.0155,-0.001,0.7295845722859841,10,1,100,-0.8356846348049956,-10,-1,-100,18833.74587966618,0.06641939399168224,0.08047766769646199,0.9945410042345743,66.58261811853488,4.21820630982575,455.76301523883717,-118.734537006753,-162.80322265625,4761.76025390625,True
1599386502.031623,0.0,10,0.5,0.5,8.714761534881593,-0.1005,-0.0155,-0.001,0.7166773094728189,10,1,100,-0.7961486041553494,-10,-1,-100,18828.985599002684,0.06708693346636307,0.07888439000071112,0.9946238466738546,67.21831040261996,4.262020143339009,461.62254489593244,-119.0978317039814,-170.2286376953125,4761.76025390625,True
1599386502.0615437,0.0,10,0.5,0.5,9.547536685562134,-0.1005,-0.0155,-0.001,0.7353569359808598,10,1,100,-0.7714715539034132,-10,-1,-100,18824.210787529242,0.06744969397332941,0.07761960100544878,0.9946988168901474,67.4994197552208,4.2830109325361665,465.06885422477177,-119.46110127573483,-177.3489990234375,4761.76025390625,True
1599386502.094455,0.0,10,0.5,0.5,-26.534885538101197,-0.1005,-0.0155,-0.001,0.8026117771365717,10,1,100,-0.7453621538236077,-10,-1,-100,18821.817932761973,0.06752568922227059,0.07709514867812334,0.994734446646619,67.5240004462,4.286037553016619,465.99717837806014,-119.64273383514698,179.2049102783203,4761.76025390625,True
1599386502.1263692,0.0,10,0.5,0.5,-25.953536251068115,-0.1005,-0.0155,-0.001,0.7610768178604543,10,1,100,-0.7313224457067433,-10,-1,-100,18817.021324984846,0.06745409478641345,0.07625384048306612,0.994804150025586,67.37383892697058,4.2792794194032036,466.477410165799,-120.00600630093008,172.54061889648438,4761.76025390625,True
1599386502.1642697,0.0,10,0.5,0.5,-26.09582420654297,-0.1005,-0.0155,-0.001,0.810288908254455,10,1,100,-0.724408897293128,-10,-1,-100,18814.61757203529,0.06731752724655189,0.07594781274481675,0.9948368108713548,67.21213506162925,4.2703504884390275,466.115322182444,-120.18764999001203,169.3226318359375,4761.76025390625,True
1599386502.202168,0.0,10,0.5,0.5,-25.261100722503663,-0.1005,-0.0155,-0.001,0.8025984296742434,10,1,100,-0.6219814249944504,-10,-1,-100,18804.966227739817,0.06625370900185834,0.07561138572911646,0.9949338492541198,66.09238148065702,4.204602809965689,461.3362333984903,-120.91430567626918,156.56201171875,4761.76025390625,True
1599386502.2370737,0.0,10,0.5,0.5,-25.386859636688236,-0.1005,-0.0155,-0.001,0.8514289699110604,10,1,100,-0.687495893306048,-10,-1,-100,18802.544307513046,0.06587706240708222,0.07575972246122949,0.9949475750516762,65.67891476705398,4.1797495527982305,459.1936285756722,-121.09599627023314,153.23129272460938,4761.76025390625,True
1599386502.265998,0.0,10,0.5,0.5,-25.5167766708374,-0.1005,-0.0155,-0.001,0.862747260482325,10,1,100,-0.6805758706604483,-10,-1,-100,18800.11875340913,0.06547055242070686,0.07600403857731472,0.9949557743365609,65.20295626121747,4.150973807459015,456.60452118260457,-121.27770028112774,149.8309783935547,4761.76025390625,True
1599386502.2999058,0.0,10,0.5,0.5,-25.634301887512205,-0.1005,-0.0155,-0.001,0.8728890320281101,10,1,100,-0.672646906931301,-10,-1,-100,18797.68956504087,0.06502809125937847,0.0763246909457648,0.994960244883782,64.66094884244187,4.118056383874299,453.5417182897056,-121.45941898355751,146.3598175048828,4761.76025390625,True
1599386502.3497722,0.0,10,0.5,0.5,-25.3788427482605,-0.1005,-0.0155,-0.001,0.9459459697209562,10,1,100,-0.6127861617309533,-10,-1,-100,18792.820283684065,0.06408188193537488,0.07728561122241119,0.9949474592688797,63.362963592610186,4.038801335988031,445.87410471402865,-121.82290641615661,139.20553588867188,4761.76025390625,True
1599386502.3857052,0.0,10,0.5,0.5,-25.099191965484618,-0.1005,-0.0155,-0.001,1.0003559690192914,10,1,100,-0.5977397758587576,-10,-1,-100,18787.936462405836,0.06308703132567557,0.078656713337051,0.9949035872513107,64.0627515799642,4.087279303754347,452.2505257281575,-122.18638875888921,131.76791381835938,4761.76025390625,True
1599386502.4156299,0.0,10,0.5,0.5,-24.79103260726929,-0.1005,-0.0155,-0.001,1.0585419345542697,10,1,100,-0.5869710201291147,-10,-1,-100,18783.038105987594,0.06208836017580734,0.08043234010673578,0.9948244439073829,66.17971434974403,4.226672174234373,468.6942417869702,-122.54972871605848,124.04681396484375,4761.76025390625,True
1599386502.4495058,0.0,10,0.5,0.5,-24.863307468414305,-0.1005,-0.0155,-0.001,0.9967513873728121,10,1,100,-0.6311092246422938,-10,-1,-100,18780.583479186287,0.061586607656771965,0.08148225697834388,0.9947701903228937,67.19520556524742,4.2937943968183365,476.6466597572206,-122.73134584088992,120.08021545410156,4761.76025390625,True
1599386502.4824169,0.0,10,0.5,0.5,-23.948888076019287,-0.1005,-0.0155,-0.001,1.1585247413044648,10,1,100,-0.5774135618036678,-10,-1,-100,18775.663330564275,0.06064772577872093,0.08390340543527516,0.9946265992392486,69.06153338273246,4.4177375746103555,491.4480374324791,-123.09448324378187,111.93496704101562,4761.76025390625,True
1599386502.5143318,0.0,10,0.5,0.5,-23.00765629348755,-0.1005,-0.0155,-0.001,1.2295150379292363,10,1,100,-0.5804219170224223,-10,-1,-100,18770.72866022424,0.0598277330906702,0.08674286167002679,0.9944326615224008,70.84286074997442,4.536390317404741,505.72679344524835,-123.45750019768279,103.50700378417969,4761.76025390625,True
1599386502.5492387,0.0,10,0.5,0.5,-22.475592387390137,-0.1005,-0.0155,-0.001,1.119659938988306,10,1,100,-0.6245962506965292,-10,-1,-100,18768.255880779005,0.05949067894780313,0.08831568912131507,0.99431443626921,71.64084493579648,4.58979152764777,512.2340373337357,-123.63896856929969,99.18702697753906,4761.76025390625,True
1599386502.5821502,0.0,10,0.5,0.5,-20.5652619682312,-0.1005,-0.0155,-0.001,1.7593574272320969,10,1,100,-0.5708167577373399,-10,-1,-100,18758.32847714238,0.05870150981834413,0.09554941460343688,0.9936923276920213,73.84648757370462,4.740044634148008,531.3541043009084,-124.36466196566309,81.19964599609375,4761.76025390625,True
1599386502.613069,0.0,10,0.5,0.5,-19.99719125442505,-0.1005,-0.0155,-0.001,1.2600181892150872,10,1,100,-0.6488742303492812,-10,-1,-100,18755.83755579975,0.05870021995402517,0.09756809043053644,0.9934962264181418,74.10589845770669,4.758878349876948,534.063885246048,-124.5460614378678,76.52566528320312,4761.76025390625,True
1599386502.6520004,0.0,10,0.5,0.5,-19.888241999816895,-0.1005,-0.0155,-0.001,1.060307011690454,10,1,100,-0.6483261835345089,-10,-1,-100,18755.83755579975,0.05870021995402517,0.09756809043053644,0.9934962264181418,74.10589845770669,4.758878349876948,534.063885246048,-124.5460614378678,76.52566528320312,4761.76025390625,True
1599386502.6858726,0.0,10,0.5,0.5,-17.81019499435425,-0.1005,-0.0155,-0.001,2.0209525391906267,10,1,100,-0.7508612136445403,-10,-1,-100,18745.837589561823,0.059638109201666685,0.10628191940827912,0.9925459432881393,73.7013308777627,4.742357286052488,534.5172277072317,-125.27169633459161,57.11872863769531,4761.76025390625,True
1599386502.7147954,0.0,10,0.5,0.5,-17.19181475982666,-0.1005,-0.0155,-0.001,1.404816843863864,10,1,100,-0.7121736405107901,-10,-1,-100,18743.328526622267,0.06014307037351916,0.1085759882412693,0.9922671343259726,73.1983275804561,4.712753128163952,531.7087949926581,-125.45313540126573,52.088653564453125,4761.76025390625,True
1599386502.7467105,0.0,10,0.5,0.5,-16.030388284301758,-0.1005,-0.0155,-0.001,1.6891714693554727,10,1,100,-0.8132857984174219,-10,-1,-100,18738.299513197853,0.061524003747947295,0.11321934807127115,0.9916633381269769,71.6620893935194,4.619999859678924,522.1949984481287,-125.81607607186055,41.81324768066406,4761.76025390625,True
