Timestamp,Input Throttle,horizon,dT,dt,Input Roll,Roll P,Roll I,Roll D,Input Pitch,Pitch P,Pitch I,Pitch D,Input Yaw,Yaw P,Yaw I,Yaw D,Altitude,Direction X,Direction Y,Direction Z,Drag X,Drag Y,Drag Z,Vertical Velocity,Roll,Mass,Has Fuel
1599387777.154896,0.0,10,0.5,0.5,-8.425099220275879,-0.15025,-0.03,-0.2505,-0.0001365643373817181,10,1,100,0.49807967241038675,-10,-1,-100,19351.094167116913,-0.04884285185774847,-0.00017475250852912384,0.9988064603735616,60.98661709810303,3.6806868788490195,232.7544018822388,-68.48187371906546,-33.922515869140625,4761.76025390625,True
1599387777.1918557,0.0,10,0.5,0.5,-8.593409706115724,-0.15025,-0.03,-0.2505,-0.0008388262848981808,10,1,100,0.4988610499089572,-10,-1,-100,19349.72088038223,-0.048893290459072994,-0.00016633274442688775,0.998803994025606,61.07634050997675,3.686772589843449,233.74133181698127,-68.66433384816503,-33.923675537109375,4761.76025390625,True
1599387777.224768,0.0,10,0.5,0.5,-8.760963012695312,-0.15025,-0.03,-0.2505,0.0002859773635739528,10,1,100,0.5105264465843424,-10,-1,-100,19346.963359399117,-0.049000744347817815,-0.00014830171412562928,0.9987987310063833,61.25647948132348,3.698996933654301,235.72406136978384,-69.02924369778032,-33.92608642578125,4761.76025390625,True
1599387777.2608414,0.0,10,0.5,0.5,-8.799014152526855,-0.15025,-0.03,-0.2505,0.034127630745237884,10,1,100,0.5019063290376246,-10,-1,-100,19342.799710671767,-0.04897551886502675,0.00017587634572166472,0.9987999637662249,61.537166440647184,3.7179871890415197,238.75438266845123,-69.57658215053067,-34.252410888671875,4761.76025390625,True
1599387777.2972593,0.0,10,0.5,0.5,-9.04800119781494,-0.15025,-0.03,-0.2505,0.0017274123950806498,10,1,100,0.509326429203234,-10,-1,-100,19342.799710671767,-0.04897551886502675,0.00017587634572166472,0.9987999637662249,61.537166440647184,3.7179871890415197,238.75438266845123,-69.57658215053067,-34.252410888671875,4761.76025390625,True
1599387777.334161,0.0,10,0.5,0.5,-8.98803652191162,-0.15025,-0.03,-0.2505,0.03694723550263693,10,1,100,0.5054669859480327,-10,-1,-100,19340.00570095796,-0.048895909818283984,0.0004958966682033385,0.9988037565455672,61.74108538231867,3.7316533120313955,240.85080763277156,-69.94145520776684,-34.819366455078125,4761.76025390625,True
1599387777.3710628,0.0,10,0.5,0.5,-8.95126741027832,-0.15025,-0.03,-0.2505,0.05497149371935476,10,1,100,0.49788020017183743,-10,-1,-100,19337.19709661021,-0.04871011635071762,0.0009502303118221101,0.9988125057424211,61.95533814526705,3.7459118995790255,242.99697051019484,-70.3063111834927,-35.6785888671875,4761.76025390625,True
1599387777.4069655,0.0,10,0.5,0.5,-8.592638671875,-0.15025,-0.03,-0.2505,0.11627116893977152,10,1,100,0.4698140385081703,-10,-1,-100,19332.956827489194,-0.04824178435021421,0.0019196668259231255,0.998833842599451,62.28053341642528,3.7674152133805685,246.2492872710274,-70.85356095620332,-37.5172119140625,4761.76025390625,True
1599387777.4438677,0.0,10,0.5,0.5,-9.210662109374999,-0.15025,-0.03,-0.2505,0.01951948421226228,10,1,100,0.5214714169935329,-10,-1,-100,19332.956827489194,-0.04824178435021421,0.0019196668259231255,0.998833842599451,62.28053341642528,3.7674152133805685,246.2492872710274,-70.85356095620332,-37.5172119140625,4761.76025390625,True
1599387777.480769,0.0,10,0.5,0.5,-8.729818748474122,-0.15025,-0.03,-0.2505,0.10916895571983218,10,1,100,0.4754624356194301,-10,-1,-100,19330.111740599154,-0.047779664715585805,0.002732916869786558,0.9988541609289361,62.48552205191278,3.7809188386840282,248.38263801450046,-71.218370743851,-39.109954833984375,4761.76025390625,True
1599387777.519665,0.0,10,0.5,0.5,-8.525417366027833,-0.15025,-0.03,-0.2505,0.1290423294171248,10,1,100,0.460729668527182,-10,-1,-100,19327.252061761334,-0.0471821856517072,0.0036504176552107147,0.9988796302898917,62.66550455707989,3.792778883305343,250.42520493349434,-71.58316236378178,-40.996551513671875,4761.76025390625,True
1599387777.5565655,0.0,10,0.5,0.5,-8.103314651489258,-0.15025,-0.03,-0.2505,0.15691661026239928,10,1,100,0.4419635797346883,-10,-1,-100,19324.377791660605,-0.046469931755709466,0.004734434404040862,0.9989084695674042,62.80419929012854,3.8019762359086355,252.3100053702816,-71.94793752178923,-43.1761474609375,4761.76025390625,True
1599387777.594091,0.0,10,0.5,0.5,-7.630164291381836,-0.15025,-0.03,-0.2505,0.17497609507750397,10,1,100,0.4172587031115671,-10,-1,-100,19321.488930957043,-0.04560004147977712,0.005879626067525158,0.9989424739264764,62.883777315214466,3.80739934871338,253.9624561485478,-72.3126986426876,-45.64996337890625,4761.76025390625,True
1599387777.6339839,0.0,10,0.5,0.5,-5.878671096801757,-0.15025,-0.03,-0.2505,0.34190272480034767,10,1,100,0.26380475426411926,-10,-1,-100,19315.66743960278,-0.04341728778746914,0.008432744279280688,0.9990214351779946,62.778070978789195,3.801517533821034,256.19851048051,-73.04219677201957,-51.47906494140625,4761.76025390625,True
1599387777.6758711,0.0,10,0.5,0.5,-7.287181076049804,-0.15025,-0.03,-0.2505,0.08741659041815061,10,1,100,0.48152430038716193,-10,-1,-100,19315.66743960278,-0.04341728778746914,0.008432744279280688,0.9990214351779946,62.778070978789195,3.801517533821034,256.19851048051,-73.04219677201957,-51.47906494140625,4761.76025390625,True
1599387777.714768,0.0,10,0.5,0.5,-5.890699172973632,-0.15025,-0.03,-0.2505,0.23712215881645507,10,1,100,0.3351074401393484,-10,-1,-100,19312.734809038695,-0.04209127835892316,0.009786197748416584,0.9990658409833361,62.543997113267196,3.7872302749640765,256.5710115633966,-73.40694580213065,-54.83477783203125,4761.76025390625,True
1599387777.7526658,0.0,10,0.5,0.5,-4.432535575866699,-0.15025,-0.03,-0.2505,0.3235899715940328,10,1,100,0.21633869538939723,-10,-1,-100,19308.30850595853,-0.0398122854092994,0.011794235290081547,0.9991375670769319,61.89088365588467,3.747075522724416,255.86470471763022,-73.95409234167408,-60.421112060546875,4761.76025390625,True
1599387778.0964563,0.0,10,0.5,0.5,-5.757684730529785,-0.15025,-0.03,-0.2505,0.12387061792536239,10,1,100,0.4433482072576309,-10,-1,-100,19308.30850595853,-0.0398122854092994,0.011794235290081547,0.9991375670769319,61.89088365588467,3.747075522724416,255.86470471763022,-73.95409234167408,-60.421112060546875,4761.76025390625,True
1599387778.1284192,0.0,10,0.5,0.5,-4.049063133239747,-0.15025,-0.03,-0.2505,0.27424424877423037,10,1,100,0.2528392354816269,-10,-1,-100,19305.33939850109,-0.03808804884673656,0.013152291417376567,0.9991878290719525,61.21244805269656,3.7053638430784033,254.36253520062107,-74.31888626639838,-64.51321411132812,4761.76025390625,True
1599387778.1633577,0.0,10,0.5,0.5,-4.993146690368652,-0.15025,-0.03,-0.2505,0.13956189850387374,10,1,100,0.42424751818756323,-10,-1,-100,19305.33939850109,-0.03808804884673656,0.013152291417376567,0.9991878290719525,61.21244805269656,3.7053638430784033,254.36253520062107,-74.31888626639838,-64.51321411132812,4761.76025390625,True
1599387778.2012234,0.0,10,0.5,0.5,-3.1587636947631834,-0.15025,-0.03,-0.2505,0.2844174653890962,10,1,100,0.2183209141255789,-10,-1,-100,19302.355697999592,-0.036224799369690204,0.014459688048562598,0.9992390511445016,60.306949692098044,3.649818066450202,251.88470714181747,-74.68371616860271,-68.90042114257812,4761.76025390625,True
1599387778.248706,0.0,10,0.5,0.5,-2.2975497589111327,-0.15025,-0.03,-0.2505,0.29062582376362145,10,1,100,0.1849998108810318,-10,-1,-100,19299.357402960537,-0.034237978348590374,0.01569484345268799,0.9992904646435876,59.1460080056799,3.578836277450146,248.2976522428673,-75.04859296149887,-73.5828857421875,4761.76025390625,True
1599387778.3105075,0.0,10,0.5,0.5,0.7281192855834959,-0.15025,-0.03,-0.2505,0.42607197751235076,10,1,100,-0.1037309453644536,-10,-1,-100,19293.317020052928,-0.029818072321183497,0.018039076664109845,0.9993925526419312,55.95638801267025,3.3850019817997192,237.30001968752046,-75.7785255538909,-83.83218383789062,4761.76025390625,True
1599387778.3629568,0.0,10,0.5,0.5,-0.6239070281982422,-0.15025,-0.03,-0.2505,0.25016638045524386,10,1,100,0.20897678660048602,-10,-1,-100,19291.79779910005,-0.028657120740639055,0.0185600019279773,0.9994169779222732,54.96238333124013,3.3248880152945426,233.6730307879788,-75.96105127060923,-86.5792236328125,4761.76025390625,True
1599387778.3998578,0.0,10,0.5,0.5,-0.07626741790771496,-0.15025,-0.03,-0.2505,0.25353132734899275,10,1,100,0.19299952441760332,-10,-1,-100,19290.27492701914,-0.02746988070852411,0.01905495417811934,0.9994410009475942,53.88549748604849,3.2598877358983405,229.6717534031484,-76.14359533488438,-89.40011596679688,4761.76025390625,True
1599387778.437793,0.0,10,0.5,0.5,1.5767187480926514,-0.15025,-0.03,-0.2505,0.2978589069576257,10,1,100,0.05781221493542693,-10,-1,-100,19287.218229244696,-0.025176093690471597,0.01989823221114619,0.9994849797077292,52.54941543830375,3.1797845677128094,225.1031075273508,-76.50871948886699,-95.0042495727539,4761.76025390625,True
1599387778.4757006,0.0,10,0.5,0.5,2.5506128902435306,-0.15025,-0.03,-0.2505,0.2992438093872159,10,1,100,0.013241678783896538,-10,-1,-100,19284.146928364644,-0.022701023513290355,0.020668245868291663,0.9995286324784183,54.30561778722006,3.28737306204617,233.7897166129779,-76.87377744316903,-100.6367416381836,4761.76025390625,True
1599387778.5136,0.0,10,0.5,0.5,5.78510636138916,-0.15025,-0.03,-0.2505,0.3417560949656884,10,1,100,-0.2757024630697115,-10,-1,-100,19277.960531252786,-0.017839750482543708,0.021746666324975288,0.9996043346276919,57.33546012513811,3.474685141354906,249.2883131249098,-77.60362533188359,-111.92753601074219,4761.76025390625,True
1599387778.5535424,0.0,10,0.5,0.5,3.111281642913818,-0.15025,-0.03,-0.2505,0.23490929240081523,10,1,100,0.20822758651227768,-10,-1,-100,19277.960531252786,-0.017839750482543708,0.021746666324975288,0.9996043346276919,57.33546012513811,3.474685141354906,249.2883131249098,-77.60362533188359,-111.92753601074219,4761.76025390625,True
1599387778.5943894,0.0,10,0.5,0.5,5.382239925384521,-0.15025,-0.03,-0.2505,0.27508146678360124,10,1,100,-0.05837429558788387,-10,-1,-100,19274.845441836515,-0.015434504552873323,0.022104054842175525,0.9996365273581901,58.58766584756125,3.5527311397150627,255.9853166451142,-77.9684202101651,-117.23936462402344,4761.76025390625,True
1599387778.628301,0.0,10,0.5,0.5,6.221847194671631,-0.15025,-0.03,-0.2505,0.27172179622207626,10,1,100,-0.067115932596503,-10,-1,-100,19271.715762951295,-0.013189042047907221,0.022390273067775697,0.9996623054020837,59.56494378466609,3.6140603025134,261.52768682323665,-78.33314260907184,-122.26005554199219,4761.76025390625,True
1599387778.6662319,0.0,10,0.5,0.5,6.086318807601929,-0.15025,-0.03,-0.2505,0.2509889220694769,10,1,100,0.022337073788600198,-10,-1,-100,19270.14545304794,-0.011981863244458778,0.022454781157825666,0.9996760564084473,59.93986427836487,3.637761598145651,263.8137035395336,-78.51548170257928,-124.6607437133789,4761.76025390625,True
1599387778.7050924,0.0,10,0.5,0.5,7.473582096099852,-0.15025,-0.03,-0.2505,0.2548055537161121,10,1,100,-0.10698396502423713,-10,-1,-100,19266.99389408203,-0.009729014993119975,0.022541976129472195,0.999698557355887,60.47931103534385,3.6721998358924606,267.47883828362336,-78.88012607814957,-129.24066162109375,4761.76025390625,True
1599387778.7443426,0.0,10,0.5,0.5,8.17961266708374,-0.15025,-0.03,-0.2505,0.2494621502703439,10,1,100,-0.11882951757481175,-10,-1,-100,19263.827750306576,-0.007591547066286805,0.022568574345584454,0.9997164737390039,60.77414499523417,3.6914742352185854,270.07969220554526,-79.24473736695849,-133.5253143310547,4761.76025390625,True
1599387778.782951,0.0,10,0.5,0.5,8.846201286315917,-0.15025,-0.03,-0.2505,0.23791979515539158,10,1,100,-0.13897179295845624,-10,-1,-100,19260.647022693884,-0.005484433332654748,0.022484179884261844,0.9997321554526251,60.868042546390434,3.698211499385306,271.7959882861208,-79.60932873281706,-137.51547241210938,4761.76025390625,True
1599387778.8218436,0.0,10,0.5,0.5,9.47157903289795,-0.15025,-0.03,-0.2505,0.23466153310921212,10,1,100,-0.1478535136837909,-10,-1,-100,19257.4517117989,-0.0035081192476460804,0.022374719604724983,0.9997434996147534,60.798166662454626,3.6946799034698725,272.78190996101335,-79.97391109361045,-141.2099609375,4761.76025390625,True
1599387778.8593612,0.0,10,0.5,0.5,10.047005287170409,-0.15025,-0.03,-0.2505,0.2277027466477396,10,1,100,-0.16043442497269578,-10,-1,-100,19254.24181769276,-0.0016167963172325436,0.022209697212411197,0.9997520269143753,60.604082341625556,3.683319086490892,273.2055696503406,-80.33849275612653,-144.60928344726562,4761.76025390625,True
1599387778.8972244,0.0,10,0.5,0.5,10.571199890136718,-0.15025,-0.03,-0.2505,0.22354794066979958,10,1,100,-0.16988559468366154,-10,-1,-100,19251.017340242863,0.0001693404103375806,0.022020504572922737,0.9997575049491648,60.32017177421271,3.666267454887389,273.214908316284,-80.70307982619372,-147.71298217773438,4761.76025390625,True
1599387778.9361205,0.0,10,0.5,0.5,11.026403503417967,-0.15025,-0.03,-0.2505,0.22002729515246058,10,1,100,-0.1774762259921714,-10,-1,-100,19247.778279046994,0.001845734910121527,0.021816256452095648,0.9997602933788968,59.977530363163865,3.645468052697478,272.9457738470542,-81.06767595265232,-150.52102661132812,4761.76025390625,True
1599387778.9745347,0.0,10,0.5,0.5,11.44553581237793,-0.15025,-0.03,-0.2505,0.21798105212897567,10,1,100,-0.18408260662357348,-10,-1,-100,19244.52463342296,0.00341189201985362,0.021611910869196505,0.9997606134977647,59.60363406644535,3.622641160924493,272.5200582037408,-81.43228325938878,-153.03323364257812,4761.76025390625,True
1599387779.0134284,0.0,10,0.5,0.5,12.5813751373291,-0.15025,-0.03,-0.2505,0.19720919497280293,10,1,100,-0.33766953440500946,-10,-1,-100,19237.973588290974,0.006214782920738826,0.021237754496025694,0.9997551371496995,58.855255103606375,3.5767349625393465,271.6208120726194,-82.16153204777964,-157.16989135742188,4761.76025390625,True
1599387779.052351,0.0,10,0.5,0.5,11.64987188720703,-0.15025,-0.03,-0.2505,0.23450958043270903,10,1,100,-0.059320826813353524,-10,-1,-100,19237.973588290974,0.006214782920738826,0.021237754496025694,0.9997551371496995,58.855255103606375,3.5767349625393465,271.6208120726194,-82.16153204777964,-157.16989135742188,4761.76025390625,True
1599387779.0922174,0.0,10,0.5,0.5,12.087696838378905,-0.15025,-0.03,-0.2505,0.22551023271702464,10,1,100,-0.1307131917200115,-10,-1,-100,19236.326711317757,0.006847262014285537,0.02115704863193929,0.9997527165735003,58.68226872918673,3.566094041233091,271.45182136751424,-82.34385053848372,-158.01904296875,4761.76025390625,True
1599387779.131982,0.0,10,0.5,0.5,12.552721717834471,-0.15025,-0.03,-0.2505,0.22184694847078712,10,1,100,-0.19842881043453447,-10,-1,-100,19233.022017810843,0.008022770199453296,0.021051636105529067,0.9997461996805025,58.367289579887235,3.5466889978710965,271.2473955222823,-82.70849337496219,-159.49478149414062,4761.76025390625,True
1599387779.172873,0.0,10,0.5,0.5,12.73432888031006,-0.15025,-0.03,-0.2505,0.2140782950437137,10,1,100,-0.20211413864189642,-10,-1,-100,19229.702738574124,0.009110722153976604,0.02088656144876461,0.9997403394345354,58.10545325161528,3.5305158063733955,271.2783708898135,-83.07314150262387,-160.67599487304688,4761.76025390625,True
1599387779.2137632,0.0,10,0.5,0.5,12.862388481140139,-0.15025,-0.03,-0.2505,0.2205643995746699,10,1,100,-0.20158368318153727,-10,-1,-100,19226.36887311819,0.010081678739824863,0.020796910546019703,0.999732888458476,57.90285948208259,3.5179529508653125,271.5767088161553,-83.43779170576471,-161.56051635742188,4761.76025390625,True
1599387779.2536564,0.0,10,0.5,0.5,12.93772151184082,-0.15025,-0.03,-0.2505,0.22368664092652837,10,1,100,-0.20076884489649818,-10,-1,-100,19223.020421756897,0.010944604562561588,0.02074522810950369,0.9997248877274456,57.76826367130945,3.509534594806737,272.1874121598008,-83.80244067825805,-162.1490478515625,4761.76025390625,True
1599387779.2945492,0.0,10,0.5,0.5,12.960259742736815,-0.15025,-0.03,-0.2505,0.22592804572977776,10,1,100,-0.1995526779123668,-10,-1,-100,19219.65738460829,0.011706607064393967,0.020719951819157676,0.9997167793668623,57.70818713011089,3.5056561157137542,273.1456654545405,-84.16708486212478,-162.44186401367188,4761.76025390625,True
1599387779.3324451,0.0,10,0.5,0.5,12.81009923171997,-0.15025,-0.03,-0.2505,0.23654305867719363,10,1,100,-0.2560279860923229,-10,-1,-100,19212.887554052053,0.012902260079828407,0.020794655811777595,0.999700512140762,57.82104173822687,3.512081794319278,276.1689511061172,-84.89634312101211,-162.1399383544922,4761.76025390625,True
1599387779.3693464,0.0,10,0.5,0.5,12.682282249450685,-0.15025,-0.03,-0.2505,0.24036207912142454,10,1,100,-0.1853574813233334,-10,-1,-100,19209.480761956656,0.013336706845805532,0.02089821562787082,0.9996926511853931,57.9930842845601,3.5223259799206876,278.2396353105711,-85.2609494953361,-161.5452880859375,4761.76025390625,True
1599387779.4079056,0.0,10,0.5,0.5,12.85677830505371,-0.15025,-0.03,-0.2505,0.22993472798796957,10,1,100,-0.14290528620821608,-10,-1,-100,19209.480761956656,0.013336706845805532,0.02089821562787082,0.9996926511853931,57.9930842845601,3.5223259799206876,278.2396353105711,-85.2609494953361,-161.5452880859375,4761.76025390625,True
1599387779.4477987,0.0,10,0.5,0.5,12.51296206665039,-0.15025,-0.03,-0.2505,0.24859937257481707,10,1,100,-0.17778267712988913,-10,-1,-100,19206.0593860941,0.013647299559707044,0.0210682028867223,0.9996848913742027,58.23809912352554,3.537006713167619,280.66979987388504,-85.62553570886271,-160.65460205078125,4761.76025390625,True
1599387779.487693,0.0,10,0.5,0.5,12.271327301025389,-0.15025,-0.03,-0.2505,0.2519021745955369,10,1,100,-0.17010369336547776,-10,-1,-100,19202.623427660088,0.0138530907957238,0.02125291636914774,0.9996781509171896,58.55128214919551,3.555834751017976,283.4408498041421,-85.99009819997316,-159.46881103515625,4761.76025390625,True
1599387779.5265882,0.0,10,0.5,0.5,11.979187034606934,-0.15025,-0.03,-0.2505,0.25724072224082295,10,1,100,-0.16099149607133134,-10,-1,-100,19199.172887394554,0.013950966645081848,0.021469282815639642,0.9996721664751149,58.92237981580765,3.57819438637201,286.5072839289609,-86.35463377351982,-157.98776245117188,4761.76025390625,True
1599387779.5654843,0.0,10,0.5,0.5,11.633789497375489,-0.15025,-0.03,-0.2505,0.2638485830790911,10,1,100,-0.1484047755396964,-10,-1,-100,19195.707766650594,0.013920130688351002,0.021725671368516435,0.9996670571571348,59.3394715736116,3.6033739873808766,289.81457377255845,-86.71913949374033,-156.21139526367188,4761.76025390625,True
1599387779.6033833,0.0,10,0.5,0.5,10.28727992248535,-0.15025,-0.03,-0.2505,0.2987522455106823,10,1,100,-0.1074264200563454,-10,-1,-100,19188.733788267593,0.013515195306443066,0.0222752950660373,0.999660517738672,60.25952302768719,3.6591117974546754,296.9066953863592,-87.44805375237411,-151.77447509765625,4761.76025390625,True
1599387779.6422796,0.0,10,0.5,0.5,10.303312683105469,-0.15025,-0.03,-0.2505,0.27495738283366533,10,1,100,-0.10628645062790028,-10,-1,-100,19185.2249335323,0.01313358749484397,0.022557292053519737,0.9996592806825372,60.728542211935405,3.6876695712193177,300.52723634091814,-87.81246043549199,-149.11431884765625,4761.76025390625,True
1599387779.6821723,0.0,10,0.5,0.5,9.746776470184326,-0.15025,-0.03,-0.2505,0.27514645990598574,10,1,100,-0.0890395833976031,-10,-1,-100,19181.701503702207,0.012627891615903651,0.022813724502848486,0.9996599773561234,61.17629050146635,3.715082799142241,304.06245659605725,-88.17683413638912,-146.1603546142578,4761.76025390625,True
1599387780.0306127,0.0,10,0.5,0.5,10.437899982452393,-0.15025,-0.03,-0.2505,0.24971259224147996,10,1,100,-0.1397012997467859,-10,-1,-100,19181.701503702207,0.012627891615903651,0.022813724502848486,0.9996599773561234,61.17629050146635,3.715082799142241,304.06245659605725,-88.17683413638912,-146.1603546142578,4761.76025390625,True
1599387780.064647,0.0,10,0.5,0.5,9.088355365753173,-0.15025,-0.03,-0.2505,0.2770008565630843,10,1,100,-0.07198328317533742,-10,-1,-100,19178.163499757182,0.012012522709312233,0.023059964116053006,0.9996619115246538,61.579053227322206,3.739956256519936,307.3926844473892,-88.54117728442215,-142.9124298095703,4761.76025390625,True
1599387780.1026733,0.0,10,0.5,0.5,8.426804264068604,-0.15025,-0.03,-0.2505,0.2766082043839818,10,1,100,-0.05280877110438269,-10,-1,-100,19174.61092282657,0.011279986488253622,0.023278283518712382,0.999665385727268,61.90996544084298,3.7607034394171768,310.3804680083823,-88.90549382159885,-139.3709259033203,4761.76025390625,True
1599387780.142455,0.0,10,0.5,0.5,9.247427906036377,-0.15025,-0.03,-0.2505,0.2550142709071284,10,1,100,-0.12585672117448862,-10,-1,-100,19174.61092282657,0.011279986488253622,0.023278283518712382,0.999665385727268,61.90996544084298,3.7607034394171768,310.3804680083823,-88.90549382159885,-139.3709259033203,4761.76025390625,True
1599387780.1928935,0.0,10,0.5,0.5,6.834576251983642,-0.15025,-0.03,-0.2505,0.27927801510913225,10,1,100,0.016124827898750776,-10,-1,-100,19169.254734948627,0.009991397235834585,0.023496853847246972,0.9996739817763374,62.207365261864865,3.780268873859358,313.88619890643423,-89.45193289445267,-133.50941467285156,4761.76025390625,True
1599387780.239736,0.0,10,0.5,0.5,7.3833068809509275,-0.15025,-0.03,-0.2505,0.262803727684392,10,1,100,-0.05967698875621947,-10,-1,-100,19167.4620533369,0.009512570515553272,0.023543747953437052,0.999677549480077,62.237179747237874,3.782733322928833,314.70901547447,-89.6340739962645,-131.4091033935547,4761.76025390625,True
1599387780.2776344,0.0,10,0.5,0.5,6.058164474487304,-0.15025,-0.03,-0.2505,0.2663294246964358,10,1,100,0.008115247701783457,-10,-1,-100,19163.865761696245,0.008465015343978895,0.02361654487268498,0.9996852516284827,62.168082817433465,3.7800711061195496,315.70386940489203,-89.99835611629568,-126.98855590820312,4761.76025390625,True
1599387780.3141978,0.0,10,0.5,0.5,5.189405954360962,-0.15025,-0.03,-0.2505,0.25434420159256727,10,1,100,0.023909762119188327,-10,-1,-100,19160.2548984061,0.007374065161793392,0.023572048340598683,0.9996949443205253,61.89854229550282,3.765506881266741,315.67515493430335,-90.3626487983419,-122.27629852294922,4761.76025390625,True
1599387780.3541272,0.0,10,0.5,0.5,5.293071857452393,-0.15025,-0.03,-0.2505,0.25528628134162024,10,1,100,-0.019554427937821625,-10,-1,-100,19158.444002176286,0.006783004115001798,0.02353898244253475,0.9996999085529347,61.67654950564678,3.7530070915848244,315.21140015822897,-90.5448034719131,-119.81027221679688,4761.76025390625,True
1599387780.3940177,0.0,10,0.5,0.5,2.6827543659210207,-0.15025,-0.03,-0.2505,0.2304275408628117,10,1,100,0.12381773732140106,-10,-1,-100,19152.989453138784,0.004948065827725453,0.023282041539588353,0.9997166914612926,60.60975723526245,3.691300123712049,311.7332992529286,-91.09132438883755,-111.97460174560547,4761.76025390625,True
1599387780.4336379,0.0,10,0.5,0.5,3.4378361434936524,-0.15025,-0.03,-0.2505,0.24155583746037795,10,1,100,0.010732945907061052,-10,-1,-100,19151.163982673315,0.004314965330139302,0.02314919949049065,0.9997227093735287,60.14277261289429,3.663948534446469,309.9856641181665,-91.27352273043262,-109.21678161621094,4761.76025390625,True
1599387780.4745293,0.0,10,0.5,0.5,1.7197641258239742,-0.15025,-0.03,-0.2505,0.2179281162973185,10,1,100,0.09265752235108064,-10,-1,-100,19147.502108556335,0.0030022077521933174,0.022813331548930706,0.9997352342756812,59.108081066027175,3.6029790498204637,305.9405565232652,-91.63796209837284,-103.48234558105469,4761.76025390625,True
1599387780.5154219,0.0,10,0.5,0.5,0.6230485534667969,-0.15025,-0.03,-0.2505,0.20302332887224142,10,1,100,0.10196943863744229,-10,-1,-100,19143.82565482508,0.0017323291832365157,0.02237272320052744,0.9997481984440851,57.82010162697541,3.526236093533421,300.536290769208,-92.00246824448006,-97.45639038085938,4761.76025390625,True
1599387780.5543268,0.0,10,0.5,0.5,-3.173408020019531,-0.15025,-0.03,-0.2505,0.11809205303939914,10,1,100,0.262082604653268,-10,-1,-100,19136.42899990559,-0.0008690004274998856,0.02120089088560607,0.999774858187539,57.89303560672821,3.5327144511517705,303.4482954116362,-92.73159936638818,-84.53009033203125,4761.76025390625,True
1599387780.5932567,0.0,10,0.5,0.5,-0.09989236450195316,-0.15025,-0.03,-0.2505,0.2350675452682253,10,1,100,0.003164542271203193,-10,-1,-100,19136.42899990559,-0.0008690004274998856,0.02120089088560607,0.999774858187539,57.89303560672821,3.5327144511517705,303.4482954116362,-92.73159936638818,-84.53009033203125,4761.76025390625,True
1599387780.6317058,0.0,10,0.5,0.5,-2.9893775405883787,-0.15025,-0.03,-0.2505,0.1559129128598228,10,1,100,0.14141594126876414,-10,-1,-100,19132.708802552894,-0.002115958238692863,0.020483390557312995,0.999787954234301,60.403827265057714,3.6861328675263687,317.9308592661976,-93.09602789540614,-77.68655395507812,4761.76025390625,True
1599387780.669604,0.0,10,0.5,0.5,-6.827163352966309,-0.15025,-0.03,-0.2505,0.047697182033166224,10,1,100,0.27212503317544373,-10,-1,-100,19125.224692126387,-0.004427249330970615,0.01885012030352798,0.9998125186393216,64.3883900748846,3.9289614861805577,341.7194836318667,-93.82452812119197,-64.23446655273438,4761.76025390625,True
1599387780.7075384,0.0,10,0.5,0.5,-3.645677726745605,-0.15025,-0.03,-0.2505,0.21054756495475216,10,1,100,0.042285150415163494,-10,-1,-100,19125.224692126387,-0.004427249330970615,0.01885012030352798,0.9998125186393216,64.3883900748846,3.9289614861805577,341.7194836318667,-93.82452812119197,-64.23446655273438,4761.76025390625,True
1599387780.746399,0.0,10,0.5,0.5,-6.417181282043457,-0.15025,-0.03,-0.2505,0.11402362904028955,10,1,100,0.15777078007526973,-10,-1,-100,19121.460787705146,-0.005466390223796341,0.017976922638884747,0.9998234588317864,65.76511289653848,4.0129405745762226,350.4625848634125,-94.18863085548443,-57.753173828125,4761.76025390625,True
1599387780.786293,0.0,10,0.5,0.5,-9.831997055053712,-0.15025,-0.03,-0.2505,-0.001912336380659907,10,1,100,0.26342436127134494,-10,-1,-100,19113.889294486842,-0.0073604150514760495,0.01613419967611286,0.9998427435807499,67.3010301721301,4.107849696956879,361.5871777130907,-94.91665284032409,-45.645355224609375,4761.76025390625,True
1599387780.8302088,0.0,10,0.5,0.5,-6.9979762344360354,-0.15025,-0.03,-0.2505,0.18164517571018135,10,1,100,0.0752527265912942,-10,-1,-100,19113.889294486842,-0.0073604150514760495,0.01613419967611286,0.9998427435807499,67.3010301721301,4.107849696956879,361.5871777130907,-94.91665284032409,-45.645355224609375,4761.76025390625,True
1599387780.8681037,0.0,10,0.5,0.5,-9.436720924377441,-0.15025,-0.03,-0.2505,0.08119505386549271,10,1,100,0.16842409865532312,-10,-1,-100,19110.08170915267,-0.008196813542620298,0.015227394022810578,0.9998504581781327,67.53602598714546,4.123554080432857,364.3260439165828,-95.28061964307217,-40.035797119140625,4761.76025390625,True
1599387780.9049747,0.0,10,0.5,0.5,-10.351009628295898,-0.15025,-0.03,-0.2505,0.07714883755340868,10,1,100,0.1726846280756708,-10,-1,-100,19106.259565292625,-0.008985726964486582,0.01437313776926785,0.9998563244894664,67.47740087498795,4.121807746273748,365.48675595356394,-95.64458511603024,-34.722900390625,4761.76025390625,True
1599387780.9438703,0.0,10,0.5,0.5,-12.17802296447754,-0.15025,-0.03,-0.2505,0.01145537043527059,10,1,100,0.2100997350753734,-10,-1,-100,19100.49905079382,-0.010033314633318934,0.013006600188092533,0.9998650713716406,66.93959561291493,4.092354267410595,364.77642190432516,-96.1905672502035,-27.31256103515625,4761.76025390625,True
1599387780.9837968,0.0,10,0.5,0.5,-10.493385543823242,-0.15025,-0.03,-0.2505,0.14728969948305096,10,1,100,0.10625739961272015,-10,-1,-100,19100.49905079382,-0.010033314633318934,0.013006600188092533,0.9998650713716406,66.93959561291493,4.092354267410595,364.77642190432516,-96.1905672502035,-27.31256103515625,4761.76025390625,True
1599387781.0266821,0.0,10,0.5,0.5,-14.208877426147462,-0.15025,-0.03,-0.2505,-0.030301426391808717,10,1,100,0.24534817862208425,-10,-1,-100,19092.76740112144,-0.011289445065944226,0.011399584762591548,0.9998712906656254,65.6200490006851,4.016685333364825,360.47504435116673,-96.91866574636482,-18.46954345703125,4761.76025390625,True
1599387781.0685372,0.0,10,0.5,0.5,-12.171352554321288,-0.15025,-0.03,-0.2505,0.12949173557881763,10,1,100,0.12065248404228013,-10,-1,-100,19092.76740112144,-0.011289445065944226,0.011399584762591548,0.9998712906656254,65.6200490006851,4.016685333364825,360.47504435116673,-96.91866574636482,-18.46954345703125,4761.76025390625,True
1599387781.10843,0.0,10,0.5,0.5,-15.377183029174804,-0.15025,-0.03,-0.2505,-0.029734906711255005,10,1,100,0.24230976562219425,-10,-1,-100,19084.9774952312,-0.012389181993275288,0.00995884304680992,0.9998736568260546,64.1288566349955,3.930023618275144,355.11830209008286,-97.6469348623437,-10.81256103515625,4761.76025390625,True
1599387781.1483243,0.0,10,0.5,0.5,-14.975366966247558,-0.15025,-0.03,-0.2505,0.039002093761241155,10,1,100,0.18533428121531464,-10,-1,-100,19081.06069177587,-0.012863745766547979,0.009282042652446332,0.9998741759486799,63.460905501609844,3.891041207846015,352.82579851484803,-98.01112675291029,-7.428924560546875,4761.76025390625,True
1599387781.1901107,0.0,10,0.5,0.5,-14.278738777160644,-0.15025,-0.03,-0.2505,0.10581264519895617,10,1,100,0.13861763944232064,-10,-1,-100,19081.06069177587,-0.012863745766547979,0.009282042652446332,0.9998741759486799,63.460905501609844,3.891041207846015,352.82579851484803,-98.01112675291029,-7.428924560546875,4761.76025390625,True
1599387781.2300034,0.0,10,0.5,0.5,-16.75021584320068,-0.15025,-0.03,-0.2505,-0.011578904410927515,10,1,100,0.250011871644395,-10,-1,-100,19073.183378396556,-0.013871417576825862,0.008221075980559813,0.9998699903908165,62.164185958796736,3.8144638094825085,348.3771441982353,-98.7396041841755,-1.547882080078125,4761.76025390625,True
1599387781.2698934,0.0,10,0.5,0.5,-16.409751220703125,-0.15025,-0.03,-0.2505,0.042789357366790876,10,1,100,0.19987795368600766,-10,-1,-100,19069.22286555753,-0.014325800875161008,0.0077580114983654665,0.9998672835366085,61.54419746717809,3.777392871913477,346.27144713719434,-99.10388398468442,0.94854736328125,4761.76025390625,True
1599387781.3107855,0.0,10,0.5,0.5,-16.789602836608886,-0.15025,-0.03,-0.2505,0.04989179969287822,10,1,100,0.21052282530995384,-10,-1,-100,19065.247781455866,-0.014830076354471977,0.007408401792539077,0.9998625827673526,61.725377874118635,3.7891735861308495,348.664820507849,-99.46816824760835,3.150054931640625,4761.76025390625,True
1599387781.3516774,0.0,10,0.5,0.5,-16.35174405670166,-0.15025,-0.03,-0.2505,0.08415629667784427,10,1,100,0.1606797123178554,-10,-1,-100,19065.247781455866,-0.014830076354471977,0.007408401792539077,0.9998625827673526,61.725377874118635,3.7891735861308495,348.664820507849,-99.46816824760835,3.150054931640625,4761.76025390625,True
1599387781.3906066,0.0,10,0.5,0.5,-17.852153152465817,-0.15025,-0.03,-0.2505,0.02470919251973437,10,1,100,0.2656063722964966,-10,-1,-100,19057.25390588853,-0.015779594389076758,0.006873062844188581,0.9998518717330364,63.611003396195294,3.905500335115595,362.1509151181449,-100.1965762540214,6.666015625,4761.76025390625,True
1599387781.4304726,0.0,10,0.5,0.5,-17.073340728759764,-0.15025,-0.03,-0.2505,0.07762973362039358,10,1,100,0.1712291968115943,-10,-1,-100,19057.25390588853,-0.015779594389076758,0.006873062844188581,0.9998518717330364,63.611003396195294,3.905500335115595,362.1509151181449,-100.1965762540214,6.666015625,4761.76025390625,True
1599387781.4693625,0.0,10,0.5,0.5,-18.084629760742185,-0.15025,-0.03,-0.2505,0.052248437642771886,10,1,100,0.2786022422209887,-10,-1,-100,19049.20176716952,-0.016751631029777496,0.0066464388097723865,0.9998375906660992,65.0128294254049,3.991422780818298,373.0328216702063,-100.9247988676377,9.0013427734375,4761.76025390625,True
1599387781.510254,0.0,10,0.5,0.5,-17.87250355529785,-0.15025,-0.03,-0.2505,0.07187799881022088,10,1,100,0.23406357699480557,-10,-1,-100,19045.153853135882,-0.017225438122936653,0.006623188558146127,0.9998296943253867,65.55524234606467,4.024482253548642,377.6091496553559,-101.28885349474149,9.72613525390625,4761.76025390625,True
1599387781.5507326,0.0,10,0.5,0.5,-17.75255912780762,-0.15025,-0.03,-0.2505,0.07386945852398046,10,1,100,0.18716649329185597,-10,-1,-100,19045.153853135882,-0.017225438122936653,0.006623188558146127,0.9998296943253867,65.55524234606467,4.024482253548642,377.6091496553559,-101.28885349474149,9.72613525390625,4761.76025390625,True
1599387781.5906253,0.0,10,0.5,0.5,-17.97663739013672,-0.15025,-0.03,-0.2505,0.08544054165788006,10,1,100,0.24306965236211847,-10,-1,-100,19041.091378011974,-0.017729683485069595,0.006730797363085487,0.9998201611741866,65.99840150742652,4.051379195924881,381.63684318658,-101.65287748176348,10.1568603515625,4761.76025390625,True
1599387781.6290443,0.0,10,0.5,0.5,-17.975872329711915,-0.15025,-0.03,-0.2505,0.09274587396396211,10,1,100,0.24758180983795308,-10,-1,-100,19037.01434268558,-0.018224684393408474,0.006897354975166889,0.9998101256604213,66.34905967727087,4.072559363223681,385.14856189478576,-102.0168755274835,10.29254150390625,4761.76025390625,True
1599387781.9761333,0.0,10,0.5,0.5,-17.913699821472168,-0.15025,-0.03,-0.2505,0.10228756632052877,10,1,100,0.253340372980303,-10,-1,-100,19032.92274797673,-0.01872307827790465,0.007136717026669126,0.9997992366519792,66.60715830014678,4.088049924462308,388.1378883393019,-102.38085289087265,10.133575439453125,4761.76025390625,True
1599387782.009045,0.0,10,0.5,0.5,-17.79954721069336,-0.15025,-0.03,-0.2505,0.11686650847066984,10,1,100,0.25889796352165423,-10,-1,-100,19028.816594757955,-0.019222689652910966,0.007487419542555803,0.9997871907316586,66.77099369119703,4.097777322276917,390.58877201304693,-102.74481481790474,9.68060302734375,4761.76025390625,True
1599387782.044949,0.0,10,0.5,0.5,-17.633122177124026,-0.15025,-0.03,-0.2505,0.1294357586807368,10,1,100,0.26354441454535216,-10,-1,-100,19024.695883524604,-0.019715128991042653,0.007920434088226102,0.9997742647281538,66.83915562328768,4.101687743257481,392.4867211539737,-103.10876661958702,8.93328857421875,4761.76025390625,True
1599387782.0808537,0.0,10,0.5,0.5,-17.83767414855957,-0.15025,-0.03,-0.2505,0.08618550734327554,10,1,100,0.2147889859958406,-10,-1,-100,19024.695883524604,-0.019715128991042653,0.007920434088226102,0.9997742647281538,66.83915562328768,4.101687743257481,392.4867211539737,-103.10876661958702,8.93328857421875,4761.76025390625,True
1599387782.136704,0.0,10,0.5,0.5,-16.892119911193845,-0.15025,-0.03,-0.2505,0.21339459138254455,10,1,100,0.318624867533224,-10,-1,-100,19016.41078695876,-0.02065551379174435,0.009075928151088514,0.9997454562428354,66.66803220639562,4.090952885060433,394.47759676041113,-103.8366617485901,6.556854248046875,4761.76025390625,True
1599387782.1892707,0.0,10,0.5,0.5,-17.48708922576904,-0.15025,-0.03,-0.2505,0.0980654716269934,10,1,100,0.2250739794033209,-10,-1,-100,19016.41078695876,-0.02065551379174435,0.009075928151088514,0.9997454562428354,66.66803220639562,4.090952885060433,394.47759676041113,-103.8366617485901,6.556854248046875,4761.76025390625,True
1599387782.2261708,0.0,10,0.5,0.5,-16.8268370513916,-0.15025,-0.03,-0.2505,0.17540436016777966,10,1,100,0.2759458147289705,-10,-1,-100,19012.246401677956,-0.021114436037648468,0.009776800329330829,0.999729260733191,66.41335522901811,4.0754487123883765,394.46541656779027,-104.20061674117251,4.9276123046875,4761.76025390625,True
1599387782.2810283,0.0,10,0.5,0.5,-16.45027734375,-0.15025,-0.03,-0.2505,0.1989424888474643,10,1,100,0.27226782956872864,-10,-1,-100,19008.06745781179,-0.021494666398000274,0.010625072923210807,0.9997125022434276,66.03259715370697,4.052433997627935,393.6918315976182,-104.56458474978189,3.0054931640625,4761.76025390625,True
1599387782.317957,0.0,10,0.5,0.5,-16.023408363342284,-0.15025,-0.03,-0.2505,0.21287371853622933,10,1,100,0.2788254143955543,-10,-1,-100,19003.87395463395,-0.021896063652859364,0.011519239292667684,0.9996938879090079,65.51392055122889,4.021236595716481,392.0773870507522,-104.92857189219806,0.789154052734375,4761.76025390625,True
1599387782.351827,0.0,10,0.5,0.5,-15.544941986083982,-0.15025,-0.03,-0.2505,0.23658076699532501,10,1,100,0.2739184298764888,-10,-1,-100,18999.66589125595,-0.022212573679678133,0.012543283303684276,0.9996745808584353,64.90686786183741,3.9849551256087326,389.9101863368334,-105.29258299081312,-1.72003173828125,4761.76025390625,True
1599387782.3907235,0.0,10,0.5,0.5,-15.590569999694823,-0.15025,-0.03,-0.2505,0.19448905967292976,10,1,100,0.2579399816921927,-10,-1,-100,18997.55639955902,-0.02235142609394135,0.013086447857742569,0.999664523044623,65.4082719127528,4.016384565391329,393.66130514109256,-105.47457669930984,-3.084686279296875,4761.76025390625,True
1599387782.4276242,0.0,10,0.5,0.5,-14.710873992919922,-0.15025,-0.03,-0.2505,0.26810519938898364,10,1,100,0.26990101918987025,-10,-1,-100,18993.326497920905,-0.022583093767963126,0.014244062603549622,0.9996434917291331,66.48315974663323,4.084025016184345,401.633821392134,-105.83851610253683,-6.03387451171875,4761.76025390625,True
1599387782.4640677,0.0,10,0.5,0.5,-12.68637163543701,-0.15025,-0.03,-0.2505,0.43640313774464323,10,1,100,0.2721994997545607,-10,-1,-100,18984.823031070526,-0.022811541109375517,0.0168202785001884,0.9995982752202965,68.68868109952238,4.224228283286755,418.06597617269176,-106.5661871417036,-12.811492919921875,4761.76025390625,True
1599387782.5029314,0.0,10,0.5,0.5,-13.566497138977052,-0.15025,-0.03,-0.2505,0.2559695667048436,10,1,100,0.2482625322267048,-10,-1,-100,18982.68806980364,-0.022798796794844152,0.017513896992760052,0.9995866537108399,69.23452546482676,4.259249210810354,422.17151199574306,-106.74805907617124,-14.689056396484375,4761.76025390625,True
1599387782.5408576,0.0,10,0.5,0.5,-11.53237700653076,-0.15025,-0.03,-0.2505,0.42499883126711746,10,1,100,0.22172743999022976,-10,-1,-100,18976.261365483515,-0.02254317960875332,0.019672367606659923,0.9995523012858686,71.00470289535389,4.37314374495166,435.3746418310921,-107.29355201024029,-20.761627197265625,4761.76025390625,True
1599387782.5787625,0.0,10,0.5,0.5,-12.971600547790526,-0.15025,-0.03,-0.2505,0.21021141382268752,10,1,100,0.247477925181014,-10,-1,-100,18976.261365483515,-0.02254317960875332,0.019672367606659923,0.9995523012858686,71.00470289535389,4.37314374495166,435.3746418310921,-107.29355201024029,-20.761627197265625,4761.76025390625,True
1599387782.618621,0.0,10,0.5,0.5,-10.191761566162109,-0.15025,-0.03,-0.2505,0.46045511879400514,10,1,100,0.19213166773304868,-10,-1,-100,18969.801939272787,-0.02203831575393817,0.021937677252348655,0.9995164085474043,72.81536682976441,4.4902959676015035,448.9447599803087,-107.83884956426232,-27.49371337890625,4761.76025390625,True
1599387782.6575186,0.0,10,0.5,0.5,-10.822744369506834,-0.15025,-0.03,-0.2505,0.31807524862029957,10,1,100,0.21354433929964106,-10,-1,-100,18967.641527685453,-0.02177316937315134,0.022691631858738345,0.9995053871485815,73.38819530212923,4.527542084396986,453.30478038677603,-108.02057104398375,-29.88458251953125,4761.76025390625,True
1599387782.6934218,0.0,10,0.5,0.5,-9.31894334411621,-0.15025,-0.03,-0.2505,0.4175690108944701,10,1,100,0.17849867688041982,-10,-1,-100,18963.309803018696,-0.021213277093192984,0.024270564286189133,0.9994803332653411,74.41681980934058,4.594807934116613,461.33670835699957,-108.38395278418913,-34.88531494140625,4761.76025390625,True
1599387782.7333152,0.0,10,0.5,0.5,-9.418223731994628,-0.15025,-0.03,-0.2505,0.34258159213663975,10,1,100,0.1924494427584682,-10,-1,-100,18961.13849037187,-0.020831729970812795,0.025012661481533645,0.9994700624791285,74.86311092273822,4.624187622275845,464.9469588969556,-108.56561567996515,-37.496368408203125,4761.76025390625,True
1599387782.7712138,0.0,10,0.5,0.5,-5.485718933105467,-0.15025,-0.03,-0.2505,0.5943751198884213,10,1,100,0.031068358459399925,-10,-1,-100,18952.41691427515,-0.019019023496574607,0.027964991567610443,0.9994279543778332,76.04023026819995,4.703192071636176,475.68175246807664,-109.29212446917641,-48.67352294921875,4761.76025390625,True
1599387782.8086264,0.0,10,0.5,0.5,-5.73277236175537,-0.15025,-0.03,-0.2505,0.4556647594280743,10,1,100,0.08974131382617599,-10,-1,-100,18948.034333000192,-0.01790752848023546,0.029374398783759043,0.9994080573618678,76.17516058899847,4.713800842914665,478.24063712353035,-109.65532899301701,-54.702362060546875,4761.76025390625,True
1599387782.8485203,0.0,10,0.5,0.5,-7.096991096496581,-0.15025,-0.03,-0.2505,0.3162370714312352,10,1,100,0.2004232589313178,-10,-1,-100,18948.034333000192,-0.01790752848023546,0.029374398783759043,0.9994080573618678,76.17516058899847,4.713800842914665,478.24063712353035,-109.65532899301701,-54.702362060546875,4761.76025390625,True
1599387782.8894122,0.0,10,0.5,0.5,-4.436655456542968,-0.15025,-0.03,-0.2505,0.447701761650768,10,1,100,0.06289411198099794,-10,-1,-100,18943.63722359971,-0.016661721701259045,0.030558119494587914,0.9993941106304881,75.94029046728596,4.700873648561989,478.4769815579934,-110.01853384750837,-61.02716064453125,4761.76025390625,True
1599387782.9283059,0.0,10,0.5,0.5,-3.2298350906372066,-0.15025,-0.03,-0.2505,0.4554793930885407,10,1,100,0.03841243676202016,-10,-1,-100,18939.225585060427,-0.015312188559374855,0.031693076587955886,0.9993803509064566,75.28278689788857,4.661198890515259,476.0330280324118,-110.38176794252855,-67.64517211914062,4761.76025390625,True
1599387782.9672022,0.0,10,0.5,0.5,-1.9770785675048828,-0.15025,-0.03,-0.2505,0.4563165687343562,10,1,100,0.010179798290851166,-10,-1,-100,18934.79941567569,-0.013835253527059853,0.03272153853417846,0.9993687440958909,74.15775595701905,4.592183176993209,470.59634817958994,-110.7450617217592,-74.5570068359375,4761.76025390625,True
1599387783.0060987,0.0,10,0.5,0.5,2.347494003295898,-0.15025,-0.03,-0.2505,0.5145534023993675,10,1,100,-0.18066787405450557,-10,-1,-100,18925.903469034238,-0.010765522772799057,0.03417406681776498,0.9993579121999101,70.36430066280042,4.35867207064832,449.7188657434417,-111.4719444880687,-89.26593017578125,4761.76025390625,True
1599387783.0439968,0.0,10,0.5,0.5,-1.151774642944336,-0.15025,-0.03,-0.2505,0.37052421299725746,10,1,100,0.12517792207346012,-10,-1,-100,18925.903469034238,-0.010765522772799057,0.03417406681776498,0.9993579121999101,70.36430066280042,4.35867207064832,449.7188657434417,-111.4719444880687,-89.26593017578125,4761.76025390625,True
1599387783.0838912,0.0,10,0.5,0.5,5.27217396736145,-0.15025,-0.03,-0.2505,0.45739028969183754,10,1,100,-0.20800706545610445,-10,-1,-100,18916.94934685179,-0.007746575292166972,0.03495331984684386,0.9993589225112902,66.55974051015939,4.126894652615642,428.43534710215,-112.1993156974255,-104.8512191772461,4761.76025390625,True
1599387783.122787,0.0,10,0.5,0.5,1.5779567852020264,-0.15025,-0.03,-0.2505,0.38053326234001444,10,1,100,0.09254101242700144,-10,-1,-100,18916.94934685179,-0.007746575292166972,0.03495331984684386,0.9993589225112902,66.55974051015939,4.126894652615642,428.43534710215,-112.1993156974255,-104.8512191772461,4761.76025390625,True
1599387783.1626787,0.0,10,0.5,0.5,4.922089433670044,-0.15025,-0.03,-0.2505,0.39732289015891087,10,1,100,-0.07842508400948967,-10,-1,-100,18912.450465599075,-0.00620423364699764,0.035096915864865366,0.9993646551592806,68.93147234771689,4.277325726104825,445.27062030155884,-112.5629111958229,-112.69168853759766,4761.76025390625,True
1599387783.2015748,0.0,10,0.5,0.5,6.273716445922851,-0.15025,-0.03,-0.2505,0.3840645358537218,10,1,100,-0.0666577867633138,-10,-1,-100,18907.937045462546,-0.004920730117126734,0.035100443638203874,0.9993716752397557,71.07053290977677,4.413964990360457,460.70221078084256,-112.92635013428932,-120.48609924316406,4761.76025390625,True
1599387783.241469,0.0,10,0.5,0.5,9.006685264587402,-0.15025,-0.03,-0.2505,0.3530076257630481,10,1,100,-0.14991152407331992,-10,-1,-100,18901.139666356845,-0.0030088627493014084,0.03481610966327417,0.9993892060918363,73.49561199959822,4.570410916013606,478.91936319284235,-113.47126509974035,-131.68539428710938,4761.76025390625,True
1599387783.2813632,0.0,10,0.5,0.5,7.869709568023682,-0.15025,-0.03,-0.2505,0.3666847598135916,10,1,100,-0.0209103884068289,-10,-1,-100,18898.866609176504,-0.0024570833443655162,0.03467701480390709,0.9993955510135756,74.05527509652005,4.606923252226785,483.40368500427235,-113.65285333674697,-135.2724151611328,4761.76025390625,True
1599387783.3232496,0.0,10,0.5,0.5,9.97993339920044,-0.15025,-0.03,-0.2505,0.34159194591416864,10,1,100,-0.08039501913543112,-10,-1,-100,18894.309600877576,-0.0014276096408518608,0.03431870399147925,0.9994099201464126,74.7684243086426,4.654202695991038,489.7490758937856,-114.01598446741302,-142.22447204589844,4761.76025390625,True
1599387783.3621464,0.0,10,0.5,0.5,11.129000591278077,-0.15025,-0.03,-0.2505,0.3340040486252789,10,1,100,-0.07544949749159555,-10,-1,-100,18889.738068119623,-0.0005493060879820639,0.03392159907082447,0.9994243460008866,74.98767671717337,4.670024881585711,492.8810654305364,-114.37908649282888,-148.87904357910156,4761.76025390625,True
1599387783.4020395,0.0,10,0.5,0.5,12.23300852203369,-0.15025,-0.03,-0.2505,0.31858711537324613,10,1,100,-0.07178186463622341,-10,-1,-100,18885.152011239436,0.00020373143645157046,0.03341934969472287,0.9994413967609524,74.77675947368392,4.658393455937127,493.1881114789164,-114.74219224603463,-155.23715209960938,4761.76025390625,True
1599387783.4389408,0.0,10,0.5,0.5,14.436368370056153,-0.15025,-0.03,-0.2505,0.28499339061235207,10,1,100,-0.0903221709970916,-10,-1,-100,18878.245691042277,0.00104688719448163,0.03265804796146151,0.9994660354061808,73.78858482874575,4.598234691763958,489.1838250859972,-115.28691607335148,-164.2156982421875,4761.76025390625,True
1599387783.4788902,0.0,10,0.5,0.5,12.41209186553955,-0.15025,-0.03,-0.2505,0.36097196205285775,10,1,100,-0.007187836190813704,-10,-1,-100,18878.245691042277,0.00104688719448163,0.03265804796146151,0.9994660354061808,73.78858482874575,4.598234691763958,489.1838250859972,-115.28691607335148,-164.2156982421875,4761.76025390625,True
1599387783.5187304,0.0,10,0.5,0.5,14.839915672302245,-0.15025,-0.03,-0.2505,0.3020532723211635,10,1,100,-0.0506607003145767,-10,-1,-100,18873.623317853897,0.0014341009933461586,0.03212451012016009,0.9994828458777472,72.77479723908368,4.535772722288662,484.12047352719964,-115.65013653885384,-169.82949829101562,4761.76025390625,True
1599387783.5616157,0.0,10,0.5,0.5,15.758935493469238,-0.15025,-0.03,-0.2505,0.29788374940563245,10,1,100,-0.04165464682653505,-10,-1,-100,18868.986413617036,0.0016958942548903394,0.031604142610405506,0.9994990255685783,71.54690099362541,4.460044938209682,477.5857133835612,-116.01342850377749,-175.1453857421875,4761.76025390625,True
1599387783.943122,0.0,10,0.5,0.5,-126.68331604003907,-0.15025,-0.03,-0.2505,0.2623270686801208,10,1,100,-0.027806818296554726,-10,-1,-100,18862.003804807202,0.0018008168442926026,0.030811013934264376,0.9995236057637837,69.42420166103804,4.329475446613341,465.8000915647982,-116.55851378918022,177.4384765625,4761.76025390625,True
1599387783.9790258,0.0,10,0.5,0.5,-38.32387244796753,-0.15025,-0.03,-0.2505,0.31412989538218333,10,1,100,-0.015398080486921947,-10,-1,-100,18859.66899988253,0.0017772838118785264,0.03056482213479477,0.9995312065714208,68.66685930470828,4.283048473287783,461.505820255963,-116.74024925574932,175.1154327392578,4761.76025390625,True
1599387784.0169241,0.0,10,0.5,0.5,-38.053696838378904,-0.15025,-0.03,-0.2505,0.28550226713073706,10,1,100,-0.0018900859001634955,-10,-1,-100,18854.988483946305,0.0016287391529304894,0.030084625048926054,0.9995460282270333,67.11117630873444,4.187980547199655,452.58980324837114,-117.1037800406863,170.69247436523438,4761.76025390625,True
1599387784.0648365,0.0,10,0.5,0.5,-38.305604995727535,-0.15025,-0.03,-0.2505,0.2833875983175387,10,1,100,0.011403855306261718,-10,-1,-100,18850.293427439756,0.0013691301588308665,0.029633032881429947,0.9995599075817598,68.32126187477648,4.266045218295439,462.3186505592926,-117.46727524849221,166.26593017578125,4761.76025390625,True
1599387784.1027317,0.0,10,0.5,0.5,-36.480303592681885,-0.15025,-0.03,-0.2505,0.24294879505480985,10,1,100,0.08449242464987756,-10,-1,-100,18840.85970850871,0.00046613795216226287,0.028859128764145085,0.9995833799150443,71.4072901126297,4.465432202034483,486.4787645342346,-118.19395207412977,156.6349334716797,4761.76025390625,True
1599387784.1426249,0.0,10,0.5,0.5,-37.70580902099609,-0.15025,-0.03,-0.2505,0.28499793716553784,10,1,100,0.062242548875873153,-10,-1,-100,18836.12105492584,-0.0001534155869001952,0.028542446740626084,0.9995925695990923,72.94546963782362,4.565457703112674,498.6304208025332,-118.55712566193183,151.38577270507812,4761.76025390625,True
1599387784.1788232,0.0,10,0.5,0.5,-39.940592567443844,-0.15025,-0.03,-0.2505,0.3161784492220283,10,1,100,0.0003229096719625209,-10,-1,-100,18836.12105492584,-0.0001534155869001952,0.028542446740626084,0.9995925695990923,72.94546963782362,4.565457703112674,498.6304208025332,-118.55712566193183,151.38577270507812,4761.76025390625,True
1599387784.2177165,0.0,10,0.5,0.5,-38.66665763473511,-0.15025,-0.03,-0.2505,0.2833109429405742,10,1,100,0.08069187783270444,-10,-1,-100,18831.367877659737,-0.0008829513858329564,0.028247392684631806,0.9996005728306535,74.50296248319805,4.666882638894022,510.9834648597581,-118.92018740558309,145.8443145751953,4761.76025390625,True
1599387784.2596042,0.0,10,0.5,0.5,-38.64747454833985,-0.15025,-0.03,-0.2505,0.2886964782511349,10,1,100,0.10092618339882145,-10,-1,-100,18826.600180842215,-0.0017283595822089716,0.028032130823166496,0.9996055284034134,75.88795284102159,4.757452651117562,522.2192241814244,-119.28314376957016,140.01150512695312,4761.76025390625,True
1599387784.2975037,0.0,10,0.5,0.5,-38.58394450759888,-0.15025,-0.03,-0.2505,0.2955322275833643,10,1,100,0.11969194408782638,-10,-1,-100,18821.817968669464,-0.002664635348291253,0.027902301742397384,0.9996071034541204,77.00939453137973,4.831188530292063,531.6977596728186,-119.64601232677165,133.88755798339844,4761.76025390625,True
1599387784.335928,0.0,10,0.5,0.5,-37.14489129638672,-0.15025,-0.03,-0.2505,0.29753363931371446,10,1,100,0.20409292681161048,-10,-1,-100,18814.61743961298,-0.004279112678943017,0.027805835267308655,0.999604184024741,78.05798159586007,4.900972065157552,541.616404637722,-120.19020330197782,124.15530395507812,4761.76025390625,True
1599387784.3728297,0.0,10,0.5,0.5,-38.0646921005249,-0.15025,-0.03,-0.2505,0.3086076648259091,10,1,100,0.10775950099047141,-10,-1,-100,18812.210008092225,-0.004865533717958597,0.02782154341158154,0.9996010645771827,78.20691301336377,4.911289424894578,543.5455090638247,-120.37158540015089,120.76596069335938,4761.76025390625,True
1599387784.4097307,0.0,10,0.5,0.5,-37.36329376602173,-0.15025,-0.03,-0.2505,0.31089664973548403,10,1,100,0.1172054232679384,-10,-1,-100,18809.79894856678,-0.005478476849104427,0.027859126386210492,0.9995968464178,78.24189502798794,4.914272603814035,544.6857032492562,-120.5529671738348,117.30400085449219,4761.76025390625,True
1599387784.4486268,0.0,10,0.5,0.5,-35.20832188415527,-0.15025,-0.03,-0.2505,0.3224329567159401,10,1,100,0.20073703026737222,-10,-1,-100,18804.965946322307,-0.006788615017411821,0.02800019142538888,0.9995848658249519,77.93910693786177,4.8963593950410305,544.3688124510849,-120.91574847260434,110.16232299804688,4761.76025390625,True
1599387784.4895194,0.0,10,0.5,0.5,-33.85088756942749,-0.15025,-0.03,-0.2505,0.3367203800921851,10,1,100,0.22155757211876337,-10,-1,-100,18800.118431325885,-0.00816151123708915,0.028259802438476953,0.9995672930325726,77.0904961468757,4.843758247100877,540.2195183968581,-121.27858525047766,102.73097229003906,4761.76025390625,True
1599387784.5274155,0.0,10,0.5,0.5,-29.246486858367916,-0.15025,-0.03,-0.2505,0.4067727175256674,10,1,100,0.4169234049369384,-10,-1,-100,18790.379847658332,-0.011177808417698085,0.02913319672370292,0.9995130381578998,73.54361678237612,4.622827370967183,518.7770880342935,-122.0045738940502,86.99986267089844,4761.76025390625,True
1599387784.5812724,0.0,10,0.5,0.5,-29.668235061645504,-0.15025,-0.03,-0.2505,0.3914873323427444,10,1,100,0.29383927231729956,-10,-1,-100,18785.488768634736,-0.012790927928226947,0.029787696435897158,0.9994744045265881,70.78014109563713,4.4513098426174125,500.9333167680463,-122.36778995218474,78.70108032226562,4761.76025390625,True
1599387784.6211667,0.0,10,0.5,0.5,-29.822952201843258,-0.15025,-0.03,-0.2505,0.37139374798054037,10,1,100,0.22900025122192072,-10,-1,-100,18783.037781182094,-0.013656465916621263,0.030198895180330726,0.9994506129211965,72.44443787444395,4.557586311432718,513.5569827665381,-122.54936636556786,74.44387817382812,4761.76025390625,True
1599387784.6600606,0.0,10,0.5,0.5,-28.940262004852293,-0.15025,-0.03,-0.2505,0.38060668760191946,10,1,100,0.23968434887743267,-10,-1,-100,18780.583163241623,-0.014528834507910942,0.030654692124104963,0.9994244357722188,74.05732060546899,4.660984026199606,525.8542351391994,-122.73088945657169,70.11470031738281,4761.76025390625,True
1599387784.69796,0.0,10,0.5,0.5,-26.25852115249634,-0.15025,-0.03,-0.2505,0.4480443007026693,10,1,100,0.343794210501692,-10,-1,-100,18775.663040692918,-0.016256713355735097,0.03167973804545114,0.9993658556646015,77.30556988331934,4.870039172655487,550.7199254132208,-123.09376728379482,61.24006652832031,4761.76025390625,True
1599387784.7398474,0.0,10,0.5,0.5,-24.59186738586426,-0.15025,-0.03,-0.2505,0.478896751531388,10,1,100,0.3652303850991556,-10,-1,-100,18770.72840902675,-0.018010030188272685,0.03288864076666052,0.9992967407738,80.13964795020348,5.053590591063887,572.7731387253156,-123.45643911347238,52.077728271484375,4761.76025390625,True
1599387784.785725,0.0,10,0.5,0.5,-22.88392202377319,-0.15025,-0.03,-0.2505,0.5141320523876867,10,1,100,0.38335432376923795,-10,-1,-100,18765.779275996843,-0.019756235008026396,0.034303343425090525,0.9992161787161815,82.50789954046739,5.207576895307274,591.6149613796393,-123.81893122879245,42.62825012207031,4761.76025390625,True
1599387784.8256185,0.0,10,0.5,0.5,-21.114934776306153,-0.15025,-0.03,-0.2505,0.5553309649592663,10,1,100,0.39677227161745665,-10,-1,-100,18760.815647258423,-0.02145213827797715,0.0359580797743017,0.9991230265899428,84.03488033528393,5.307582472701327,604.5152002579176,-124.18130446136675,32.892333984375,4761.76025390625,True
1599387784.8665082,0.0,10,0.5,0.5,-19.28394770812988,-0.15025,-0.03,-0.2505,0.5946006766661996,10,1,100,0.40428040033636636,-10,-1,-100,18755.83752497693,-0.023047602728623495,0.03781202024056754,0.9990190484339077,84.58626035328855,5.34477861187947,610.4508471851091,-124.54363484899152,22.86962890625,4761.76025390625,True
1599387784.9064023,0.0,10,0.5,0.5,-17.40138039398193,-0.15025,-0.03,-0.2505,0.6371198177661419,10,1,100,0.4069770352914872,-10,-1,-100,18750.844908292056,-0.024507758921792897,0.03987503846643125,0.9989040750041676,84.0464059690335,5.312112051219805,608.5216736429045,-124.90600514481723,12.560516357421875,4761.76025390625,True
1599387784.9513159,0.0,10,0.5,0.5,-15.467147071838378,-0.15025,-0.03,-0.2505,0.6800179730901672,10,1,100,0.40319389050073673,-10,-1,-100,18745.837793787243,-0.025785921192317617,0.04212993350559126,0.9987793324709309,82.32798228636234,5.204880565483537,598.0193391800457,-125.2684950182919,1.964996337890625,4761.76025390625,True
1599387784.99317,0.0,10,0.5,0.5,-9.029137283325193,-0.15025,-0.03,-0.2505,0.9999362715319091,10,1,100,0.47941553121830927,-10,-1,-100,18735.780041409656,-0.02762753079679564,0.04707637103904175,0.9985091561081784,77.33804879174942,4.8962432131311395,565.4437000647666,-125.99401843909152,-20.08636474609375,4761.76025390625,True
1599387785.0330625,0.0,10,0.5,0.5,-14.256640899658201,-0.15025,-0.03,-0.2505,0.5070213856471746,10,1,100,0.29673823105736374,-10,-1,-100,18735.780041409656,-0.02762753079679564,0.04707637103904175,0.9985091561081784,77.33804879174942,4.8962432131311395,565.4437000647666,-125.99401843909152,-20.08636474609375,4761.76025390625,True
1599387785.072957,0.0,10,0.5,0.5,-4.6746301956176755,-0.15025,-0.03,-0.2505,1.0718517004825068,10,1,100,0.35951759094993435,-10,-1,-100,18725.66426544753,-0.02818555128229158,0.05219584892312776,0.9982390335255916,85.04350685471523,5.399116498449542,625.8044010755077,-126.71896681109347,-43.288909912109375,4761.76025390625,True
1599387785.1168394,0.0,10,0.5,0.5,-10.146656929016114,-0.15025,-0.03,-0.2505,0.5620580277538082,10,1,100,0.3050812140777786,-10,-1,-100,18725.66426544753,-0.02818555128229158,0.05219584892312776,0.9982390335255916,85.04350685471523,5.399116498449542,625.8044010755077,-126.71896681109347,-43.288909912109375,4761.76025390625,True
1599387785.1597273,0.0,10,0.5,0.5,-0.07157635498046933,-0.15025,-0.03,-0.2505,1.0923126218699433,10,1,100,0.2457159839005336,-10,-1,-100,18715.490539038437,-0.0276350229734743,0.056997694223385645,0.9979917676807123,88.64443088582048,5.640856411900134,656.4675134333222,-127.44308324364256,-67.64697265625,4761.76025390625,True
1599387785.1996214,0.0,10,0.5,0.5,-5.814096969604492,-0.15025,-0.03,-0.2505,0.6145389971898271,10,1,100,0.30173131406078163,-10,-1,-100,18715.490539038437,-0.0276350229734743,0.056997694223385645,0.9979917676807123,88.64443088582048,5.640856411900134,656.4675134333222,-127.44308324364256,-67.64697265625,4761.76025390625,True
1599387785.2908893,0.0,10,0.5,0.5,-0.42889019775390613,-0.15025,-0.03,-0.2505,0.861675823836362,10,1,100,0.2337354576697906,-10,-1,-100,18710.381954689627,-0.027009716289951247,0.0592237614194466,0.9978792618895679,87.93833501670866,5.599786175539248,653.311715476551,-127.80511678000882,-80.25927734375,4761.76025390625,True
1599387785.3347697,0.0,10,0.5,0.5,7.05348299407959,-0.15025,-0.03,-0.2505,1.0168900863694206,10,1,100,0.10164125146958353,-10,-1,-100,18700.12131859688,-0.02523534690491752,0.06263734700103424,0.9977172645731156,81.13965279081427,5.174030385185093,606.667229322241,-128.5297731426821,-105.96682739257812,4761.76025390625,True
1599387785.3756597,0.0,10,0.5,0.5,1.0002510757446288,-0.15025,-0.03,-0.2505,0.6780140608867038,10,1,100,0.27929696439058543,-10,-1,-100,18700.12131859688,-0.02523534690491752,0.06263734700103424,0.9977172645731156,81.13965279081427,5.174030385185093,606.667229322241,-128.5297731426821,-105.96682739257812,4761.76025390625,True
1599387785.4185457,0.0,10,0.5,0.5,6.6420812530517575,-0.15025,-0.03,-0.2505,0.8154882773106711,10,1,100,0.1780371227249422,-10,-1,-100,18694.96924721438,-0.024314141446154288,0.06386641959712976,0.9976622188764991,79.2124422132804,5.05765254358258,594.1505785601863,-128.89243648130906,-119.15771484375,4761.76025390625,True
1599387785.462105,0.0,10,0.5,0.5,8.96218659210205,-0.15025,-0.03,-0.2505,0.8000809809314897,10,1,100,0.1840551067812508,-10,-1,-100,18689.802678533713,-0.023532728865741575,0.06482393154823173,0.9976192001814927,84.06881689508722,5.376473271586115,632.5748701713164,-129.25477841834274,-132.28573608398438,4761.76025390625,True
1599387785.5029948,0.0,10,0.5,0.5,11.166294384002686,-0.15025,-0.03,-0.2505,0.7857098346183,10,1,100,0.17420623489627624,-10,-1,-100,18684.621625158703,-0.022736541140894843,0.06554761602774162,0.9975903767228453,87.4763146934419,5.603122744512691,660.2813476769338,-129.61682597049744,-145.1518096923828,4761.76025390625,True
1599387785.5448833,0.0,10,0.5,0.5,18.275430347442626,-0.15025,-0.03,-0.2505,0.8022372816729193,10,1,100,0.16868203795409595,-10,-1,-100,18674.216091977665,-0.021966960500337904,0.06633896848689379,0.9975553086954485,89.3456630918611,5.734836209746706,678.6134182809249,-130.3405519998381,-169.99745178222656,4761.76025390625,True
1599387785.5877683,0.0,10,0.5,0.5,12.431722629547119,-0.15025,-0.03,-0.2505,0.724516347714079,10,1,100,0.24501824293159455,-10,-1,-100,18674.216091977665,-0.021966960500337904,0.06633896848689379,0.9975553086954485,89.3456630918611,5.734836209746706,678.6134182809249,-130.3405519998381,-169.99745178222656,4761.76025390625,True
