Timestamp,Input Throttle,horizon,dT,dt,Input Roll,Roll P,Roll I,Roll D,Input Pitch,Pitch P,Pitch I,Pitch D,Input Yaw,Yaw P,Yaw I,Yaw D,Altitude,Direction X,Direction Y,Direction Z,Drag X,Drag Y,Drag Z,Vertical Velocity,Roll,Mass,Has Fuel
1599386225.2461607,0.0,10,0.5,0.5,-5.634831207275391,-0.1005,-0.001,-0.2505,0.0007566252347634436,10,1,100,0.5036268856071346,-10,-1,-100,19349.720879986533,-0.04889212983742076,-0.00016747239992347888,0.998804050649053,61.076204072446515,3.686763908255719,233.74079948442645,-68.66433310458731,-33.923736572265625,4761.76025390625,True
1599386225.2710946,0.0,10,0.5,0.5,-5.640854345703126,-0.1005,-0.001,-0.2505,-0.0007386750117059307,10,1,100,0.49960054970547446,-10,-1,-100,19348.343944079126,-0.04894476654967098,-0.00015881061603692246,0.9988014740710922,61.16613489660683,3.6928658041957854,234.73059100526206,-68.84678964979635,-33.9249267578125,4761.76025390625,True
1599386225.3050032,0.0,10,0.5,0.5,-5.646320816040039,-0.1005,-0.001,-0.2505,-0.0006204509116051009,10,1,100,0.5052082770358517,-10,-1,-100,19346.96335915802,-0.04899910220331128,-0.00014971712921546643,0.9987988113569473,61.25632597732082,3.6989871573846833,235.7234595398025,-69.02924293419669,-33.926177978515625,4761.76025390625,True
1599386225.3393376,0.0,10,0.5,0.5,-5.598833242797852,-0.1005,-0.001,-0.2505,0.022980747231635398,10,1,100,0.5094645972783194,-10,-1,-100,19342.799710539286,-0.04904264743409461,7.324213022369403e-05,0.9987966826978579,61.531276141220765,3.7176364118945133,238.73153302580684,-69.57658174464343,-34.078338623046875,4761.76025390625,True
1599386225.3739953,0.0,10,0.5,0.5,-5.494152886962891,-0.1005,-0.001,-0.2505,0.028775209006527205,10,1,100,0.506235554810782,-10,-1,-100,19340.00570072781,-0.04900829485107085,0.0003285427075490166,0.9987983175273574,61.72880463079799,3.7309317340788213,240.8029502214319,-69.94145591643533,-34.5010986328125,4761.76025390625,True
1599386225.404913,0.0,10,0.5,0.5,-5.493313723754883,-0.1005,-0.001,-0.2505,0.02254214074156259,10,1,100,0.5086601634270049,-10,-1,-100,19338.603222936625,-0.048954554131332116,0.0005036712093382233,0.9988008800282043,61.83260373553797,3.7378773695201364,241.86171942589033,-70.123886945316,-34.821014404296875,4761.76025390625,True
1599386225.4399412,0.0,10,0.5,0.5,-5.441036349487305,-0.1005,-0.001,-0.2505,0.0284135834491698,10,1,100,0.5103442364466355,-10,-1,-100,19337.197096505435,-0.048876504546174156,0.0007157978072072602,0.9988045729455022,61.938981628561514,3.74497088048918,242.9329450866737,-70.30631376734219,-35.2139892578125,4761.76025390625,True
1599386225.4715476,0.0,10,0.5,0.5,-5.3813022583007815,-0.1005,-0.001,-0.2505,0.034542216535918296,10,1,100,0.5116595109098538,-10,-1,-100,19335.787321634823,-0.04877307423247238,0.0009637042898702735,0.9988094205122193,62.04713858821512,3.7521609664005684,244.01355638479347,-70.48873605955251,-35.68023681640625,4761.76025390625,True
1599386225.507573,0.0,10,0.5,0.5,-5.098981610107422,-0.1005,-0.001,-0.2505,0.0766127077135798,10,1,100,0.49525746715306274,-10,-1,-100,19332.95682701934,-0.04848559802747042,0.0015706567354609627,0.9988226468304261,62.264924530662334,3.7665840769184173,246.18786173934745,-70.8535668772612,-36.832794189453125,4761.76025390625,True
1599386225.5386176,0.0,10,0.5,0.5,-4.885462896728516,-0.1005,-0.001,-0.2505,0.09859108095301983,10,1,100,0.48456260538382934,-10,-1,-100,19330.111739657237,-0.04808295219045063,0.0023208072093242613,0.9988406497347551,62.47675126502518,3.7805619708466636,248.34819612779472,-71.21837909672712,-38.27880859375,4761.76025390625,True
1599386225.5725532,0.0,10,0.5,0.5,-4.960454458618164,-0.1005,-0.001,-0.2505,0.07075105318610272,10,1,100,0.5024724419222901,-10,-1,-100,19328.683723797207,-0.04783601544151824,0.002747561199310446,0.9988514236532553,62.57685251130635,3.7871582132355948,249.40873978447678,-71.40077821373502,-39.11187744140625,4761.76025390625,True
1599386225.6053443,0.0,10,0.5,0.5,-3.741300085449218,-0.1005,-0.001,-0.2505,0.24874295087801213,10,1,100,0.38219607832233393,-10,-1,-100,19322.935182900517,-0.04651906610466729,0.004750977502315941,0.9989061040465825,62.89560465796259,3.808232878620578,253.34439742281896,-72.13033076882128,-43.178314208984375,4761.76025390625,True
1599386225.641173,0.0,10,0.5,0.5,-4.759017156982422,-0.1005,-0.001,-0.2505,0.04889229938929788,10,1,100,0.513648441962929,-10,-1,-100,19322.935182900517,-0.04651906610466729,0.004750977502315941,0.9989061040465825,62.89560465796259,3.808232878620578,253.34439742281896,-72.13033076882128,-43.178314208984375,4761.76025390625,True
1599386225.6714752,0.0,10,0.5,0.5,-4.336887658691406,-0.1005,-0.001,-0.2505,0.11314346472205583,10,1,100,0.46791869313155243,-10,-1,-100,19321.488928682636,-0.04610559569356263,0.005330623828403258,0.9989223485813807,62.94388315371999,3.811487622334011,254.20599511151542,-72.31270933301629,-44.378326416015625,4761.76025390625,True
1599386225.7054226,0.0,10,0.5,0.5,-3.716499658203126,-0.1005,-0.001,-0.2505,0.18599754956747178,10,1,100,0.4049269311640544,-10,-1,-100,19318.585477710934,-0.045159731167163444,0.0065151054582608,0.9989585337148771,62.98566800059395,3.8145187968990886,255.71032531751777,-72.67745784146311,-46.999298095703125,4761.76025390625,True
1599386225.7394493,0.0,10,0.5,0.5,-3.349042288208008,-0.1005,-0.001,-0.2505,0.21549098109212855,10,1,100,0.3795504179539435,-10,-1,-100,19315.667436939315,-0.04407265744460309,0.00785440489676389,0.9989974520435417,62.935256424968266,3.8117309719327426,256.84083167404395,-73.04219894849422,-49.91314697265625,4761.76025390625,True
1599386225.7744334,0.0,10,0.5,0.5,-3.527290139770508,-0.1005,-0.001,-0.2505,0.15646075510039975,10,1,100,0.42109780246843553,-10,-1,-100,19314.20294543449,-0.04346655018939518,0.008528628937580595,0.999018479059861,62.86823277805835,3.807710851892041,257.2344698566452,-73.22456855740728,-51.480560302734375,4761.76025390625,True
1599386225.805379,0.0,10,0.5,0.5,-2.7405524139404296,-0.1005,-0.001,-0.2505,0.24207186978562817,10,1,100,0.3349357898528708,-10,-1,-100,19311.263020223123,-0.04213717071029811,0.009912740170797518,0.9990626589092584,62.634823287207155,3.79346501156293,257.60950447224656,-73.58931045389625,-54.835968017578125,4761.76025390625,True
1599386225.8394217,0.0,10,0.5,0.5,-2.2980828857421876,-0.1005,-0.001,-0.2505,0.25931674488283707,10,1,100,0.3037502882453601,-10,-1,-100,19308.30850496993,-0.04065117199061628,0.01131965921471396,0.9991092770718586,62.24609429279386,3.7695745306202344,257.33359785269266,-73.95406284437024,-58.48577880859375,4761.76025390625,True
1599386226.0592647,0.0,10,0.5,0.5,-2.5310110473632816,-0.1005,-0.001,-0.2505,0.1998538933218816,10,1,100,0.36297724827230304,-10,-1,-100,19306.825775939156,-0.0398458131784567,0.012049242420011808,0.9991331877829158,61.984652545593704,3.7534883167776507,256.9119036313476,-74.13644597914276,-60.4207763671875,4761.76025390625,True
1599386226.0832,0.0,10,0.5,0.5,-1.5774644226074217,-0.1005,-0.001,-0.2505,0.2846503499987909,10,1,100,0.252868656865622,-10,-1,-100,19303.84937413968,-0.0381201699173527,0.013474532726244767,0.9991823104985804,61.310089708119975,3.712010534026703,255.42100964423324,-74.50123240441663,-64.5120849609375,4761.76025390625,True
1599386226.1101193,0.0,10,0.5,0.5,-2.599797204589844,-0.1005,-0.001,-0.2505,0.14319401652818853,10,1,100,0.4244613984236053,-10,-1,-100,19303.84937413968,-0.0381201699173527,0.013474532726244767,0.9991823104985804,61.310089708119975,3.712010534026703,255.42100964423324,-74.50123240441663,-64.5120849609375,4761.76025390625,True
1599386226.144337,0.0,10,0.5,0.5,-0.24947297058105478,-0.1005,-0.001,-0.2505,0.37074050484560894,10,1,100,0.10948129993404909,-10,-1,-100,19299.357410246623,-0.03526434983670884,0.015535206660745017,0.9992572656651549,59.86587906725802,3.6234851639922323,251.3187630281794,-75.04848261943056,-71.20208740234375,4761.76025390625,True
1599386226.1943843,0.0,10,0.5,0.5,-1.9225162048339843,-0.1005,-0.001,-0.2505,0.1657515343114268,10,1,100,0.39393783637163937,-10,-1,-100,19299.357410246623,-0.03526434983670884,0.015535206660745017,0.9992572656651549,59.86587906725802,3.6234851639922323,251.3187630281794,-75.04848261943056,-71.20208740234375,4761.76025390625,True
1599386226.222309,0.0,10,0.5,0.5,0.6497672454833985,-0.1005,-0.001,-0.2505,0.3774641978925738,10,1,100,0.04617235894164862,-10,-1,-100,19294.832607022254,-0.03211270117448788,0.017450590345271497,0.9993319024827937,57.82079764889019,3.4987967567977076,244.58629262677988,-75.59584880352728,-78.52288818359375,4761.76025390625,True
1599386226.2482395,0.0,10,0.5,0.5,-0.2965640991210938,-0.1005,-0.001,-0.2505,0.2495073980097638,10,1,100,0.24098227725243937,-10,-1,-100,19293.317040159483,-0.031030426220742088,0.018018663255100015,0.9993560128518055,57.00247821160914,3.4490944129138192,241.73443997042511,-75.77833525481695,-81.04248046875,4761.76025390625,True
1599386226.2752097,0.0,10,0.5,0.5,-0.02113323364257813,-0.1005,-0.001,-0.2505,0.2602968985038192,10,1,100,0.21896019179716175,-10,-1,-100,19291.797823478817,-0.029858195696128714,0.018623939306382502,0.999380626705603,56.12394550660605,3.3958408012865804,238.60944858202672,-75.96083811155539,-83.61648559570312,4761.76025390625,True
1599386226.305274,0.0,10,0.5,0.5,1.1905180877685546,-0.1005,-0.001,-0.2505,0.3161290334571189,10,1,100,0.07832414991606362,-10,-1,-100,19288.748438218026,-0.027526393342554998,0.01967257757042494,0.9994274797909485,54.1489756723357,3.276484552494196,231.37284539578226,-76.32589548880355,-88.89633178710938,4761.76025390625,True
1599386226.3392844,0.0,10,0.5,0.5,0.8018480972290039,-0.1005,-0.001,-0.2505,0.266294995257088,10,1,100,0.17710550108567974,-10,-1,-100,19287.21826896642,-0.02631786782936426,0.020163975792827214,0.9994502408390036,53.07548223661203,3.2117909913223643,227.35469055439572,-76.50844982341015,-91.54740142822266,4761.76025390625,True
1599386226.3751361,0.0,10,0.5,0.5,2.01774588470459,-0.1005,-0.001,-0.2505,0.31621059221565667,10,1,100,0.02360581225327038,-10,-1,-100,19284.14697742206,-0.023836786831770096,0.021056439315927076,0.9994940890054685,53.210047539303105,3.2208924971190402,229.07176411534908,-76.87355752310913,-96.89408111572266,4761.76025390625,True
1599386226.4030619,0.0,10,0.5,0.5,1.6075489463806152,-0.1005,-0.001,-0.2505,0.2705263456605487,10,1,100,0.1352708281097903,-10,-1,-100,19282.605855652946,-0.022610948820240753,0.021444270098338773,0.9995143261971775,54.030863220713215,3.271260470858144,233.18449460072975,-77.0560799429224,-99.53083038330078,4761.76025390625,True
1599386226.4309852,0.0,10,0.5,0.5,2.73804701385498,-0.1005,-0.001,-0.2505,0.3087039796993015,10,1,100,-0.020933591711035482,-10,-1,-100,19279.512662508176,-0.02009060973965849,0.022136667721454346,0.9995530677970424,55.44529867026299,3.3585963279467914,240.47694735972354,-77.42106365303147,-104.62342834472656,4761.76025390625,True
1599386226.456941,0.0,10,0.5,0.5,3.9689780052185055,-0.1005,-0.001,-0.2505,0.3275817501420982,10,1,100,-0.18444467040485313,-10,-1,-100,19274.84550456924,-0.016329318551165085,0.02292986153286192,0.999603708879543,57.28546628180175,3.4731455959986324,250.29782351210557,-77.96839021057735,-111.75338745117188,4761.76025390625,True
1599386226.4828467,0.0,10,0.5,0.5,2.9701085670471192,-0.1005,-0.001,-0.2505,0.2708436572160291,10,1,100,0.0504554363807026,-10,-1,-100,19273.282488501398,-0.015062632106299354,0.023128423557657162,0.9996190239975268,57.81659048802602,3.506425711193854,253.2369253621684,-78.1507956065106,-113.98452758789062,4761.76025390625,True
1599386226.5138006,0.0,10,0.5,0.5,3.1728093040466305,-0.1005,-0.001,-0.2505,0.27083454086051384,10,1,100,0.040720678790317,-10,-1,-100,19271.715824774816,-0.013840966376263739,0.02330194868887823,0.9996326559477097,58.3164061228962,3.5378195558896057,256.049696137772,-78.33318386805536,-116.14214324951172,4761.76025390625,True
1599386226.53973,0.0,10,0.5,0.5,3.36751614151001,-0.1005,-0.001,-0.2505,0.27146443570961243,10,1,100,0.031041095154091286,-10,-1,-100,19270.145513547468,-0.012658975620264058,0.023460105708304094,0.9996446237420581,58.751156068536524,3.565262957481274,258.5865644172986,-78.51555653873281,-118.22598266601562,4761.76025390625,True
1599386226.5732665,0.0,10,0.5,0.5,4.2347390197753905,-0.1005,-0.001,-0.2505,0.2782351523951445,10,1,100,-0.12181065748156127,-10,-1,-100,19266.99394995882,-0.010211578500486124,0.023660490020874985,0.999667897292146,59.445865791218644,3.6094788505274273,262.9145781843436,-78.88026098443954,-122.17329406738281,4761.76025390625,True
1599386226.6031783,0.0,10,0.5,0.5,3.249793194580078,-0.1005,-0.001,-0.2505,0.2587003762095047,10,1,100,0.12096439277666793,-10,-1,-100,19266.99394995882,-0.010211578500486124,0.023660490020874985,0.999667897292146,59.445865791218644,3.6094788505274273,262.9145781843436,-78.88026098443954,-122.17329406738281,4761.76025390625,True
1599386226.6270895,0.0,10,0.5,0.5,4.5352408325195315,-0.1005,-0.001,-0.2505,0.27025036612437797,10,1,100,-0.14041873283954112,-10,-1,-100,19263.827799260733,-0.007851109008377013,0.02376186455423706,0.999686817898608,59.932048775500775,3.6408823850866296,266.345010528606,-79.24492054055528,-125.82605743408203,4761.76025390625,True
1599386226.6600285,0.0,10,0.5,0.5,4.22582942276001,-0.1005,-0.001,-0.2505,0.2642318745660075,10,1,100,-0.030235970505203186,-10,-1,-100,19262.239254557993,-0.006723677090245427,0.023796038853343388,0.999694223601035,60.10723948012448,3.652385285483683,267.76539590858033,-79.42723685685135,-127.54166412353516,4761.76025390625,True
1599386226.6869628,0.0,10,0.5,0.5,5.450716210174561,-0.1005,-0.001,-0.2505,0.25459285869527304,10,1,100,-0.28547112988707285,-10,-1,-100,19257.45174339041,-0.0033939767246011026,0.023736988435944812,0.9997124768162017,60.41438379762513,3.6732829317693585,271.06874656197647,-79.97414562015453,-132.2470245361328,4761.76025390625,True
1599386226.716866,0.0,10,0.5,0.5,4.275295046234131,-0.1005,-0.001,-0.2505,0.2607271722688912,10,1,100,0.045577209467795685,-10,-1,-100,19257.45174339041,-0.0033939767246011026,0.023736988435944812,0.9997124768162017,60.41438379762513,3.6732829317693585,271.06874656197647,-79.97414562015453,-132.2470245361328,4761.76025390625,True
1599386226.7418072,0.0,10,0.5,0.5,5.249712984466553,-0.1005,-0.001,-0.2505,0.24784911988232164,10,1,100,-0.1869332779357188,-10,-1,-100,19254.24183980259,-0.001295423778219205,0.02361846039541737,0.9997202059605403,60.4735634175424,3.6780784804094453,272.6256820617746,-80.33872744313074,-135.01527404785156,4761.76025390625,True
1599386226.7729847,0.0,10,0.5,0.5,5.005424625396729,-0.1005,-0.001,-0.2505,0.2545066581115333,10,1,100,-0.08691383782525795,-10,-1,-100,19252.631419502897,-0.00031058318685162024,0.02357060470714657,0.9997221264590594,60.47025932826853,3.678394220507238,273.2565452222449,-80.52101352059145,-136.28829956054688,4761.76025390625,True
1599386226.8069992,0.0,10,0.5,0.5,5.10969860458374,-0.1005,-0.001,-0.2505,0.2528825851881861,10,1,100,-0.09546837831756783,-10,-1,-100,19251.01735352876,0.0006490840380313213,0.023511933253824967,0.9997233455734539,60.450118269721386,3.677634897286073,273.8111598937204,-80.70329705186205,-137.487548828125,4761.76025390625,True
1599386226.8431785,0.0,10,0.5,0.5,5.575982711791992,-0.1005,-0.001,-0.2505,0.23500149824359534,10,1,100,-0.20991549462867573,-10,-1,-100,19247.778284510132,0.002548764344921981,0.02329584933806819,0.9997253658900188,60.371059170233096,3.6736182039218397,274.7429352375669,-81.06785851940573,-139.66578674316406,4761.76025390625,True
1599386226.873061,0.0,10,0.5,0.5,5.984922293090821,-0.1005,-0.001,-0.2505,0.21776370857055194,10,1,100,-0.309016056170907,-10,-1,-100,19242.89233913622,0.005162835419783605,0.022942851559780028,0.9997234471056153,60.18804660888412,3.6633789451714964,275.83993128110654,-81.61469126864196,-142.37930297851562,4761.76025390625,True
1599386226.907124,0.0,10,0.5,0.5,5.572888626098633,-0.1005,-0.001,-0.2505,0.23848569211144044,10,1,100,-0.13905720159024193,-10,-1,-100,19241.25639977085,0.005980206433542426,0.0228109785557635,0.9997219095270147,60.11865887145273,3.6593914633606146,276.1647468853359,-81.79696701388636,-143.13623046875,4761.76025390625,True
1599386226.9399981,0.0,10,0.5,0.5,5.625048197937012,-0.1005,-0.001,-0.2505,0.23882243663004038,10,1,100,-0.14467000397587,-10,-1,-100,19239.616814828478,0.006759576663252493,0.02269492760361312,0.9997195848758792,60.048272258378034,3.6553168419785877,276.48362041788073,-81.9792420001305,-143.81906127929688,4761.76025390625,True
1599386226.9759052,0.0,10,0.5,0.5,5.8573360389709475,-0.1005,-0.001,-0.2505,0.22494078006788176,10,1,100,-0.22994944637471637,-10,-1,-100,19236.326708497363,0.008230080270549675,0.022464199802866448,0.9997137717896843,59.91266289984971,3.647415554761628,277.141158256437,-82.34378963771728,-144.96304321289062,4761.76025390625,True
1599386227.0068483,0.0,10,0.5,0.5,5.734551489257813,-0.1005,-0.001,-0.2505,0.23216408995665208,10,1,100,-0.16207105927284088,-10,-1,-100,19234.67618712224,0.008936231160474796,0.022321324473040544,0.999710909336502,59.850976184572964,3.6438104349156046,277.496326883292,-82.52606215439788,-145.42469787597656,4761.76025390625,True
1599386227.040871,0.0,10,0.5,0.5,5.8664753433227546,-0.1005,-0.001,-0.2505,0.216618935444906,10,1,100,-0.23748903737551028,-10,-1,-100,19231.364208319108,0.010252595217808195,0.022051405190331035,0.99970426618097,59.74403171128264,3.6375610934320743,278.27964029869196,-82.89060368240308,-146.1262664794922,4761.76025390625,True
1599386227.0739474,0.0,10,0.5,0.5,5.866854447937012,-0.1005,-0.001,-0.2505,0.20490556698702916,10,1,100,-0.2982837853244338,-10,-1,-100,19226.368899707217,0.011989563367699308,0.021701071204837705,0.9996926096950075,59.63685539463922,3.631366569711587,279.6967060946759,-83.43740503966386,-146.62408447265625,4761.76025390625,True
1599386227.1099758,0.0,10,0.5,0.5,5.743311921691895,-0.1005,-0.001,-0.2505,0.23974722661730427,10,1,100,-0.1259154690499143,-10,-1,-100,19226.368899707217,0.011989563367699308,0.021701071204837705,0.9996926096950075,59.63685539463922,3.631366569711587,279.6967060946759,-83.43740503966386,-146.62408447265625,4761.76025390625,True
1599386227.1408896,0.0,10,0.5,0.5,5.6857258865356455,-0.1005,-0.001,-0.2505,0.20564923929263101,10,1,100,-0.28881799202995917,-10,-1,-100,19221.34078364796,0.013459313443377398,0.02139278907779732,0.9996805467033486,59.60612515742608,3.6298061237892645,281.4689685501008,-83.98418805793285,-146.4570770263672,4761.76025390625,True
1599386227.1739407,0.0,10,0.5,0.5,5.657022077941894,-0.1005,-0.001,-0.2505,0.2271188484988701,10,1,100,-0.1900093839325742,-10,-1,-100,19219.65745468356,0.013885544139103664,0.02130963735888644,0.9996764931814661,59.61400918714986,3.6303949166284677,282.1453040335537,-84.16644404647505,-146.25355529785156,4761.76025390625,True
1599386227.2069905,0.0,10,0.5,0.5,5.488431114196778,-0.1005,-0.001,-0.2505,0.2111563842647195,10,1,100,-0.2355167001897249,-10,-1,-100,19216.279861647286,0.014676423301379657,0.02109073722318353,0.9996698371974925,59.65610677460529,3.6331966148677566,283.62397604992077,-84.53094678210317,-145.62611389160156,4761.76025390625,True
1599386227.2432323,0.0,10,0.5,0.5,5.4967109497070314,-0.1005,-0.001,-0.2505,0.2263472478501255,10,1,100,-0.19404557043661905,-10,-1,-100,19214.58559763222,0.015009745371255418,0.02103151959999057,0.9996661356308941,59.688273815469,3.635289229781855,284.41712183614607,-84.71319327625072,-145.20098876953125,4761.76025390625,True
1599386227.273151,0.0,10,0.5,0.5,4.748068357849122,-0.1005,-0.001,-0.2505,0.20090185319175108,10,1,100,-0.2797907185066473,-10,-1,-100,19207.772093928186,0.016084058109108446,0.020747981317426088,0.9996553527821449,59.87877612616323,3.6475763309450846,287.8948893462086,-85.44214316592779,-142.7641143798828,4761.76025390625,True
1599386227.2990816,0.0,10,0.5,0.5,5.358399897766114,-0.1005,-0.001,-0.2505,0.2290609868195806,10,1,100,-0.17329189286593005,-10,-1,-100,19207.772093928186,0.016084058109108446,0.020747981317426088,0.9996553527821449,59.87877612616323,3.6475763309450846,287.8948893462086,-85.44214316592779,-142.7641143798828,4761.76025390625,True
1599386227.325012,0.0,10,0.5,0.5,5.079671231079102,-0.1005,-0.001,-0.2505,0.2214871949225689,10,1,100,-0.1956084921166284,-10,-1,-100,19206.05960644805,0.01627979630426156,0.020680688862440018,0.9996535786663632,59.93649228481752,3.651312965649154,288.8157564480514,-85.62437112859152,-141.97064208984375,4761.76025390625,True
1599386227.3579235,0.0,10,0.5,0.5,4.643311718750001,-0.1005,-0.001,-0.2505,0.216742845408184,10,1,100,-0.2091272536931928,-10,-1,-100,19202.62369807507,0.016573961982238806,0.02057787494014973,0.9996508664764708,60.05446172062304,3.6590201671358886,290.6738006606503,-85.9888153583266,-140.1621551513672,4761.76025390625,True
1599386227.3838542,0.0,10,0.5,0.5,4.357659025573731,-0.1005,-0.001,-0.2505,0.21406959191588446,10,1,100,-0.20083559210781052,-10,-1,-100,19199.173212425318,0.016760259887110617,0.020461445006546907,0.9996501502809672,60.16531492130997,3.66641852385722,292.50277154637024,-86.35324475897276,-138.05935668945312,4761.76025390625,True
1599386227.4127774,0.0,10,0.5,0.5,4.883553567504883,-0.1005,-0.001,-0.2505,0.2255886226563375,10,1,100,-0.18268287127257052,-10,-1,-100,19199.173212425318,0.016760259887110617,0.020461445006546907,0.9996501502809672,60.16531492130997,3.66641852385722,292.50277154637024,-86.35324475897276,-138.05935668945312,4761.76025390625,True
1599386227.4407027,0.0,10,0.5,0.5,4.0411668823242195,-0.1005,-0.001,-0.2505,0.21445429101140945,10,1,100,-0.19004583284765053,-10,-1,-100,19195.708149819286,0.016822858904593698,0.02036135074268237,0.9996511425563467,60.25295469953994,3.6725497312337403,294.223681277926,-86.71766087795885,-135.66183471679688,4761.76025390625,True
1599386227.476676,0.0,10,0.5,0.5,4.18115739593506,-0.1005,-0.001,-0.2505,0.2187722740782524,10,1,100,-0.1828840500716523,-10,-1,-100,19193.970152511145,0.016811602217559046,0.02031054802008147,0.9996523654100973,60.28275156432104,3.6748224021979796,295.0171518865415,-86.89986473502091,-134.35269165039062,4761.76025390625,True
1599386227.5076141,0.0,10,0.5,0.5,4.022583306884766,-0.1005,-0.001,-0.2505,0.2179674371840012,10,1,100,-0.1798914533785055,-10,-1,-100,19192.2285109855,0.016771503388427613,0.02025795529080455,0.9996541061394825,60.299976183138355,3.6763728828124083,295.7497752733442,-87.08206637474476,-132.97000122070312,4761.76025390625,True
1599386227.5405953,0.0,10,0.5,0.5,3.319651863098145,-0.1005,-0.001,-0.2505,0.21018006094873815,10,1,100,-0.16610025146331264,-10,-1,-100,19188.73429631116,0.016607770726272696,0.020140106463807126,0.9996592209663901,60.286332443560724,3.676680593791579,296.9798256459731,-87.44646515120172,-129.98416137695312,4761.76025390625,True
1599386227.5743458,0.0,10,0.5,0.5,2.9148972167968754,-0.1005,-0.001,-0.2505,0.20719824341656787,10,1,100,-0.1523283067855717,-10,-1,-100,19185.22550555761,0.016332270604193292,0.02000667411000445,0.9996664393326243,60.189982867595404,3.672133835089668,297.80104397635887,-87.81086228618422,-126.70442962646484,4761.76025390625,True
1599386227.6103914,0.0,10,0.5,0.5,3.1206113739013674,-0.1005,-0.001,-0.2505,0.21216490771076146,10,1,100,-0.1602743798887481,-10,-1,-100,19183.46564408182,0.01615382732824536,0.01993119737941052,0.9996708464458048,60.103365963883434,3.667584991097431,298.0199099457574,-87.99306228258817,-124.95442199707031,4761.76025390625,True
1599386227.6443007,0.0,10,0.5,0.5,2.2514413627624514,-0.1005,-0.001,-0.2505,0.20056792861366152,10,1,100,-0.13040464746921826,-10,-1,-100,19179.934989133733,0.015719999719734118,0.01975789761793151,0.9996812027294155,59.83754849532257,3.6529644591787886,297.9919685905349,-88.35747006462138,-121.23429107666016,4761.76025390625,True
1599386227.8992538,0.0,10,0.5,0.5,1.7725447105407715,-0.1005,-0.001,-0.2505,0.19462209297075966,10,1,100,-0.11564180709186547,-10,-1,-100,19176.389757381985,0.015191912250915715,0.019547138230055584,0.99969351062672,59.42582285206846,3.6295739206981454,297.2243098327054,-88.72189523999478,-117.22085571289062,4761.76025390625,True
1599386227.9271517,0.0,10,0.5,0.5,-0.3503490707397461,-0.1005,-0.001,-0.2505,0.15379501227910575,10,1,100,-0.0218483357267652,-10,-1,-100,19169.25555916445,0.013860421221153822,0.01898532054088979,0.9997236849887732,58.07276415642345,3.5505814310908117,292.9692421348588,-89.45083811083092,-108.31497192382812,4761.76025390625,True
1599386227.9612176,0.0,10,0.5,0.5,1.8776003799438477,-0.1005,-0.001,-0.2505,0.20982916874911933,10,1,100,-0.15470745483635884,-10,-1,-100,19169.25555916445,0.013860421221153822,0.01898532054088979,0.9997236849887732,58.07276415642345,3.5505814310908117,292.9692421348588,-89.45083811083092,-108.31497192382812,4761.76025390625,True
1599386228.0390112,0.0,10,0.5,0.5,1.0289101440429689,-0.1005,-0.001,-0.2505,0.19044207011402492,10,1,100,-0.11271476071416739,-10,-1,-100,19167.462897116784,0.013481305673375679,0.018810416120994076,0.999732175456355,57.68399334714232,3.5277076772939866,291.63305179562576,-89.6330986851935,-105.90552520751953,4761.76025390625,True
1599386228.0709279,0.0,10,0.5,0.5,-1.9268725814819336,-0.1005,-0.001,-0.2505,0.11307650800844823,10,1,100,0.034891938494787195,-10,-1,-100,19160.25579195714,0.011797813867342523,0.017949498751603354,0.9997692869269977,55.68639189567255,3.4085646170720825,283.9522439474327,-90.36226422550753,-95.77340698242188,4761.76025390625,True
1599386228.0998871,0.0,10,0.5,0.5,-0.33254643936157224,-0.1005,-0.001,-0.2505,0.1705295674772921,10,1,100,-0.0832198755394927,-10,-1,-100,19158.444900109083,0.011345668524306032,0.01769129354666353,0.999779122575773,55.09630482876826,3.3730113377511945,281.5425256581911,-90.54458825113632,-93.09559631347656,4761.76025390625,True
1599386228.1288059,0.0,10,0.5,0.5,-1.590174146270752,-0.1005,-0.001,-0.2505,0.13494820627794812,10,1,100,-0.027752241182714604,-10,-1,-100,19154.81217604736,0.010435308659087714,0.017135427951037056,0.9997987204643365,54.485623759672364,3.336424896792329,279.6079222680072,-90.90926360907545,-87.61288452148438,4761.76025390625,True
1599386228.1537359,0.0,10,0.5,0.5,-0.22099197006225585,-0.1005,-0.001,-0.2505,0.19023429798931854,10,1,100,-0.11817098149782794,-10,-1,-100,19154.81217604736,0.010435308659087714,0.017135427951037056,0.9997987204643365,54.485623759672364,3.336424896792329,279.6079222680072,-90.90926360907545,-87.61288452148438,4761.76025390625,True
1599386228.180634,0.0,10,0.5,0.5,-1.1766329971313476,-0.1005,-0.001,-0.2505,0.15571756277783638,10,1,100,-0.06415534922865912,-10,-1,-100,19152.9903442926,0.009949618331136275,0.01682424967289537,0.9998089566102161,55.5553997397044,3.4021713202377573,285.7026792579172,-91.09157599882234,-84.90139770507812,4761.76025390625,True
1599386228.2115746,0.0,10,0.5,0.5,-1.444755487060547,-0.1005,-0.001,-0.2505,0.15005984487201052,10,1,100,-0.057965330897545055,-10,-1,-100,19151.16486684885,0.009457448965440393,0.016492751027901344,0.9998192565772064,56.57252839463716,3.4646038439935523,291.5494954845681,-91.2738638620469,-82.21380615234375,4761.76025390625,True
1599386228.2416117,0.0,10,0.5,0.5,-2.6127778816223146,-0.1005,-0.001,-0.2505,0.10494235384521387,10,1,100,0.0019409883251292892,-10,-1,-100,19147.502976866323,0.008471112595287364,0.01578419792910865,0.9998395367993471,58.43444789236824,3.5786845205168696,302.41770556826816,-91.63836798232634,-76.97915649414062,4761.76025390625,True
1599386228.2755263,0.0,10,0.5,0.5,-3.9113502540588376,-0.1005,-0.001,-0.2505,0.04467388431450779,10,1,100,0.06872102968086528,-10,-1,-100,19141.98280998494,0.006973461700692127,0.01459558442565519,0.9998691613142106,60.77738097579061,3.7218719050807585,316.5282733311377,-92.18495706581146,-69.55514526367188,4761.76025390625,True
1599386228.308901,0.0,10,0.5,0.5,-3.6658074745178224,-0.1005,-0.001,-0.2505,0.06960973602564463,10,1,100,0.028663861315792558,-10,-1,-100,19138.28448281053,0.005982377835761174,0.013745706925448955,0.9998876270344331,62.036235592609486,3.7986829057853586,324.4347304453054,-92.54925145663799,-64.9674072265625,4761.76025390625,True
1599386228.344806,0.0,10,0.5,0.5,-3.2870767555236817,-0.1005,-0.001,-0.2505,0.10680970889087786,10,1,100,-0.015956520677482877,-10,-1,-100,19136.429855142953,0.005494194197931351,0.013316035872777627,0.9998962431266307,62.582274737545724,3.831996202164188,327.9713928623991,-92.73137311777913,-62.78460693359375,4761.76025390625,True
1599386228.3767197,0.0,10,0.5,0.5,-4.198535179138184,-0.1005,-0.001,-0.2505,0.05012080684392989,10,1,100,0.043183750736348545,-10,-1,-100,19132.709673838923,0.004520013070210721,0.012415067061057088,0.9999127139864333,63.52380506483067,3.889486340198919,334.28802109034655,-93.0955716637424,-58.642333984375,4761.76025390625,True
1599386228.4086628,0.0,10,0.5,0.5,-3.852340968322754,-0.1005,-0.001,-0.2505,0.08716993591515065,10,1,100,-6.806471380123996e-05,-10,-1,-100,19130.844120748807,0.004034208368008902,0.011937846070768194,0.9999206033451027,63.92606380631523,3.914094963194506,337.10045922241494,-93.27765123712484,-56.6829833984375,4761.76025390625,True
1599386228.4425435,0.0,10,0.5,0.5,-4.026824758911133,-0.1005,-0.001,-0.2505,0.08151199276538164,10,1,100,0.004680006702232578,-10,-1,-100,19128.974926317926,0.003556050226003575,0.011457803366849385,0.9999280340348484,64.28728686478283,3.936238345779228,339.7048627827878,-93.45971914645278,-54.79791259765625,4761.76025390625,True
1599386228.478488,0.0,10,0.5,0.5,-5.386603021240235,-0.1005,-0.001,-0.2505,-0.02919720555349896,10,1,100,0.11152150188798833,-10,-1,-100,19123.34549669281,0.002156328557431029,0.010020115128191724,0.9999474723904103,65.15863382593471,3.9899899535285583,346.4370315662683,-94.00586466230195,-49.587921142578125,4761.76025390625,True
1599386228.509366,0.0,10,0.5,0.5,-4.085302658081055,-0.1005,-0.001,-0.2505,0.1138600870299826,10,1,100,-0.027622766959100584,-10,-1,-100,19123.34549669281,0.002156328557431029,0.010020115128191724,0.9999474723904103,65.15863382593471,3.9899899535285583,346.4370315662683,-94.00586466230195,-49.587921142578125,4761.76025390625,True
1599386228.5433621,0.0,10,0.5,0.5,-5.682976858520508,-0.1005,-0.001,-0.2505,-0.04859998624239664,10,1,100,0.1230837760094926,-10,-1,-100,19117.68330100132,0.0007933538847835506,0.008549390948028916,0.9999631385726332,65.77932010204522,4.028900313490908,351.8868838368972,-94.55194205997681,-45.04620361328125,4761.76025390625,True
1599386228.575273,0.0,10,0.5,0.5,-5.48146566772461,-0.1005,-0.001,-0.2505,-0.01273315771563914,10,1,100,0.08528922669601717,-10,-1,-100,19113.890302667278,-9.425073742741994e-05,0.007545652280014952,0.99997152671887,66.09405301415389,4.04904216648202,355.0118894977879,-94.9159656483841,-42.38958740234375,4761.76025390625,True
1599386228.6121666,0.0,10,0.5,0.5,-4.819442263793946,-0.1005,-0.001,-0.2505,0.0868168545208479,10,1,100,-0.0026146991918084045,-10,-1,-100,19113.890302667278,-9.425073742741994e-05,0.007545652280014952,0.99997152671887,66.09405301415389,4.04904216648202,355.0118894977879,-94.9159656483841,-42.38958740234375,4761.76025390625,True
1599386228.642139,0.0,10,0.5,0.5,-6.0262147888183595,-0.1005,-0.001,-0.2505,-0.06946603872930182,10,1,100,0.14234581876844327,-10,-1,-100,19108.17350395024,-0.001405648434849599,0.0061313077342369,0.999980215413258,66.47021698526719,4.07372990792742,359.2090429806051,-95.46196883716011,-38.959228515625,4761.76025390625,True
1599386228.6750784,0.0,10,0.5,0.5,-5.169510705566406,-0.1005,-0.001,-0.2505,0.07120697592938215,10,1,100,0.011944851653286417,-10,-1,-100,19108.17350395024,-0.001405648434849599,0.0061313077342369,0.999980215413258,66.47021698526719,4.07372990792742,359.2090429806051,-95.46196883716011,-38.959228515625,4761.76025390625,True
1599386228.7089567,0.0,10,0.5,0.5,-6.413461480712891,-0.1005,-0.001,-0.2505,-0.1312588387080584,10,1,100,0.20072055752177356,-10,-1,-100,19100.500147896353,-0.0031155186312605905,0.004297240990386114,0.9999859135325503,66.88650068139161,4.101940641749812,364.3839019960153,-96.18992382327527,-35.4219970703125,4761.76025390625,True
1599386228.7449553,0.0,10,0.5,0.5,-5.775014990234375,-0.1005,-0.001,-0.2505,-0.0008465878599398097,10,1,100,0.07622685691849387,-10,-1,-100,19098.572709860746,-0.003531243775512157,0.0038228533455689057,0.9999864579631548,66.98779155102626,4.108893312375262,365.66902708186433,-96.37190441415555,-34.723114013671875,4761.76025390625,True
1599386228.7758775,0.0,10,0.5,0.5,-5.602140771484375,-0.1005,-0.001,-0.2505,0.045780677349261105,10,1,100,0.03541088770768933,-10,-1,-100,19098.572709860746,-0.003531243775512157,0.0038228533455689057,0.9999864579631548,66.98779155102626,4.108893312375262,365.66902708186433,-96.37190441415555,-34.723114013671875,4761.76025390625,True
1599386228.8094406,0.0,10,0.5,0.5,-6.017318783569336,-0.1005,-0.001,-0.2505,-0.04906827843368178,10,1,100,0.12866755212621397,-10,-1,-100,19094.706914887647,-0.004372588639315549,0.0029675309748342254,0.9999860370167698,67.1972292837254,4.123281884961197,368.2845761906196,-96.73585543912334,-33.545989990234375,4761.76025390625,True
1599386228.842279,0.0,10,0.5,0.5,-6.033277896118165,-0.1005,-0.001,-0.2505,-0.05874541485023807,10,1,100,0.13645503262629774,-10,-1,-100,19090.82656222256,-0.00520230750441326,0.0021084026559734202,0.999984245193328,67.4240503740786,4.138800816257276,371.00635575767734,-97.09979186755083,-32.665008544921875,4761.76025390625,True
1599386228.8781853,0.0,10,0.5,0.5,-5.929927523803711,-0.1005,-0.001,-0.2505,-0.020861566461141318,10,1,100,0.09925349475023293,-10,-1,-100,19088.880927199032,-0.005611711913754368,0.0016789679991574026,0.9999828447307758,67.54626044869178,4.147118131877448,372.4200039798068,-97.2817541279644,-32.335540771484375,4761.76025390625,True
1599386228.9091,0.0,10,0.5,0.5,-6.002368664550781,-0.1005,-0.001,-0.2505,-0.06708915772133217,10,1,100,0.14957170382441648,-10,-1,-100,19084.97873938852,-0.006435513217649283,0.0008745678660037166,0.9999789094279307,67.81166397954952,4.165063871998368,375.37248285155175,-97.64566561389046,-31.89764404296875,4761.76025390625,True
1599386228.9420958,0.0,10,0.5,0.5,-5.943844631958008,-0.1005,-0.001,-0.2505,-0.07045901149116057,10,1,100,0.15863636613148457,-10,-1,-100,19081.061995622586,-0.007261064730817804,0.00011872460560557214,0.9999736310740613,68.10789097804918,4.1849162004950085,378.50916833367927,-98.00955771853413,-31.754852294921875,4761.76025390625,True
1599386228.9760044,0.0,10,0.5,0.5,-5.895277871704102,-0.1005,-0.001,-0.2505,-0.03725011079231631,10,1,100,0.1217015590119864,-10,-1,-100,19079.09816553688,-0.007669279847163394,-0.00025975478142651183,0.9999705569035917,68.26794039127654,4.195575111959647,380.1493034702011,-98.19149586819714,-31.794342041015625,4761.76025390625,True
1599386229.0121431,0.0,10,0.5,0.5,-5.591938208007813,-0.1005,-0.001,-0.2505,-0.14771667453662685,10,1,100,0.2623707022760762,-10,-1,-100,19071.20646008465,-0.009313500681321734,-0.001602258383207899,0.9999553447395202,68.98383049328781,4.242802098460407,387.1726074353347,-98.9191888339002,-32.68878173828125,4761.76025390625,True
1599386229.0430923,0.0,10,0.5,0.5,-5.673428793334962,-0.1005,-0.001,-0.2505,-0.04860393447279803,10,1,100,0.14383905526860566,-10,-1,-100,19069.22443814797,-0.00972349751026461,-0.0019146607786857666,0.9999508926293683,69.17915764710945,4.255585296901644,389.03089026953467,-99.10109601123271,-33.09674072265625,4761.76025390625,True
1599386229.0759754,0.0,10,0.5,0.5,-5.775855044555665,-0.1005,-0.001,-0.2505,-0.01798488510191847,10,1,100,0.10350017026221851,-10,-1,-100,19069.22443814797,-0.00972349751026461,-0.0019146607786857666,0.9999508926293683,69.17915764710945,4.255585296901644,389.03089026953467,-99.10109601123271,-33.09674072265625,4761.76025390625,True
1599386229.1089199,0.0,10,0.5,0.5,-4.945188427734375,-0.1005,-0.001,-0.2505,-0.13365565058990264,10,1,100,0.2848258945152417,-10,-1,-100,19061.25997140701,-0.011366283863715045,-0.002960997270281755,0.999931017663866,69.99862952326642,4.308850300162557,396.72565440341225,-99.82865402253853,-35.463775634765625,4761.76025390625,True
1599386229.144857,0.0,10,0.5,0.5,-5.26570168762207,-0.1005,-0.001,-0.2505,-0.05595357385821675,10,1,100,0.16632703868185644,-10,-1,-100,19059.259760874207,-0.011775340913740846,-0.0031996626099756445,0.9999255489812966,70.20639435575502,4.32227100867593,398.67763893390014,-100.01052545597322,-36.239715576171875,4761.76025390625,True
1599386229.176224,0.0,10,0.5,0.5,-5.161656649780275,-0.1005,-0.001,-0.2505,-0.05706350404145115,10,1,100,0.17108641021290913,-10,-1,-100,19057.255913070403,-0.012183748198342574,-0.003421114835376939,0.9999199229203919,70.41226045667057,4.335536280660253,400.62362053954274,-100.19238971973495,-37.089141845703125,4761.76025390625,True
1599386229.2092843,0.0,10,0.5,0.5,-4.325055239868165,-0.1005,-0.001,-0.2505,-0.09106594486309809,10,1,100,0.26368715163966483,-10,-1,-100,19051.22254715662,-0.013390505705774717,-0.003926521304582769,0.9999026336535913,70.9972770634804,4.37304082644653,406.3036844408879,-100.73793995345477,-40.07757568359375,4761.76025390625,True
1599386229.2422965,0.0,10,0.5,0.5,-5.072883712768555,-0.1005,-0.001,-0.2505,-0.041085846872889076,10,1,100,0.14378928027565263,-10,-1,-100,19051.22254715662,-0.013390505705774717,-0.003926521304582769,0.9999026336535913,70.9972770634804,4.37304082644653,406.3036844408879,-100.73793995345477,-40.07757568359375,4761.76025390625,True
1599386229.278318,0.0,10,0.5,0.5,-3.79099284362793,-0.1005,-0.001,-0.2505,-0.08144504743355604,10,1,100,0.2735549716203355,-10,-1,-100,19045.156450453447,-0.014563871088464447,-0.004289058501342845,0.9998847421758623,71.48340682833539,4.403916153802502,411.4555234038709,-101.28343306069657,-43.72735595703125,4761.76025390625,True
1599386229.30921,0.0,10,0.5,0.5,-4.704065551757813,-0.1005,-0.001,-0.2505,-0.04563210606824331,10,1,100,0.15694871398712715,-10,-1,-100,19045.156450453447,-0.014563871088464447,-0.004289058501342845,0.9998847421758623,71.48340682833539,4.403916153802502,411.4555234038709,-101.28343306069657,-43.72735595703125,4761.76025390625,True
1599386229.3430986,0.0,10,0.5,0.5,-3.719819454956055,-0.1005,-0.001,-0.2505,-0.06672502325433213,10,1,100,0.24243880988548488,-10,-1,-100,19041.094203834073,-0.015334785968230152,-0.00447714929056191,0.9998723915948168,71.71541185851986,4.418459905330938,414.3774266141868,-101.64707036988861,-46.528076171875,4761.76025390625,True
1599386229.3760052,0.0,10,0.5,0.5,-3.89000251159668,-0.1005,-0.001,-0.2505,-0.052467582789997066,10,1,100,0.2056751801112809,-10,-1,-100,19039.057625995716,-0.01569592896526357,-0.004515914284805874,0.999866613270035,71.79475202456301,4.42335070378406,415.63052099918974,-101.82888378572986,-48.0380859375,4761.76025390625,True
1599386229.4120283,0.0,10,0.5,0.5,-3.1293150177001956,-0.1005,-0.001,-0.2505,-0.05524318872578613,10,1,100,0.24909857425795207,-10,-1,-100,19034.973561842227,-0.016413569426213685,-0.004574023193983815,0.9998548259875089,71.86102057033615,4.4271824977202066,417.6062330593686,-102.19250542167275,-51.2786865234375,4761.76025390625,True
1599386229.4429717,0.0,10,0.5,0.5,-2.0401417510986333,-0.1005,-0.001,-0.2505,-0.043785152630386966,10,1,100,0.28758646032845286,-10,-1,-100,19028.82019381097,-0.01740977783506748,-0.004520267908355316,0.9998382203205529,71.67506014974636,4.414722210551122,418.911425448194,-102.73794266339347,-56.689300537109375,4761.76025390625,True
1599386229.4768403,0.0,10,0.5,0.5,-3.3933780090332033,-0.1005,-0.001,-0.2505,-0.04931660825704423,10,1,100,0.18856996884020846,-10,-1,-100,19028.82019381097,-0.01740977783506748,-0.004520267908355316,0.9998382203205529,71.67506014974636,4.414722210551122,418.911425448194,-102.73794266339347,-56.689300537109375,4761.76025390625,True
1599386229.5099313,0.0,10,0.5,0.5,-0.49901078491210926,-0.1005,-0.001,-0.2505,-0.01663948415610777,10,1,100,0.3144419583492143,-10,-1,-100,19020.56479273294,-0.018548946433402692,-0.004222002593530094,0.9998190392667621,70.72582306979635,4.353999945657263,416.512180681063,-103.46526522501057,-64.92953491210938,4761.76025390625,True
1599386229.544953,0.0,10,0.5,0.5,-2.560405456542969,-0.1005,-0.001,-0.2505,-0.046546104414445295,10,1,100,0.20116161833919924,-10,-1,-100,19020.56479273294,-0.018548946433402692,-0.004222002593530094,0.9998190392667621,70.72582306979635,4.353999945657263,416.512180681063,-103.46526522501057,-64.92953491210938,4761.76025390625,True
1599386229.7790117,0.0,10,0.5,0.5,-1.7705054046630857,-0.1005,-0.001,-0.2505,-0.035163811460111424,10,1,100,0.23084825764358347,-10,-1,-100,19018.49185024295,-0.018814135480962887,-0.004118258583682561,0.9998145169241852,70.33449564172955,4.329257041123594,414.99249886100046,-103.64712063212373,-67.17288208007812,4761.76025390625,True
1599386229.8030078,0.0,10,0.5,0.5,-0.6856415466308596,-0.1005,-0.001,-0.2505,-0.017597084303758934,10,1,100,0.2537280859919379,-10,-1,-100,19014.335052659037,-0.019258284300297933,-0.0038640740212369635,0.9998070750988749,69.3396579312003,4.26675379596958,410.6730091664804,-104.01087443752222,-71.85696411132812,4761.76025390625,True
1599386229.8309312,0.0,10,0.5,0.5,-1.856191134643555,-0.1005,-0.001,-0.2505,-0.04297304210030811,10,1,100,0.20978264537961663,-10,-1,-100,19014.335052659037,-0.019258284300297933,-0.0038640740212369635,0.9998070750988749,69.3396579312003,4.26675379596958,410.6730091664804,-104.01087443752222,-71.85696411132812,4761.76025390625,True
1599386229.864169,0.0,10,0.5,0.5,-0.12166534423828135,-0.1005,-0.001,-0.2505,-0.010530035168376146,10,1,100,0.2539426945341261,-10,-1,-100,19010.163703234517,-0.01965547164423726,-0.0035695239441104055,0.9998004405546413,68.0517161961341,4.186434966105849,404.5701979605541,-104.37469795601275,-76.79061889648438,4761.76025390625,True
1599386229.9559238,0.0,10,0.5,0.5,-0.4560890106201171,-0.1005,-0.001,-0.2505,-0.022514594647780543,10,1,100,0.2323899504695595,-10,-1,-100,19008.07257022476,-0.019816689114798766,-0.0034115268013958032,0.9997978097182503,67.28677611584823,4.138982138552401,400.7779368232621,-104.55664025158156,-79.35025024414062,4761.76025390625,True
1599386230.0138164,0.0,10,0.5,0.5,0.7629474792480468,-0.1005,-0.001,-0.2505,-0.0008273900131489653,10,1,100,0.24759056681339214,-10,-1,-100,19003.87938608427,-0.020097691727389944,-0.0030717406181435232,0.9997933022364203,65.51302309808356,4.029503020683816,391.6861171628897,-104.92059380537302,-84.64111328125,4761.76025390625,True
1599386230.0417418,0.0,10,0.5,0.5,3.292788154602051,-0.1005,-0.001,-0.2505,0.04392457342739478,10,1,100,0.2549942462590663,-10,-1,-100,18995.449337676284,-0.020417105622614257,-0.0023573737680690895,0.9997887699843966,66.55386919604571,4.094987225589836,400.90795541220916,-105.64855870564145,-95.6150894165039,4761.76025390625,True
1599386230.0706666,0.0,10,0.5,0.5,0.5476997116088868,-0.1005,-0.001,-0.2505,-0.02729582216601998,10,1,100,0.22335358951538975,-10,-1,-100,18995.449337676284,-0.020417105622614257,-0.0023573737680690895,0.9997887699843966,66.55386919604571,4.094987225589836,400.90795541220916,-105.64855870564145,-95.6150894165039,4761.76025390625,True
1599386230.1035764,0.0,10,0.5,0.5,1.5212528205871583,-0.1005,-0.001,-0.2505,-0.007696304061049788,10,1,100,0.22698783719396776,-10,-1,-100,18993.332727892674,-0.02044741030352174,-0.002181162598151439,0.9997885506153787,67.50575431611117,4.154366894676672,407.40267439390516,-105.83048405905876,-98.37765502929688,4761.76025390625,True
1599386230.1324997,0.0,10,0.5,0.5,2.720247012329102,-0.1005,-0.001,-0.2505,0.011934740405866912,10,1,100,0.22472299080848385,-10,-1,-100,18989.08859511104,-0.020452644624596766,-0.0018443618939774035,0.9997891215936808,69.35824515762356,4.270402998890412,420.14522219032824,-106.19424634459027,-103.7556381225586,4761.76025390625,True
1599386230.1574326,0.0,10,0.5,0.5,3.1928273117065427,-0.1005,-0.001,-0.2505,0.016331581237617278,10,1,100,0.21735797261999124,-10,-1,-100,18984.829915207694,-0.020388717752777587,-0.0015003696468937795,0.9997910026997243,70.97368617817,4.372231673480362,431.5285522468707,-106.55789662978295,-108.92909240722656,4761.76025390625,True
1599386230.1843607,0.0,10,0.5,0.5,2.7794631263732916,-0.1005,-0.001,-0.2505,-0.0007416245020774176,10,1,100,0.21732342489682893,-10,-1,-100,18982.69512157177,-0.020328856906120664,-0.0013452402825756993,0.9997924424126603,71.75817624489048,4.421787278116014,437.10535396310803,-106.73968117328923,-111.43168640136719,4761.76025390625,True
1599386230.2142866,0.0,10,0.5,0.5,3.010583669281006,-0.1005,-0.001,-0.2505,0.0003256106096779163,10,1,100,0.21490708477477471,-10,-1,-100,18980.55669255287,-0.020251497978408584,-0.0011968012992148154,0.999794201071541,72.46055410122304,4.46629218836233,442.1982748626494,-106.92144081348465,-113.86491394042969,4761.76025390625,True
1599386230.243278,0.0,10,0.5,0.5,4.8139941810607905,-0.1005,-0.001,-0.2505,0.028626250315323985,10,1,100,0.18754713906121956,-10,-1,-100,18974.119598931284,-0.019931541979748817,-0.000807003019491795,0.9998010213939753,74.10270564813335,4.570934425360993,454.71626350008546,-107.46659337322677,-120.72740173339844,4761.76025390625,True
1599386230.2771761,0.0,10,0.5,0.5,4.5755554237365725,-0.1005,-0.001,-0.2505,0.013200647728025313,10,1,100,0.1878005433415072,-10,-1,-100,18969.810034212773,-0.01964272559230118,-0.0005953850804686904,0.9998068857774044,74.8518246678536,4.619005860066154,460.9930426832521,-107.82994533660812,-124.93315887451172,4761.76025390625,True
1599386230.3134232,0.0,10,0.5,0.5,4.225727602386475,-0.1005,-0.001,-0.2505,0.0017827354858479822,10,1,100,0.1995587683198658,-10,-1,-100,18967.649802250322,-0.019487216343081586,-0.0005093644669410503,0.9998099764190382,75.13622529510192,4.637327558426722,463.5876105300876,-108.01160262764586,-126.92505645751953,4761.76025390625,True
1599386230.3433433,0.0,10,0.5,0.5,3.730985652160645,-0.1005,-0.001,-0.2505,-0.006563088251795787,10,1,100,0.2150486457033944,-10,-1,-100,18967.649802250322,-0.019487216343081586,-0.0005093644669410503,0.9998099764190382,75.13622529510192,4.637327558426722,463.5876105300876,-108.01160262764586,-126.92505645751953,4761.76025390625,True
1599386230.3773036,0.0,10,0.5,0.5,5.05449867553711,-0.1005,-0.001,-0.2505,0.008848422299517336,10,1,100,0.1763889176857249,-10,-1,-100,18963.318439305178,-0.019136609624084165,-0.00037093983402104735,0.9998168095084894,75.54895693573242,4.664005816899677,467.82952029410797,-108.37488921929955,-130.68682861328125,4761.76025390625,True
1599386230.4102638,0.0,10,0.5,0.5,5.332216989135743,-0.1005,-0.001,-0.2505,0.004763415931289185,10,1,100,0.1673421815561137,-10,-1,-100,18958.972545605502,-0.018736797274725072,-0.0002840415291995261,0.9998244104583043,75.7833288191575,4.679223138690058,470.98206057696433,-108.73814906536806,-134.15274047851562,4761.76025390625,True
1599386230.4472663,0.0,10,0.5,0.5,6.097803332519532,-0.1005,-0.001,-0.2505,-0.0010115598086216948,10,1,100,0.13361850899073857,-10,-1,-100,18952.42646181071,-0.018068307763830484,-0.00025926750524183473,0.9998367211874709,75.87198879479935,4.685028271884459,474.0900353249076,-109.28301200157333,-138.7972412109375,4761.76025390625,True
1599386230.477185,0.0,10,0.5,0.5,5.8949799018859865,-0.1005,-0.001,-0.2505,-0.008382684297389429,10,1,100,0.1473953305435712,-10,-1,-100,18948.044243945275,-0.017588001437916397,-0.00030519688280430886,0.9998452725598509,75.80174291641434,4.68045728212207,475.356122738427,-109.64624746361946,-141.52407836914062,4761.76025390625,True
1599386230.5111299,0.0,10,0.5,0.5,5.654816472625733,-0.1005,-0.001,-0.2505,-0.007858399839955914,10,1,100,0.16783104708126764,-10,-1,-100,18945.847686499357,-0.017339684670441613,-0.00034327116076088017,0.9998495974397549,75.73910759540846,4.676359370632188,475.8158186602919,-109.8278654369527,-142.77664184570312,4761.76025390625,True
1599386230.543958,0.0,10,0.5,0.5,5.34418381729126,-0.1005,-0.001,-0.2505,-0.003950775132117302,10,1,100,0.19236380660517807,-10,-1,-100,18945.847686499357,-0.017339684670441613,-0.00034327116076088017,0.9998495974397549,75.73910759540846,4.676359370632188,475.8158186602919,-109.8278654369527,-142.77664184570312,4761.76025390625,True
1599386230.57992,0.0,10,0.5,0.5,6.1486506736755375,-0.1005,-0.001,-0.2505,-0.016795281061780784,10,1,100,0.13520253329246362,-10,-1,-100,18941.443674787995,-0.01682268383424236,-0.0004608153329745972,0.999858382451156,75.5758059328389,4.665627026183625,476.49263552122403,-110.19110368363037,-145.06033325195312,4761.76025390625,True
1599386230.610818,0.0,10,0.5,0.5,6.587169507598878,-0.1005,-0.001,-0.2505,-0.03647646200404101,10,1,100,0.09610042761644765,-10,-1,-100,18934.810413615545,-0.016000035620775174,-0.0007469082141771759,0.9998717122652553,75.27802486601409,4.645904718525078,477.1628615286679,-110.73597066171554,-147.93255615234375,4761.76025390625,True
1599386230.6437905,0.0,10,0.5,0.5,5.869977610778809,-0.1005,-0.001,-0.2505,-0.007882326197153995,10,1,100,0.17800097996601374,-10,-1,-100,18934.810413615545,-0.016000035620775174,-0.0007469082141771759,0.9998717122652553,75.27802486601409,4.645904718525078,477.1628615286679,-110.73597066171554,-147.93255615234375,4761.76025390625,True
1599386230.6768005,0.0,10,0.5,0.5,6.414699423980713,-0.1005,-0.001,-0.2505,-0.03521110353170839,10,1,100,0.11492174032019764,-10,-1,-100,18930.37007721758,-0.015429758151924397,-0.000995135695630183,0.9998804589891336,75.07178540720238,4.632110716604888,477.5517730006334,-111.09922218965043,-149.47848510742188,4761.76025390625,True
1599386230.7137892,0.0,10,0.5,0.5,6.468679864501953,-0.1005,-0.001,-0.2505,-0.04057439711866782,10,1,100,0.10695467568776079,-10,-1,-100,18925.915210349835,-0.014842584827393498,-0.0012691126466246488,0.9998890373580119,74.87941609050573,4.619081838622785,478.021707845029,-111.46247797778697,-150.72914123535156,4761.76025390625,True
1599386230.7436633,0.0,10,0.5,0.5,6.622093756103516,-0.1005,-0.001,-0.2505,-0.07230709413308406,10,1,100,0.06376278206041675,-10,-1,-100,18919.205665883608,-0.013920040976477454,-0.0018058451451028528,0.99990148083825,74.64673252840704,4.602875767721567,479.0719291186441,-112.00736497366873,-152.05307006835938,4761.76025390625,True
1599386230.7777245,0.0,10,0.5,0.5,6.292239616394044,-0.1005,-0.001,-0.2505,-0.018786024646853985,10,1,100,0.15553549152219637,-10,-1,-100,18919.205665883608,-0.013920040976477454,-0.0018058451451028528,0.99990148083825,74.64673252840704,4.602875767721567,479.0719291186441,-112.00736497366873,-152.05307006835938,4761.76025390625,True
1599386230.8107557,0.0,10,0.5,0.5,6.473965788269043,-0.1005,-0.001,-0.2505,-0.06162427388437841,10,1,100,0.0852743794398513,-10,-1,-100,18914.714473370695,-0.013285074745535547,-0.002193877794862292,0.9999093427352437,74.54259537252106,4.595168953709196,480.09346997145803,-112.37062086239024,-152.56703186035156,4761.76025390625,True
1599386230.8466992,0.0,10,0.5,0.5,6.397701179504395,-0.1005,-0.001,-0.2505,-0.044815564837334135,10,1,100,0.11246465423897921,-10,-1,-100,18912.46342842409,-0.012958928785300777,-0.002392111320659509,0.999913168214204,74.50878572465128,4.592431482002738,480.7207486255423,-112.55224679393574,-152.71340942382812,4761.76025390625,True
1599386230.8776145,0.0,10,0.5,0.5,6.309245523071289,-0.1005,-0.001,-0.2505,-0.12373000473094367,10,1,100,-0.003804006807243576,-10,-1,-100,18903.42292418622,-0.011609427135471816,-0.003287865033908067,0.9999272029228452,74.50750374691196,4.589692381009205,484.09515184336243,-113.27872597645589,-152.5630340576172,4761.76025390625,True
1599386230.9105587,0.0,10,0.5,0.5,6.27013182373047,-0.1005,-0.001,-0.2505,-0.061247676447220616,10,1,100,0.09215226929303655,-10,-1,-100,18901.153717419365,-0.011260146561570735,-0.003531488521670049,0.9999303664196988,74.54135232828786,4.591104511281121,485.16166447511284,-113.46033718723842,-152.34149169921875,4761.76025390625,True
1599386230.9444368,0.0,10,0.5,0.5,6.093206092834473,-0.1005,-0.001,-0.2505,-0.08919309921142762,10,1,100,0.047478400449954314,-10,-1,-100,18896.6044074822,-0.010541549538789614,-0.004004222196411282,0.9999364189476865,74.648856451496,4.5963745186774245,487.5574612402875,-113.82354582213519,-151.67724609375,4761.76025390625,True
1599386230.9805052,0.0,10,0.5,0.5,6.104740565490723,-0.1005,-0.001,-0.2505,-0.07042431458260848,10,1,100,0.07848289553868398,-10,-1,-100,18894.324304543552,-0.010175100824415216,-0.004260393573202926,0.9999391563339313,74.72192058876189,4.600197346467645,488.8837355924588,-114.00514234114685,-151.2349853515625,4761.76025390625,True
1599386231.0114217,0.0,10,0.5,0.5,5.827880439758301,-0.1005,-0.001,-0.2505,-0.10122124681428729,10,1,100,0.03195392432238324,-10,-1,-100,18889.753203270608,-0.009424270377377902,-0.004770054676611476,0.99994421329704,74.9028241937374,4.609987995415021,491.769846342044,-114.36831713470303,-150.129638671875,4761.76025390625,True
1599386231.0443313,0.0,10,0.5,0.5,5.6136191390991215,-0.1005,-0.001,-0.2505,-0.10716107651796059,10,1,100,0.02110233092964582,-10,-1,-100,18885.167575927102,-0.008648505929023227,-0.005283949659760842,0.9999486402916846,75.12385680585804,4.622266080330768,494.92876885236905,-114.73146527687393,-148.73016357421875,4761.76025390625,True
1599386231.077459,0.0,10,0.5,0.5,5.963987753295899,-0.1005,-0.001,-0.2505,-0.056173061904337636,10,1,100,0.09805936787527625,-10,-1,-100,18885.167575927102,-0.008648505929023227,-0.005283949659760842,0.9999486402916846,75.12385680585804,4.622266080330768,494.92876885236905,-114.73146527687393,-148.73016357421875,4761.76025390625,True
1599386231.1145449,0.0,10,0.5,0.5,5.369152426147461,-0.1005,-0.001,-0.2505,-0.11171514801787812,10,1,100,0.009401825830381752,-10,-1,-100,18880.567423210246,-0.007847320578658236,-0.005785715802143339,0.9999524713967123,75.37505692985346,4.636439416271642,498.2972282436965,-115.09458412025366,-147.0364227294922,4761.76025390625,True
1599386231.1444638,0.0,10,0.5,0.5,5.095238934326172,-0.1005,-0.001,-0.2505,-0.11647515684670519,10,1,100,-0.001875351166422512,-10,-1,-100,18875.952747060684,-0.0070219711241716765,-0.006281521583974,0.9999556162191007,75.6442428158566,4.651787487326158,501.79634159586834,-115.45767178276793,-145.04869079589844,4761.76025390625,True
1599386231.1773994,0.0,10,0.5,0.5,4.791679132080079,-0.1005,-0.001,-0.2505,-0.12262250934759253,10,1,100,-0.013553603740826689,-10,-1,-100,18871.32354806643,-0.0061711812363450975,-0.006784423095838021,0.9999579431783144,75.91611407340736,4.667407736170301,505.32541027647824,-115.82072741683092,-142.76739501953125,4761.76025390625,True
1599386231.2111518,0.0,10,0.5,0.5,4.4581698745727545,-0.1005,-0.001,-0.2505,-0.12393406156762471,10,1,100,-0.025127159372854743,-10,-1,-100,18866.679828008986,-0.005298692421256094,-0.007249536479737261,0.999959683227006,76.17298602045538,4.6822585526375935,508.7664647927151,-116.18375127591155,-140.19195556640625,4761.76025390625,True
1599386231.2471564,0.0,10,0.5,0.5,5.1020803497314455,-0.1005,-0.001,-0.2505,-0.07781889032228362,10,1,100,0.061490648664624045,-10,-1,-100,18866.679828008986,-0.005298692421256094,-0.007249536479737261,0.999959683227006,76.17298602045538,4.6822585526375935,508.7664647927151,-116.18375127591155,-140.19195556640625,4761.76025390625,True
1599386231.2750883,0.0,10,0.5,0.5,2.9836342102050786,-0.1005,-0.001,-0.2505,-0.17177604935352725,10,1,100,-0.13759671422781997,-10,-1,-100,18857.348828680464,-0.00349422680781598,-0.008100312427332142,0.999961086901683,76.55972799876683,4.704828681368928,514.8293049616102,-116.90971308739915,-134.1599578857422,4761.76025390625,True
1599386231.3000214,0.0,10,0.5,0.5,4.492897900390625,-0.1005,-0.001,-0.2505,-0.08710806361713123,10,1,100,0.04214511484309407,-10,-1,-100,18857.348828680464,-0.00349422680781598,-0.008100312427332142,0.999961086901683,76.55972799876683,4.704828681368928,514.8293049616102,-116.90971308739915,-134.1599578857422,4761.76025390625,True
1599386231.325915,0.0,10,0.5,0.5,3.897576429748535,-0.1005,-0.001,-0.2505,-0.1107672424645112,10,1,100,-0.010105959584599297,-10,-1,-100,18855.007004770334,-0.003025290562124767,-0.008311905036077297,0.9999608791606229,76.61276319626333,4.707969943330861,516.0565641619322,-117.09118878231617,-132.46875,4761.76025390625,True
1599386231.3568604,0.0,10,0.5,0.5,2.3838430938720703,-0.1005,-0.001,-0.2505,-0.1478616511273297,10,1,100,-0.11886898952019503,-10,-1,-100,18847.959757058998,-0.0016160473210048419,-0.00883826398608991,0.999959635925755,76.61220968127671,4.708112837996666,518.6655468663007,-117.63559391654341,-126.95417785644531,4761.76025390625,True
1599386231.382794,0.0,10,0.5,0.5,3.7630658172607423,-0.1005,-0.001,-0.2505,-0.09558118755870132,10,1,100,0.021352088730995616,-10,-1,-100,18847.959757058998,-0.0016160473210048419,-0.00883826398608991,0.999959635925755,76.61220968127671,4.708112837996666,518.6655468663007,-117.63559391654341,-126.95417785644531,4761.76025390625,True
1599386231.413706,0.0,10,0.5,0.5,3.064238697814942,-0.1005,-0.001,-0.2505,-0.11372730930428518,10,1,100,-0.03195530704891618,-10,-1,-100,18845.603415727383,-0.0011378277762856604,-0.008999997534389464,0.999958851849581,76.54734640173785,4.704375021395095,519.0970696323843,-117.81705896321583,-124.96942138671875,4761.76025390625,True
1599386231.4446254,0.0,10,0.5,0.5,2.0885842285156255,-0.1005,-0.001,-0.2505,-0.1271199364665743,10,1,100,-0.08851699473958863,-10,-1,-100,18840.87984517403,-0.00019498511371881196,-0.009265857114562372,0.9999570520141042,76.29745004478822,4.68980314070977,519.1391623234852,-118.17999262141707,-120.77959442138672,4761.76025390625,True
1599386231.7041798,0.0,10,0.5,0.5,2.361922039794922,-0.1005,-0.001,-0.2505,-0.1157220801854216,10,1,100,-0.04851300201986667,-10,-1,-100,18838.512615793035,0.00029226556751680264,-0.009401217734408548,0.9999557648646005,76.10531010907421,4.678525888686754,518.6987086759885,-118.36146441578953,-118.5750732421875,4761.76025390625,True
1599386231.7311099,0.0,10,0.5,0.5,0.43592031478881843,-0.1005,-0.001,-0.2505,-0.13537229934354683,10,1,100,-0.15773050712996575,-10,-1,-100,18831.389149956638,0.0017222312816374784,-0.00970053229512569,0.9999514656185089,75.20924054624753,4.625503499426433,515.1653179665061,-118.90592236065842,-111.52146911621094,4761.76025390625,True
1599386231.7650783,0.0,10,0.5,0.5,1.323287152862549,-0.1005,-0.001,-0.2505,-0.11344536153667363,10,1,100,-0.06662129089351485,-10,-1,-100,18829.00740134809,0.0021875518525949996,-0.009771072464973893,0.9999498691233359,74.79162190147092,4.600625364222248,513.1593678155417,-119.0874293528041,-109.02376556396484,4761.76025390625,True
1599386231.8589609,0.0,10,0.5,0.5,1.0434966773986818,-0.1005,-0.001,-0.2505,-0.1136998329588291,10,1,100,-0.07269739222473319,-10,-1,-100,18826.622022263822,0.002659002161682139,-0.009835220963232548,0.999948097721131,74.30842345013563,4.571738438234006,510.6939904887066,-119.26895043980035,-106.45297241210938,4761.76025390625,True
1599386231.9078326,0.0,10,0.5,0.5,-2.14683056640625,-0.1005,-0.001,-0.2505,-0.11892104944170614,10,1,100,-0.2227413532614621,-10,-1,-100,18817.044194756076,0.00444603551666844,-0.009939426194643025,0.9999407185304066,71.8269466496342,4.4222110290279,496.93417890774685,-119.99521344020911,-95.53690338134766,4761.76025390625,True
1599386231.9357588,0.0,10,0.5,0.5,0.5837824203491211,-0.1005,-0.001,-0.2505,-0.10868443767738951,10,1,100,-0.04483204399528049,-10,-1,-100,18817.044194756076,0.00444603551666844,-0.009939426194643025,0.9999407185304066,71.8269466496342,4.4222110290279,496.93417890774685,-119.99521344020911,-95.53690338134766,4761.76025390625,True
1599386231.9606588,0.0,10,0.5,0.5,-2.5146434226989745,-0.1005,-0.001,-0.2505,-0.10258050377538402,10,1,100,-0.17896834756244578,-10,-1,-100,18809.822685963474,0.0056586643435710396,-0.00988245632175337,0.9999351561850875,69.47317418754933,4.278816686087076,483.0466959676042,-120.54013026241607,-86.72000122070312,4761.76025390625,True
