Timestamp,Input Throttle,horizon,dT,dt,Input Roll,Roll P,Roll I,Roll D,Input Pitch,Pitch P,Pitch I,Pitch D,Input Yaw,Yaw P,Yaw I,Yaw D,Altitude,Direction X,Direction Y,Direction Z,Drag X,Drag Y,Drag Z,Vertical Velocity,Roll,Mass,Has Fuel
1599386429.0138345,0.0,10,0.5,0.5,-5.634989418029786,-0.1005,-0.00825,-0.37525,-0.00018501512985675595,10,1,100,0.4980362947372736,-10,-1,-100,19351.094169119257,-0.048841741177865966,-0.00017695393650659657,0.99880651429895,60.986592783686774,3.6806849621310276,232.75429964612204,-68.48187293819032,-33.92236328125,4761.76025390625,True
1599386429.0427563,0.0,10,0.5,0.5,-5.681529347229004,-0.1005,-0.00825,-0.37525,-0.0008786938964744814,10,1,100,0.4988731497540194,-10,-1,-100,19349.72088241682,-0.04889239175838936,-0.00016869447412257708,0.9988040376221548,61.076254539672185,3.686766918815155,233.74099274398398,-68.66433295888034,-33.923492431640625,4761.76025390625,True
1599386429.0786612,0.0,10,0.5,0.5,-5.705958954620361,-0.1005,-0.00825,-0.37525,0.011880318170223893,10,1,100,0.509553673149796,-10,-1,-100,19345.57912749762,-0.04899108577904642,-4.5041494554280874e-05,0.9987992148001789,61.34688235030006,3.7051342785817236,236.7198191564776,-69.21169256035039,-33.97027587890625,4761.76025390625,True
1599386429.1105764,0.0,10,0.5,0.5,-5.635600347137451,-0.1005,-0.00825,-0.37525,0.023552110836198008,10,1,100,0.5027776416352282,-10,-1,-100,19342.799712863984,-0.04897466997880309,0.0001735184579208024,0.9988000058028695,61.53714433971492,3.7179852024500675,238.7542864327914,-69.57658125211384,-34.252227783203125,4761.76025390625,True
1599386429.14257,0.0,10,0.5,0.5,-5.787394711303711,-0.1005,-0.00825,-0.37525,0.001713467434481759,10,1,100,0.5093166886574414,-10,-1,-100,19342.799712863984,-0.04897466997880309,0.0001735184579208024,0.9988000058028695,61.53714433971492,3.7179852024500675,238.7542864327914,-69.57658125211384,-34.252227783203125,4761.76025390625,True
1599386429.1755228,0.0,10,0.5,0.5,-5.376699726104738,-0.1005,-0.00825,-0.37525,0.0596482277762047,10,1,100,0.4963416030008806,-10,-1,-100,19338.603225191124,-0.04881219222739908,0.0007000403533383557,0.9988077291618538,61.84713110658842,3.738722013196379,241.91844674735427,-70.12388441697736,-35.212158203125,4761.76025390625,True
1599386429.2125506,0.0,10,0.5,0.5,-5.560339865875244,-0.1005,-0.00825,-0.37525,0.0347065841829899,10,1,100,0.5063821204022201,-10,-1,-100,19337.19709902082,-0.048711387891382706,0.0009513180070947802,0.9988124426956967,61.9550397053824,3.745893084799358,242.99578720422792,-70.30631024065835,-35.678314208984375,4761.76025390625,True
1599386429.243498,0.0,10,0.5,0.5,-5.231780165100098,-0.1005,-0.00825,-0.37525,0.07593882844975251,10,1,100,0.4893173780960608,-10,-1,-100,19334.373900963343,-0.04842033048504693,0.001553725987473831,0.998825839439126,62.17278112691999,3.7603055836354735,245.16529837200767,-70.67114811734524,-36.830810546875,4761.76025390625,True
1599386429.2764125,0.0,10,0.5,0.5,-5.020221200561523,-0.1005,-0.00825,-0.37525,0.09812817903005527,10,1,100,0.47899083799978426,-10,-1,-100,19331.536110302433,-0.04801783672342549,0.002301678496741653,0.9988438264476083,62.384629174335046,3.7742772743468875,247.32115556788384,-71.0359673447088,-38.2767333984375,4761.76025390625,True
1599386429.3092911,0.0,10,0.5,0.5,-5.209113903808594,-0.1005,-0.00825,-0.37525,0.06940416564790812,10,1,100,0.49650353687454674,-10,-1,-100,19330.111742781824,-0.047767487078337084,0.0027184154939685705,0.9988547829366504,62.48474018550165,3.780870507863638,248.37951762392373,-71.21836994638853,-39.10986328125,4761.76025390625,True
1599386429.3452234,0.0,10,0.5,0.5,-5.563730255126953,-0.1005,-0.00825,-0.37525,0.02800230747461324,10,1,100,0.5263152500912207,-10,-1,-100,19330.111742781824,-0.047767487078337084,0.0027184154939685705,0.9988547829366504,62.48474018550165,3.780870507863638,248.37951762392373,-71.21836994638853,-39.10986328125,4761.76025390625,True
1599386429.376149,0.0,10,0.5,0.5,-4.661960272216797,-0.1005,-0.00825,-0.37525,0.1302204823243229,10,1,100,0.46065409116640843,-10,-1,-100,19327.252063860768,-0.047171544046383816,0.0036450394749382264,0.9988801525305757,62.66420840959781,3.7926990013395017,250.42001337843035,-71.5831617484311,-40.996337890625,4761.76025390625,True
1599386429.4102774,0.0,10,0.5,0.5,-4.326907775115967,-0.1005,-0.00825,-0.37525,0.15409411581816418,10,1,100,0.44028140983487907,-10,-1,-100,19324.37779369706,-0.04644613586678695,0.004700990913082779,0.9989097342340193,62.80244817228464,3.8018683343061075,252.30295843724986,-71.94793695508369,-43.176300048828125,4761.76025390625,True
1599386429.444224,0.0,10,0.5,0.5,-4.566466835021973,-0.1005,-0.00825,-0.37525,0.11274348161339558,10,1,100,0.46705871858388637,-10,-1,-100,19322.935187281342,-0.046032417555701005,0.005280717334618442,0.9989259885288847,62.85048248284512,3.8051048725797623,253.16188500930076,-72.13031907588122,-44.376251220703125,4761.76025390625,True
1599386429.4781208,0.0,10,0.5,0.5,-3.085853971862794,-0.1005,-0.00825,-0.37525,0.2573911894623102,10,1,100,0.34645287385253953,-10,-1,-100,19318.58548248117,-0.04456256800481345,0.007118077608389453,0.9989812363122629,62.87999767602395,3.807548444081563,255.28045332585114,-72.67744950822865,-48.417327880859375,4761.76025390625,True
1599386429.5100362,0.0,10,0.5,0.5,-3.87984600982666,-0.1005,-0.00825,-0.37525,0.14612479665971453,10,1,100,0.4308413949984386,-10,-1,-100,19317.128285840037,-0.043997520516218386,0.007770579232566349,0.9990014195619621,62.84204025340642,3.805350064301283,255.7928507984606,-72.85982309134575,-49.9112548828125,4761.76025390625,True
1599386429.5429885,0.0,10,0.5,0.5,-2.90209112701416,-0.1005,-0.00825,-0.37525,0.23319841867359248,10,1,100,0.34970709947336354,-10,-1,-100,19314.202950407634,-0.042750633450641444,0.009148913146599482,0.9990438832843155,62.675972322741984,3.795306172328005,256.4469789536593,-73.22457001413704,-53.119293212890625,4761.76025390625,True
1599386429.5758994,0.0,10,0.5,0.5,-3.275667269897461,-0.1005,-0.00825,-0.37525,0.16921282668179305,10,1,100,0.3987940062824673,-10,-1,-100,19312.734811267816,-0.042068763229691296,0.009812804418395514,0.999066528330206,62.541481223700224,3.7870749212837844,256.5606654704655,-73.40694536480385,-54.83416748046875,4761.76025390625,True
1599386429.611805,0.0,10,0.5,0.5,-2.1679235855102537,-0.1005,-0.00825,-0.37525,0.25725529295396593,10,1,100,0.3030400268599973,-10,-1,-100,19309.78759064246,-0.040584164640673576,0.011209219742110822,0.9991132463205519,62.1521402235773,3.7631487793133465,256.28400906690507,-73.77170502460382,-58.483978271484375,4761.76025390625,True
1599386429.6437154,0.0,10,0.5,0.5,-2.60003671951294,-0.1005,-0.00825,-0.37525,0.19436192049901807,10,1,100,0.36283537927107656,-10,-1,-100,19308.308508727583,-0.03978488155628796,0.011898832522038513,0.9991374184686331,61.89018078924854,3.74703257849555,255.86176790690368,-73.95409175022061,-60.419464111328125,4761.76025390625,True
1599386429.6766303,0.0,10,0.5,0.5,0.7249790420532225,-0.1005,-0.00825,-0.37525,0.42480498085971596,10,1,100,0.048205459905254266,-10,-1,-100,19302.35570054734,-0.03620524549035906,0.014612344309771786,0.9992375391230833,60.31133602953246,3.650090959642212,251.90297929112,-74.68371517481104,-68.89813232421875,4761.76025390625,True
1599386429.709572,0.0,10,0.5,0.5,-2.4320658828735353,-0.1005,-0.00825,-0.37525,0.154643194967969,10,1,100,0.4050128423393463,-10,-1,-100,19302.35570054734,-0.03620524549035906,0.014612344309771786,0.9992375391230833,60.31133602953246,3.650090959642212,251.90297929112,-74.68371517481104,-68.89813232421875,4761.76025390625,True
1599386429.7455544,0.0,10,0.5,0.5,0.9484402496337887,-0.1005,-0.00825,-0.37525,0.36316276750492316,10,1,100,0.0703027957833805,-10,-1,-100,19297.852784531657,-0.03317239624762849,0.016498006510257884,0.9993134682912954,58.470578485464344,3.537663667462054,246.08648428012873,-75.23105037713509,-75.95538330078125,4761.76025390625,True
1599386429.7764692,0.0,10,0.5,0.5,0.6572456428527831,-0.1005,-0.00825,-0.37525,0.31234785950732913,10,1,100,0.12486535667512302,-10,-1,-100,19294.832593613188,-0.030923350889270312,0.017739566605633323,0.9993643250318791,56.94497967031588,3.444910129887412,240.8830462125482,-75.59601300913803,-80.8529052734375,4761.76025390625,True
1599386429.8104823,0.0,10,0.5,0.5,-1.1504562377929688,-0.1005,-0.00825,-0.37525,0.18943773489688673,10,1,100,0.34825898584429743,-10,-1,-100,19294.832593613188,-0.030923350889270312,0.017739566605633323,0.9993643250318791,56.94497967031588,3.444910129887412,240.8830462125482,-75.59601300913803,-80.8529052734375,4761.76025390625,True
1599386429.8428388,0.0,10,0.5,0.5,0.04816851577758785,-0.1005,-0.00825,-0.37525,0.2475186858395653,10,1,100,0.22637652430168154,-10,-1,-100,19293.31702302571,-0.029827727799897025,0.01825791935147836,0.999388290423322,56.08047101030371,3.3925068970074372,237.8260897777398,-75.77851820733902,-83.31610107421875,4761.76025390625,True
1599386429.880735,0.0,10,0.5,0.5,1.4252218528747558,-0.1005,-0.00825,-0.37525,0.3066350356091202,10,1,100,0.08270800481922122,-10,-1,-100,19290.27493051393,-0.027538510989459235,0.019257036536407156,0.9994352390006662,54.243379726968115,3.2814748246743144,231.19689490574524,-76.1435764246642,-88.09552001953125,4761.76025390625,True
1599386429.913614,0.0,10,0.5,0.5,1.9604736080169678,-0.1005,-0.00825,-0.37525,0.3115259869321926,10,1,100,0.03769949558593863,-10,-1,-100,19287.218233803753,-0.025062065734632478,0.020200598877106894,0.9994817800571051,52.29142489268038,3.163947485626434,223.99771725342032,-76.50869515688083,-92.92972564697266,4761.76025390625,True
1599386429.944531,0.0,10,0.5,0.5,3.680682869529724,-0.1005,-0.00825,-0.37525,0.342380882342102,10,1,100,-0.12507269723794068,-10,-1,-100,19282.6058067556,-0.021346465293204758,0.02132943842287064,0.999544588037998,54.21778982384276,3.28232860744775,233.99247877227592,-77.05630170151775,-100.29244995117188,4761.76025390625,True
1599386429.9774437,0.0,10,0.5,0.5,0.9523125635147094,-0.1005,-0.00825,-0.37525,0.23050894963380336,10,1,100,0.24456357697008446,-10,-1,-100,19282.6058067556,-0.021346465293204758,0.02132943842287064,0.999544588037998,54.21778982384276,3.28232860744775,233.99247877227592,-77.05630170151775,-100.29244995117188,4761.76025390625,True
1599386430.0133476,0.0,10,0.5,0.5,3.205075599479675,-0.1005,-0.00825,-0.37525,0.2981148847794252,10,1,100,-0.033945327939727626,-10,-1,-100,19279.51260515675,-0.018831328354263814,0.02193546455519372,0.9995820208803087,55.467008993627736,3.3596857160421267,240.57205635234334,-77.42127757711462,-104.95848846435547,4761.76025390625,True
1599386430.046259,0.0,10,0.5,0.5,2.5434319988250733,-0.1005,-0.00825,-0.37525,0.2668381391400666,10,1,100,0.08128959632039537,-10,-1,-100,19277.96053028805,-0.01760822491862416,0.022195405969451965,0.999598576614166,56.0794179262171,3.3977457688186,243.82860626493243,-77.60373741524228,-107.18557739257812,4761.76025390625,True
1599386430.0781732,0.0,10,0.5,0.5,3.755292467880249,-0.1005,-0.00825,-0.37525,0.28809921413714773,10,1,100,-0.07597027085589567,-10,-1,-100,19274.845434136223,-0.015083583930596136,0.022618105153605943,0.9996303850999474,57.10737394112799,3.4620943443845187,249.52029345060436,-77.96860468621153,-111.4230728149414,4761.76025390625,True
1599386430.1110864,0.0,10,0.5,0.5,4.072587964439393,-0.1005,-0.00825,-0.37525,0.2804727211171752,10,1,100,-0.09128721921993974,-10,-1,-100,19271.71574553172,-0.01266565514936756,0.02292748165843404,0.9996568970223932,58.040491284423794,3.5208010877641143,254.83876859340782,-78.33340635230076,-115.370849609375,4761.76025390625,True
1599386430.1480038,0.0,10,0.5,0.5,4.358179245948792,-0.1005,-0.00825,-0.37525,0.27047361604318676,10,1,100,-0.1192286282488079,-10,-1,-100,19268.571466691676,-0.010230123171388146,0.023113115784829868,0.9996805131933979,58.7771472354003,3.5675916807679813,259.32962940464233,-78.69815021437773,-119.02511596679688,4761.76025390625,True
1599386430.1829102,0.0,10,0.5,0.5,4.616717637825013,-0.1005,-0.00825,-0.37525,0.2641211547767929,10,1,100,-0.13240888126487826,-10,-1,-100,19265.412599421805,-0.007914994734640659,0.02321923938896868,0.9996990646092195,59.31890402718734,3.6024699117649894,262.98733089138057,-79.06284666317859,-122.38467407226562,4761.76025390625,True
1599386430.2168205,0.0,10,0.5,0.5,4.134886603736877,-0.1005,-0.00825,-0.37525,0.25599377062320794,10,1,100,-0.028378950161510985,-10,-1,-100,19263.827695664368,-0.0067759798322328795,0.023237319791300927,0.9997070136126034,59.52749462734388,3.616076940632919,264.54788846159323,-79.24517999864213,-123.95401000976562,4761.76025390625,True
1599386430.247738,0.0,10,0.5,0.5,5.605005716133118,-0.1005,-0.00825,-0.37525,0.24915370322069968,10,1,100,-0.2773182142844162,-10,-1,-100,19259.051105926046,-0.003496302548160511,0.023187955650439355,0.9997250094807297,59.94931632225961,3.644257196740703,268.34301438795507,-79.79213297344283,-128.21975708007812,4761.76025390625,True
1599386430.281646,0.0,10,0.5,0.5,5.21111485748291,-0.1005,-0.00825,-0.37525,0.24059675583517082,10,1,100,-0.18040908909161152,-10,-1,-100,19255.848482381087,-0.0014153750309261024,0.023062572949084634,0.9997330215825072,60.0951922833523,3.654592972405588,270.2793424243962,-80.15673782883329,-130.69525146484375,4761.76025390625,True
1599386430.3160868,0.0,10,0.5,0.5,4.307267900848388,-0.1005,-0.00825,-0.37525,0.2533083394232643,10,1,100,0.025690553605601497,-10,-1,-100,19255.848482381087,-0.0014153750309261024,0.023062572949084634,0.9997330215825072,60.0951922833523,3.654592972405588,270.2793424243962,-80.15673782883329,-130.69525146484375,4761.76025390625,True
1599386430.3456233,0.0,10,0.5,0.5,5.369278465270997,-0.1005,-0.00825,-0.37525,0.24108834560827028,10,1,100,-0.18640813662285619,-10,-1,-100,19252.63127495395,0.000494675707275987,0.02294990651937904,0.9997364938255962,60.1608778245328,3.659874665016275,271.8596414882386,-80.5213247646643,-132.87481689453125,4761.76025390625,True
1599386430.377719,0.0,10,0.5,0.5,5.040377360725403,-0.1005,-0.00825,-0.37525,0.24279626629357015,10,1,100,-0.10031774529116594,-10,-1,-100,19251.017202475574,0.0014308764534793025,0.022862086824091056,0.9997376043635763,60.17196884771672,3.661129889075205,272.55239722985146,-80.70361280031557,-133.85421752929688,4761.76025390625,True
1599386430.4136233,0.0,10,0.5,0.5,5.52165020236969,-0.1005,-0.00825,-0.37525,0.22700359429831674,10,1,100,-0.20707226358591652,-10,-1,-100,19247.778120678733,0.0032351553878235914,0.022638074918550005,0.9997384914734446,60.16169216385777,3.6615529618738782,273.7911263686349,-81.06818011580349,-135.5920867919922,4761.76025390625,True
1599386430.4460938,0.0,10,0.5,0.5,5.8659699832916266,-0.1005,-0.00825,-0.37525,0.2131044398082939,10,1,100,-0.29752738347895014,-10,-1,-100,19242.892156242742,0.005681074836874687,0.022308053627453438,0.9997350029543092,60.091040724379944,3.6585863021111305,275.39594152993453,-81.61501342149582,-137.64466857910156,4761.76025390625,True
1599386430.4790053,0.0,10,0.5,0.5,5.589683084106445,-0.1005,-0.00825,-0.37525,0.2179469678370201,10,1,100,-0.22001556919248075,-10,-1,-100,19239.616619104985,0.007183306269783923,0.022052620370382234,0.9997310048437201,60.0279175478322,3.655507401790111,276.3900550164498,-81.97955878181229,-138.644287109375,4761.76025390625,True
1599386430.5129144,0.0,10,0.5,0.5,5.2307620468139655,-0.1005,-0.00825,-0.37525,0.24338424400269573,10,1,100,-0.07153376884567436,-10,-1,-100,19239.616619104985,0.007183306269783923,0.022052620370382234,0.9997310048437201,60.0279175478322,3.655507401790111,276.3900550164498,-81.97955878181229,-138.644287109375,4761.76025390625,True
1599386430.546891,0.0,10,0.5,0.5,5.5789855804443365,-0.1005,-0.00825,-0.37525,0.21890350760930083,10,1,100,-0.22266040781698362,-10,-1,-100,19236.32650042686,0.008543459077700894,0.02183112878409554,0.9997251677951295,59.965278597566424,3.652384525359534,277.3841571167701,-82.34409661320052,-139.34803771972656,4761.76025390625,True
1599386430.5808005,0.0,10,0.5,0.5,5.522161582565308,-0.1005,-0.00825,-0.37525,0.213148140074904,10,1,100,-0.22714416652928734,-10,-1,-100,19233.021800312214,0.009806796310546416,0.021578729628983308,0.999719053121287,59.913624023444164,3.649880928694983,278.4270889040474,-82.70862669492685,-139.75698852539062,4761.76025390625,True
1599386430.6127152,0.0,10,0.5,0.5,5.4229967960357675,-0.1005,-0.00825,-0.37525,0.2220328323035422,10,1,100,-0.16808982864313554,-10,-1,-100,19231.363982215873,0.010406333360660323,0.021431508713706585,0.9997161590472773,59.89309975485355,3.6489406851227466,278.97260177202025,-82.89088872185195,-139.85110473632812,4761.76025390625,True
1599386430.6446288,0.0,10,0.5,0.5,5.378928724288941,-0.1005,-0.00825,-0.37525,0.21187973862971587,10,1,100,-0.22706505033257576,-10,-1,-100,19228.037411005003,0.011476758413948253,0.02120685345208876,0.9997092344191733,59.86298333627735,3.647716260797439,280.1138089577944,-83.25540622540838,-139.81683349609375,4761.76025390625,True
1599386430.6795356,0.0,10,0.5,0.5,5.338531616592408,-0.1005,-0.00825,-0.37525,0.2216005198183144,10,1,100,-0.17569912481282068,-10,-1,-100,19226.368657657644,0.011971189018171438,0.021092679151875265,0.9997058514981731,59.85439959503369,3.647498649335555,280.71446595946065,-83.43766155985436,-139.68907165527344,4761.76025390625,True
1599386430.7114506,0.0,10,0.5,0.5,5.165320582580566,-0.1005,-0.00825,-0.37525,0.2067275227842583,10,1,100,-0.22733678504730864,-10,-1,-100,19223.020215921686,0.012879671466587047,0.02085536365806931,0.9996995387963339,59.850187329277034,3.647865969378375,281.9766131113123,-83.80216501348198,-139.21240234375,4761.76025390625,True
1599386430.7442458,0.0,10,0.5,0.5,4.981345252990724,-0.1005,-0.00825,-0.37525,0.20662184175311762,10,1,100,-0.22353913239809284,-10,-1,-100,19219.657194240484,0.013660632491050996,0.020640485857204453,0.9996936318010248,59.86031647637961,3.6491417140135662,283.30691995366055,-84.16665825639285,-138.4404296875,4761.76025390625,True
1599386430.7781549,0.0,10,0.5,0.5,5.037201567459107,-0.1005,-0.00825,-0.37525,0.21509215210255522,10,1,100,-0.1853504898272516,-10,-1,-100,19217.970216269605,0.014013949874371276,0.02052396121328706,0.9996911404153956,59.86963355853578,3.650057934056913,283.9925844097024,-84.34890089075128,-137.94400024414062,4761.76025390625,True
1599386430.8140967,0.0,10,0.5,0.5,4.646062125396729,-0.1005,-0.00825,-0.37525,0.20274661826224707,10,1,100,-0.21817171921242165,-10,-1,-100,19214.585325652384,0.014625946967220808,0.020307419495190413,0.9996867961460523,59.892124375185105,3.652176277466468,285.3832553724531,-84.7133782542853,-136.72976684570312,4761.76025390625,True
1599386430.844535,0.0,10,0.5,0.5,3.9706675598144536,-0.1005,-0.00825,-0.37525,0.1891036824239507,10,1,100,-0.23482194711243193,-10,-1,-100,19209.480654664105,0.015326907631904623,0.019988123244640943,0.9996827300857007,59.92029138461332,3.6551776864179724,287.44534032813254,-85.26007551801708,-134.355712890625,4761.76025390625,True
1599386430.878445,0.0,10,0.5,0.5,4.8579932327270505,-0.1005,-0.00825,-0.37525,0.2208268577663236,10,1,100,-0.16554024078026244,-10,-1,-100,19209.480654664105,0.015326907631904623,0.019988123244640943,0.9996827300857007,59.92029138461332,3.6551776864179724,287.44534032813254,-85.26007551801708,-134.355712890625,4761.76025390625,True
1599386430.9113615,0.0,10,0.5,0.5,2.857330337142944,-0.1005,-0.00825,-0.37525,0.17491647023419093,10,1,100,-0.22445667944673087,-10,-1,-100,19202.623402850702,0.015856344848368696,0.01957243154483924,0.9996826977853884,59.886577638029095,3.6552319462586165,289.8548251402165,-85.98897660734156,-130.15908813476562,4761.76025390625,True
1599386430.947635,0.0,10,0.5,0.5,4.424195508956909,-0.1005,-0.00825,-0.37525,0.21628501040594672,10,1,100,-0.17211791265410578,-10,-1,-100,19202.623402850702,0.015856344848368696,0.01957243154483924,0.9996826977853884,59.886577638029095,3.6552319462586165,289.8548251402165,-85.98897660734156,-130.15908813476562,4761.76025390625,True
1599386430.9785895,0.0,10,0.5,0.5,2.5513475788116455,-0.1005,-0.00825,-0.37525,0.17812320184552694,10,1,100,-0.18500321816203114,-10,-1,-100,19197.442197247525,0.01596852943345192,0.019227196082625304,0.9996876117060436,59.74293279255178,3.6484066686186276,291.0854278522856,-86.53564295205396,-126.23927307128906,4761.76025390625,True
1599386431.0115001,0.0,10,0.5,0.5,4.011056694030762,-0.1005,-0.00825,-0.37525,0.21244878232997425,10,1,100,-0.1742339367556592,-10,-1,-100,19197.442197247525,0.01596852943345192,0.019227196082625304,0.9996876117060436,59.74293279255178,3.6484066686186276,291.0854278522856,-86.53564295205396,-126.23927307128906,4761.76025390625,True
1599386431.0452855,0.0,10,0.5,0.5,2.581922749328614,-0.1005,-0.00825,-0.37525,0.18398625554175638,10,1,100,-0.16803025536672733,-10,-1,-100,19193.969837826793,0.0159084983840841,0.01897014173279537,0.9996934797235606,59.55651536123116,3.6384974545176565,291.4582898932596,-86.90009040699674,-123.25863647460938,4761.76025390625,True
1599386431.0801053,0.0,10,0.5,0.5,2.9257369781494145,-0.1005,-0.00825,-0.37525,0.19550654756813896,10,1,100,-0.16695890699125343,-10,-1,-100,19192.228191541042,0.015841431693138598,0.018842899725849155,0.9996969511666189,59.42841080592322,3.6314605942080656,291.47100161351585,-87.08231715255097,-121.65798950195312,4761.76025390625,True
1599386431.1117644,0.0,10,0.5,0.5,1.8848095100402833,-0.1005,-0.00825,-0.37525,0.17657593660746168,10,1,100,-0.15036724595172035,-10,-1,-100,19188.733964634244,0.015627646147190487,0.018556762880011308,0.9997056682980812,59.08832785216228,3.6123448553057864,291.07596887767687,-87.44678096582417,-118.23660278320312,4761.76025390625,True
1599386431.145674,0.0,10,0.5,0.5,0.44903003692626964,-0.1005,-0.00825,-0.37525,0.15120486115332593,10,1,100,-0.11761537956332163,-10,-1,-100,19183.465288261417,0.015134084414367836,0.01806778069633319,0.9997222188136303,58.32433013790474,3.5682777323054418,289.1999263291424,-87.99351707295895,-112.55421447753906,4761.76025390625,True
1599386431.1776972,0.0,10,0.5,0.5,2.5614014179229736,-0.1005,-0.00825,-0.37525,0.1998791156412519,10,1,100,-0.1670223665903015,-10,-1,-100,19183.465288261417,0.015134084414367836,0.01806778069633319,0.9997222188136303,58.32433013790474,3.5682777323054418,289.1999263291424,-87.99351707295895,-112.55421447753906,4761.76025390625,True
1599386431.2146971,0.0,10,0.5,0.5,0.5667761436462406,-0.1005,-0.00825,-0.37525,0.15812924548681767,10,1,100,-0.11871283594928889,-10,-1,-100,19179.93461156881,0.014695082156920027,0.017689982188154978,0.999735524571666,57.61011768746885,3.5263580033432116,286.9035182196742,-88.35804730616661,-108.39942932128906,4761.76025390625,True
1599386431.2425802,0.0,10,0.5,0.5,-1.0480771614074702,-0.1005,-0.00825,-0.37525,0.12394424173587068,10,1,100,-0.07497323747735327,-10,-1,-100,19174.611254028627,0.013898930869018045,0.01703784545667207,0.9997582365466627,56.426770569576426,3.4564018296199714,282.84273732689167,-88.90491425930307,-101.77300262451172,4761.76025390625,True
1599386431.2734988,0.0,10,0.5,0.5,1.4150709360122682,-0.1005,-0.00825,-0.37525,0.18890445627534463,10,1,100,-0.15439262486961638,-10,-1,-100,19174.611254028627,0.013898930869018045,0.01703784545667207,0.9997582365466627,56.426770569576426,3.4564018296199714,282.84273732689167,-88.90491425930307,-101.77300262451172,4761.76025390625,True
1599386431.300453,0.0,10,0.5,0.5,-1.9707094028472896,-0.1005,-0.00825,-0.37525,0.10397713940100341,10,1,100,-0.05093985358555492,-10,-1,-100,19169.255080548115,0.012960230597325987,0.016268083108803667,0.9997836675475497,54.99073133226256,3.370427612862257,277.43385883252165,-89.45187952594014,-94.70550537109375,4761.76025390625,True
1599386431.3323762,0.0,10,0.5,0.5,0.6553535831451416,-0.1005,-0.00825,-0.37525,0.1806574628904617,10,1,100,-0.14450905087114815,-10,-1,-100,19169.255080548115,0.012960230597325987,0.016268083108803667,0.9997836675475497,54.99073133226256,3.370427612862257,277.43385883252165,-89.45187952594014,-94.70550537109375,4761.76025390625,True
1599386431.3612645,0.0,10,0.5,0.5,-1.572290433502197,-0.1005,-0.00825,-0.37525,0.11531651664236212,10,1,100,-0.06672524072024809,-10,-1,-100,19165.666064205812,0.012255839867623373,0.01567676460925169,0.999801997117692,53.892723174726356,3.304049996071979,273.0649651333113,-89.81658103249536,-90.07780456542969,4761.76025390625,True
1599386431.3921802,0.0,10,0.5,0.5,-0.9522647861480713,-0.1005,-0.00825,-0.37525,0.14055309729420654,10,1,100,-0.0980159874680398,-10,-1,-100,19163.86608543084,0.011903266591524977,0.015371619776606246,0.9998109949134859,53.85859777086233,3.3022783236685314,273.4773565765244,-89.99893750014262,-87.78848266601562,4761.76025390625,True
1599386431.4211016,0.0,10,0.5,0.5,-2.24552080039978,-0.1005,-0.00825,-0.37525,0.09664186372641241,10,1,100,-0.049643467865514296,-10,-1,-100,19160.255187877337,0.011146575403323125,0.01469817805990248,0.9998298442327561,55.60336409242703,3.4096502580952865,283.54569679749426,-90.36358901062835,-83.32315063476562,4761.76025390625,True
1599386431.7243295,0.0,10,0.5,0.5,-1.6418508266448975,-0.1005,-0.00825,-0.37525,0.12492287331473875,10,1,100,-0.08273229771665147,-10,-1,-100,19158.4442700434,0.010763555567917114,0.014346566208993031,0.9998391480180936,56.4222215915419,3.4599458318312784,288.33491276345995,-90.5458843311554,-81.13052368164062,4761.76025390625,True
1599386431.753253,0.0,10,0.5,0.5,-3.7881580390930174,-0.1005,-0.00825,-0.37525,0.03388668740173628,10,1,100,0.010824639339086034,-10,-1,-100,19152.989645168884,0.009568811315992626,0.013202700303945637,0.9998670544400806,58.599731962839876,3.593375324232711,301.37434607044423,-91.09265438550213,-74.94415283203125,4761.76025390625,True
1599386431.7871258,0.0,10,0.5,0.5,-3.28820142326355,-0.1005,-0.00825,-0.37525,0.0562717707174418,10,1,100,-0.0175865739840102,-10,-1,-100,19149.33500588173,0.00874602327454249,0.012370745766220227,0.9998852292768748,59.81635899866532,3.667716811822451,308.932244967564,-91.4570787450412,-71.18072509765625,4761.76025390625,True
1599386431.8160737,0.0,10,0.5,0.5,-4.327636567687988,-0.1005,-0.00825,-0.37525,-0.007430046430144055,10,1,100,0.038651084778448544,-10,-1,-100,19143.825719429064,0.007492190938003993,0.011040151700057196,0.9999109871010459,61.33185574167023,3.76012488736393,318.75995063454104,-92.00359895062881,-66.09201049804688,4761.76025390625,True
1599386431.8569717,0.0,10,0.5,0.5,-2.447533232688904,-0.1005,-0.00825,-0.37525,0.12502959081049755,10,1,100,-0.08609147488229969,-10,-1,-100,19143.825719429064,0.007492190938003993,0.011040151700057196,0.9999109871010459,61.33185574167023,3.76012488736393,318.75995063454104,-92.00359895062881,-66.09201049804688,4761.76025390625,True
1599386431.8938751,0.0,10,0.5,0.5,-5.210456371688842,-0.1005,-0.00825,-0.37525,-0.07894071707778097,10,1,100,0.09934863036584832,-10,-1,-100,19136.429004318314,0.00581219610841266,0.009191328622669769,0.9999408671789284,62.88574686904986,3.8547386429500614,329.57141290214895,-92.732111122762,-60.34637451171875,4761.76025390625,True
1599386431.9357643,0.0,10,0.5,0.5,-4.2371375926971435,-0.1005,-0.00825,-0.37525,-0.007017707640467122,10,1,100,0.02600138068024003,-10,-1,-100,19132.708793863887,0.004958219473643263,0.00817085932400781,0.9999543255156998,63.50729866914009,3.892601567717447,334.210494752607,-93.09630297011878,-57.919921875,4761.76025390625,True
1599386431.9696739,0.0,10,0.5,0.5,-4.371194813156128,-0.1005,-0.00825,-0.37525,-0.005693291891674307,10,1,100,0.03267985589239428,-10,-1,-100,19128.974016753957,0.004128438222945757,0.007262561217290323,0.9999651049923713,64.04898456459027,3.9256431491495767,338.4550537441292,-93.46045862915145,-55.788055419921875,4761.76025390625,True
1599386432.0045822,0.0,10,0.5,0.5,-4.053443824768066,-0.1005,-0.00825,-0.37525,0.030171058750005808,10,1,100,-0.003003772656216326,-10,-1,-100,19127.101166050066,0.003705876801521464,0.006770524492827846,0.9999702127939731,64.2951289282504,3.940678730374317,340.45560896523136,-93.64252429099363,-54.833892822265625,4761.76025390625,True
1599386432.0385008,0.0,10,0.5,0.5,-3.7225818466186524,-0.1005,-0.00825,-0.37525,0.07851462166787562,10,1,100,-0.04444017581964529,-10,-1,-100,19127.101166050066,0.003705876801521464,0.006770524492827846,0.9999702127939731,64.2951289282504,3.940678730374317,340.45560896523136,-93.64252429099363,-54.833892822265625,4761.76025390625,True
1599386432.0734043,0.0,10,0.5,0.5,-4.548390934753418,-0.1005,-0.00825,-0.37525,-0.02877472794580914,10,1,100,0.04858724180473328,-10,-1,-100,19123.344541454688,0.0028669372763923877,0.0058023737268553255,0.9999790563455753,64.74642969728744,3.9682933834116665,344.2553725530115,-94.00663321067472,-53.147491455078125,4761.76025390625,True
1599386432.112302,0.0,10,0.5,0.5,-4.877741302490234,-0.1005,-0.00825,-0.37525,-0.0949612026287952,10,1,100,0.10390543938179492,-10,-1,-100,19117.68229839683,0.0016085510194758714,0.0043283088902005586,0.9999893390960569,65.34301806815485,4.0049097488170595,349.56342798199233,-94.55274621304659,-51.173583984375,4761.76025390625,True
1599386432.150196,0.0,10,0.5,0.5,-4.399164239501954,-0.1005,-0.00825,-0.37525,-0.0036155153045270352,10,1,100,0.02501209035716373,-10,-1,-100,19115.78760293487,0.0011890123773179734,0.003826732915656613,0.9999919711501483,65.52535665779287,4.016126657419677,351.2533009579344,-94.73477151760964,-50.663818359375,4761.76025390625,True
1599386432.1936011,0.0,10,0.5,0.5,-4.7419876144409185,-0.1005,-0.00825,-0.37525,-0.10762403014790627,10,1,100,0.1224364268986866,-10,-1,-100,19110.08167452051,-7.119216511466483e-05,0.0024329900882682724,0.9999970377410654,66.03611721891716,4.047591590609645,356.1526652153182,-95.28081340232184,-49.57672119140625,4761.76025390625,True
1599386432.2344956,0.0,10,0.5,0.5,-4.516198505401611,-0.1005,-0.00825,-0.37525,-0.07568672040306054,10,1,100,0.08996278272859035,-10,-1,-100,19106.259521617438,-0.0009147419084133532,0.001464115026151823,0.9999985098061053,66.35278145650297,4.067110454278606,359.3096248262774,-95.64481435307044,-49.222503662109375,4761.76025390625,True
1599386432.273904,0.0,10,0.5,0.5,-4.397195720672608,-0.1005,-0.00825,-0.37525,0.02024318214119385,10,1,100,0.00644850168336325,-10,-1,-100,19106.259521617438,-0.0009147419084133532,0.001464115026151823,0.9999985098061053,66.35278145650297,4.067110454278606,359.3096248262774,-95.64481435307044,-49.222503662109375,4761.76025390625,True
1599386432.3157876,0.0,10,0.5,0.5,-4.396442097473145,-0.1005,-0.00825,-0.37525,-0.1242243399436737,10,1,100,0.1465039188296404,-10,-1,-100,19100.498993866146,-0.0021818575751823945,0.00015779865592258904,0.9999976072956905,66.79604443055005,4.09439080464956,363.9001176420471,-96.19077824875289,-49.243377685546875,4761.76025390625,True
1599386432.3546867,0.0,10,0.5,0.5,-4.2290198020935055,-0.1005,-0.00825,-0.37525,-0.09002382524810079,10,1,100,0.1139047175516288,-10,-1,-100,19096.64044387592,-0.0030309335542188487,-0.0007115633100823381,0.9999951535479787,67.068844570947,4.111115339015541,366.853786009605,-96.55473068796566,-49.626800537109375,4761.76025390625,True
1599386432.3916252,0.0,10,0.5,0.5,-4.234087052154542,-0.1005,-0.00825,-0.37525,-0.05126350889644145,10,1,100,0.07655073725769079,-10,-1,-100,19094.705709782895,-0.0034567306490551303,-0.0011422766536832117,0.9999933730866751,67.19692280155269,4.1189372254663095,368.28992680276684,-96.7367003126841,-49.92926025390625,4761.76025390625,True
1599386432.43451,0.0,10,0.5,0.5,-3.4263667419433594,-0.1005,-0.00825,-0.37525,-0.17370815102302084,10,1,100,0.22137698828149122,-10,-1,-100,19086.930381145794,-0.005153909737803957,-0.0026397738934288086,0.9999832342635581,67.63333881620588,4.145297302849073,373.64638321410627,-97.46454031759765,-51.874114990234375,4761.76025390625,True
1599386432.4823909,0.0,10,0.5,0.5,-4.158615298461914,-0.1005,-0.00825,-0.37525,-0.02489945688708682,10,1,100,0.05254505806054111,-10,-1,-100,19086.930381145794,-0.005153909737803957,-0.0026397738934288086,0.9999832342635581,67.63333881620588,4.145297302849073,373.64638321410627,-97.46454031759765,-51.874114990234375,4761.76025390625,True
1599386432.525272,0.0,10,0.5,0.5,-3.486562631225586,-0.1005,-0.00825,-0.37525,-0.10441811314625332,10,1,100,0.1470246805338835,-10,-1,-100,19083.020882204873,-0.006005523717548709,-0.0033549960888573367,0.999976338563129,67.78893149090601,4.15443747733244,375.99371401965345,-97.82844133716769,-53.2889404296875,4761.76025390625,True
1599386432.5651681,0.0,10,0.5,0.5,-2.249990855407715,-0.1005,-0.00825,-0.37525,-0.16689879865216214,10,1,100,0.2469804834046696,-10,-1,-100,19075.158217418008,-0.007681485475471972,-0.004566219493865117,0.999960071413066,67.90783538014793,4.160456180077054,379.63869115357056,-98.55622343625355,-57.00042724609375,4761.76025390625,True
1599386432.6090486,0.0,10,0.5,0.5,-2.54492000579834,-0.1005,-0.00825,-0.37525,-0.10192839713106083,10,1,100,0.1703808763727686,-10,-1,-100,19071.20505151071,-0.008500662920700574,-0.005069061709671704,0.9999510204721489,67.83732436126405,4.155259396951684,380.7384155699869,-98.92011432534262,-59.296966552734375,4761.76025390625,True
1599386432.6474588,0.0,10,0.5,0.5,-2.1664719017028813,-0.1005,-0.00825,-0.37525,-0.09826254928671371,10,1,100,0.175582367334564,-10,-1,-100,19067.237329948926,-0.009284992815328729,-0.0054860450601855,0.9999418444179726,67.65350164187952,4.142977321298048,381.1986740371603,-99.28401371282739,-61.886993408203125,4761.76025390625,True
1599386432.6873538,0.0,10,0.5,0.5,-2.4592708061218262,-0.1005,-0.00825,-0.37525,-0.08015477658388412,10,1,100,0.14126205292946026,-10,-1,-100,19065.248010457726,-0.009678407815028912,-0.005694186390548375,0.9999369503441282,67.51185541896426,4.133747127253285,381.1458374814633,-99.46596901711322,-63.29248046875,4761.76025390625,True
1599386432.7292407,0.0,10,0.5,0.5,-2.271523098754883,-0.1005,-0.00825,-0.37525,-0.08052773959770676,10,1,100,0.14519328364976514,-10,-1,-100,19063.25505160645,-0.010063829306844019,-0.005880288807897831,0.9999320684642624,67.33328997847424,4.122235981779436,380.8816424568393,-99.64792943571516,-64.77130126953125,4761.76025390625,True
1599386432.7678187,0.0,10,0.5,0.5,0.34951377944946227,-0.1005,-0.00825,-0.37525,-0.12559451626119686,10,1,100,0.2680871210051844,-10,-1,-100,19055.24682208069,-0.011524263755605507,-0.006453681622916501,0.9999127668643906,66.18784115943168,4.049775817824977,377.3337699189906,-100.37584588453696,-71.42007446289062,4761.76025390625,True
1599386432.8117056,0.0,10,0.5,0.5,-0.3364419349670411,-0.1005,-0.00825,-0.37525,-0.09156038049538354,10,1,100,0.19812730126127207,-10,-1,-100,19051.220867509837,-0.012208211865715487,-0.00666032647659623,0.9999032951312176,65.31221910570466,3.9951676368747733,373.7923730281455,-100.7398668314273,-75.1846923828125,4761.76025390625,True
1599386432.8515954,0.0,10,0.5,0.5,0.10545202407836873,-0.1005,-0.00825,-0.37525,-0.0856887027467374,10,1,100,0.19669883052163836,-10,-1,-100,19047.180350479903,-0.012809040885258199,-0.006789790136932916,0.9998949080885932,64.22041396355827,3.9275975491004846,368.9727429076055,-101.10394307686529,-79.03909301757812,4761.76025390625,True
1599386432.892004,0.0,10,0.5,0.5,-1.3185007072448731,-0.1005,-0.00825,-0.37525,-0.07315733833741919,10,1,100,0.1373814416821126,-10,-1,-100,19047.180350479903,-0.012809040885258199,-0.006789790136932916,0.9998949080885932,64.22041396355827,3.9275975491004846,368.9727429076055,-101.10394307686529,-79.03909301757812,4761.76025390625,True
1599386432.9289064,0.0,10,0.5,0.5,0.5517827522277832,-0.1005,-0.00825,-0.37525,-0.08516235457023395,10,1,100,0.20240640665364548,-10,-1,-100,19043.125268868986,-0.013393217720319903,-0.006895153906100774,0.9998865328484565,62.98466568734322,3.851594148268993,363.27671934927594,-101.46808023640818,-82.9232177734375,4761.76025390625,True
1599386432.9688358,0.0,10,0.5,0.5,0.9760808235168454,-0.1005,-0.00825,-0.37525,-0.08087445112398059,10,1,100,0.20165644122096843,-10,-1,-100,19039.055619603023,-0.013910753617349142,-0.006948739885089938,0.9998790956649743,61.67721749432503,3.77166657878294,357.11242699441874,-101.83228004592374,-86.82730102539062,4761.76025390625,True
1599386433.0057,0.0,10,0.5,0.5,1.460633085632324,-0.1005,-0.00825,-0.37525,-0.0779135369213184,10,1,100,0.20389158630432938,-10,-1,-100,19034.97140341089,-0.014395897326186388,-0.006968371081972954,0.999872091792064,63.29412459171598,3.8710740428641963,367.88858728946235,-102.1964303587288,-90.87344360351562,4761.76025390625,True
1599386433.0426023,0.0,10,0.5,0.5,1.9102425971984862,-0.1005,-0.00825,-0.37525,-0.07430782347801078,10,1,100,0.19997921618054706,-10,-1,-100,19030.872624043724,-0.014796010756362695,-0.006951711766588989,0.9998663669557107,64.83440062710818,3.9662967827580906,378.29074671711055,-102.56049353251997,-94.95515441894531,4761.76025390625,True
1599386433.0760608,0.0,10,0.5,0.5,2.254289540863037,-0.1005,-0.00825,-0.37525,-0.07192414316977334,10,1,100,0.1991999885403841,-10,-1,-100,19026.759284441127,-0.01514765633439328,-0.006913564689159222,0.9998613659557329,66.21063467041728,4.051920609254932,387.80126149300617,-102.92447196261375,-98.84044647216797,4761.76025390625,True
1599386433.111933,0.0,10,0.5,0.5,1.7009446557998658,-0.1005,-0.00825,-0.37525,-0.07294871131163097,10,1,100,0.1813053438746967,-10,-1,-100,19024.697155738948,-0.015299683500624503,-0.006887091257968494,0.9998592339218482,66.8928551855008,4.094504563541142,392.54497438655625,-103.10642951161225,-100.68024444580078,4761.76025390625,True
1599386433.1488757,0.0,10,0.5,0.5,2.6865956912994386,-0.1005,-0.00825,-0.37525,-0.06858586296960895,10,1,100,0.194808233888076,-10,-1,-100,19020.561982648913,-0.015555883693507445,-0.006822446969731204,0.9998557239421394,68.09648953918469,4.170026523360849,401.130706289868,-103.47028514980946,-104.14090728759766,4761.76025390625,True
1599386433.1847372,0.0,10,0.5,0.5,4.285882820701599,-0.1005,-0.00825,-0.37525,-0.05768962488606079,10,1,100,0.20510567936864793,-10,-1,-100,19012.24798335135,-0.01587874099146268,-0.006664287483895217,0.9998517154342729,70.2271344083553,4.304564440609703,416.82065051564626,-104.19777197849268,-110.1753921508789,4761.76025390625,True
1599386433.2206774,0.0,10,0.5,0.5,2.050309703063965,-0.1005,-0.00825,-0.37525,-0.07350596957038943,10,1,100,0.17318700248569904,-10,-1,-100,19012.24798335135,-0.01587874099146268,-0.006664287483895217,0.9998517154342729,70.2271344083553,4.304564440609703,416.82065051564626,-104.19777197849268,-110.1753921508789,4761.76025390625,True
1599386433.2549872,0.0,10,0.5,0.5,3.3001372674942018,-0.1005,-0.00825,-0.37525,-0.06458374334224103,10,1,100,0.18039573113539953,-10,-1,-100,19008.06916273816,-0.015941484251817954,-0.0065832904296875385,0.999851253620741,71.0400318265964,4.356411190920739,423.23272092606203,-104.56141941277808,-112.74846649169922,4761.76025390625,True
1599386433.3168528,0.0,10,0.5,0.5,3.4457714199066167,-0.1005,-0.00825,-0.37525,-0.06469717804555725,10,1,100,0.1743352620315527,-10,-1,-100,19003.87579786277,-0.01594058072995454,-0.006510875695626383,0.9998517422016465,71.7119507446041,4.399561691931794,428.8379405277614,-104.92501448832508,-115.02565002441406,4761.76025390625,True
1599386433.3517282,0.0,10,0.5,0.5,3.978881733322144,-0.1005,-0.00825,-0.37525,-0.06024050762505867,10,1,100,0.16297735020323634,-10,-1,-100,18997.558483940316,-0.015834189817994348,-0.006404878277393959,0.9998541173426548,72.49981469115694,4.450617942568637,435.97914636398093,-105.47032434494234,-117.88668823242188,4761.76025390625,True
1599386433.3876293,0.0,10,0.5,0.5,2.9309011402130127,-0.1005,-0.00825,-0.37525,-0.07078586328753152,10,1,100,0.17380878501932012,-10,-1,-100,18997.558483940316,-0.015834189817994348,-0.006404878277393959,0.9998541173426548,72.49981469115694,4.450617942568637,435.97914636398093,-105.47032434494234,-117.88668823242188,4761.76025390625,True
1599386433.424565,0.0,10,0.5,0.5,3.997955438613891,-0.1005,-0.00825,-0.37525,-0.061785614734632927,10,1,100,0.14803243226944196,-10,-1,-100,18991.208454571897,-0.015598551799821085,-0.006323570102189952,0.999858338787506,73.07759215023636,4.488533259257869,441.90346279452257,-106.01555344322671,-120.08273315429688,4761.76025390625,True
1599386433.458476,0.0,10,0.5,0.5,3.472595587921143,-0.1005,-0.00825,-0.37525,-0.06745299889002797,10,1,100,0.16012019269526145,-10,-1,-100,18989.084508860018,-0.015493494568040606,-0.006301746291293901,0.9998601100252726,73.23252801044467,4.498805824247336,443.65895686418907,-106.19728142444855,-120.66702270507812,4761.76025390625,True
1599386433.4953794,0.0,10,0.5,0.5,3.8945864572525024,-0.1005,-0.00825,-0.37525,-0.06413594422870963,10,1,100,0.12680239258856105,-10,-1,-100,18982.690865497105,-0.015094784503421397,-0.006252307619374474,0.9998665191565462,73.60579020429105,4.523863550345064,448.38952220611156,-106.74242750086452,-121.97703552246094,4761.76025390625,True
1599386433.5332694,0.0,10,0.5,0.5,3.558113632965088,-0.1005,-0.00825,-0.37525,-0.06781219188817235,10,1,100,0.14921739846002482,-10,-1,-100,18980.552382907248,-0.014936279860778334,-0.006241360881477923,0.9998689678944274,73.70364845369488,4.530546969104621,449.81020044897616,-106.92413155821002,-122.2661361694336,4761.76025390625,True
1599386433.5681548,0.0,10,0.5,0.5,3.666642832565308,-0.1005,-0.00825,-0.37525,-0.06643911152980003,10,1,100,0.10571909177349381,-10,-1,-100,18974.115131233935,-0.014397308855618659,-0.006219455012939723,0.9998770103753051,73.93015845877223,4.546406718881173,453.67509769821686,-107.46921496292285,-122.69085693359375,4761.76025390625,True
1599386433.602029,0.0,10,0.5,0.5,3.514807656288147,-0.1005,-0.00825,-0.37525,-0.06844653429374567,10,1,100,0.13672786694260192,-10,-1,-100,18971.962113200803,-0.01419057992713434,-0.006218194278005369,0.9998799735474517,73.98546732341444,4.550440272825624,454.84308475145036,-107.65090103912563,-122.68500518798828,4761.76025390625,True
1599386433.6329463,0.0,10,0.5,0.5,3.41653146648407,-0.1005,-0.00825,-0.37525,-0.06830254991977594,10,1,100,0.10922125549033784,-10,-1,-100,18967.645176237216,-0.013754119125368312,-0.006216144745761587,0.9998860853875229,74.06694398018483,4.556719162218098,457.00371163600744,-108.0142619509965,-122.4521255493164,4761.76025390625,True
1599386433.6668842,0.0,10,0.5,0.5,3.260921500968933,-0.1005,-0.00825,-0.37525,-0.06876361045805333,10,1,100,0.10001811131722073,-10,-1,-100,18963.313705072855,-0.013275660145031266,-0.00621880676287333,0.9998925358708103,74.10967630342746,4.5606431791628,458.92911349231304,-108.37761013972542,-121.92453002929688,4761.76025390625,True
1599386433.6998012,0.0,10,0.5,0.5,3.0734004247665405,-0.1005,-0.00825,-0.37525,-0.0686918658330874,10,1,100,0.09119331763729346,-10,-1,-100,18958.96770038153,-0.012762894693620908,-0.006220840071777727,0.9998991997535756,74.11056560504798,4.562048016787176,460.597523256775,-108.74094823302218,-121.10226440429688,4761.76025390625,True
1599386433.7296872,0.0,10,0.5,0.5,3.3846084508895875,-0.1005,-0.00825,-0.37525,-0.06847013112208607,10,1,100,0.142162733265892,-10,-1,-100,18958.96770038153,-0.012762894693620908,-0.006220840071777727,0.9998991997535756,74.11056560504798,4.562048016787176,460.597523256775,-108.74094823302218,-121.10226440429688,4761.76025390625,True
1599386433.7625995,0.0,10,0.5,0.5,3.139128812980652,-0.1005,-0.00825,-0.37525,-0.06848991606499014,10,1,100,0.11227001338506576,-10,-1,-100,18956.789248202113,-0.012493934781181009,-0.006221187242354688,0.9999025944675707,74.09375388203678,4.56171679217661,461.32475842917177,-108.92261439876667,-120.58070373535156,4761.76025390625,True
1599386433.7945132,0.0,10,0.5,0.5,2.3807535306930547,-0.1005,-0.00825,-0.37525,-0.06863131772091619,10,1,100,0.043518479858163955,-10,-1,-100,18950.23209131998,-0.011627234207826211,-0.006222881396896558,0.9999130378046865,73.96265608952778,4.55590138787646,463.00127679533557,-109.46760626392113,-118.57439422607422,4761.76025390625,True
1599386433.8284233,0.0,10,0.5,0.5,3.1318947555541996,-0.1005,-0.00825,-0.37525,-0.06845401577728949,10,1,100,0.12980191115762224,-10,-1,-100,18950.23209131998,-0.011627234207826211,-0.006222881396896558,0.9999130378046865,73.96265608952778,4.55590138787646,463.00127679533557,-109.46760626392113,-118.57439422607422,4761.76025390625,True
1599386433.8623326,0.0,10,0.5,0.5,1.366385769462586,-0.1005,-0.00825,-0.37525,-0.06573155248619475,10,1,100,-0.00849644270538416,-10,-1,-100,18941.43834963895,-0.010373128763885785,-0.006198158481725222,0.9999269878501547,73.54500424599362,4.533578008996521,463.6970952983137,-110.19426690834509,-114.86929321289062,4761.76025390625,True
1599386433.893734,0.0,10,0.5,0.5,2.2225324794769286,-0.1005,-0.00825,-0.37525,-0.06763106367915112,10,1,100,0.07835679257770124,-10,-1,-100,18939.230830702,-0.010026756091146985,-0.006192990662777931,0.9999305531030339,73.38676668969606,4.524749497748756,463.5263136845266,-110.37593738395566,-113.75927734375,4761.76025390625,True
1599386433.929153,0.0,10,0.5,0.5,2.6316973812103273,-0.1005,-0.00825,-0.37525,-0.06814519913886398,10,1,100,0.11255700457513404,-10,-1,-100,18939.230830702,-0.010026756091146985,-0.006192990662777931,0.9999305531030339,73.38676668969606,4.524749497748756,463.5263136845266,-110.37593738395566,-113.75927734375,4761.76025390625,True
1599386433.9620655,0.0,10,0.5,0.5,1.463154044532776,-0.1005,-0.00825,-0.37525,-0.0642406595071788,10,1,100,0.03766562279271929,-10,-1,-100,18934.80489254149,-0.00934971064206684,-0.006157517760321909,0.9999373319793301,72.98994600358219,4.502207444808292,462.6662605234517,-110.7392903131665,-111.31854248046875,4761.76025390625,True
1599386433.9919856,0.0,10,0.5,0.5,1.0688849475860598,-0.1005,-0.00825,-0.37525,-0.06273780442522675,10,1,100,0.026474182732726115,-10,-1,-100,18930.364419565885,-0.008636478422797043,-0.0061116606455127245,0.9999440278558629,72.47299518527369,4.472317364728531,461.02627029077416,-111.10266557258775,-108.58397674560547,4761.76025390625,True
1599386434.0239003,0.0,10,0.5,0.5,1.3811291303634643,-0.1005,-0.00825,-0.37525,-0.06427426138676828,10,1,100,0.056558418980981406,-10,-1,-100,18928.13873223192,-0.008265795990919762,-0.006084037555443262,0.9999473291647217,72.16316063662238,4.454210482318263,459.87108876642566,-111.28436415546014,-107.10652923583984,4761.76025390625,True
1599386434.0548184,0.0,10,0.5,0.5,-0.3943427051544186,-0.1005,-0.00825,-0.37525,-0.053658795939493055,10,1,100,-0.02839748783530925,-10,-1,-100,18921.43986447889,-0.007160573807885684,-0.005962545789965189,0.999956586172842,70.99469947219283,4.385058234387125,454.8362074488497,-111.8295179367982,-102.23351287841797,4761.76025390625,True
1599386434.0877345,0.0,10,0.5,0.5,1.4186899629592897,-0.1005,-0.00825,-0.37525,-0.06578214305911909,10,1,100,0.08156449837952509,-10,-1,-100,18921.43986447889,-0.007160573807885684,-0.005962545789965189,0.999956586172842,70.99469947219283,4.385058234387125,454.8362074488497,-111.8295179367982,-102.23351287841797,4761.76025390625,True
1599386434.1216722,0.0,10,0.5,0.5,-2.0764028045654292,-0.1005,-0.00825,-0.37525,-0.03977818251852699,10,1,100,-0.08246176526233992,-10,-1,-100,18912.457151902956,-0.005674274466571725,-0.005726381277280161,0.999967505055412,69.05879594366928,4.268887436375257,445.5692386829685,-112.55655768752044,-94.91883850097656,4761.76025390625,True
1599386434.151564,0.0,10,0.5,0.5,-0.24631970958709715,-0.1005,-0.00825,-0.37525,-0.055172770592350026,10,1,100,0.022632818149160114,-10,-1,-100,18910.202384717297,-0.005283910332519267,-0.005652088430164541,0.9999700666459849,68.5739006115499,4.2395989854003595,443.22038988619624,-112.73834974073034,-93.037109375,4761.76025390625,True
1599386434.1854765,0.0,10,0.5,0.5,0.4387308849334717,-0.1005,-0.00825,-0.37525,-0.06254497600723882,10,1,100,0.06103489916687524,-10,-1,-100,18910.202384717297,-0.005283910332519267,-0.005652088430164541,0.9999700666459849,68.5739006115499,4.2395989854003595,443.22038988619624,-112.73834974073034,-93.037109375,4761.76025390625,True
1599386434.2193856,0.0,10,0.5,0.5,-1.4164527095794677,-0.1005,-0.00825,-0.37525,-0.04443913413009288,10,1,100,-0.0198447448770272,-10,-1,-100,18905.681942005293,-0.004553267403421396,-0.005487986294964633,0.9999745745579631,67.49660353189641,4.1740758249247145,437.79351721350423,-113.1019736071407,-89.17547607421875,4761.76025390625,True
1599386434.2493064,0.0,10,0.5,0.5,-2.6880981227874754,-0.1005,-0.00825,-0.37525,-0.028291613852612883,10,1,100,-0.06994312959280312,-10,-1,-100,18898.874002276338,-0.003438582596541483,-0.005192647809867456,0.9999806060911629,65.68606698937141,4.0628997926147425,428.29439280112786,-113.64751542700026,-83.49929809570312,4761.76025390625,True
1599386434.28624,0.0,10,0.5,0.5,-0.583076819229126,-0.1005,-0.00825,-0.37525,-0.05772542807703952,10,1,100,0.04086653374572764,-10,-1,-100,18898.874002276338,-0.003438582596541483,-0.005192647809867456,0.9999806060911629,65.68606698937141,4.0628997926147425,428.29439280112786,-113.64751542700026,-83.49929809570312,4761.76025390625,True
1599386434.3201168,0.0,10,0.5,0.5,-3.2808583156585693,-0.1005,-0.00825,-0.37525,-0.02090284794182839,10,1,100,-0.07606965703836553,-10,-1,-100,18892.033331108047,-0.0023809000694547497,-0.00485877423586595,0.9999853617067521,67.5186217953663,4.176019145617244,442.5506696065222,-114.19299149206866,-77.876953125,4761.76025390625,True
1599386434.3490393,0.0,10,0.5,0.5,-2.841147352027893,-0.1005,-0.00825,-0.37525,-0.0266852795433214,10,1,100,-0.047543116815679874,-10,-1,-100,18887.45470496104,-0.0016843895726306277,-0.004608959352614196,0.9999879600902469,68.8475426020274,4.257607606840275,452.829103248227,-114.55652404684582,-74.4197998046875,4761.76025390625,True
1599386434.381719,0.0,10,0.5,0.5,-1.5708171203613281,-0.1005,-0.00825,-0.37525,-0.051519260048213895,10,1,100,0.021449792224903414,-10,-1,-100,18887.45470496104,-0.0016843895726306277,-0.004608959352614196,0.9999879600902469,68.8475426020274,4.257607606840275,452.829103248227,-114.55652404684582,-74.4197998046875,4761.76025390625,True
1599386434.415377,0.0,10,0.5,0.5,-3.1376714918136597,-0.1005,-0.00825,-0.37525,-0.02277775599543501,10,1,100,-0.052085767852443496,-10,-1,-100,18882.861540045822,-0.0010208628303231605,-0.004348903485259252,0.9999900223890025,69.99428943657466,4.327681298627643,461.96500221166315,-114.91997229714251,-71.17459106445312,4761.76025390625,True
1599386434.4512796,0.0,10,0.5,0.5,-2.6690137454986576,-0.1005,-0.00825,-0.37525,-0.03428598548539948,10,1,100,-0.02140582964415013,-10,-1,-100,18880.559506540885,-0.0007021467855531867,-0.004218576276031441,0.9999908552602342,70.50343736164375,4.358683806800654,466.12761460699164,-115.10166745738326,-69.65386962890625,4761.76025390625,True
1599386434.4831975,0.0,10,0.5,0.5,-4.664341361236572,-0.1005,-0.00825,-0.37525,0.014122594226893423,10,1,100,-0.12463108329008508,-10,-1,-100,18871.315040588146,0.0005214863540361811,-0.0036613897293500844,0.9999931611152311,72.13454898325321,4.457452178109532,480.1928862514312,-115.8282818365534,-64.30413818359375,4761.76025390625,True
1599386434.5152476,0.0,10,0.5,0.5,-3.228728801727295,-0.1005,-0.00825,-0.37525,-0.02533487040949467,10,1,100,-0.03480386236067689,-10,-1,-100,18868.994842601707,0.0008119913845895725,-0.00351537045515312,0.9999934913990962,72.45348485663483,4.476651307005879,483.1396194144713,-116.00989939946004,-63.15191650390625,4761.76025390625,True
1599386434.5491571,0.0,10,0.5,0.5,-3.811248892974854,-0.1005,-0.00825,-0.37525,-0.009719840603183094,10,1,100,-0.06601808165656582,-10,-1,-100,18864.34355046472,0.0013543107680397289,-0.0032426133148939665,0.9999938256315554,73.00284518105028,4.509620055360871,488.46236586681744,-116.37309823383075,-61.07049560546875,4761.76025390625,True
1599386434.5860653,0.0,10,0.5,0.5,-3.9025106895446777,-0.1005,-0.00825,-0.37525,-0.004777030143651061,10,1,100,-0.0702286475269607,-10,-1,-100,18859.677731590346,0.001880235735296678,-0.0029517588859172363,0.9999938758977771,73.45101935458992,4.5364139081109505,493.13060848655454,-116.73625439811471,-59.285675048828125,4761.76025390625,True
1599386434.61798,0.0,10,0.5,0.5,-3.252733014678955,-0.1005,-0.00825,-0.37525,-0.03363838414892905,10,1,100,-0.01816803263444961,-10,-1,-100,18859.677731590346,0.001880235735296678,-0.0029517588859172363,0.9999938758977771,73.45101935458992,4.5364139081109505,493.13060848655454,-116.73625439811471,-59.285675048828125,4761.76025390625,True
1599386434.6478999,0.0,10,0.5,0.5,-4.281427599334717,-0.1005,-0.00825,-0.37525,0.010783579077957517,10,1,100,-0.09682930832096245,-10,-1,-100,18852.651768724085,0.0025905029521451238,-0.0025499600283309496,0.9999933934773315,73.97021986208014,4.567323275023506,499.13854919267243,-117.28092166317634,-57.1654052734375,4761.76025390625,True
1599386434.6833153,0.0,10,0.5,0.5,-3.502883393096924,-0.1005,-0.00825,-0.37525,-0.029165425259917662,10,1,100,-0.026299726938277874,-10,-1,-100,18852.651768724085,0.0025905029521451238,-0.0025499600283309496,0.9999933934773315,73.97021986208014,4.567323275023506,499.13854919267243,-117.28092166317634,-57.1654052734375,4761.76025390625,True
1599386434.7176435,0.0,10,0.5,0.5,-4.208311818695068,-0.1005,-0.00825,-0.37525,0.013677638191831931,10,1,100,-0.0971294309131296,-10,-1,-100,18845.59312901902,0.003230523085984889,-0.0021623494508825744,0.9999924439541747,74.34845730168082,4.589733357801298,504.22672958164446,-117.8255229865754,-55.712554931640625,4761.76025390625,True
1599386434.750553,0.0,10,0.5,0.5,-3.9630433532714844,-0.1005,-0.00825,-0.37525,0.0022642598989869034,10,1,100,-0.07607509443205315,-10,-1,-100,18840.869216639083,0.003616488409957966,-0.0019159583739569441,0.9999916250224749,74.54065038568807,4.601067894534113,507.22587691692763,-118.1885600554859,-55.114593505859375,4761.76025390625,True
1599386434.7843955,0.0,10,0.5,0.5,-3.75190782623291,-0.1005,-0.00825,-0.37525,-0.02213155328244589,10,1,100,-0.037942297158773536,-10,-1,-100,18840.869216639083,0.003616488409957966,-0.0019159583739569441,0.9999916250224749,74.54065038568807,4.601067894534113,507.22587691692763,-118.1885600554859,-55.114593505859375,4761.76025390625,True
1599386434.8183022,0.0,10,0.5,0.5,-3.907246227264405,-0.1005,-0.00825,-0.37525,0.001632091898800942,10,1,100,-0.07625739228131469,-10,-1,-100,18836.130783591187,0.003960881424530603,-0.0017020185249474952,0.999990707232463,74.69391549495573,4.610056530683145,509.96875078452683,-118.55157656368283,-54.81329345703125,4761.76025390625,True
1599386434.853177,0.0,10,0.5,0.5,-3.804496035003662,-0.1005,-0.00825,-0.37525,0.0035077685400345567,10,1,100,-0.07688425807556759,-10,-1,-100,18831.377830282436,0.004276538040389395,-0.0014922573938407839,0.999989742142518,74.81346075849152,4.617000452240207,512.4885031705484,-118.9145749888769,-54.808074951171875,4761.76025390625,True
1599386434.8876321,0.0,10,0.5,0.5,-3.757894459533692,-0.1005,-0.00825,-0.37525,-0.005550131960000598,10,1,100,-0.061975504238688625,-10,-1,-100,18828.99590876582,0.004424814886602306,-0.001385749200163468,0.9999892502984088,74.86131918397611,4.619743842316911,513.6690435260722,-119.09606826706019,-54.9163818359375,4761.76025390625,True
1599386434.9225085,0.0,10,0.5,0.5,-3.4376980133056643,-0.1005,-0.00825,-0.37525,0.014282080951636023,10,1,100,-0.09000455129965083,-10,-1,-100,18821.82836579671,0.004811630170878644,-0.0011103187831826029,0.9999878076293223,74.95627011863495,4.62496816980582,516.8835863857604,-119.64052796363337,-55.685516357421875,4761.76025390625,True
1599386434.9534595,0.0,10,0.5,0.5,-3.536941635131836,-0.1005,-0.00825,-0.37525,-0.0037656203783886424,10,1,100,-0.06399418087096803,-10,-1,-100,18819.431925583864,0.004924157612291305,-0.0010256715435663448,0.999987350254839,74.9709109998474,4.6256499010115,517.8396671039014,-119.8220087867495,-56.089813232421875,4761.76025390625,True
1599386434.9893603,0.0,10,0.5,0.5,-3.4638255584716795,-0.1005,-0.00825,-0.37525,-0.0027180657024521073,10,1,100,-0.06471768898914251,-10,-1,-100,18817.031855737325,0.005030265431125315,-0.0009409472717179153,0.9999869054382283,74.97621951324162,4.62574673636262,518.7318479113924,-120.0034873148728,-56.56793212890625,4761.76025390625,True
1599386435.0232708,0.0,10,0.5,0.5,-2.3823591690063477,-0.1005,-0.00825,-0.37525,0.02103025426425506,10,1,100,-0.09141416980142675,-10,-1,-100,18807.395281009492,0.005367204398832472,-0.0006494941273916534,0.9999853855303685,74.8860355791155,4.619133214338845,521.5295973465039,-120.7293875383641,-59.219268798828125,4761.76025390625,True
1599386435.05319,0.0,10,0.5,0.5,-3.375578816986084,-0.1005,-0.00825,-0.37525,-0.007925013578277205,10,1,100,-0.057997943175379804,-10,-1,-100,18807.395281009492,0.005367204398832472,-0.0006494941273916534,0.9999853855303685,74.8860355791155,4.619133214338845,521.5295973465039,-120.7293875383641,-59.219268798828125,4761.76025390625,True
1599386435.0871012,0.0,10,0.5,0.5,-2.9695439857482913,-0.1005,-0.00825,-0.37525,-0.000696504975603974,10,1,100,-0.0652358993362687,-10,-1,-100,18804.97706364852,0.005431061562737964,-0.0005851557358432521,0.999985080470237,74.82993053496419,4.6153718857507435,521.9946965482858,-120.910861418471,-60.066650390625,4761.76025390625,True
1599386435.1230056,0.0,10,0.5,0.5,-2.371806935119629,-0.1005,-0.00825,-0.37525,0.005163715808000419,10,1,100,-0.07003871188582259,-10,-1,-100,18800.129740392207,0.005531125850236374,-0.0004746013751647689,0.9999845905814567,74.66732285363493,4.604693774426394,522.5697629941325,-121.27381174324492,-61.98284912109375,4761.76025390625,True
1599386435.1539233,0.0,10,0.5,0.5,-2.0333552009582525,-0.1005,-0.00825,-0.37525,0.006347967990683798,10,1,100,-0.06802479557542074,-10,-1,-100,18795.2678993179,0.005602044474740113,-0.0003646418065224736,0.9999842419428698,74.42580625390228,4.589094515015808,522.5854139773527,-121.63677015684064,-64.19375610351562,4761.76025390625,True
1599386435.2027907,0.0,10,0.5,0.5,-1.663154641723633,-0.1005,-0.00825,-0.37525,0.005443328138542154,10,1,100,-0.0649545785529621,-10,-1,-100,18790.391539014177,0.00563711292131188,-0.00027411835797478833,0.9999840737816968,74.0894885551899,4.567615767501157,521.924488205353,-121.99974324159705,-66.69949340820312,4761.76025390625,True
1599386435.2386968,0.0,10,0.5,0.5,-1.9450120529174808,-0.1005,-0.00825,-0.37525,0.0009209726481606371,10,1,100,-0.06205129613532277,-10,-1,-100,18787.94791435916,0.005641362964506835,-0.0002340440356038755,0.9999840599966042,73.8802947268975,4.554344464806422,521.299633724298,-122.18123745480243,-68.06283569335938,4761.76025390625,True
1599386435.271571,0.0,10,0.5,0.5,0.49871219711303705,-0.1005,-0.00825,-0.37525,0.011968080811785398,10,1,100,-0.05453592507347531,-10,-1,-100,18778.137113127625,0.0055757991322328134,-9.823158211060198e-05,0.9999844502863998,72.71319227314575,4.481039790921081,516.4129332003052,-122.90729054117482,-74.251953125,4761.76025390625,True
1599386435.3017073,0.0,10,0.5,0.5,-1.8084368087768554,-0.1005,-0.00825,-0.37525,-0.0015119558174347524,10,1,100,-0.06116872519701289,-10,-1,-100,18778.137113127625,0.0055757991322328134,-9.823158211060198e-05,0.9999844502863998,72.71319227314575,4.481039790921081,516.4129332003052,-122.90729054117482,-74.251953125,4761.76025390625,True
1599386435.3346193,0.0,10,0.5,0.5,-0.9698776420593264,-0.1005,-0.00825,-0.37525,0.001775157221377044,10,1,100,-0.057095553400183366,-10,-1,-100,18775.6753363685,0.0055381778963344164,-6.919186354090905e-05,0.9999846617814068,72.32589123274214,4.456906391606274,514.4967065530143,-123.08882873694088,-75.98306274414062,4761.76025390625,True
1599386435.373515,0.0,10,0.5,0.5,1.9151715789794919,-0.1005,-0.00825,-0.37525,0.009508286597347112,10,1,100,-0.03499040980747907,-10,-1,-100,18765.791916904273,0.005302559183342917,2.6716551842015135e-05,0.9999859409773384,70.36880408125023,4.335889142058223,503.82893282811534,-123.81511791097311,-83.3790283203125,4761.76025390625,True
