Timestamp,Input Throttle,horizon,dT,dt,Input Roll,Roll P,Roll I,Roll D,Input Pitch,Pitch P,Pitch I,Pitch D,Input Yaw,Yaw P,Yaw I,Yaw D,Altitude,Direction X,Direction Y,Direction Z,Drag X,Drag Y,Drag Z,Vertical Velocity,Roll,Mass,Has Fuel
1599388595.4542062,0.0,10,0.5,0.5,-11.215415252685549,-0.2,-0.03,-0.001,-0.00015034125912051044,10,1,100,0.4981508454278436,-10,-1,-100,19349.7222981269,-0.048846529970565856,-0.0001749411144637422,0.998806280469562,61.07658983541295,3.6863012738198497,233.73175968995128,-68.66499538362402,-33.92291259765625,4761.76025390625,True
1599388595.4941251,0.0,10,0.5,0.5,-11.383415649414063,-0.2,-0.03,-0.001,-0.0008178100525627794,10,1,100,0.4989920505388552,-10,-1,-100,19348.345348927192,-0.04889782176907622,-0.0001663129762499148,0.9988037722026452,61.16641607980231,3.692395897906739,234.7211007812471,-68.8474519693126,-33.924072265625,4761.76025390625,True
1599388595.533074,0.0,10,0.5,0.5,-11.551147735595704,-0.2,-0.03,-0.001,0.0002615389061640682,10,1,100,0.5105757310264183,-10,-1,-100,19345.580503397156,-0.04900530429781887,-0.0001485057573614186,0.9987985072559521,61.3467757491314,3.7046390336259356,236.7087302764497,-69.21235503844339,-33.926544189453125,4761.76025390625,True
1599388595.5729277,0.0,10,0.5,0.5,-11.604087554931642,-0.2,-0.03,-0.001,0.04956864055606354,10,1,100,0.4992072974108661,-10,-1,-100,19340.00702617946,-0.04895511601444552,0.00031606400731571993,0.9988009294747153,61.728217198791214,3.73040319226297,240.78976309204324,-69.94211844567035,-34.500091552734375,4761.76025390625,True
1599388595.6128528,0.0,10,0.5,0.5,-11.706876159667969,-0.2,-0.03,-0.001,0.022694200929765578,10,1,100,0.5035500112990843,-10,-1,-100,19338.604535152786,-0.048904464868531325,0.0004937997385946682,0.9988033387397846,61.83188941122682,3.737339948147992,241.84797278368418,-70.12454947991304,-34.819915771484375,4761.76025390625,True
1599388595.6517518,0.0,10,0.5,0.5,-11.591570556640626,-0.2,-0.03,-0.001,0.08617066456650471,10,1,100,0.47894322945182555,-10,-1,-100,19334.37517096824,-0.048590261751026494,0.0012319875276017092,0.998818035815182,62.15572761428,3.7588651103667714,245.0871678083451,-70.67181635725962,-36.21875,4761.76025390625,True
1599388595.6916506,0.0,10,0.5,0.5,-11.754313140869142,-0.2,-0.03,-0.001,0.012475084418560795,10,1,100,0.5152225673774113,-10,-1,-100,19334.37517096824,-0.048590261751026494,0.0012319875276017092,0.998818035815182,62.15572761428,3.7588651103667714,245.0871678083451,-70.67181635725962,-36.21875,4761.76025390625,True
1599388595.7335312,0.0,10,0.5,0.5,-11.33430389404297,-0.2,-0.03,-0.001,0.17390404132685996,10,1,100,0.4309988932284529,-10,-1,-100,19328.684943557484,-0.047780419020807756,0.002698403510833882,0.9988542186809287,62.57677135406211,3.7866506091250356,249.39705800343967,-71.40144078910481,-39.111053466796875,4761.76025390625,True
1599388595.7743886,0.0,10,0.5,0.5,-11.489863037109377,-0.2,-0.03,-0.001,0.027532283354726083,10,1,100,0.5167612081524074,-10,-1,-100,19328.684943557484,-0.047780419020807756,0.002698403510833882,0.9988542186809287,62.57677135406211,3.7866506091250356,249.39705800343967,-71.40144078910481,-39.111053466796875,4761.76025390625,True
1599388595.8142805,0.0,10,0.5,0.5,-11.26340368652344,-0.2,-0.03,-0.001,0.1326068187379699,10,1,100,0.4579340578764629,-10,-1,-100,19325.817942024674,-0.047202190001007525,0.003651173465671704,0.9988786824191578,62.75640680844062,3.7984931860467266,251.4423324524886,-71.76622546591906,-40.99725341796875,4761.76025390625,True
1599388595.8561704,0.0,10,0.5,0.5,-10.97396011352539,-0.2,-0.03,-0.001,0.14691423739912268,10,1,100,0.4391336924524615,-10,-1,-100,19322.936349847936,-0.046462703760970024,0.004644076163838684,0.9989092299682713,62.89531690296952,3.807706531768064,253.33166267083547,-72.13099358613744,-43.17803955078125,4761.76025390625,True
1599388595.8961015,0.0,10,0.5,0.5,-10.451212127685547,-0.2,-0.03,-0.001,0.1778363843800937,10,1,100,0.41899268826710184,-10,-1,-100,19320.040167199797,-0.045609510619441386,0.0058234444826554006,0.9989423707278677,62.97407971801475,3.813081706594215,254.98386693248975,-72.49574771232054,-45.6514892578125,4761.76025390625,True
1599388595.9359841,0.0,10,0.5,0.5,-9.246712829589844,-0.2,-0.03,-0.001,0.33557827486248953,10,1,100,0.2638967146505944,-10,-1,-100,19314.204032685608,-0.04342690646803768,0.008324169451911554,0.9990219276860505,62.86704344306445,3.807116237841308,257.2177980272158,-73.22523175912266,-51.481292724609375,4761.76025390625,True
1599388595.9808638,0.0,10,0.5,0.5,-9.199878387451172,-0.2,-0.03,-0.001,0.08635304545780144,10,1,100,0.481599290007987,-10,-1,-100,19314.204032685608,-0.04342690646803768,0.008324169451911554,0.9990219276860505,62.86704344306445,3.807116237841308,257.2177980272158,-73.22523175912266,-51.481292724609375,4761.76025390625,True
1599388596.0207572,0.0,10,0.5,0.5,-7.740431945800781,-0.2,-0.03,-0.001,0.373887427956045,10,1,100,0.17411270036355025,-10,-1,-100,19308.30953912309,-0.040636599479948625,0.010930838287855045,0.9991141994572146,62.24067187654735,3.7687126247644467,257.29934754782107,-73.95472681863461,-58.48876953125,4761.76025390625,True
1599388596.060663,0.0,10,0.5,0.5,-7.676432861328125,-0.2,-0.03,-0.001,0.11426424821662197,10,1,100,0.4523166126335974,-10,-1,-100,19308.30953912309,-0.040636599479948625,0.010930838287855045,0.9991141994572146,62.24067187654735,3.7687126247644467,257.29934754782107,-73.95472681863461,-58.48876953125,4761.76025390625,True
1599388596.1045437,0.0,10,0.5,0.5,-6.816854217529297,-0.2,-0.03,-0.001,0.27111646895320546,10,1,100,0.26973274242453515,-10,-1,-100,19305.34040675871,-0.03898397671647631,0.012347950430223756,0.999163539006274,61.66368699623541,3.7332142249415123,256.22586477329406,-74.31949994047189,-62.432891845703125,4761.76025390625,True
1599388596.1464314,0.0,10,0.5,0.5,-5.88961117553711,-0.2,-0.03,-0.001,0.26203998926633426,10,1,100,0.2425213503615896,-10,-1,-100,19302.356682455982,-0.03724294908096066,0.013543615323494098,0.9992144580758038,60.8736175221822,3.684679679112874,254.2393965727011,-74.68430376870323,-66.67440795898438,4761.76025390625,True
1599388596.1873224,0.0,10,0.5,0.5,-3.928854797363281,-0.2,-0.03,-0.001,0.41764697523312744,10,1,100,-0.025068280517887565,-10,-1,-100,19296.345451961737,-0.033237143195169225,0.016035333088153747,0.9993188482186133,58.53835556293571,3.541923355896089,246.9845721977412,-75.41404730629833,-76.03912353515625,4761.76025390625,True
1599388596.2302015,0.0,10,0.5,0.5,-3.827435302734375,-0.2,-0.03,-0.001,0.16980889172489452,10,1,100,0.37405798047869204,-10,-1,-100,19296.345451961737,-0.033237143195169225,0.016035333088153747,0.9993188482186133,58.53835556293571,3.541923355896089,246.9845721977412,-75.41404730629833,-76.03912353515625,4761.76025390625,True
1599388596.2730536,0.0,10,0.5,0.5,-2.1545918884277344,-0.2,-0.03,-0.001,0.34586824735818544,10,1,100,0.015693628988896924,-10,-1,-100,19291.798710773233,-0.029991980951449122,0.0176246143578905,0.999394743856172,56.024831879731416,3.3893027650242105,238.17719627444296,-75.96151207504319,-83.83871459960938,4761.76025390625,True
1599388596.3159747,0.0,10,0.5,0.5,-1.4880704345703126,-0.2,-0.03,-0.001,0.23841477578575976,10,1,100,0.21802724117063807,-10,-1,-100,19290.275829915656,-0.028896203315909877,0.01808076528136181,0.9994188788294756,55.02798707901638,3.3290135678346737,234.52857791932448,-76.14403525288651,-86.586669921875,4761.76025390625,True
1599388596.359823,0.0,10,0.5,0.5,-0.21905935668945312,-0.2,-0.03,-0.001,0.29623718447368497,10,1,100,0.05993837329514362,-10,-1,-100,19287.219115441665,-0.026478064218645642,0.01900996318095441,0.9994686255281313,52.782274159434664,3.19358456400952,226.08845027050896,-76.50913699770253,-92.3028564453125,4761.76025390625,True
1599388596.4037445,0.0,10,0.5,0.5,1.1063743209838865,-0.2,-0.03,-0.001,0.2817993053508008,10,1,100,0.04858893953033233,-10,-1,-100,19284.147796746227,-0.024191987316224774,0.01971372073971324,0.9995129398683583,53.69058715592545,3.2496020222140354,231.12999791019345,-76.87422842354354,-98.31621551513672,4761.76025390625,True
1599388596.4446282,0.0,10,0.5,0.5,2.5088593368530274,-0.2,-0.03,-0.001,0.28124050598139483,10,1,100,0.005374296494036174,-10,-1,-100,19281.06187701039,-0.021738361485650212,0.02033806620678321,0.9995568051406021,55.4792668024039,3.3594921201607204,240.0187773240604,-77.23922528812923,-104.62464141845703,4761.76025390625,True
1599388596.487519,0.0,10,0.5,0.5,3.9448193588256832,-0.2,-0.03,-0.001,0.2718588972285445,10,1,100,-0.013298785487362269,-10,-1,-100,19277.961360797635,-0.019355217474382715,0.020811813617349156,0.9995960403935563,57.250973874082156,3.4687985457986823,248.9093372555328,-77.60412004115281,-111.11151123046875,4761.76025390625,True
1599388596.5284538,0.0,10,0.5,0.5,5.379863708496094,-0.2,-0.03,-0.001,0.26470971622206757,10,1,100,-0.04063261529374282,-10,-1,-100,19274.846251720213,-0.016959580267722953,0.021168517822050686,0.9996320655573029,58.76294359165065,3.562571066007936,256.73950451558665,-77.96891727354286,-117.49789428710938,4761.76025390625,True
1599388596.5703015,0.0,10,0.5,0.5,6.769303543090821,-0.2,-0.03,-0.001,0.25637322546469,10,1,100,-0.06170904096792057,-10,-1,-100,19271.71655310574,-0.014610146570493148,0.021408989394537892,0.9996640429615808,59.96312654818061,3.637382241399909,263.2640845418843,-78.33362846721364,-123.62043762207031,4761.76025390625,True
1599388596.6131868,0.0,10,0.5,0.5,8.106352447509765,-0.2,-0.03,-0.001,0.24804196165675946,10,1,100,-0.08153826428495864,-10,-1,-100,19268.572268196964,-0.012314607363320677,0.021544710813025943,0.9996920405212149,60.73604900164854,3.686003618697165,267.95397669204834,-78.69827640218172,-129.45294189453125,4761.76025390625,True
1599388596.6550756,0.0,10,0.5,0.5,9.373922805786133,-0.2,-0.03,-0.001,0.24015724442478628,10,1,100,-0.09819679948229332,-10,-1,-100,19265.41339875327,-0.010095332796671614,0.021591406147974532,0.9997159073638259,61.13031993647155,3.7112423980581717,270.99783534020486,-79.06288422186282,-134.99105834960938,4761.76025390625,True
1599388596.6969628,0.0,10,0.5,0.5,11.5934892578125,-0.2,-0.03,-0.001,0.22393325800880992,10,1,100,-0.33788676894824676,-10,-1,-100,19259.05190869118,-0.005919848750389705,0.021481314691364536,0.9997517234343251,60.99547436234864,3.704344940965754,273.0041338568888,-79.7920605694808,-145.1813507080078,4761.76025390625,True
1599388596.738854,0.0,10,0.5,0.5,11.767326873779297,-0.2,-0.03,-0.001,0.2353280737031569,10,1,100,0.07725442245983818,-10,-1,-100,19259.05190869118,-0.005919848750389705,0.021481314691364536,0.9997517234343251,60.99547436234864,3.704344940965754,273.0041338568888,-79.7920605694808,-145.1813507080078,4761.76025390625,True
1599388596.780738,0.0,10,0.5,0.5,12.878100128173829,-0.2,-0.03,-0.001,0.22189304272551363,10,1,100,-0.13864870512115207,-10,-1,-100,19255.849288236,-0.0039779806401675395,0.021356086637558686,0.9997640187732081,60.571396490943755,3.678683085530942,272.4004416590632,-80.15666111164366,-149.83303833007812,4761.76025390625,True
1599388596.8223507,0.0,10,0.5,0.5,13.92126124572754,-0.2,-0.03,-0.001,0.22851929723143144,10,1,100,-0.14425166311883938,-10,-1,-100,19252.6320828927,-0.002182164634148848,0.021300348790101162,0.9997707403694757,59.97701698293716,3.642433870893071,271.01044091140426,-80.52128501160146,-154.1873779296875,4761.76025390625,True
1599388596.8661985,0.0,10,0.5,0.5,15.657084083557132,-0.2,-0.03,-0.001,0.1963821809352893,10,1,100,-0.33734200980249285,-10,-1,-100,19246.1539135176,0.001185753229644925,0.020956080027856313,0.9997796940822234,58.45842519458079,3.549586039797986,266.65399967281286,-81.25062577386053,-162.01107788085938,4761.76025390625,True
1599388596.9081144,0.0,10,0.5,0.5,15.821419692993166,-0.2,-0.03,-0.001,0.23087085854188147,10,1,100,-0.0028426348946450526,-10,-1,-100,19246.1539135176,0.001185753229644925,0.020956080027856313,0.9997796940822234,58.45842519458079,3.549586039797986,266.65399967281286,-81.25062577386053,-162.01107788085938,4761.76025390625,True
1599388596.951009,0.0,10,0.5,0.5,17.30808352661133,-0.2,-0.03,-0.001,0.21192850343626057,10,1,100,-0.3270327077700687,-10,-1,-100,19239.6173900055,0.00411426210059966,0.020783745648341116,0.9997755291885236,56.745106703510956,3.445039808299664,261.2762252859194,-81.98010321991886,-168.64772033691406,4761.76025390625,True
1599388596.9948945,0.0,10,0.5,0.5,18.032826568603515,-0.2,-0.03,-0.001,0.2132901143834391,10,1,100,-0.18172034793365807,-10,-1,-100,19236.327242102474,0.005436363400801757,0.020639806104823206,0.9997721962311864,55.90063254550196,3.3936879091647727,258.5902293096139,-82.34489010801437,-171.5229949951172,4761.76025390625,True
1599388597.0381987,0.0,10,0.5,0.5,18.17365896606445,-0.2,-0.03,-0.001,0.22760715040625867,10,1,100,-0.05151486891057788,-10,-1,-100,19236.327242102474,0.005436363400801757,0.020639806104823206,0.9997721962311864,55.90063254550196,3.3936879091647727,258.5902293096139,-82.34489010801437,-171.5229949951172,4761.76025390625,True
1599388597.0790565,0.0,10,0.5,0.5,18.81763366699219,-0.2,-0.03,-0.001,0.23523616483042625,10,1,100,-0.18634962218029558,-10,-1,-100,19233.022501954227,0.0066459966389227155,0.020709983422050368,0.9997634356763273,55.093990669871104,3.3447865575120903,256.0446744537445,-82.7097050927654,-174.09893798828125,4761.76025390625,True
1599388597.1219885,0.0,10,0.5,0.5,19.390802200317385,-0.2,-0.03,-0.001,0.2319324403343212,10,1,100,-0.19077037416909737,-10,-1,-100,19229.703168399632,0.007770632483080336,0.020744548417497673,0.9997546103828514,54.35232281048816,3.299988505942103,253.7685510279249,-83.0745438651974,-176.379638671875,4761.76025390625,True
1599388597.1628695,0.0,10,0.5,0.5,-52.139898101806644,-0.2,-0.03,-0.001,0.25387881047280725,10,1,100,-0.29430622839179293,-10,-1,-100,19223.020718375104,0.009721817851399523,0.020976153383957703,0.9997327079009053,53.116086880094585,3.2258406599832563,250.2867104185598,-83.80427563789604,179.94879150390625,4761.76025390625,True
1599388597.204753,0.0,10,0.5,0.5,-52.758960098266606,-0.2,-0.03,-0.001,0.2306677976960636,10,1,100,-0.10075185822005314,-10,-1,-100,19223.020718375104,0.009721817851399523,0.020976153383957703,0.9997327079009053,53.116086880094585,3.2258406599832563,250.2867104185598,-83.80427563789604,179.94879150390625,4761.76025390625,True
1599388597.247638,0.0,10,0.5,0.5,-53.468753158569335,-0.2,-0.03,-0.001,0.25381714981547854,10,1,100,-0.1942533974496302,-10,-1,-100,19219.657600489212,0.010559377482130617,0.021186947433455658,0.9997197671375924,52.64728521996737,3.1980249331959345,249.21342532534402,-84.16915972693333,178.5579833984375,4761.76025390625,True
1599388597.289524,0.0,10,0.5,0.5,-53.85766650390625,-0.2,-0.03,-0.001,0.30305107164744394,10,1,100,-0.2644352460386128,-10,-1,-100,19212.887578762253,0.011947228913498472,0.021826262587250435,0.9996903910625333,52.73542715240934,3.2050465671372783,251.9073719786298,-84.89892095546627,175.5196075439453,4761.76025390625,True
1599388597.3313775,0.0,10,0.5,0.5,-54.485518692016605,-0.2,-0.03,-0.001,0.28871564799935345,10,1,100,-0.187344126036315,-10,-1,-100,19209.480676550767,0.012498300509553948,0.02227634507339087,0.9996737252396624,53.285651959201466,3.2395328008405118,255.68660144760145,-85.26376031325968,173.59036254882812,4761.76025390625,True
1599388597.3752937,0.0,10,0.5,0.5,-55.04773451232911,-0.2,-0.03,-0.001,0.30418470224096206,10,1,100,-0.18240490264344808,-10,-1,-100,19206.059181572753,0.012944088523051128,0.022824938494764493,0.9996556770983784,53.897712455450964,3.2779558316162034,259.7880335141721,-85.62856462526751,171.36888122558594,4761.76025390625,True
1599388597.4221685,0.0,10,0.5,0.5,-56.07000579833985,-0.2,-0.03,-0.001,0.24952947938824208,10,1,100,-0.13870908393597525,-10,-1,-100,19206.059181572753,0.012944088523051128,0.022824938494764493,0.9996556770983784,53.897712455450964,3.2779558316162034,259.7880335141721,-85.62856462526751,171.36888122558594,4761.76025390625,True
1599388597.463059,0.0,10,0.5,0.5,-56.028587066650395,-0.2,-0.03,-0.001,0.39361063098953325,10,1,100,-0.20646888166167787,-10,-1,-100,19199.172420394607,0.013553261479537289,0.024132780661694466,0.9996168856120837,55.264840436140865,3.364085168031256,268.7665682773884,-86.35805440231354,166.04502868652344,4761.76025390625,True
1599388597.5059466,0.0,10,0.5,0.5,-57.04661499023438,-0.2,-0.03,-0.001,0.26317571175222304,10,1,100,-0.14636327582093533,-10,-1,-100,19199.172420394607,0.013553261479537289,0.024132780661694466,0.9996168856120837,55.264840436140865,3.364085168031256,268.7665682773884,-86.35805440231354,166.04502868652344,4761.76025390625,True
1599388597.5478015,0.0,10,0.5,0.5,-56.76123696899414,-0.2,-0.03,-0.001,0.44999429046931183,10,1,100,-0.17102362194068213,-10,-1,-100,19192.227308742702,0.013771167112588974,0.025828019743450142,0.9995715423882819,56.85641287103046,3.4646710066109145,278.96491206240836,-87.08736246590492,159.5484619140625,4761.76025390625,True
1599388597.5901315,0.0,10,0.5,0.5,-57.77551783752442,-0.2,-0.03,-0.001,0.28097872942633945,10,1,100,-0.1498331120984645,-10,-1,-100,19192.227308742702,0.013771167112588974,0.025828019743450142,0.9995715423882819,56.85641287103046,3.4646710066109145,278.96491206240836,-87.08736246590492,159.5484619140625,4761.76025390625,True
1599388597.63302,0.0,10,0.5,0.5,-56.972975997924806,-0.2,-0.03,-0.001,0.3879202273454735,10,1,100,-0.15066933404965585,-10,-1,-100,19188.73287666554,0.013775087903725995,0.026795804391479095,0.9995460128579666,57.72393621886377,3.5195949734393146,284.4690350388487,-87.45193767051995,155.86019897460938,4761.76025390625,True
1599388597.6739428,0.0,10,0.5,0.5,-56.10440093994141,-0.2,-0.03,-0.001,0.41612066972055783,10,1,100,-0.1331256899338246,-10,-1,-100,19185.22386333451,0.013615479794568161,0.027926685683090254,0.999517242941172,58.67361350019777,3.579654714608232,290.4170204197199,-87.81645516041435,151.88011169433594,4761.76025390625,True
1599388597.719784,0.0,10,0.5,0.5,-55.16939567565918,-0.2,-0.03,-0.001,0.43540712515115115,10,1,100,-0.13050345092892718,-10,-1,-100,19181.70027094893,0.013443764702277938,0.029123963962787942,0.9994853975490207,59.58588895837271,3.6375007452908545,296.2197705006926,-88.18091467371606,147.60671997070312,4761.76025390625,True
1599388597.7616718,0.0,10,0.5,0.5,-54.172331176757815,-0.2,-0.03,-0.001,0.46524643802882487,10,1,100,-0.1148342034830551,-10,-1,-100,19178.16210189904,0.013143851881789098,0.030477030969241477,0.9994490430937485,60.4298876852752,3.6911711849039794,301.7207038545807,-88.545319263066,143.0415496826172,4761.76025390625,True
1599388597.8050997,0.0,10,0.5,0.5,-53.10893571472168,-0.2,-0.03,-0.001,0.49345639379961215,10,1,100,-0.10405105440051177,-10,-1,-100,19174.60935803945,0.012772588370255909,0.0319560908585738,0.9994076591878625,61.17684864570538,3.738821680943271,306.77127088383645,-88.90967405474579,138.18426513671875,4761.76025390625,True
1599388597.8469877,0.0,10,0.5,0.5,-51.97928359985352,-0.2,-0.03,-0.001,0.5252462643873865,10,1,100,-0.0926646653674919,-10,-1,-100,19171.042041266803,0.012331719368700825,0.03358138853388858,0.9993599046597516,61.79477551789787,3.7784089242189007,311.2042747262652,-89.27398692725833,133.0352325439453,4761.76025390625,True
1599388597.8898757,0.0,10,0.5,0.5,-50.77590225219727,-0.2,-0.03,-0.001,0.5598897752269305,10,1,100,-0.08015927307707421,-10,-1,-100,19167.460153164924,0.011817800682059997,0.0353640942917714,0.9993046184332192,62.24895162534822,3.8077334989418525,314.83613127174283,-89.63826835927058,127.59478759765625,4761.76025390625,True
1599388597.9317617,0.0,10,0.5,0.5,-49.51395306396484,-0.2,-0.03,-0.001,0.5977533483264699,10,1,100,-0.06815917008492005,-10,-1,-100,19163.863694410655,0.011243087722273731,0.037318739905633336,0.9992401636395152,62.50326453410729,3.824536704021451,317.47329556570946,-90.0025316171239,121.86325073242188,4761.76025390625,True
1599388597.9726517,0.0,10,0.5,0.5,-48.17665835571289,-0.2,-0.03,-0.001,0.6390501606769339,10,1,100,-0.05654542699602701,-10,-1,-100,19160.252664988628,0.010617142070530156,0.039459128794835735,0.9991647779265473,62.520501848105226,3.826532988811675,318.9135705137055,-90.36679223971575,115.84095764160156,4761.76025390625,True
1599388598.0155754,0.0,10,0.5,0.5,-46.78270883178711,-0.2,-0.03,-0.001,0.6839081280795092,10,1,100,-0.04578570568286189,-10,-1,-100,19156.62706494797,0.009953152216136367,0.04180034466226916,0.9990764064610264,62.263181592476904,3.8114739133332103,318.9501548158071,-90.7310674836805,109.52827453613281,4761.76025390625,True
1599388598.056763,0.0,10,0.5,0.5,-43.92643013000488,-0.2,-0.03,-0.001,1.0397476896793774,10,1,100,0.038834440629732195,-10,-1,-100,19149.332147375797,0.008583721941024297,0.047149107533644874,0.9988509805653795,60.78086801451592,3.7218511745430884,313.9986490447987,-91.45973261643941,96.03309631347656,4761.76025390625,True
1599388598.099648,0.0,10,0.5,0.5,-42.316921966552734,-0.2,-0.03,-0.001,0.8412986528560639,10,1,100,-0.025244993090827353,-10,-1,-100,19145.662825323874,0.00792604505743905,0.0501890340790998,0.9987082850702473,59.49091106768818,3.643663374594865,308.63161466186955,-91.82415503687892,88.85139465332031,4761.76025390625,True
1599388598.1435316,0.0,10,0.5,0.5,-40.633820236206056,-0.2,-0.03,-0.001,0.9168323894677131,10,1,100,-0.022443229098326987,-10,-1,-100,19141.97892431135,0.007307858613099847,0.05361903550016835,0.9985347235997969,57.80191154530279,3.541449019897943,301.13169018147704,-92.18865417926062,81.38275146484375,4761.76025390625,True
1599388598.1854198,0.0,10,0.5,0.5,-40.44261697387695,-0.2,-0.03,-0.001,0.5762817545145961,10,1,100,-0.0836482829233294,-10,-1,-100,19141.97892431135,0.007307858613099847,0.05361903550016835,0.9985347235997969,57.80191154530279,3.541449019897943,301.13169018147704,-92.18865417926062,81.38275146484375,4761.76025390625,True
1599388598.2288105,0.0,10,0.5,0.5,-38.698185317993165,-0.2,-0.03,-0.001,0.9778448378475045,10,1,100,-0.028066535992336286,-10,-1,-100,19138.280440688948,0.006807875453062355,0.05724857079907576,0.9983367437760061,55.86677242632952,3.424722233780603,292.27155421840683,-92.55323370315617,73.624267578125,4761.76025390625,True
1599388598.2714217,0.0,10,0.5,0.5,-36.89508422851563,-0.2,-0.03,-0.001,1.0557646862021288,10,1,100,-0.03783181823198564,-10,-1,-100,19134.56737556157,0.006447543066949804,0.06123351743772409,0.9981026427830975,58.168002639795816,3.5684402144619574,305.5823489588983,-92.91774139922896,65.57859802246094,4761.76025390625,True
1599388598.3143418,0.0,10,0.5,0.5,-33.29204093933106,-0.2,-0.03,-0.001,1.6105916614713216,10,1,100,-0.0575299009609225,-10,-1,-100,19127.097521778545,0.006304390901021231,0.06987493949448446,0.997535837695072,62.71611676096104,3.8545900056197446,332.2141443757851,-93.64635620898301,48.61979675292969,4761.76025390625,True
1599388598.3568037,0.0,10,0.5,0.5,-33.07207476806641,-0.2,-0.03,-0.001,0.7499005403155551,10,1,100,-0.07129377657567598,-10,-1,-100,19127.097521778545,0.006304390901021231,0.06987493949448446,0.997535837695072,62.71611676096104,3.8545900056197446,332.2141443757851,-93.64635620898301,48.61979675292969,4761.76025390625,True
1599388598.401655,0.0,10,0.5,0.5,-31.060995086669923,-0.2,-0.03,-0.001,1.2685423007087882,10,1,100,-0.11057949701924316,-10,-1,-100,19123.340743298642,0.006666023538527526,0.07456026804388763,0.9971942291045449,64.6800670257556,3.9790593222143404,344.0271336008349,-94.01047941345345,39.707611083984375,4761.76025390625,True
1599388598.4445758,0.0,10,0.5,0.5,-27.084234008789064,-0.2,-0.03,-0.001,1.8843901584792881,10,1,100,-0.2592132029371458,-10,-1,-100,19115.783502752078,0.00834958791599782,0.08438636439648682,0.9963981261953359,67.05781342700276,4.131920108037729,359.5966409199124,-94.7384863985927,21.01470947265625,4761.76025390625,True
1599388598.485466,0.0,10,0.5,0.5,-24.87131816101074,-0.2,-0.03,-0.001,1.4621867142979887,10,1,100,-0.2537899965136512,-10,-1,-100,19111.983044285444,0.009832256895575535,0.08944225157017044,0.995943477491769,67.29711153869697,4.149228829962001,362.3493431342094,-95.10245326948325,11.2332763671875,4761.76025390625,True
1599388598.530346,0.0,10,0.5,0.5,-24.626700134277343,-0.2,-0.03,-0.001,0.9608273113332794,10,1,100,-0.10564795205133477,-10,-1,-100,19111.983044285444,0.009832256895575535,0.08944225157017044,0.995943477491769,67.29711153869697,4.149228829962001,362.3493431342094,-95.10245326948325,11.2332763671875,4761.76025390625,True
1599388598.5732322,0.0,10,0.5,0.5,-20.28530714416504,-0.2,-0.03,-0.001,2.047162424548175,10,1,100,-0.5597605233232785,-10,-1,-100,19104.338445792906,0.013958820078194899,0.09928234058349579,0.9949613903012958,65.51330223645276,4.043943966462995,355.61818376312794,-95.83052856719058,-9.20721435546875,4761.76025390625,True
1599388598.6151197,0.0,10,0.5,0.5,-20.033977737426756,-0.2,-0.03,-0.001,1.0677198537239727,10,1,100,-0.1477693012078516,-10,-1,-100,19104.338445792906,0.013958820078194899,0.09928234058349579,0.9949613903012958,65.51330223645276,4.043943966462995,355.61818376312794,-95.83052856719058,-9.20721435546875,4761.76025390625,True
1599388598.6570084,0.0,10,0.5,0.5,-15.417441452026369,-0.2,-0.03,-0.001,2.0694436573941557,10,1,100,-0.7688874515047284,-10,-1,-100,19096.635582698742,0.019599302388652783,0.10834740852133079,0.9939198692110899,60.45021870828115,3.738081562425893,330.7978844818888,-96.55899362994582,-30.822967529296875,4761.76025390625,True
1599388599.0873442,0.0,10,0.5,0.5,-15.12571549987793,-0.2,-0.03,-0.001,1.1680467473828808,10,1,100,-0.20611836315249896,-10,-1,-100,19096.635582698742,0.019599302388652783,0.10834740852133079,0.9939198692110899,60.45021870828115,3.738081562425893,330.7978844818888,-96.55899362994582,-30.822967529296875,4761.76025390625,True
1599388599.1252427,0.0,10,0.5,0.5,-12.575365081787108,-0.2,-0.03,-0.001,1.6306680453073903,10,1,100,-0.5778257613475036,-10,-1,-100,19092.762294064858,0.022966504409224004,0.11251022587420487,0.9933851160295067,61.431780518254406,3.803747117928882,337.52029697250174,-96.9232691279488,-42.07244873046875,4761.76025390625,True
1599388599.1621442,0.0,10,0.5,0.5,-9.992965744018555,-0.2,-0.03,-0.001,1.6099104449830075,10,1,100,-0.6147229658392483,-10,-1,-100,19088.874440307263,0.026347878911024428,0.1160671404771599,0.992891841127897,64.32742568909858,3.988810437616162,354.8398120188783,-97.28734834966139,-53.62255859375,4761.76025390625,True
1599388599.2000422,0.0,10,0.5,0.5,-6.1039568786621095,-0.2,-0.03,-0.001,1.777459647684896,10,1,100,-0.8872013497402186,-10,-1,-100,19083.015364537947,0.031880710595388176,0.12078188086715193,0.9921670008351045,67.3283788567208,4.1834808988208625,373.5999721615774,-97.83318518248731,-71.5023193359375,4761.76025390625,True
1599388599.243968,0.0,10,0.5,0.5,-5.788206848144531,-0.2,-0.03,-0.001,1.3106077699680192,10,1,100,-0.3364396500095298,-10,-1,-100,19083.015364537947,0.031880710595388176,0.12078188086715193,0.9921670008351045,67.3283788567208,4.1834808988208625,373.5999721615774,-97.83318518248731,-71.5023193359375,4761.76025390625,True
1599388599.2838569,0.0,10,0.5,0.5,-0.5091337738037108,-0.2,-0.03,-0.001,1.830732029730648,10,1,100,-1.1011194475149573,-10,-1,-100,19075.152329854318,0.03881095318845625,0.12547719639547522,0.991337068356336,67.91920026340416,4.229068972906627,379.8472495688305,-98.56077915682573,-96.38551330566406,4761.76025390625,True
1599388599.3227212,0.0,10,0.5,0.5,2.3792753601074224,-0.2,-0.03,-0.001,1.5547537590916618,10,1,100,-0.7795698592757345,-10,-1,-100,19071.198982275208,0.04216165138334986,0.1272040126473917,0.990980087751026,66.34651748325281,4.134920155460922,372.5083953718577,-98.92466796303859,-109.27325439453125,4761.76025390625,True
1599388599.3631263,0.0,10,0.5,0.5,5.362526611328126,-0.2,-0.03,-0.001,1.555834345962743,10,1,100,-0.7484155903953957,-10,-1,-100,19067.231074673706,0.04489512966662481,0.12874934024698267,0.9906604033260762,63.46377575131333,3.9593474259498267,357.72012714151623,-99.288694065253,-122.38081359863281,4761.76025390625,True
1599388599.406011,0.0,10,0.5,0.5,5.688939849853516,-0.2,-0.03,-0.001,1.4042482859699943,10,1,100,-0.4781613930267437,-10,-1,-100,19067.231074673706,0.04489512966662481,0.12874934024698267,0.9906604033260762,63.46377575131333,3.9593474259498267,357.72012714151623,-99.288694065253,-122.38081359863281,4761.76025390625,True
1599388599.445492,0.0,10,0.5,0.5,8.649824401855469,-0.2,-0.03,-0.001,1.5505831093881417,10,1,100,-0.7568940111455911,-10,-1,-100,19063.24860150728,0.04740093864080667,0.13005286864199903,0.9903733651375918,59.37938541769288,3.7092703835404452,336.00508502719316,-99.65288084557692,-135.42242431640625,4761.76025390625,True
1599388599.4854257,0.0,10,0.5,0.5,11.519422256469726,-0.2,-0.03,-0.001,1.557349927969151,10,1,100,-0.73555554954037,-10,-1,-100,19059.251563023427,0.04945968656978621,0.13127967875173155,0.9901107944827491,62.40401197891009,3.9039886883111334,354.4892733532158,-100.01696531554673,-148.20272827148438,4761.76025390625,True
1599388599.5272748,0.0,10,0.5,0.5,15.601194763183594,-0.2,-0.03,-0.001,1.636332101331516,10,1,100,-0.7906564510297202,-10,-1,-100,19053.22871305223,0.05180504707859703,0.13309213290911862,0.9897488172535929,66.58034919165566,4.174221662420238,380.3962067630468,-100.5627228182156,-166.8217010498047,4761.76025390625,True
1599388599.567676,0.0,10,0.5,0.5,17.173941482543945,-0.2,-0.03,-0.001,1.5337625770015821,10,1,100,-0.6233799613316892,-10,-1,-100,19051.213821221492,0.05239028077783443,0.1337886574609848,0.9896240971271903,67.56041902867118,4.23834280605266,386.7336085498038,-100.74457937322875,-172.87701416015625,4761.76025390625,True
1599388599.6085668,0.0,10,0.5,0.5,-52.44568432617188,-0.2,-0.03,-0.001,1.632475500944778,10,1,100,-0.6693427541018246,-10,-1,-100,19047.173127456103,0.053316480073354384,0.1353031413467251,0.9893686941147348,68.62114732372012,4.309754050345454,394.3069099710497,-101.10825947827237,175.23907470703125,4761.76025390625,True
1599388599.6494913,0.0,10,0.5,0.5,-48.24433392333985,-0.2,-0.03,-0.001,1.9147916532902738,10,1,100,-0.6910441113330323,-10,-1,-100,19039.048094521742,0.05433627743549444,0.1392332542091939,0.9887677532549142,67.382377614354,4.240898755329543,390.15415156342567,-101.8357301841985,152.38604736328125,4761.76025390625,True
1599388599.6903808,0.0,10,0.5,0.5,-46.67401057434083,-0.2,-0.03,-0.001,1.8019782043769101,10,1,100,-0.6183668694278396,-10,-1,-100,19034.96374920127,0.05458224959571992,0.14176373330009676,0.9883945679483925,65.26709196771408,4.112937670974682,379.3492740716187,-102.19960668985613,141.11817932128906,4761.76025390625,True
1599388599.7332659,0.0,10,0.5,0.5,-45.08538168334961,-0.2,-0.03,-0.001,1.8739950028912078,10,1,100,-0.6159356625938683,-10,-1,-100,19030.86484508356,0.0547694212279731,0.1447040610629524,0.9879580179391441,62.15005928291197,3.922475776900476,362.6061685971453,-102.56360448529468,129.61366271972656,4761.76025390625,True
1599388599.77664,0.0,10,0.5,0.5,-45.81354695129395,-0.2,-0.03,-0.001,1.5817122314472007,10,1,100,-0.5984792763530126,-10,-1,-100,19030.86484508356,0.0547694212279731,0.1447040610629524,0.9879580179391441,62.15005928291197,3.922475776900476,362.6061685971453,-102.56360448529468,129.61366271972656,4761.76025390625,True
1599388599.818561,0.0,10,0.5,0.5,-44.201772094726564,-0.2,-0.03,-0.001,1.9512281840689067,10,1,100,-0.6201752321156231,-10,-1,-100,19026.751383051742,0.05495768056075924,0.1480487927042261,0.9874518764609254,65.02308728330705,4.1109937982482085,380.8012096387723,-102.9274999293197,117.83377075195312,4761.76025390625,True
1599388599.8604128,0.0,10,0.5,0.5,-40.0289290008545,-0.2,-0.03,-0.001,2.4890455349626,10,1,100,-0.6925021005917007,-10,-1,-100,19018.480821186095,0.05577719462135268,0.15596116152036557,0.9861871123967246,71.40955969928756,4.530455557157999,421.3362171097077,-103.6546385996755,93.42945861816406,4761.76025390625,True
1599388599.9033356,0.0,10,0.5,0.5,-38.20199406433105,-0.2,-0.03,-0.001,2.1938083352926787,10,1,100,-0.7006278561440659,-10,-1,-100,19014.323734088684,0.05658846313056772,0.16044669654451274,0.9854210284992264,73.22087231957981,4.65230869639788,433.63099544744307,-104.01801818349102,80.80311584472656,4761.76025390625,True
1599388599.9451861,0.0,10,0.5,0.5,-36.306647460937505,-0.2,-0.03,-0.001,2.2702399041284913,10,1,100,-0.7535578865687576,-10,-1,-100,19010.152111981064,0.05780068134593243,0.16519277263061502,0.984566112105508,73.63681789032786,4.68522528633272,437.7182987647795,-104.38139407060174,67.89271545410156,4761.76025390625,True
1599388600.0030313,0.0,10,0.5,0.5,-37.023701110839845,-0.2,-0.03,-0.001,1.7988423594904128,10,1,100,-0.6329356284590204,-10,-1,-100,19010.152111981064,0.05780068134593243,0.16519277263061502,0.984566112105508,73.63681789032786,4.68522528633272,437.7182987647795,-104.38139407060174,67.89271545410156,4761.76025390625,True
1599388600.0459156,0.0,10,0.5,0.5,-32.3837488861084,-0.2,-0.03,-0.001,2.8925074582563166,10,1,100,-1.0551465687333883,-10,-1,-100,19001.765251051635,0.061634044075182956,0.1751066334237872,0.982618395686711,69.74364693211855,4.451748426375313,417.6745083037644,-105.10843916298843,41.21479797363281,4761.76025390625,True
1599388600.0878386,0.0,10,0.5,0.5,-30.631738906860353,-0.2,-0.03,-0.001,2.181183407672926,10,1,100,-0.8120731218710234,-10,-1,-100,18999.659444938414,0.062901599253933,0.1776164668740247,0.9820874602124223,67.74349162065423,4.328452850187318,406.4492563640398,-105.29029349584438,34.365966796875,4761.76025390625,True
1599388600.1297283,0.0,10,0.5,0.5,-28.893377838134764,-0.2,-0.03,-0.001,2.207621813664183,10,1,100,-0.840817511423566,-10,-1,-100,18997.550001220894,0.06430744811980303,0.1801035889626476,0.9815432997881922,65.76413767071517,4.206610888500288,395.30256616667515,-105.47217851105965,27.44482421875,4761.76025390625,True
1599388600.1765664,0.0,10,0.5,0.5,-25.732526260375977,-0.2,-0.03,-0.001,2.4784758197555004,10,1,100,-1.058620242202546,-10,-1,-100,18993.32020809909,0.06755667627901735,0.18479206377525992,0.9804529507609289,71.07898466982992,4.557163110523539,428.8175228950816,-105.83567972964885,13.381378173828125,4761.76025390625,True
1599388600.2184582,0.0,10,0.5,0.5,-21.04778985595703,-0.2,-0.03,-0.001,2.7382824448809995,10,1,100,-1.3634352426542737,-10,-1,-100,18986.948275332572,0.07326994074145421,0.19137974837630992,0.9787774556533084,77.02891533299739,4.954757161674478,467.249841000291,-106.38041891211033,-8.26092529296875,4761.76025390625,True
1599388600.2603428,0.0,10,0.5,0.5,-17.681268478393555,-0.2,-0.03,-0.001,2.501847196924471,10,1,100,-1.2649449380856692,-10,-1,-100,18982.682168140076,0.07755163246621542,0.19517670877101115,0.9776971906756924,79.05638650983464,5.09481345247776,481.28906315888617,-106.7434178782803,-23.05963134765625,4761.76025390625,True
1599388600.304727,0.0,10,0.5,0.5,-12.699361099243164,-0.2,-0.03,-0.001,2.6430661920603455,10,1,100,-1.5880297388512783,-10,-1,-100,18976.255780171487,0.08436067408486256,0.19986945643464132,0.9761841409552139,77.93801736450057,5.037317049965364,477.07700722272176,-107.28801689071145,-45.81597900390625,4761.76025390625,True
1599388600.346615,0.0,10,0.5,0.5,-12.304381134033203,-0.2,-0.03,-0.001,2.1781822551887555,10,1,100,-0.9099839249329158,-10,-1,-100,18976.255780171487,0.08436067408486256,0.19986945643464132,0.9761841409552139,77.93801736450057,5.037317049965364,477.07700722272176,-107.28801689071145,-45.81597900390625,4761.76025390625,True
1599388600.3885038,0.0,10,0.5,0.5,-8.80012336730957,-0.2,-0.03,-0.001,2.4483676910519745,10,1,100,-1.4196821987393788,-10,-1,-100,18971.953361897497,0.0889690472913265,0.2022898487971341,0.9752760253885595,74.22231480260973,4.808472274864489,455.98786422743956,-107.65127654853227,-61.360260009765625,4761.76025390625,True
1599388600.4323857,0.0,10,0.5,0.5,-5.2434560546875,-0.2,-0.03,-0.001,2.416347354871967,10,1,100,-1.4565039841468388,-10,-1,-100,18967.63640889572,0.093464886104593,0.20416538691033972,0.974464370745902,70.72541832383678,4.5944421128529855,436.0719801706189,-108.01466873658774,-77.20330810546875,4761.76025390625,True
1599388600.4766932,0.0,10,0.5,0.5,0.06475515747070304,-0.2,-0.03,-0.001,2.446618877325709,10,1,100,-1.7037628892650019,-10,-1,-100,18961.133745524567,0.09976739852249251,0.20611018756803365,0.973429533542477,78.366049773394,5.111001857173551,485.75734296509694,-108.55916688768286,-101.52552795410156,4761.76025390625,True
1599388600.51958,0.0,10,0.5,0.5,2.1279298324584963,-0.2,-0.03,-0.001,2.307100649633413,10,1,100,-1.2878755400043729,-10,-1,-100,18958.958934534458,0.1016814944959888,0.20658165559223976,0.9731314881606861,80.05357622832486,5.227008304641301,497.0930166596211,-108.7405519425245,-109.78063201904297,4761.76025390625,True
1599388600.5634594,0.0,10,0.5,0.5,5.914777725219727,-0.2,-0.03,-0.001,2.3477199627593706,10,1,100,-1.487848039316081,-10,-1,-100,18954.598429894308,0.10520425910632636,0.207353197380192,0.9725927798426739,81.342384714436,5.322186869553817,506.8840013853659,-109.10330312601285,-126.51029968261719,4761.76025390625,True
1599388600.6072474,0.0,10,0.5,0.5,13.108662635803222,-0.2,-0.03,-0.001,2.4232150814103224,10,1,100,-1.7665618326054724,-10,-1,-100,18945.833872220595,0.11090335522654904,0.20871614589477766,0.971667647008134,74.71918922581133,4.911416203750038,468.9310071213855,-109.82927693889607,-160.08616638183594,4761.76025390625,True
1599388600.6506422,0.0,10,0.5,0.5,13.595489402770996,-0.2,-0.03,-0.001,2.289312638163709,10,1,100,-1.2009868884779575,-10,-1,-100,18945.833872220595,0.11090335522654904,0.20871614589477766,0.971667647008134,74.71918922581133,4.911416203750038,468.9310071213855,-109.82927693889607,-160.08616638183594,4761.76025390625,True
1599388600.6955583,0.0,10,0.5,0.5,-53.37635514068604,-0.2,-0.03,-0.001,2.4473230512969613,10,1,100,-1.5589664526783185,-10,-1,-100,18939.22232396202,0.11412350270611132,0.21013684383460862,0.9709883279387644,75.69487970499033,4.996186252544452,477.55315942322477,-110.37397421427966,175.37313842773438,4761.76025390625,True
1599388600.7394357,0.0,10,0.5,0.5,-52.02268578338624,-0.2,-0.03,-0.001,2.3758421559831437,10,1,100,-1.3424402659860322,-10,-1,-100,18937.01121657237,0.11504924247192908,0.21076496097245334,0.9707429129449855,78.38537655133874,5.180382859979736,495.383167285059,-110.55535804594369,167.34573364257812,4761.76025390625,True
1599388600.7852829,0.0,10,0.5,0.5,-46.31206128692627,-0.2,-0.03,-0.001,2.7020098167781033,10,1,100,-1.6239328141266889,-10,-1,-100,18928.130527170026,0.1184219485435993,0.21429123210086834,0.9695645981304335,83.56249843310756,5.547176846467323,531.7732027883385,-111.28054796952927,135.7132110595703,4761.76025390625,True
1599388600.829164,0.0,10,0.5,0.5,-46.88828137969971,-0.2,-0.03,-0.001,2.350824881503226,10,1,100,-1.2900683344055395,-10,-1,-100,18928.130527170026,0.1184219485435993,0.21429123210086834,0.9695645981304335,83.56249843310756,5.547176846467323,531.7732027883385,-111.28054796952927,135.7132110595703,4761.76025390625,True
1599388600.8730888,0.0,10,0.5,0.5,-44.255288322448735,-0.2,-0.03,-0.001,2.6171475802665545,10,1,100,-1.4838094121658603,-10,-1,-100,18923.668424581876,0.12015645570391834,0.2167014371957134,0.9688152111058046,81.90621196088794,5.450349999158041,523.0564150869781,-111.64323788370076,119.67234802246094,4761.76025390625,True
1599388600.9160094,0.0,10,0.5,0.5,-41.58362824249268,-0.2,-0.03,-0.001,2.6865383809460375,10,1,100,-1.5282815982160842,-10,-1,-100,18919.191808925127,0.12211330793230192,0.21951196178785384,0.9679374146389212,77.2192500016789,5.153375153198294,494.8456225824195,-112.00612401767246,103.36225891113281,4761.76025390625,True
1599388600.9608867,0.0,10,0.5,0.5,-38.88069023895263,-0.2,-0.03,-0.001,2.7517726294473728,10,1,100,-1.5889611290383014,-10,-1,-100,18914.70067453652,0.12442358213884369,0.22264783933597565,0.9669264252500083,77.43657773145527,5.184305765611497,497.9435745774974,-112.36904481381112,86.775634765625,4761.76025390625,True
1599388601.002741,0.0,10,0.5,0.5,-36.09683419799804,-0.2,-0.03,-0.001,2.8084437846213723,10,1,100,-1.6650577671549782,-10,-1,-100,18910.195038084406,0.12719494441163068,0.2259992238051739,0.965787656245192,83.68737064321152,5.619277916594796,539.9628718600552,-112.73150328311296,69.90940856933594,4761.76025390625,True
1599388601.0441608,0.0,10,0.5,0.5,-33.256108276367186,-0.2,-0.03,-0.001,2.8522620097713247,10,1,100,-1.7537624457486916,-10,-1,-100,18905.674910857924,0.13050077929655687,0.22942733352724007,0.9645375291991349,87.66046541798454,5.9011207827381815,567.5140392582014,-113.09372878166963,52.760894775390625,4761.76025390625,True
1599388601.0870454,0.0,10,0.5,0.5,-26.845318115234374,-0.2,-0.03,-0.001,3.2226049019828893,10,1,100,-2.3363548414430544,-10,-1,-100,18896.591183379292,0.13878456240364762,0.23589172212410311,0.9618180392734133,84.65942273997814,5.7304726548078575,551.845523971355,-113.81839906010772,17.604278564453125,4761.76025390625,True
1599388601.1299472,0.0,10,0.5,0.5,-23.792540390014647,-0.2,-0.03,-0.001,2.8796503770222497,10,1,100,-2.0493905931147762,-10,-1,-100,18892.027567278245,0.14368116187331204,0.23862596555230978,0.9604235379700786,77.35251077755159,5.254130537877147,505.92914316671005,-114.18109364881266,-0.410675048828125,4761.76025390625,True
1599388601.1723025,0.0,10,0.5,0.5,-23.283203903198242,-0.2,-0.03,-0.001,2.609074946373354,10,1,100,-1.5626864120650543,-10,-1,-100,18892.027567278245,0.14368116187331204,0.23862596555230978,0.9604235379700786,77.35251077755159,5.254130537877147,505.92914316671005,-114.18109364881266,-0.410675048828125,4761.76025390625,True
1599388601.2161493,0.0,10,0.5,0.5,-19.09952088928223,-0.2,-0.03,-0.001,2.85765785800952,10,1,100,-2.145357847035231,-10,-1,-100,18887.44945159345,0.14895214590085784,0.24086048201756596,0.9590617740447146,84.87172475938658,5.784569237390185,556.9563665414253,-114.54343695187441,-18.72119140625,4761.76025390625,True
1599388601.2570775,0.0,10,0.5,0.5,-14.914215576171875,-0.2,-0.03,-0.001,2.8189188819038793,10,1,100,-2.226647123829363,-10,-1,-100,18882.856855176156,0.15445518826279409,0.2425155342487324,0.9577733607000963,90.89873356430206,6.213554295616142,598.4798603482499,-114.90537437630765,-37.3297119140625,4761.76025390625,True
1599388601.299965,0.0,10,0.5,0.5,-10.613238510131836,-0.2,-0.03,-0.001,2.771205396497816,10,1,100,-2.292904919185429,-10,-1,-100,18878.24978465191,0.16002754014986473,0.24356070977142144,0.956592581535747,93.14023884550355,6.384477730206895,615.2837484427723,-115.2672194204226,-56.237457275390625,4761.76025390625,True
1599388601.3443964,0.0,10,0.5,0.5,-6.24380355834961,-0.2,-0.03,-0.001,2.719937902566067,10,1,100,-2.3417493609126208,-10,-1,-100,18873.62823630974,0.16550110853158892,0.24402038369032675,0.9555435287931371,90.54177275221579,6.226525337721299,600.1304519640171,-115.62922115179049,-75.44448852539062,4761.76025390625,True
1599388601.3882756,0.0,10,0.5,0.5,-1.806093566894531,-0.2,-0.03,-0.001,2.6710206254862987,10,1,100,-2.373208249675476,-10,-1,-100,18868.992199938744,0.1707236262304557,0.24397128616869507,0.9546368183617876,83.07246059587567,5.73484730074002,552.4569807216668,-115.99149577366627,-94.94944763183594,4761.76025390625,True
1599388601.431125,0.0,10,0.5,0.5,2.6994601440429693,-0.2,-0.03,-0.001,2.629903880653703,10,1,100,-2.389386911698328,-10,-1,-100,18864.341676072916,0.17557635738954996,0.24353347851706747,0.9538681185400811,87.60347581922578,6.069991635516515,584.48198311861,-116.35356633485824,-114.74986267089844,4761.76025390625,True
1599388601.4765158,0.0,10,0.5,0.5,11.368282608032228,-0.2,-0.03,-0.001,2.5197565019412456,10,1,100,-2.8274297172384415,-10,-1,-100,18854.99722797796,0.1839261553909295,0.24211819152300923,0.9526541611186815,95.01518899253513,6.622032359676881,638.050389304241,-117.07679837412194,-155.22073364257812,4761.76025390625,True
1599388601.5213962,0.0,10,0.5,0.5,11.951756622314454,-0.2,-0.03,-0.001,2.6625542871466465,10,1,100,-1.9977924547099262,-10,-1,-100,18854.99722797796,0.1839261553909295,0.24211819152300923,0.9526541611186815,95.01518899253513,6.622032359676881,638.050389304241,-117.07679837412194,-155.22073364257812,4761.76025390625,True
1599388601.5638607,0.0,10,0.5,0.5,-51.758076812744136,-0.2,-0.03,-0.001,2.5462510945422667,10,1,100,-2.740201594680293,-10,-1,-100,18845.594889634638,0.19063429157885348,0.24105522934533405,0.9516044048235048,81.10072197526286,5.692677860480071,548.1753878681562,-117.80085630689837,164.32308959960938,4761.76025390625,True
1599388601.6087406,0.0,10,0.5,0.5,-47.95502537536622,-0.2,-0.03,-0.001,2.6426327237887097,10,1,100,-2.4033442711261217,-10,-1,-100,18840.87200100161,0.19362757323583232,0.24096288830078516,0.9510232643550555,90.7851896926702,6.393680901284634,615.5794900905175,-118.16261303986606,144.5334930419922,4761.76025390625,True
1599388601.6526227,0.0,10,0.5,0.5,-44.434711151123054,-0.2,-0.03,-0.001,2.681829167033763,10,1,100,-2.4344133217786026,-10,-1,-100,18836.13465346722,0.19658577846505154,0.24123314872365167,0.9503476204327354,96.41977148908039,6.8095692594208,655.8625331296515,-118.5240288982568,124.7576904296875,4761.76025390625,True
1599388601.6955082,0.0,10,0.5,0.5,-44.884923599243166,-0.2,-0.03,-0.001,2.65484039141772,10,1,100,-2.1433561621131005,-10,-1,-100,18836.13465346722,0.19658577846505154,0.24123314872365167,0.9503476204327354,96.41977148908039,6.8095692594208,655.8625331296515,-118.5240288982568,124.7576904296875,4761.76025390625,True
1599388601.7393913,0.0,10,0.5,0.5,-41.35070735168457,-0.2,-0.03,-0.001,2.7219590869640995,10,1,100,-2.4875784266806313,-10,-1,-100,18831.38284921355,0.19967677124275432,0.24184448448818702,0.9495474882009387,96.76449328823531,6.854722861595152,660.3302845415635,-118.88547153859489,104.75531005859375,4761.76025390625,True
1599388601.7822762,0.0,10,0.5,0.5,-37.779641067504876,-0.2,-0.03,-0.001,2.7566916126911005,10,1,100,-2.5538231259636817,-10,-1,-100,18826.616580315982,0.2030529444604274,0.242717554712813,0.9486082913300847,91.14042512467626,6.48092745381267,623.9589820806382,-119.24716005802618,84.48641967773438,4761.76025390625,True
1599388601.8231666,0.0,10,0.5,0.5,-34.15024085998535,-0.2,-0.03,-0.001,2.7796764390542332,10,1,100,-2.635835212212535,-10,-1,-100,18821.835837839986,0.20683361922791174,0.24372139227393558,0.9475335017323332,88.1977004294548,6.296604749939671,605.7127434779405,-119.60898475835951,63.94183349609375,4761.76025390625,True
1599388601.866051,0.0,10,0.5,0.5,-30.46150608825684,-0.2,-0.03,-0.001,2.785984163212306,10,1,100,-2.7291641003775835,-10,-1,-100,18817.04063986207,0.2110862134607639,0.24469154199811563,0.9463448947193521,97.04521951299195,6.95076507310223,668.5346681660658,-119.97023132495124,43.11619567871094,4761.76025390625,True
1599388601.9109325,0.0,10,0.5,0.5,-22.41054383850098,-0.2,-0.03,-0.001,2.8134555136426806,10,1,100,-3.3939683139718473,-10,-1,-100,18807.406911330647,0.2209636011996035,0.24582218305720904,0.9437936963457059,98.04083164627671,7.067248432919744,679.6558526137791,-120.69251237843277,0.601837158203125,4761.76025390625,True
1599388601.955232,0.0,10,0.5,0.5,-18.559185363769533,-0.2,-0.03,-0.001,2.6850097330758422,10,1,100,-3.009227900348332,-10,-1,-100,18802.568363678292,0.22641173406941786,0.2456789823862007,0.9425388927197434,88.16860434485223,6.382004710080372,613.1304418050834,-121.0541151658494,-21.09637451171875,4761.76025390625,True
1599388601.9991138,0.0,10,0.5,0.5,-14.561771911621095,-0.2,-0.03,-0.001,2.6178170795472457,10,1,100,-3.0831759762307174,-10,-1,-100,18797.71535974543,0.2319982141148358,0.24493472057060298,0.9413733644556379,96.45552657586019,7.006921813055193,672.7932455114255,-121.41535207331052,-43.09381103515625,4761.76025390625,True
1599388602.0429957,0.0,10,0.5,0.5,-9.479583007812499,-0.2,-0.03,-0.001,2.5430770914462926,10,1,100,-3.1377615272373025,-10,-1,-100,18792.84792157833,0.23753546105387924,0.2435751376725734,0.9403446480146032,103.6613476929395,7.552548713196417,725.2558469114686,-121.77613026945295,-65.39199829101562,4761.76025390625,True
1599388602.1028695,0.0,10,0.5,0.5,-8.872104721069336,-0.2,-0.03,-0.001,2.679296606186428,10,1,100,-2.588427622114762,-10,-1,-100,18792.84792157833,0.23753546105387924,0.2435751376725734,0.9403446480146032,103.6613476929395,7.552548713196417,725.2558469114686,-121.77613026945295,-65.39199829101562,4761.76025390625,True
1599388602.1477153,0.0,10,0.5,0.5,-1.4659779968261717,-0.2,-0.03,-0.001,2.3442202815599793,10,1,100,-3.453021271938792,-10,-1,-100,18785.51970319613,0.24535817634083512,0.24052686018601577,0.9391199043954701,100.50789034072079,7.362988043197701,706.469148137897,-122.31745421504516,-99.40034484863281,4761.76025390625,True
1599388602.190629,0.0,10,0.5,0.5,6.141286209106446,-0.2,-0.03,-0.001,2.2255474791876266,10,1,100,-3.4294809197848295,-10,-1,-100,18778.15898277436,0.2522113939476901,0.236677497257158,0.9382820338549871,96.88891145781055,7.140758458985362,684.1011123855267,-122.8591938743871,-134.07098388671875,4761.76025390625,True
1599388602.2367818,0.0,10,0.5,0.5,6.823094451904298,-0.2,-0.03,-0.001,2.6099670733502998,10,1,100,-2.7494126213698253,-10,-1,-100,18778.15898277436,0.2522113939476901,0.236677497257158,0.9382820338549871,96.88891145781055,7.140758458985362,684.1011123855267,-122.8591938743871,-134.07098388671875,4761.76025390625,True
1599388602.2811828,0.0,10,0.5,0.5,12.196733764648439,-0.2,-0.03,-0.001,2.310935203565349,10,1,100,-3.1875905569731886,-10,-1,-100,18773.233797642053,0.2561501402263686,0.23396451667498178,0.9378953622867819,104.94065854060497,7.756243856780734,743.1464097383647,-123.21974579841162,-157.54345703125,4761.76025390625,True
1599388602.3230572,0.0,10,0.5,0.5,-50.1485599975586,-0.2,-0.03,-0.001,2.030681896376877,10,1,100,-3.525402041266148,-10,-1,-100,18763.340149106458,0.2627569989541956,0.22895928324001633,0.9373027291749463,96.34122360138217,7.171133663634968,686.390659398246,-123.94130278419804,155.82110595703125,4761.76025390625,True
1599388602.3659148,0.0,10,0.5,0.5,-45.575668258666994,-0.2,-0.03,-0.001,2.3021840781928677,10,1,100,-3.1927719269284305,-10,-1,-100,18758.37166103744,0.26569235058961044,0.22689157473270047,0.9369780083617133,96.35026603117463,7.197428967926134,688.4648386457827,-124.30240992062154,132.947265625,4761.76025390625,True
1599388602.4098394,0.0,10,0.5,0.5,-45.99557838439942,-0.2,-0.03,-0.001,2.5070618680920025,10,1,100,-2.9037096383259446,-10,-1,-100,18758.37166103744,0.26569235058961044,0.22689157473270047,0.9369780083617133,96.35026603117463,7.197428967926134,688.4648386457827,-124.30240992062154,132.947265625,4761.76025390625,True
1599388602.4516854,0.0,10,0.5,0.5,-37.224348480224606,-0.2,-0.03,-0.001,2.15183395907164,10,1,100,-3.5675789752336824,-10,-1,-100,18748.39142308547,0.2716918167282988,0.2236793095667458,0.9360294456878056,107.21637208270351,8.055050736444231,770.6367221456869,-125.02327134365571,87.01014709472656,4761.76025390625,True
1599388602.4936059,0.0,10,0.5,0.5,-37.66059747314453,-0.2,-0.03,-0.001,2.47093493456672,10,1,100,-2.971601721626194,-10,-1,-100,18748.39142308547,0.2716918167282988,0.2236793095667458,0.9360294456878056,107.21637208270351,8.055050736444231,770.6367221456869,-125.02327134365571,87.01014709472656,4761.76025390625,True
1599388602.5364585,0.0,10,0.5,0.5,-33.425176498413094,-0.2,-0.03,-0.001,2.3219130918715583,10,1,100,-3.3461944400248154,-10,-1,-100,18743.37967257935,0.27506615384494587,0.22234265265870418,0.9353621522264194,99.85132758469848,7.532155217352442,719.8366168035,-125.38395676307734,63.66374206542969,4761.76025390625,True
1599388602.5793426,0.0,10,0.5,0.5,-24.28146109008789,-0.2,-0.03,-0.001,2.1250353448307133,10,1,100,-3.877526412557855,-10,-1,-100,18733.312890187837,0.2829299048896608,0.21935701457376217,0.9337200699762289,108.40061209155924,8.22845275828588,785.9453012899849,-126.10494669396205,16.130264282226562,4761.76025390625,True
1599388602.6212316,0.0,10,0.5,0.5,-19.811190719604493,-0.2,-0.03,-0.001,2.2001704356174914,10,1,100,-3.580041644171574,-10,-1,-100,18728.257888559718,0.2873402063735729,0.21734508972697855,0.9328433511435692,109.51663837328964,8.337908953981358,796.3610850298215,-126.46508416785956,-8.070709228515625,4761.76025390625,True
1599388602.6646943,0.0,10,0.5,0.5,-15.28935256958008,-0.2,-0.03,-0.001,2.119920275231337,10,1,100,-3.6441713780739753,-10,-1,-100,18723.1884711358,0.2919006336558549,0.21480409514232857,0.9320156762530318,100.50180018690348,7.681993539224157,732.9400082648034,-126.82558719076138,-32.56842041015625,4761.76025390625,True
1599388602.707614,0.0,10,0.5,0.5,-15.618357971191408,-0.2,-0.03,-0.001,2.371832393484852,10,1,100,-3.1920975738165906,-10,-1,-100,18723.1884711358,0.2919006336558549,0.21480409514232857,0.9320156762530318,100.50180018690348,7.681993539224157,732.9400082648034,-126.82558719076138,-32.56842041015625,4761.76025390625,True
1599388602.7484696,0.0,10,0.5,0.5,-11.008927185058592,-0.2,-0.03,-0.001,2.026133265873437,10,1,100,-3.693307182742896,-10,-1,-100,18718.104626500863,0.29642458419752177,0.2116787943654363,0.931302611345701,101.59080761644974,7.791073179675527,742.9589923455915,-127.18619097958097,-57.3662109375,4761.76025390625,True
1599388602.7923822,0.0,10,0.5,0.5,-5.3494666442871095,-0.2,-0.03,-0.001,1.932515521581787,10,1,100,-3.7158520729163707,-10,-1,-100,18713.006380198873,0.30071161315948386,0.20800225097367794,0.9307564607892356,111.41439708573651,8.565076486637006,817.0931329339994,-127.54611799797895,-82.46420288085938,4761.76025390625,True
1599388602.8362353,0.0,10,0.5,0.5,5.538630523681641,-0.2,-0.03,-0.001,1.364924940625625,10,1,100,-4.08642536816156,-10,-1,-100,18702.766688992386,0.30794592466116033,0.19951719653953162,0.9302484591600186,100.23423482335292,7.761191464849505,739.303455214251,-128.2663413095868,-133.54360961914062,4761.76025390625,True
1599388602.8791492,0.0,10,0.5,0.5,6.287023742675782,-0.2,-0.03,-0.001,2.21069294622094,10,1,100,-3.3672195754010685,-10,-1,-100,18702.766688992386,0.30794592466116033,0.19951719653953162,0.9302484591600186,100.23423482335292,7.761191464849505,739.303455214251,-128.2663413095868,-133.54360961914062,4761.76025390625,True
1599388602.924997,0.0,10,0.5,0.5,12.168244277954102,-0.2,-0.03,-0.001,1.7200831086178572,10,1,100,-3.678657537422068,-10,-1,-100,18697.625230112928,0.31074422058141227,0.1950790726640738,0.9302592030094491,106.96093913467125,8.304920163906676,791.0671136929922,-128.62644025004795,-159.51156616210938,4761.76025390625,True
1599388602.9738703,0.0,10,0.5,0.5,-54.26360464477539,-0.2,-0.03,-0.001,1.6871866392022972,10,1,100,-3.6545589488498655,-10,-1,-100,18692.46938161191,0.31303354570020936,0.1907713559979731,0.9303850219113856,113.50950922797904,8.832468890373098,841.8341251512387,-128.9861325026172,174.54537963867188,4761.76025390625,True
1599388603.0177495,0.0,10,0.5,0.5,-49.10244323730469,-0.2,-0.03,-0.001,1.671646734470574,10,1,100,-3.638710712146258,-10,-1,-100,18687.299139685347,0.31493615966376004,0.18674267925546656,0.930560254406308,108.63246949503002,8.480326716997787,807.946224010574,-129.34605122326062,148.87498474121094,4761.76025390625,True
1599388603.0626667,0.0,10,0.5,0.5,-39.337976272583006,-0.2,-0.03,-0.001,1.3001128268809032,10,1,100,-3.820612761133103,-10,-1,-100,18676.915429544984,0.3182903671170737,0.17973231427084388,0.930799407717541,109.86710621681583,8.622829280192626,821.5864136227982,-130.06633425696586,98.18656921386719,4761.76025390625,True
1599388603.1055517,0.0,10,0.5,0.5,-39.7074365234375,-0.2,-0.03,-0.001,1.997388047797558,10,1,100,-3.4882870318760864,-10,-1,-100,18676.915429544984,0.3182903671170737,0.17973231427084388,0.930799407717541,109.86710621681583,8.622829280192626,821.5864136227982,-130.06633425696586,98.18656921386719,4761.76025390625,True
1599388603.14744,0.0,10,0.5,0.5,-34.96340559387207,-0.2,-0.03,-0.001,1.6544317862317328,10,1,100,-3.6899224870456653,-10,-1,-100,18671.701987441862,0.3200994260427415,0.17664641351194682,0.9307697900342886,114.0512668059631,8.97209942501241,855.2459239896398,-130.42595936573235,72.63285827636719,4761.76025390625,True
1599388603.190361,0.0,10,0.5,0.5,-24.86984884643555,-0.2,-0.03,-0.001,1.2869089181274176,10,1,100,-3.9990486141648995,-10,-1,-100,18661.231913578697,0.32452862731953536,0.17053462100439243,0.9303757913278841,104.77383226070175,8.293835172614557,789.9456793796479,-131.14596494709252,20.718856811523438,4761.76025390625,True
1599388603.2331264,0.0,10,0.5,0.5,-19.853124877929687,-0.2,-0.03,-0.001,1.518669560267122,10,1,100,-3.844232931354691,-10,-1,-100,18655.97528970556,0.32712220950641696,0.16712276472003215,0.9300865774539339,114.71068394694849,9.095852620310698,867.1810852253992,-131.50544605350586,-5.6636962890625,4761.76025390625,True
1599388603.2765243,0.0,10,0.5,0.5,-14.748254806518556,-0.2,-0.03,-0.001,1.432266935774577,10,1,100,-3.8835460166058833,-10,-1,-100,18650.704286914784,0.3298133935455502,0.16327276195363935,0.9298199452808045,113.37703631465207,9.013789248977764,859.4546641023067,-131.86496706177718,-32.338592529296875,4761.76025390625,True
1599388603.3206546,0.0,10,0.5,0.5,-9.657476364135743,-0.2,-0.03,-0.001,1.3349007378659583,10,1,100,-3.902740445726991,-10,-1,-100,18645.418888642802,0.3324145397832411,0.15892056167100926,0.9296476906973238,99.54116456501086,7.939081861154398,756.5930839613288,-132.22501580542067,-59.30908203125,4761.76025390625,True
1599388603.3625073,0.0,10,0.5,0.5,-9.907150436401366,-0.2,-0.03,-0.001,1.7660611026421147,10,1,100,-3.6450726834701124,-10,-1,-100,18645.418888642802,0.3324145397832411,0.15892056167100926,0.9296476906973238,99.54116456501086,7.939081861154398,756.5930839613288,-132.22501580542067,-59.30908203125,4761.76025390625,True
1599388603.4103785,0.0,10,0.5,0.5,0.8115420379638674,-0.2,-0.03,-0.001,0.6644568799872036,10,1,100,-4.103180811135658,-10,-1,-100,18634.804930764134,0.33655945883547167,0.14893884920232195,0.929809093237242,117.14970738080125,9.377290557511209,895.1581879548959,-132.9439546292895,-114.1314697265625,4761.76025390625,True
1599388603.4600744,0.0,10,0.5,0.5,1.6227501983642583,-0.2,-0.03,-0.001,1.65844487617637,10,1,100,-3.691041497226127,-10,-1,-100,18634.804930764134,0.33655945883547167,0.14893884920232195,0.929809093237242,117.14970738080125,9.377290557511209,895.1581879548959,-132.9439546292895,-114.1314697265625,4761.76025390625,True
1599388603.5059538,0.0,10,0.5,0.5,8.007360397338868,-0.2,-0.03,-0.001,1.0710187818038517,10,1,100,-3.8328681433009937,-10,-1,-100,18629.47638816072,0.33782913443690527,0.14363297909898373,0.9301833385095448,109.40117608066029,8.784246848398045,838.1889326037633,-133.30347884132846,-141.97023010253906,4761.76025390625,True
1599388603.548838,0.0,10,0.5,0.5,-52.519128433227536,-0.2,-0.03,-0.001,0.4768503432958424,10,1,100,-3.8221884203525356,-10,-1,-100,18618.776141177863,0.33886853407747725,0.13344074714148696,0.9313225454237126,116.52372838382635,9.387015377196619,897.391908560431,-134.02255615309858,162.60250854492188,4761.76025390625,True
1599388603.593716,1.4468666049651802e-05,10,0.5,0.5,-46.926520385742194,-0.2,-0.03,-0.001,0.989617244463601,10,1,100,-3.7127274946418436,-10,-1,-100,18613.40445895423,0.3387996360924815,0.12887868225176893,0.9319898560846303,113.24734822060603,9.14390293381028,874.4888632272357,-134.3819119027499,135.3324432373047,4761.76025390625,True
1599388603.6376076,0.0,10,0.5,0.5,-44.40742001342774,-0.2,-0.03,-0.001,1.1962759222610155,10,1,100,-3.7179275177921576,-10,-1,-100,18610.713222947554,0.33876727430744297,0.12665349099678375,0.9323066164500997,106.73206681027317,8.629742154605903,825.2564226605402,-134.56179436391338,121.72811889648438,4761.76025390625,True
1599388603.682452,0.0,10,0.5,0.5,-41.981188507080084,-0.2,-0.03,-0.001,1.1787303757790213,10,1,100,-3.712938400107763,-10,-1,-100,18608.01838508842,0.33867955466301536,0.12451097682424055,0.9326270293657241,98.49196105159315,7.9716963409683625,762.5177953670058,-134.74188686208504,108.08203125,4761.76025390625,True
