Timestamp,Input Throttle,horizon,dT,dt,Input Roll,Roll P,Roll I,Roll D,Input Pitch,Pitch P,Pitch I,Pitch D,Input Yaw,Yaw P,Yaw I,Yaw D,Altitude,Direction X,Direction Y,Direction Z,Drag X,Drag Y,Drag Z,Vertical Velocity,Roll,Mass,Has Fuel
1599387741.3984518,0.0,10,0.5,0.5,-8.42534275817871,-0.15025,-0.03,-0.12575,-0.00018895518398755022,10,1,100,0.4981597601173422,-10,-1,-100,19349.72230274044,-0.04884714462449807,-0.0001750011059566781,0.9988062503992686,61.0766121734382,3.686302855121902,233.73184764816384,-68.66499519300552,-33.92266845703125,4761.76025390625,True
1599387741.445331,0.0,10,0.5,0.5,-8.593202499389648,-0.15025,-0.03,-0.12575,0.00013727220333186992,10,1,100,0.5047718251432272,-10,-1,-100,19346.964755307767,-0.048950923392096224,-0.0001576848934703661,0.9988011725236087,61.25639466186431,3.698503707799892,235.71310427740912,-69.0299051531514,-33.925018310546875,4761.76025390625,True
1599387741.4842312,0.0,10,0.5,0.5,-8.74913077545166,-0.15025,-0.03,-0.12575,0.011039732640036454,10,1,100,0.5044287431743772,-10,-1,-100,19344.192611936363,-0.048997647959839456,-4.2686255518704114e-05,0.9987988930071393,61.43730049899372,3.7107873619601404,237.70700610474634,-69.39480133939048,-33.97064208984375,4761.76025390625,True
1599387741.522127,0.0,10,0.5,0.5,-8.92295603942871,-0.15025,-0.03,-0.12575,-0.000464399780681616,10,1,100,0.504656051196038,-10,-1,-100,19344.192611936363,-0.048997647959839456,-4.2686255518704114e-05,0.9987988930071393,61.43730049899372,3.7107873619601404,237.70700610474634,-69.39480133939048,-33.97064208984375,4761.76025390625,True
1599387741.5600264,0.0,10,0.5,0.5,-9.013233810424806,-0.15025,-0.03,-0.12575,0.023819617210237988,10,1,100,0.5075937550241798,-10,-1,-100,19341.405872978154,-0.04897981104194998,0.0001781163409946729,0.9987997528958765,61.6277392514542,3.723654622893928,239.7463301415361,-69.75968330747801,-34.2525634765625,4761.76025390625,True
1599387741.5989213,0.0,10,0.5,0.5,-8.82231103515625,-0.15025,-0.03,-0.12575,0.08764451333152026,10,1,100,0.48612687331441373,-10,-1,-100,19335.78861182183,-0.04872391509101445,0.0009589103786175867,0.9988118244139329,62.045882010297355,3.751588683316196,243.99755043635963,-70.4893986707116,-35.6787109375,4761.76025390625,True
1599387741.6378176,0.0,10,0.5,0.5,-9.015705352783202,-0.15025,-0.03,-0.12575,0.04106075396295219,10,1,100,0.5021770251196834,-10,-1,-100,19334.375175511697,-0.04859289841103823,0.0012443626818526917,0.9988178922033438,62.15503392671371,3.758823518857239,245.08443604098795,-70.67181645593678,-36.218231201171875,4761.76025390625,True
1599387741.6817,0.0,10,0.5,0.5,-8.676580268859864,-0.15025,-0.03,-0.12575,0.12814736074058855,10,1,100,0.45748105054030963,-10,-1,-100,19330.112977191224,-0.04802328993451004,0.0022944299621523423,0.9988435809550036,62.47620740047591,3.7800284592741686,248.33473667600387,-71.21904191451095,-38.27734375,4761.76025390625,True
1599387741.7215924,0.0,10,0.5,0.5,-9.090681640625,-0.15025,-0.03,-0.12575,0.02337007570683871,10,1,100,0.519244227186579,-10,-1,-100,19330.112977191224,-0.04802328993451004,0.0022944299621523423,0.9988435809550036,62.47620740047591,3.7800284592741686,248.33473667600387,-71.21904191451095,-38.27734375,4761.76025390625,True
1599387741.7614868,0.0,10,0.5,0.5,-8.7657470703125,-0.15025,-0.03,-0.12575,0.12053188611484478,10,1,100,0.4668555475833248,-10,-1,-100,19327.25327151362,-0.047503371674539996,0.003175633302259532,0.9988660295718741,62.67001958433833,3.7927992874120213,250.43239653945608,-71.58383551135498,-40.016845703125,4761.76025390625,True
1599387741.8026237,0.0,10,0.5,0.5,-8.573156921386717,-0.15025,-0.03,-0.12575,0.13828937318929196,10,1,100,0.4500341030699808,-10,-1,-100,19324.37897442584,-0.04683461160474179,0.004135272009122624,0.9988940978308178,62.83107729000111,3.8034400934912296,252.40715493615457,-71.94861166712971,-42.05047607421875,4761.76025390625,True
1599387741.843515,0.0,10,0.5,0.5,-8.162352737426758,-0.15025,-0.03,-0.12575,0.16672837115771105,10,1,100,0.43012917995278677,-10,-1,-100,19321.490086997626,-0.0460475236338778,0.005262288748606446,0.9989253895483453,62.94180668027974,3.810853308558586,254.18598684286187,-72.31337238715462,-44.377105712890625,4761.76025390625,True
1599387741.8854043,0.0,10,0.5,0.5,-7.700190391540527,-0.15025,-0.03,-0.12575,0.1839244419293956,10,1,100,0.4043662768894424,-10,-1,-100,19318.586609231657,-0.04510042035956942,0.006438250088205165,0.9989617114880791,62.9831375209544,3.8138532901150186,255.6883398689458,-72.6781210066079,-46.998046875,4761.76025390625,True
1599387741.9272902,0.0,10,0.5,0.5,-7.186241821289062,-0.15025,-0.03,-0.12575,0.20635921772789945,10,1,100,0.37857913258088255,-10,-1,-100,19315.668541987194,-0.04400853173248423,0.007705366598423377,0.9990014396688,62.93240093493606,3.8110421912994505,256.81739527757577,-73.04286229639217,-49.9127197265625,4761.76025390625,True
1599387741.9681816,0.0,10,0.5,0.5,-5.652472686767578,-0.15025,-0.03,-0.12575,0.3749790562961516,10,1,100,0.19512288657703164,-10,-1,-100,19309.788638543687,-0.041352657213487555,0.010383154637556824,0.9990906604713892,62.45538787756622,3.781928828055592,257.5231771783189,-73.77234885373177,-56.624542236328125,4761.76025390625,True
1599387742.0080738,0.0,10,0.5,0.5,-6.429368431091309,-0.15025,-0.03,-0.12575,0.10822075621246313,10,1,100,0.4599476230938529,-10,-1,-100,19309.788638543687,-0.041352657213487555,0.010383154637556824,0.9990906604713892,62.45538787756622,3.781928828055592,257.5231771783189,-73.77234885373177,-56.624542236328125,4761.76025390625,True
1599387742.0519593,0.0,10,0.5,0.5,-5.318416557312012,-0.15025,-0.03,-0.12575,0.2592848065779221,10,1,100,0.28712062507693126,-10,-1,-100,19306.826801585383,-0.03978820382958602,0.01174789669155287,0.9991390722814018,61.97528558794863,3.752394283226985,256.86124446848646,-74.13711053163726,-60.42205810546875,4761.76025390625,True
1599387742.0928476,0.0,10,0.5,0.5,-4.593551925659179,-0.15025,-0.03,-0.12575,0.26213012088669285,10,1,100,0.25732821572612324,-10,-1,-100,19303.85037344508,-0.0381031376633786,0.013004889112529281,0.9991891831677204,61.29644949673892,3.7106547761498794,255.35240624945374,-74.50189756916959,-64.5155029296875,4761.76025390625,True
1599387742.1337378,0.0,10,0.5,0.5,-3.8189801025390624,-0.15025,-0.03,-0.12575,0.28904684478936404,10,1,100,0.21652475901016388,-10,-1,-100,19300.859352480853,-0.03620933713510961,0.014382570204213596,0.9992407245396661,60.389285917257624,3.6550028487858834,252.8602277281046,-74.86672082412818,-68.90176391601562,4761.76025390625,True
1599387742.1762319,0.0,10,0.5,0.5,-2.9862010116577147,-0.15025,-0.03,-0.12575,0.28503553804106224,10,1,100,0.18627752018244073,-10,-1,-100,19297.8537376069,-0.03422346534988523,0.015587551916903811,0.999292641144066,59.22647181581931,3.5839010560128215,249.25520371572313,-75.23159101766126,-73.58465576171875,4761.76025390625,True
1599387742.218209,0.0,10,0.5,0.5,-0.6451353912353515,-0.15025,-0.03,-0.12575,0.4108553644517111,10,1,100,-0.09469052238830422,-10,-1,-100,19291.79871564859,-0.02987594507296962,0.0178155228788875,0.9993948344125803,56.03047609083314,3.3896670996894165,238.2011133156409,-75.96151099880176,-83.83551025390625,4761.76025390625,True
1599387742.2610633,0.0,10,0.5,0.5,-0.27184855651855466,-0.15025,-0.03,-0.12575,0.2947420234670183,10,1,100,0.0840152000240953,-10,-1,-100,19288.74930316431,-0.027563668358187944,0.018772938607312044,0.9994437557775253,53.95478919884556,3.264256156403317,230.53254196122302,-76.32657514888722,-89.40426635742188,4761.76025390625,True
1599387742.3039804,0.0,10,0.5,0.5,-0.8370381546020507,-0.15025,-0.03,-0.12575,0.20035151561043457,10,1,100,0.313394485974694,-10,-1,-100,19288.74930316431,-0.027563668358187944,0.018772938607312044,0.9994437557775253,53.95478919884556,3.264256156403317,230.53254196122302,-76.32657514888722,-89.40426635742188,4761.76025390625,True
1599387742.3438408,0.0,10,0.5,0.5,2.537598289489746,-0.15025,-0.03,-0.12575,0.3640856263747997,10,1,100,-0.19730937680116933,-10,-1,-100,19282.606667035958,-0.022936848471135897,0.02025021717015254,0.9995318052402202,54.54404932021692,3.3020182084190943,235.3883756070293,-77.05673947777686,-101.17027282714844,4761.76025390625,True
1599387742.3907163,0.0,10,0.5,0.5,2.903771739959717,-0.15025,-0.03,-0.12575,0.2778532700518296,10,1,100,-0.00670835694598787,-10,-1,-100,19279.513448200654,-0.020482541193646002,0.02079786276018805,0.9995738664105115,56.25484894040325,3.407421073976928,243.9764445215036,-77.42169174382842,-107.30062103271484,4761.76025390625,True
1599387742.4326346,0.0,10,0.5,0.5,3.1326455364227295,-0.15025,-0.03,-0.12575,0.2484572811412221,10,1,100,0.11552026237487661,-10,-1,-100,19277.961365609313,-0.019381494858862904,0.02101901820819424,0.9995911957048238,57.07587469751692,3.4581804084423955,248.14808963252207,-77.60413073279561,-110.37213134765625,4761.76025390625,True
1599387742.4725316,0.0,10,0.5,0.5,5.351367805480957,-0.15025,-0.03,-0.12575,0.28336243821602736,10,1,100,-0.15492807836674596,-10,-1,-100,19273.283229374327,-0.015941896149913176,0.021527719258361153,0.9996411422358918,59.15966470606796,3.587683825912255,259.1052572033844,-78.15131172909634,-119.2261962890625,4761.76025390625,True
1599387742.5153823,0.0,10,0.5,0.5,4.4143815536499025,-0.15025,-0.03,-0.12575,0.23347031545601696,10,1,100,0.18664716176025944,-10,-1,-100,19273.283229374327,-0.015941896149913176,0.021527719258361153,0.9996411422358918,59.15966470606796,3.587683825912255,259.1052572033844,-78.15131172909634,-119.2261962890625,4761.76025390625,True
1599387742.556822,0.0,10,0.5,0.5,7.55944081878662,-0.15025,-0.03,-0.12575,0.26816914256308894,10,1,100,-0.2995624323897449,-10,-1,-100,19266.994656305294,-0.011541955513561741,0.021835415113747415,0.9996949524278559,60.789261219734954,3.690194909976541,268.8384635288919,-78.88063901901988,-130.0266571044922,4761.76025390625,True
1599387742.5997057,0.0,10,0.5,0.5,6.384657550811767,-0.15025,-0.03,-0.12575,0.23814484151541615,10,1,100,0.13796489308324378,-10,-1,-100,19266.994656305294,-0.011541955513561741,0.021835415113747415,0.9996949524278559,60.789261219734954,3.690194909976541,268.8384635288919,-78.88063901901988,-130.0266571044922,4761.76025390625,True
1599387742.6391854,0.0,10,0.5,0.5,7.922760105133056,-0.15025,-0.03,-0.12575,0.23332692777828778,10,1,100,-0.10522538816592025,-10,-1,-100,19263.82849226799,-0.009351754329329635,0.021785936022321845,0.9997189193381284,61.11616836726479,3.711325297658025,271.58851183252887,-79.24524063070115,-134.98599243164062,4761.76025390625,True
1599387742.683064,0.0,10,0.5,0.5,8.739275207519531,-0.15025,-0.03,-0.12575,0.24133532712304806,10,1,100,-0.10102255033966637,-10,-1,-100,19260.647744892398,-0.007417528315487883,0.02181014919402966,0.9997346136179457,61.17666000092472,3.7158778619341506,273.1631302464318,-79.6098245842393,-139.64794921875,4761.76025390625,True
1599387742.7229712,0.0,10,0.5,0.5,9.509631156921387,-0.15025,-0.03,-0.12575,0.21739857498776555,10,1,100,-0.13046297677392776,-10,-1,-100,19257.45241429005,-0.005409815462631823,0.021611793230182638,0.9997518013437316,61.02572287190213,3.7072141322988954,273.79237182146403,-79.97440504073069,-144.01702880859375,4761.76025390625,True
1599387742.7618968,0.0,10,0.5,0.5,11.29034772491455,-0.15025,-0.03,-0.12575,0.19931634991658936,10,1,100,-0.3249781540704425,-10,-1,-100,19251.018002056633,-0.0018364420326994126,0.02126450498547204,0.9997721982073633,60.2438527860714,3.659856264355313,272.8605047161097,-80.70359672842935,-151.86590576171875,4761.76025390625,True
1599387742.8027847,0.0,10,0.5,0.5,11.416182487487793,-0.15025,-0.03,-0.12575,0.21045709753949263,10,1,100,-0.15160587061015773,-10,-1,-100,19247.778919270728,-0.0001832145882529346,0.021049145843383965,0.9997784253981872,59.69709313247707,3.626430139933879,271.6622168713604,-81.06822128385329,-155.34686279296875,4761.76025390625,True
1599387742.8436797,0.0,10,0.5,0.5,11.122590866088867,-0.15025,-0.03,-0.12575,0.2320181400566198,10,1,100,0.011686941173950787,-10,-1,-100,19247.778919270728,-0.0001832145882529346,0.021049145843383965,0.9997784253981872,59.69709313247707,3.626430139933879,271.6622168713604,-81.06822128385329,-155.34686279296875,4761.76025390625,True
1599387742.88357,0.0,10,0.5,0.5,12.136224838256837,-0.15025,-0.03,-0.12575,0.21677882646019953,10,1,100,-0.1578003807552859,-10,-1,-100,19244.525250917417,0.0013401262654032082,0.02091057924011179,0.9997804517680048,59.095230418278994,3.5895697410897753,270.1898664658284,-81.43286949701506,-158.5305938720703,4761.76025390625,True
1599387742.924459,0.0,10,0.5,0.5,13.366725925445555,-0.15025,-0.03,-0.12575,0.186381719270318,10,1,100,-0.31332553526785234,-10,-1,-100,19237.974153327872,0.004123135698463654,0.020508833299063844,0.9997811698110359,57.85336508768485,3.5135068129953804,266.9954204992136,-82.16223809781297,-164.01226806640625,4761.76025390625,True
1599387742.9633238,0.0,10,0.5,0.5,13.445389465332031,-0.15025,-0.03,-0.12575,0.2136270558044652,10,1,100,-0.1719848060853445,-10,-1,-100,19234.676722022705,0.005349987616088191,0.020392220853839137,0.9997777427814424,57.256401225751326,3.476998232544892,265.47101421978545,-82.52695563110106,-166.30801391601562,4761.76025390625,True
1599387743.008238,0.0,10,0.5,0.5,13.265543495178223,-0.15025,-0.03,-0.12575,0.225143980900945,10,1,100,-0.05098880863585578,-10,-1,-100,19234.676722022705,0.005349987616088191,0.020392220853839137,0.9997777427814424,57.256401225751326,3.476998232544892,265.47101421978545,-82.52695563110106,-166.30801391601562,4761.76025390625,True
1599387743.0501323,0.0,10,0.5,0.5,14.39627318572998,-0.15025,-0.03,-0.12575,0.212066822675822,10,1,100,-0.29131176941290826,-10,-1,-100,19228.03809114953,0.007519385493034441,0.020274649592028845,0.9997661713749508,56.2199005673186,3.413772636560253,263.0847327085326,-83.25644279878121,-170.010498046875,4761.76025390625,True
1599387743.0890276,0.0,10,0.5,0.5,14.035759323120116,-0.15025,-0.03,-0.12575,0.22367282021382195,10,1,100,-0.07605909570051969,-10,-1,-100,19228.03809114953,0.007519385493034441,0.020274649592028845,0.9997661713749508,56.2199005673186,3.413772636560253,263.0847327085326,-83.25644279878121,-170.010498046875,4761.76025390625,True
1599387743.127957,0.0,10,0.5,0.5,14.82162272644043,-0.15025,-0.03,-0.12575,0.22955355629190033,10,1,100,-0.27288536738257185,-10,-1,-100,19221.341098975856,0.00929513622304535,0.020329506737831377,0.9997501245803332,55.48594629712521,3.3692415583682194,262.04121387850574,-83.9859741436392,-172.52780151367188,4761.76025390625,True
1599387743.168431,0.0,10,0.5,0.5,14.815629035949707,-0.15025,-0.03,-0.12575,0.22811887642581963,10,1,100,-0.17899797434803433,-10,-1,-100,19217.9707164953,0.01004256517575431,0.02036750004113508,0.9997421226630221,55.25862595702304,3.355557054295269,262.15931535195887,-84.35074588693325,-173.34310913085938,4761.76025390625,True
1599387743.208323,0.0,10,0.5,0.5,14.7775357131958,-0.15025,-0.03,-0.12575,0.22422984560101542,10,1,100,-0.1054429797979837,-10,-1,-100,19217.9707164953,0.01004256517575431,0.02036750004113508,0.9997421226630221,55.25862595702304,3.355557054295269,262.15931535195887,-84.35074588693325,-173.34310913085938,4761.76025390625,True
1599387743.248181,0.0,10,0.5,0.5,15.035618568420409,-0.15025,-0.03,-0.12575,0.26705569662860973,10,1,100,-0.23643513238630942,-10,-1,-100,19211.186179764103,0.011224106763135447,0.020757445637569802,0.9997215351676553,55.10972068745121,3.346882964120497,263.8315854978077,-85.08027921169283,-174.08258056640625,4761.76025390625,True
1599387743.294092,0.0,10,0.5,0.5,14.998837188720703,-0.15025,-0.03,-0.12575,0.22803196696455633,10,1,100,-0.11942170578333462,-10,-1,-100,19211.186179764103,0.011224106763135447,0.020757445637569802,0.9997215351676553,55.10972068745121,3.346882964120497,263.8315854978077,-85.08027921169283,-174.08258056640625,4761.76025390625,True
1599387743.333983,0.0,10,0.5,0.5,15.025130905151368,-0.15025,-0.03,-0.12575,0.2539370864750405,10,1,100,-0.16970613496734896,-10,-1,-100,19207.772025881568,0.011672252500719456,0.020993085936394696,0.9997114828111291,55.19503433125426,3.35227932514052,265.4320616275293,-85.44503179980612,-174.00880432128906,4761.76025390625,True
1599387743.3728783,0.0,10,0.5,0.5,14.778395740509033,-0.15025,-0.03,-0.12575,0.30568473639777277,10,1,100,-0.18811464438208841,-10,-1,-100,19200.899949432234,0.012240144968836865,0.02167729734131732,0.999690088793081,55.67979568304569,3.3821284901568225,270.1698903974652,-86.17448600426972,-172.97256469726562,4761.76025390625,True
1599387743.4107447,0.0,10,0.5,0.5,14.806165092468259,-0.15025,-0.03,-0.12575,0.25984439116153185,10,1,100,-0.14003894618068097,-10,-1,-100,19199.172812689794,0.012313095267701033,0.02188140904683799,0.999684746119022,55.86422193601529,3.393415666068956,271.66872301117576,-86.3568356000416,-172.5286102294922,4761.76025390625,True
1599387743.4536636,0.0,10,0.5,0.5,14.8806541557312,-0.15025,-0.03,-0.12575,0.2395821394287648,10,1,100,-0.13344022705942543,-10,-1,-100,19199.172812689794,0.012313095267701033,0.02188140904683799,0.999684746119022,55.86422193601529,3.393415666068956,271.66872301117576,-86.3568356000416,-172.5286102294922,4761.76025390625,True
1599387743.4925568,0.0,10,0.5,0.5,14.39829754257202,-0.15025,-0.03,-0.12575,0.3131515402470493,10,1,100,-0.1393217783572565,-10,-1,-100,19193.96952162485,0.012362205997886164,0.022548761091136203,0.9996693099401025,56.558436787120264,3.435774116724717,276.87976641662317,-86.90384193867749,-170.75357055664062,4761.76025390625,True
1599387743.534448,0.0,10,0.5,0.5,14.419677574157715,-0.15025,-0.03,-0.12575,0.2729120015230975,10,1,100,-0.13102645173244207,-10,-1,-100,19192.22779842699,0.012327037491915377,0.022787563405281284,0.9996643292129229,56.83399520999682,3.452550731144369,278.8436240829618,-87.08616136567257,-170.01422119140625,4761.76025390625,True
1599387743.57527,0.0,10,0.5,0.5,14.035877166748046,-0.15025,-0.03,-0.12575,0.30501060107826516,10,1,100,-0.11816923923259408,-10,-1,-100,19188.733413219103,0.012175426098971617,0.023294227271671564,0.9996545093056523,57.44252232225663,3.489550709311884,283.07240205243,-87.45077318915307,-168.31410217285156,4761.76025390625,True
1599387743.6171923,0.0,10,0.5,0.5,13.683927768707274,-0.15025,-0.03,-0.12575,0.3132184154739377,10,1,100,-0.10056354884510883,-10,-1,-100,19185.2244447571,0.011875606864660862,0.023826786619959264,0.9996455642881447,58.117273230918904,3.530520877058643,287.6555844698316,-87.81534550847847,-166.31898498535156,4761.76025390625,True
1599387743.6590452,0.0,10,0.5,0.5,12.568397205352783,-0.15025,-0.03,-0.12575,0.38353061657769044,10,1,100,-0.027890639513859714,-10,-1,-100,19178.16276506579,0.010940714710740724,0.024946988504274174,0.9996289054074946,59.608981136056265,3.6209893771382706,297.6201303763944,-88.54435824031023,-161.44454956054688,4761.76025390625,True
1599387743.6989386,0.0,10,0.5,0.5,13.143443367004394,-0.15025,-0.03,-0.12575,0.2719293824328698,10,1,100,-0.12135151570063409,-10,-1,-100,19178.16276506579,0.010940714710740724,0.024946988504274174,0.9996289054074946,59.608981136056265,3.6209893771382706,297.6201303763944,-88.54435824031023,-161.44454956054688,4761.76025390625,True
1599387743.7388318,0.0,10,0.5,0.5,12.311022743225097,-0.15025,-0.03,-0.12575,0.33413022455544417,10,1,100,-0.04822627540912111,-10,-1,-100,19174.61005719204,0.010276197428138237,0.02550864203005512,0.9996217829500318,60.388447577466586,3.6682615154680205,302.8194932033607,-88.90879343816526,-158.56590270996094,4761.76025390625,True
1599387743.7817209,0.0,10,0.5,0.5,11.751221111297607,-0.15025,-0.03,-0.12575,0.33472677679060864,10,1,100,-0.02532294196449386,-10,-1,-100,19171.04277361289,0.009465147826341712,0.026020554295545055,0.9996165973665994,61.16072871187598,3.7151494682882356,308.01639856437055,-89.27317982095055,-155.39393615722656,4761.76025390625,True
1599387743.8216107,0.0,10,0.5,0.5,10.10311093521118,-0.15025,-0.03,-0.12575,0.39432971859255406,10,1,100,0.11138152937366624,-10,-1,-100,19163.864486216684,0.007487584809945684,0.027023825592413384,0.9996067471381256,62.576651374114185,3.8015054365693524,317.8570375825396,-90.0018102761269,-148.16839599609375,4761.76025390625,True
1599387743.861504,0.0,10,0.5,0.5,10.938641967773437,-0.15025,-0.03,-0.12575,0.29451683056027866,10,1,100,-0.08589222122016105,-10,-1,-100,19163.864486216684,0.007487584809945684,0.027023825592413384,0.9996067471381256,62.576651374114185,3.8015054365693524,317.8570375825396,-90.0018102761269,-148.16839599609375,4761.76025390625,True
1599387743.902394,0.0,10,0.5,0.5,8.548359054565429,-0.15025,-0.03,-0.12575,0.37129480612665633,10,1,100,0.18428707158098181,-10,-1,-100,19156.627916898928,0.005035796248533253,0.02771713226433902,0.9996031219114837,63.60685515525423,3.865428076853832,325.8449948092364,-90.73027959915902,-139.77273559570312,4761.76025390625,True
1599387743.9422874,0.0,10,0.5,0.5,8.231280647277831,-0.15025,-0.03,-0.12575,0.3341528627631033,10,1,100,0.09451784127192514,-10,-1,-100,19152.987779593794,0.003629641840740062,0.02800505850717257,0.9996011916750188,63.88546316260346,3.883557369084655,328.65672501633793,-91.09447416614195,-135.1354522705078,4761.76025390625,True
1599387743.9831789,0.0,10,0.5,0.5,8.039921756744384,-0.15025,-0.03,-0.12575,0.31023629160105226,10,1,100,0.03265810944530624,-10,-1,-100,19151.162248158827,0.002921587573580219,0.028044643085455432,0.9996024021180918,63.94926547480417,3.88818475070561,329.6783012084719,-91.27656671944557,-132.7084197998047,4761.76025390625,True
1599387744.023072,0.0,10,0.5,0.5,7.548278774261474,-0.15025,-0.03,-0.12575,0.30900243867468635,10,1,100,0.042949935888431795,-10,-1,-100,19149.333074771566,0.00219275239806594,0.028065093661096722,0.9996036926475985,63.95480465468132,3.8893722472453853,330.4006327260144,-91.45865864435888,-130.2083282470703,4761.76025390625,True
1599387744.0620012,0.0,10,0.5,0.5,4.792723941802978,-0.15025,-0.03,-0.12575,0.2943483671356416,10,1,100,0.31587305644629715,-10,-1,-100,19141.979962190147,-0.0009421417170489126,0.027946613254923727,0.9996089731372786,63.289067554022544,3.8531678405194407,329.7126207164269,-92.18706373847778,-119.47785949707031,4761.76025390625,True
1599387744.1028583,0.0,10,0.5,0.5,6.016180316925048,-0.15025,-0.03,-0.12575,0.30649637022800613,10,1,100,0.003571930577590865,-10,-1,-100,19141.979962190147,-0.0009421417170489126,0.027946613254923727,0.9996089731372786,63.289067554022544,3.8531678405194407,329.7126207164269,-92.18706373847778,-119.47785949707031,4761.76025390625,True
1599387744.1457431,0.0,10,0.5,0.5,4.288952976226806,-0.15025,-0.03,-0.12575,0.2784826131612165,10,1,100,0.18485622869457363,-10,-1,-100,19138.28155169415,-0.002579378194087129,0.02768921580454323,0.9996132522812317,62.4740480414448,3.8060453689646114,326.8285688684039,-92.55132227062222,-113.67594909667969,4761.76025390625,True
1599387744.1866312,0.0,10,0.5,0.5,1.4403399925231932,-0.15025,-0.03,-0.12575,0.20208416951068364,10,1,100,0.37936099612180135,-10,-1,-100,19130.841011865297,-0.0058243132628946455,0.02675870447667022,0.9996249542252065,60.08608465094406,3.6652726374169027,316.96507362017934,-93.28003149944925,-101.19937896728516,4761.76025390625,True
1599387744.2265244,0.0,10,0.5,0.5,1.0044852466583252,-0.15025,-0.03,-0.12575,0.22251246589283136,10,1,100,0.228144786422108,-10,-1,-100,19127.098876438104,-0.007385661909004961,0.0260978258273678,0.9996321100711252,58.54004557530942,3.5727458562867267,310.09432664638774,-93.64450269452547,-94.52474212646484,4761.76025390625,True
1599387744.2674143,0.0,10,0.5,0.5,-0.23975866127014167,-0.15025,-0.03,-0.12575,0.20665461285449818,10,1,100,0.23327267625704529,-10,-1,-100,19123.342160623986,-0.008838165816041995,0.025353706572894433,0.9996394732042267,58.63967318562628,3.579946453583577,311.9110142103421,-94.00901632423889,-87.55862426757812,4761.76025390625,True
1599387744.3072476,0.0,10,0.5,0.5,0.4544013442993164,-0.15025,-0.03,-0.12575,0.280899526399883,10,1,100,0.08965486061594065,-10,-1,-100,19123.342160623986,-0.008838165816041995,0.025353706572894433,0.9996394732042267,58.63967318562628,3.579946453583577,311.9110142103421,-94.00901632423889,-87.55862426757812,4761.76025390625,True
1599387744.3461337,0.0,10,0.5,0.5,-1.705152976989746,-0.15025,-0.03,-0.12575,0.1861027784659481,10,1,100,0.2498113158331111,-10,-1,-100,19119.570867637987,-0.010281520897957567,0.02449406652412361,0.9996471032485097,61.496366587585754,3.7548230531640305,328.4584176561129,-94.37340249855947,-80.30169677734375,4761.76025390625,True
1599387744.390028,0.0,10,0.5,0.5,-2.9888979797363278,-0.15025,-0.03,-0.12575,0.16900216936753892,10,1,100,0.2515517290617413,-10,-1,-100,19115.785003863042,-0.011596837308378636,0.02356030729887646,0.9996551531825489,64.03090614999584,3.909588555774697,343.40302254812246,-94.73764941783647,-72.94009399414062,4761.76025390625,True
1599387744.4289238,0.0,10,0.5,0.5,-6.3106176376342775,-0.15025,-0.03,-0.12575,0.030737189209984667,10,1,100,0.3813682754677573,-10,-1,-100,19108.169581955066,-0.013959531353468882,0.02145855757975272,0.9996722771943755,67.71495855106035,4.1344172857689525,366.13308240392905,-95.4657776577011,-58.200469970703125,4761.76025390625,True
1599387744.466822,0.0,10,0.5,0.5,-6.619831367492676,-0.15025,-0.03,-0.12575,0.11973643964316125,10,1,100,0.2593175130576114,-10,-1,-100,19104.340032690554,-0.014983198750957293,0.02036296605365215,0.9996803756044664,68.7722084648183,4.1994848908115765,373.3573109434134,-95.82970832232904,-51.147216796875,4761.76025390625,True
1599387744.5077133,0.0,10,0.5,0.5,-7.804018432617187,-0.15025,-0.03,-0.12575,0.11642633187289009,10,1,100,0.2587404394614682,-10,-1,-100,19100.49592755409,-0.015895794755041902,0.019343776093104864,0.9996865218835178,69.31672211903705,4.23389329241827,377.8333895362891,-96.19359267453802,-44.385833740234375,4761.76025390625,True
1599387744.5487597,0.0,10,0.5,0.5,-8.081272758483887,-0.15025,-0.03,-0.12575,0.15825935228566396,10,1,100,0.2155758245063123,-10,-1,-100,19098.568416908267,-0.016319427665491954,0.018805360711961476,0.9996899692850598,69.41168001719707,4.2405258902202085,379.11253458681193,-96.37552765984644,-41.116912841796875,4761.76025390625,True
1599387744.5876899,0.0,10,0.5,0.5,-8.769629280090331,-0.15025,-0.03,-0.12575,0.15392536813791535,10,1,100,0.21805752565535289,-10,-1,-100,19096.63726746617,-0.01671461845864564,0.01828456855966303,0.9996931009476703,69.39754475363212,4.240654700208556,379.79726869617275,-96.55746274063515,-37.92218017578125,4761.76025390625,True
1599387744.6285446,0.0,10,0.5,0.5,-10.259804664611815,-0.15025,-0.03,-0.12575,0.09667258229418116,10,1,100,0.2587385292134375,-10,-1,-100,19092.764052245417,-0.017433809843680894,0.0172983450371005,0.999698369276109,69.0706075510714,4.223065966615661,379.5268589356751,-96.92134726439662,-31.755218505859375,4761.76025390625,True
1599387744.6674757,0.0,10,0.5,0.5,-12.830698616027831,-0.15025,-0.03,-0.12575,-0.009465883502402711,10,1,100,0.31708062808258447,-10,-1,-100,19084.973950407468,-0.018608868230764575,0.015444882582793135,0.9997075400461747,67.42789390294762,4.128250784137031,373.476587968213,-97.64924791958768,-20.312896728515625,4761.76025390625,True
1599387744.7073345,0.0,10,0.5,0.5,-11.593563835144042,-0.15025,-0.03,-0.12575,0.1748894795293236,10,1,100,0.20055185961568867,-10,-1,-100,19084.973950407468,-0.018608868230764575,0.015444882582793135,0.9997075400461747,67.42789390294762,4.128250784137031,373.476587968213,-97.64924791958768,-20.312896728515625,4761.76025390625,True
1599387744.7512193,0.0,10,0.5,0.5,-14.626061393737793,-0.15025,-0.03,-0.12575,0.004646716417420899,10,1,100,0.3077629381464999,-10,-1,-100,19077.125603892957,-0.019574631942485838,0.013906229121766839,0.9997116837248273,65.17086839945891,3.995313049481813,363.8660271795778,-98.37739983824385,-10.0565185546875,4761.76025390625,True
1599387744.792107,0.0,10,0.5,0.5,-13.547057373046876,-0.15025,-0.03,-0.12575,0.15745327877981483,10,1,100,0.2121158780788264,-10,-1,-100,19077.125603892957,-0.019574631942485838,0.013906229121766839,0.9997116837248273,65.17086839945891,3.995313049481813,363.8660271795778,-98.37739983824385,-10.0565185546875,4761.76025390625,True
1599387744.8320003,0.0,10,0.5,0.5,-16.23926596069336,-0.15025,-0.03,-0.12575,0.019836090921027616,10,1,100,0.29799868991104794,-10,-1,-100,19069.21899306646,-0.020348132236747755,0.01266394021230251,0.999712747809477,62.84164167627254,3.8560193259002626,353.6597634800894,-99.10579873065478,-0.98565673828125,4761.76025390625,True
1599387744.873888,0.0,10,0.5,0.5,-15.270249526977539,-0.15025,-0.03,-0.12575,0.14318552013071556,10,1,100,0.22128752057318418,-10,-1,-100,19069.21899306646,-0.020348132236747755,0.01266394021230251,0.999712747809477,62.84164167627254,3.8560193259002626,353.6597634800894,-99.10579873065478,-0.98565673828125,4761.76025390625,True
1599387744.9137828,0.0,10,0.5,0.5,-17.597519119262692,-0.15025,-0.03,-0.12575,0.045639602805270296,10,1,100,0.29673457773448314,-10,-1,-100,19061.254104737425,-0.021029137362317936,0.01178415826010878,0.9997094122773363,64.37255308119484,3.951269933118555,365.1477604440118,-99.83423674632597,6.9012451171875,4761.76025390625,True
1599387744.9536746,0.0,10,0.5,0.5,-16.759602447509767,-0.15025,-0.03,-0.12575,0.13286183624134368,10,1,100,0.22914739943819262,-10,-1,-100,19061.254104737425,-0.021029137362317936,0.01178415826010878,0.9997094122773363,64.37255308119484,3.951269933118555,365.1477604440118,-99.83423674632597,6.9012451171875,4761.76025390625,True
1599387745.3366497,0.0,10,0.5,0.5,-18.753921569824218,-0.15025,-0.03,-0.12575,0.07717084709968086,10,1,100,0.30000745595513134,-10,-1,-100,19053.230958609143,-0.021669038140020264,0.011284259451958984,0.9997015145905838,67.22126598573789,4.125695963874387,384.30760481860864,-100.56233327361107,13.6051025390625,4761.76025390625,True
1599387745.372553,0.0,10,0.5,0.5,-18.06549334716797,-0.15025,-0.03,-0.12575,0.12646069700389004,10,1,100,0.23651282015303599,-10,-1,-100,19053.230958609143,-0.021669038140020264,0.011284259451958984,0.9997015145905838,67.22126598573789,4.125695963874387,384.30760481860864,-100.56233327361107,13.6051025390625,4761.76025390625,True
1599387745.4084575,0.0,10,0.5,0.5,-19.00429733276367,-0.15025,-0.03,-0.12575,0.11321504132997645,10,1,100,0.26965970112794807,-10,-1,-100,19049.197546949144,-0.021966523214068247,0.011169311750909898,0.9996963130535678,68.37052307506677,4.195620306927899,392.40380831135786,-100.92626500545664,16.513519287109375,4761.76025390625,True
1599387745.4463558,0.0,10,0.5,0.5,-20.110020164489747,-0.15025,-0.03,-0.12575,0.13496823918787804,10,1,100,0.31315369955020134,-10,-1,-100,19041.087060723337,-0.022629311762511168,0.011266457067602455,0.9996804395377048,70.21916343888229,4.307476480100535,406.1474785346556,-101.65393084445826,21.444595336914062,4761.76025390625,True
1599387745.4802656,0.0,10,0.5,0.5,-19.615209827423097,-0.15025,-0.03,-0.12575,0.12483586496710322,10,1,100,0.247276889059084,-10,-1,-100,19041.087060723337,-0.022629311762511168,0.011266457067602455,0.9996804395377048,70.21916343888229,4.307476480100535,406.1474785346556,-101.65393084445826,21.444595336914062,4761.76025390625,True
1599387745.5191624,0.0,10,0.5,0.5,-19.999033908843995,-0.15025,-0.03,-0.12575,0.1344489127669612,10,1,100,0.2664812581815483,-10,-1,-100,19039.05034420523,-0.022801119954697184,0.011356248204014041,0.9996755196340162,70.60201865391527,4.330544204935675,409.1495429377536,-101.83581108172002,22.49285888671875,4761.76025390625,True
1599387745.5570595,0.0,10,0.5,0.5,-20.48245555114746,-0.15025,-0.03,-0.12575,0.15427539329985981,10,1,100,0.28816802569394445,-10,-1,-100,19034.96599987184,-0.023151528481331517,0.0116204354064307,0.9996644298012924,71.28878315298647,4.371845461663212,414.72009557337174,-102.19953352994023,24.368194580078125,4761.76025390625,True
1599387745.593995,0.0,10,0.5,0.5,-20.758782569885252,-0.15025,-0.03,-0.12575,0.1659951322431781,10,1,100,0.2924438322081216,-10,-1,-100,19030.867107945378,-0.0235064041136329,0.011968097312481349,0.9996520462702838,71.88466338930563,4.407613662663796,419.7907826117201,-102.56320992969201,25.948226928710938,4761.76025390625,True
1599387745.6318593,0.0,10,0.5,0.5,-20.99565723800659,-0.15025,-0.03,-0.12575,0.1826000186435306,10,1,100,0.2980908391707512,-10,-1,-100,19026.753670077655,-0.023877483595497257,0.012435739687894071,0.9996375433903838,72.4035980412663,4.4387291586128494,424.4374180997943,-102.92684529894575,27.233596801757812,4761.76025390625,True
1599387745.6707551,0.0,10,0.5,0.5,-21.360638477325438,-0.15025,-0.03,-0.12575,0.2769266540202695,10,1,100,0.3465264819877729,-10,-1,-100,19018.48316319054,-0.02465256319895307,0.013717791640396186,0.9996019574411769,73.2620339052961,4.4901997176455595,432.742307619836,-103.65401022680791,28.920623779296875,4761.76025390625,True
1599387745.7086546,0.0,10,0.5,0.5,-21.214552970886228,-0.15025,-0.03,-0.12575,0.14891482210808676,10,1,100,0.269380864225855,-10,-1,-100,19018.48316319054,-0.02465256319895307,0.013717791640396186,0.9996019574411769,73.2620339052961,4.4901997176455595,432.742307619836,-103.65401022680791,28.920623779296875,4761.76025390625,True
1599387745.7465534,0.0,10,0.5,0.5,-21.40135066986084,-0.15025,-0.03,-0.12575,0.3479939403562313,10,1,100,0.35607178765798864,-10,-1,-100,19010.154489088454,-0.02543795020737344,0.015525389504298921,0.9995558378449837,73.942773440002,4.531095721281799,440.0701410614741,-104.38105670124722,29.430953979492188,4761.76025390625,True
1599387745.7814589,0.0,10,0.5,0.5,-21.369067714691163,-0.15025,-0.03,-0.12575,0.22391424429668647,10,1,100,0.3011683251923243,-10,-1,-100,19008.06323290337,-0.02564938972709741,0.016036807479985236,0.9995423600890946,74.09036919611351,4.539978094114174,441.7776637913827,-104.56280252753729,29.374481201171875,4761.76025390625,True
1599387745.8343563,0.0,10,0.5,0.5,-21.41475205230713,-0.15025,-0.03,-0.12575,0.1732591963009625,10,1,100,0.2803926598712299,-10,-1,-100,19008.06323290337,-0.02564938972709741,0.016036807479985236,0.9995423600890946,74.09036919611351,4.539978094114174,441.7776637913827,-104.56280252753729,29.374481201171875,4761.76025390625,True
1599387745.8722506,0.0,10,0.5,0.5,-21.34674105072021,-0.15025,-0.03,-0.12575,0.3029866526238306,10,1,100,0.32305976764134275,-10,-1,-100,19003.869816258433,-0.026034526999585177,0.017211811309818234,0.9995128598248965,74.36155640325772,4.55631410287074,445.05997422283286,-104.92627734072204,29.0418701171875,4761.76025390625,True
1599387745.9136155,0.0,10,0.5,0.5,-21.238445999145508,-0.15025,-0.03,-0.12575,0.328538210091303,10,1,100,0.3280033404942104,-10,-1,-100,18999.661861165427,-0.026426497713930058,0.01850687862824142,0.9994794323356609,74.60004402337815,4.570691475094155,448.15948837901044,-105.28973189286822,28.415374755859375,4761.76025390625,True
1599387745.954507,0.0,10,0.5,0.5,-21.081004249572757,-0.15025,-0.03,-0.12575,0.3558015776162964,10,1,100,0.3325072229266564,-10,-1,-100,18995.439368667197,-0.026820483314757428,0.019925560776649507,0.9994416609800187,74.80480370434191,4.583035983518283,451.0679758681978,-105.65316878325694,27.4951171875,4761.76025390625,True
1599387745.9989016,0.0,10,0.5,0.5,-20.871307479858398,-0.15025,-0.03,-0.12575,0.3904613865283487,10,1,100,0.33060737025235654,-10,-1,-100,18991.20233899937,-0.027158045241349196,0.02152281087861168,0.9993994242496603,74.97306908322457,4.593167407251038,453.76661736515416,-106.01659072116918,26.282073974609375,4761.76025390625,True
1599387746.0388303,0.0,10,0.5,0.5,-20.609097251892088,-0.15025,-0.03,-0.12575,0.42247484005386177,10,1,100,0.33153618583872085,-10,-1,-100,18986.950772887096,-0.027470043824374374,0.023257201718294564,0.9993520397039881,75.096325951039,4.600558348062291,456.2014311263396,-106.38000100182042,24.775726318359375,4761.76025390625,True
1599387746.07769,0.0,10,0.5,0.5,-20.015987617492673,-0.15025,-0.03,-0.12575,0.5690285395554407,10,1,100,0.3401839431237746,-10,-1,-100,18980.54616844072,-0.027829028911326045,0.026156389329811177,0.999270428085951,75.17549715560824,4.605205536177257,459.2225222767545,-106.9251025723509,21.967178344726562,4761.76025390625,True
1599387746.117096,0.0,10,0.5,0.5,-20.049531009674073,-0.15025,-0.03,-0.12575,0.3954737976572703,10,1,100,0.3137615770340426,-10,-1,-100,18978.404032425606,-0.02791228796618239,0.02720293623421617,0.9992401635446456,75.1679741965824,4.6046925088139306,460.0244341844711,-107.10680164200467,20.884674072265625,4761.76025390625,True
1599387746.157984,0.0,10,0.5,0.5,-19.503479103088377,-0.15025,-0.03,-0.12575,0.5361175345196405,10,1,100,0.3160007504756321,-10,-1,-100,18974.108858219,-0.028005370752096033,0.029420662714611513,0.9991747213648224,75.09148216777379,4.599942225359236,461.2523281684766,-107.47020133479853,18.5003662109375,4761.76025390625,True
1599387746.1960123,0.0,10,0.5,0.5,-19.03183839416504,-0.15025,-0.03,-0.12575,0.5795778089446155,10,1,100,0.29953295331035656,-10,-1,-100,18969.799147630576,-0.027937950200928912,0.031819239034097675,0.9991031012692642,74.91952238791006,4.589426732275261,461.89105287532556,-107.83360820945609,15.824005126953125,4761.76025390625,True
1599387746.2359052,0.0,10,0.5,0.5,-18.508288566589354,-0.15025,-0.03,-0.12575,0.619054062251889,10,1,100,0.29331317303146476,-10,-1,-100,18965.474900521687,-0.027818034824174484,0.03434429032592021,0.9990228359054311,74.63325157118614,4.572042005211269,461.81767689629373,-108.19702851837432,12.85498046875,4761.76025390625,True
1599387746.2757988,0.0,10,0.5,0.5,-17.932086380004883,-0.15025,-0.03,-0.12575,0.665048590250321,10,1,100,0.2684677749368284,-10,-1,-100,18961.136116015492,-0.02748118209435824,0.03704128040679377,0.9989357978251264,74.21868464037722,4.546995446853702,460.93767288118613,-108.56046932740217,9.5941162109375,4761.76025390625,True
1599387746.3177295,0.0,10,0.5,0.5,-16.241861740112306,-0.15025,-0.03,-0.12575,1.0324608188413547,10,1,100,0.1689481037480579,-10,-1,-100,18952.41492997855,-0.02626891291545031,0.042815173950145516,0.9987376057272797,72.91812294461023,4.46894489664342,456.18125719934886,-109.2874432053721,2.19580078125,4761.76025390625,True
1599387746.3565822,0.0,10,0.5,0.5,-17.09354118347168,-0.15025,-0.03,-0.12575,0.4575022940383703,10,1,100,0.29015926315900287,-10,-1,-100,18952.41492997855,-0.02626891291545031,0.042815173950145516,0.9987376057272797,72.91812294461023,4.46894489664342,456.18125719934886,-109.2874432053721,2.19580078125,4761.76025390625,True
1599387746.3974738,0.0,10,0.5,0.5,-15.875689865112305,-0.15025,-0.03,-0.12575,0.7946646304540603,10,1,100,0.18619333721513268,-10,-1,-100,18948.03252583393,-0.025324269561778134,0.04585947736013043,0.9986268520861123,71.98973993932823,4.413531052325948,452.016707696174,-109.65099220484046,-1.94171142578125,4761.76025390625,True
1599387746.4383643,0.0,10,0.5,0.5,-15.088472656249998,-0.15025,-0.03,-0.12575,0.8301694279571996,10,1,100,0.13385217951447495,-10,-1,-100,18943.635578187997,-0.023991341239051604,0.048927672558798416,0.9985141453196997,70.84525795790074,4.345433745553609,446.45017582261147,-110.01459327354391,-6.372283935546875,4761.76025390625,True
1599387746.4782908,0.0,10,0.5,0.5,-12.86455068206787,-0.15025,-0.03,-0.12575,1.2227993920324889,10,1,100,-0.08767242083270455,-10,-1,-100,18934.798042831942,-0.020768890672130693,0.05526296743932603,0.9982558077016377,68.305129908154,4.195837462970794,433.56884717367956,-110.7419688848183,-16.11004638671875,4761.76025390625,True
1599387746.5211792,0.0,10,0.5,0.5,-12.509535995483397,-0.15025,-0.03,-0.12575,0.9334485855324864,10,1,100,0.003997707807408268,-10,-1,-100,18930.357454335084,-0.01867917327005743,0.05836540401879701,0.9981205178232083,69.7754330171909,4.290571637635398,444.4975002455384,-111.10561027531098,-21.41912841796875,4761.76025390625,True
1599387746.561069,0.0,10,0.5,0.5,-13.050241653442383,-0.15025,-0.03,-0.12575,0.6263211743638467,10,1,100,0.21204613654512192,-10,-1,-100,18930.357454335084,-0.01867917327005743,0.05836540401879701,0.9981205178232083,69.7754330171909,4.290571637635398,444.4975002455384,-111.10561027531098,-21.41912841796875,4761.76025390625,True
1599387746.6002853,0.0,10,0.5,0.5,-9.755767227172852,-0.15025,-0.03,-0.12575,1.2596688926951436,10,1,100,-0.35061245665053953,-10,-1,-100,18921.43265405181,-0.013572573511444181,0.0640967971478959,0.9978513846478633,72.4911091747849,4.468713402750915,465.10603368021634,-111.8325749848202,-32.921722412109375,4761.76025390625,True
1599387746.6441698,0.0,10,0.5,0.5,-11.055981239318847,-0.15025,-0.03,-0.12575,0.689757335596634,10,1,100,0.1586109815418371,-10,-1,-100,18921.43265405181,-0.013572573511444181,0.0640967971478959,0.9978513846478633,72.4911091747849,4.468713402750915,465.10603368021634,-111.8325749848202,-32.921722412109375,4761.76025390625,True
1599387746.68506,0.0,10,0.5,0.5,-7.418307746887206,-0.15025,-0.03,-0.12575,1.241590251747916,10,1,100,-0.5140470975849154,-10,-1,-100,18912.449718101765,-0.007470450484212549,0.06908641228852394,0.9975827083538803,74.85702532402117,4.6271568745923455,483.6873169328799,-112.55911655843883,-45.6041259765625,4761.76025390625,True
1599387746.7249532,0.0,10,0.5,0.5,-8.847525268554687,-0.15025,-0.03,-0.12575,0.745833250873285,10,1,100,0.09416413197723318,-10,-1,-100,18912.449718101765,-0.007470450484212549,0.06908641228852394,0.9975827083538803,74.85702532402117,4.6271568745923455,483.6873169328799,-112.55911655843883,-45.6041259765625,4761.76025390625,True
1599387746.7658427,0.0,10,0.5,0.5,-4.87718603515625,-0.15025,-0.03,-0.12575,1.1824673897977902,10,1,100,-0.6616078069703949,-10,-1,-100,18903.408676742343,-0.0006168860050806919,0.07303193060753001,0.9973294122622645,76.27996256581709,4.726787830476245,496.33342049513516,-113.28531777800629,-59.4698486328125,4761.76025390625,True
1599387746.8065267,0.0,10,0.5,0.5,-4.400051025390624,-0.15025,-0.03,-0.12575,0.967805214656642,10,1,100,-0.38854740318434366,-10,-1,-100,18898.866372693097,0.003107939826156558,0.07463982134474564,0.9972057148751512,76.41252723188524,4.739876409364162,498.9223703912855,-113.64835338020973,-66.84576416015625,4761.76025390625,True
1599387746.8463752,0.0,10,0.5,0.5,-3.013931900024414,-0.15025,-0.03,-0.12575,0.9187486384219259,10,1,100,-0.40139633055858664,-10,-1,-100,18894.309547437704,0.006585106094876327,0.07562940737282188,0.9971142507848109,76.08260094426399,4.7235392762902375,498.4877240136295,-114.01138975162783,-74.52304077148438,4761.76025390625,True
1599387746.8882637,0.0,10,0.5,0.5,-1.5743345413208005,-0.15025,-0.03,-0.12575,0.901028490199407,10,1,100,-0.45176200531949307,-10,-1,-100,18889.738199841464,0.010176239339417149,0.07634366447376463,0.9970296329837063,75.25397515083542,4.675574958914864,494.7617611752299,-114.37446280356615,-82.49609375,4761.76025390625,True
1599387746.9271595,0.0,10,0.5,0.5,-2.3777878112792967,-0.15025,-0.03,-0.12575,0.8317108498085759,10,1,100,-0.0957431938665656,-10,-1,-100,18889.738199841464,0.010176239339417149,0.07634366447376463,0.9970296329837063,75.25397515083542,4.675574958914864,494.7617611752299,-114.37446280356615,-82.49609375,4761.76025390625,True
1599387746.967086,0.0,10,0.5,0.5,0.0882169494628906,-0.15025,-0.03,-0.12575,0.8683841515717403,10,1,100,-0.4766405462029295,-10,-1,-100,18885.152326937765,0.013612710349193662,0.07666071425301615,0.9969643067869414,73.87681901887171,4.593081193504893,487.3830127111843,-114.73760839148964,-90.76701354980469,4761.76025390625,True
1599387747.0084507,0.0,10,0.5,0.5,1.621025936126709,-0.15025,-0.03,-0.12575,0.8331368369595851,10,1,100,-0.49322210055249105,-10,-1,-100,18880.5519252175,0.016858160048878097,0.0766118790920123,0.9969184632765898,71.92033407803483,4.474434385940444,476.1103485722914,-115.1008589984884,-99.33525085449219,4761.76025390625,True
1599387747.047346,0.0,10,0.5,0.5,3.189579570770263,-0.15025,-0.03,-0.12575,0.7956324556216637,10,1,100,-0.5228949405440697,-10,-1,-100,18875.93698959658,0.020050657654368913,0.07621515722262394,0.9968897737148065,69.36744080505869,4.318861947767596,460.78957264851834,-115.46424227119743,-108.20035552978516,4761.76025390625,True
1599387747.0872395,0.0,10,0.5,0.5,4.78375047492981,-0.15025,-0.03,-0.12575,0.764728307905435,10,1,100,-0.512571934561718,-10,-1,-100,18871.307513930486,0.022828516122097537,0.07556253748932815,0.996879712793794,66.23094986426538,4.127329929902032,441.462856801515,-115.82777845586979,-117.19717407226562,4761.76025390625,True
1599387747.127643,0.0,10,0.5,0.5,6.312101867675781,-0.15025,-0.03,-0.12575,0.7345808998976979,10,1,100,-0.5182638824870915,-10,-1,-100,18866.663494539796,0.025378042467893946,0.07468929209062454,0.9968838771930756,66.18522051753285,4.128955281583139,442.662487031354,-116.19136476447136,-126.05558776855469,4761.76025390625,True
1599387747.1675367,0.0,10,0.5,0.5,8.964377246856689,-0.15025,-0.03,-0.12575,0.6483259948664579,10,1,100,-0.6188135337670772,-10,-1,-100,18859.67020766274,0.02858001916393409,0.07310620360988081,0.9969145728187244,69.19090722010979,4.324020552919585,465.11646358887356,-116.73644770773349,-138.82684326171875,4761.76025390625,True
1599387747.2066967,0.0,10,0.5,0.5,8.730810386657714,-0.15025,-0.03,-0.12575,0.7437754468886908,10,1,100,-0.39967239713890984,-10,-1,-100,18857.331845965702,0.029472172277197232,0.07253468703395012,0.9969303437242494,69.90395576471592,4.371039283838035,470.6996868055957,-116.91807924083281,-142.93679809570312,4761.76025390625,True
1599387747.2476304,0.0,10,0.5,0.5,12.773434341430665,-0.15025,-0.03,-0.12575,0.5555960929834765,10,1,100,-0.6112562867742083,-10,-1,-100,18847.942081575515,0.032182742983710946,0.07030631886970282,0.9970061647658134,71.88447557358029,4.503620019838573,487.2807848301741,-117.64439412518978,-158.6294708251953,4761.76025390625,True
1599387747.2885182,0.0,10,0.5,0.5,11.052400035858154,-0.15025,-0.03,-0.12575,0.777900600557895,10,1,100,-0.3427589798117203,-10,-1,-100,18847.942081575515,0.032182742983710946,0.07030631886970282,0.9970061647658134,71.88447557358029,4.503620019838573,487.2807848301741,-117.64439412518978,-158.6294708251953,4761.76025390625,True
1599387747.3309147,0.0,10,0.5,0.5,13.322688899993896,-0.15025,-0.03,-0.12575,0.6562256616312334,10,1,100,-0.43809469680924695,-10,-1,-100,18843.225412711618,0.033029425407648194,0.06920567155728231,0.9970554809445392,72.12253413168476,4.521987069711536,490.52346272481486,-118.00749282561424,-166.02761840820312,4761.76025390625,True
1599387747.369812,0.0,10,0.5,0.5,14.601254135131835,-0.15025,-0.03,-0.12575,0.6714698042106777,10,1,100,-0.42184532607840003,-10,-1,-100,18838.49421986658,0.0336306395263396,0.0683501552902736,0.9970943969137752,71.92797522277519,4.5127396322591995,490.82758866994686,-118.37059826942146,-173.12286376953125,4761.76025390625,True
1599387747.4077096,0.0,10,0.5,0.5,15.831960487365722,-0.15025,-0.03,-0.12575,0.6632662574364114,10,1,100,-0.3887711782183581,-10,-1,-100,18833.748501618742,0.033858325627170366,0.06750539058501122,0.9971442403322047,71.36864134886395,4.480288219031313,488.62915509233665,-118.7337364153096,-179.9194793701172,4761.76025390625,True
1599387747.4416184,0.0,10,0.5,0.5,-82.3486415977478,-0.15025,-0.03,-0.12575,0.6805706037373669,10,1,100,-0.3710916039525185,-10,-1,-100,18828.988256362732,0.03388913489316498,0.06690301353615137,0.9971837911418209,70.50898133923631,4.4288709788752865,484.3462161931131,-119.09692599780871,173.58660888671875,4761.76025390625,True
1599387747.4815118,0.0,10,0.5,0.5,-37.03143000793457,-0.15025,-0.03,-0.12575,0.6922028249183183,10,1,100,-0.34382452441937494,-10,-1,-100,18824.21348171006,0.0336566803417326,0.06646961108763877,0.9972206469333819,69.41135455440627,4.362583317164755,478.3876169360459,-119.46017971674972,167.3939208984375,4761.76025390625,True
1599387747.5204084,0.0,10,0.5,0.5,-37.84054953002929,-0.15025,-0.03,-0.12575,0.7185978794357051,10,1,100,-0.3462821187631269,-10,-1,-100,18821.820644890307,0.03345785600335579,0.06632383019951418,0.9972370437460317,68.79181413285288,4.325071242468773,474.9023831917275,-119.64183301930835,164.41064453125,4761.76025390625,True
1599387747.558307,0.0,10,0.5,0.5,-37.41972438049316,-0.15025,-0.03,-0.12575,0.7188159569955315,10,1,100,-0.3056088631622025,-10,-1,-100,18817.024070718908,0.03290000445069986,0.06620088960802763,0.9972637724906334,67.42280189109576,4.242096198546355,466.9911108299347,-120.00519586134561,158.36944580078125,4761.76025390625,True
1599387747.597202,0.0,10,0.5,0.5,-37.33683834838867,-0.15025,-0.03,-0.12575,0.7422755222133743,10,1,100,-0.2794836461278485,-10,-1,-100,18812.212959411787,0.032151437443166925,0.0663086717668401,0.9972810261500296,65.79304563266659,4.143071913968475,457.2064185862689,-120.36864102341573,152.08627319335938,4761.76025390625,True
1599387747.6360998,0.0,10,0.5,0.5,-35.309962684631344,-0.15025,-0.03,-0.12575,0.839384939970879,10,1,100,-0.13638774141822624,-10,-1,-100,18802.54713040602,0.030167614425171352,0.0672951284501625,0.9972769328159408,69.08644164901187,4.359434120421524,483.24845467791255,-121.09532430585861,138.67303466796875,4761.76025390625,True
1599387747.6759913,0.0,10,0.5,0.5,-37.88858494567871,-0.15025,-0.03,-0.12575,0.7404381525966854,10,1,100,-0.3345685303619296,-10,-1,-100,18802.54713040602,0.030167614425171352,0.0672951284501625,0.9972769328159408,69.08644164901187,4.359434120421524,483.24845467791255,-121.09532430585861,138.67303466796875,4761.76025390625,True
1599387747.7168825,0.0,10,0.5,0.5,-34.76206369018555,-0.15025,-0.03,-0.12575,0.9710395028919225,10,1,100,-0.053916998550057216,-10,-1,-100,18792.823194120196,0.027618068798298458,0.06939424180777333,0.9972069401482205,72.88178883126275,4.609249794320817,513.1192468584861,-121.82145929699962,124.11351013183594,4761.76025390625,True
1599387747.7767348,0.0,10,0.5,0.5,-37.46334728622436,-0.15025,-0.03,-0.12575,0.7611470241558888,10,1,100,-0.3083304255764117,-10,-1,-100,18792.823194120196,0.027618068798298458,0.06939424180777333,0.9972069401482205,72.88178883126275,4.609249794320817,513.1192468584861,-121.82145929699962,124.11351013183594,4761.76025390625,True
1599387747.8176258,0.0,10,0.5,0.5,-34.02100654220581,-0.15025,-0.03,-0.12575,1.1329922446565177,10,1,100,0.005251311399452063,-10,-1,-100,18783.04119064333,0.024772791708270642,0.07277370373367223,0.9970407698965285,75.78425673624433,4.802485164420196,537.0075741806885,-122.54714120086412,108.41043090820312,4761.76025390625,True
1599387747.8585129,0.0,10,0.5,0.5,-34.57529459381104,-0.15025,-0.03,-0.12575,1.0316422245893722,10,1,100,-0.12815131118317635,-10,-1,-100,18778.12842237251,0.02340718686255916,0.07491978865374385,0.9969148052222213,76.59363148181917,4.857925474060224,544.4919408290865,-122.90988410093888,100.130126953125,4761.76025390625,True
1599387747.9014015,0.0,10,0.5,0.5,-33.03258224487304,-0.15025,-0.03,-0.12575,1.1015928956170464,10,1,100,-0.0987246543722792,-10,-1,-100,18773.201144935912,0.021907741893659297,0.0774994021584991,0.9967516709342382,76.86875675179186,4.879149373831549,548.2087206971468,-123.27261318095978,91.56639099121094,4761.76025390625,True
1599387747.939364,0.0,10,0.5,0.5,-31.43979627609253,-0.15025,-0.03,-0.12575,1.1659475802772585,10,1,100,-0.10196181593912343,-10,-1,-100,18768.259357683244,0.02058471969840171,0.08041952084966865,0.9965485286634304,76.5545881552775,4.862871741659217,547.729104829405,-123.63536890391401,82.71786499023438,4761.76025390625,True
1599387747.980191,0.0,10,0.5,0.5,-29.786759620666505,-0.15025,-0.03,-0.12575,1.236026555080918,10,1,100,-0.09807717016684385,-10,-1,-100,18763.30305831472,0.019358360137787682,0.0836984415301741,0.9963030787758291,75.58421117699893,4.805189142680964,542.5325007826196,-123.99819073531698,73.58503723144531,4761.76025390625,True
1599387748.0196466,0.0,10,0.5,0.5,-30.680859485626222,-0.15025,-0.03,-0.12575,0.9098842422225879,10,1,100,-0.21935896179695533,-10,-1,-100,18763.30305831472,0.019358360137787682,0.0836984415301741,0.9963030787758291,75.58421117699893,4.805189142680964,542.5325007826196,-123.99819073531698,73.58503723144531,4761.76025390625,True
1599387748.058532,0.0,10,0.5,0.5,-27.84624908828735,-0.15025,-0.03,-0.12575,1.3105883274969647,10,1,100,-0.10412482853671348,-10,-1,-100,18758.33224285848,0.018322407178426738,0.08732539706015631,0.996011327457411,73.90422696698796,4.703074728432707,532.1872400990543,-124.36111346322079,64.16798400878906,4761.76025390625,True
1599387748.097424,0.0,10,0.5,0.5,-26.129303867340084,-0.15025,-0.03,-0.12575,1.3838316544905362,10,1,100,-0.11937909063342997,-10,-1,-100,18753.34690702171,0.01753007524102034,0.09127026845225443,0.9956718508417808,71.47548862513179,4.554258623056327,516.3573428873518,-124.72416594928114,54.46644592285156,4761.76025390625,True
1599387748.1352932,0.0,10,0.5,0.5,-21.504936145782473,-0.15025,-0.03,-0.12575,1.9357797486723225,10,1,100,-0.1284043069734172,-10,-1,-100,18743.332682810957,0.016903309573000003,0.0998524295376307,0.9948586685760505,77.50147274510688,4.95436620291368,563.4796853654991,-125.44984923627163,34.20660400390625,4761.76025390625,True
1599387748.1692042,0.0,10,0.5,0.5,-22.335642501831053,-0.15025,-0.03,-0.12575,1.3294920453581374,10,1,100,-0.19831775754583694,-10,-1,-100,18740.820060345344,0.016978840115662874,0.10211499850536211,0.9946276921886785,79.06389434909816,5.058666015412308,575.7515725191001,-125.63111858743366,28.96295166015625,4761.76025390625,True
1599387748.2086458,0.0,10,0.5,0.5,-19.755702911376954,-0.15025,-0.03,-0.12575,1.6127982765686046,10,1,100,-0.23953532784204473,-10,-1,-100,18735.783943239832,0.017431881455942495,0.10671764443548802,0.9941365468963742,81.95114892364928,5.252303235763461,598.6654886715787,-125.99350324309593,18.260498046875,4761.76025390625,True
1599387748.2485387,0.0,10,0.5,0.5,-17.797748275756835,-0.15025,-0.03,-0.12575,1.6643270492636915,10,1,100,-0.2902030626853683,-10,-1,-100,18730.73333582352,0.018311026545910845,0.11133945326855617,0.9936137239655529,84.10858248360091,5.398976513478929,616.365028864391,-126.35573106541356,7.2701416015625,4761.76025390625,True
1599387748.2864726,0.0,10,0.5,0.5,-15.78820393371582,-0.15025,-0.03,-0.12575,1.7085260618059752,10,1,100,-0.34493753282193335,-10,-1,-100,18725.66824168479,0.019612468320138708,0.11590979808117087,0.9930660953809538,85.26575065835519,5.480996318437652,626.8175721464065,-126.71788228575083,-4.00885009765625,4761.76025390625,True
1599387748.3259106,0.0,10,0.5,0.5,-16.919811416625976,-0.15025,-0.03,-0.12575,1.2553326201367723,10,1,100,-0.214563828041795,-10,-1,-100,18725.66824168479,0.019612468320138708,0.11590979808117087,0.9930660953809538,85.26575065835519,5.480996318437652,626.8175721464065,-126.71788228575083,-4.00885009765625,4761.76025390625,True
1599387748.3638093,0.0,10,0.5,0.5,-10.19322282409668,-0.15025,-0.03,-0.12575,2.2045873520941006,10,1,100,-0.6299668190093874,-10,-1,-100,18715.494592966046,0.02338974301200615,0.12450712266511794,0.9919429904623982,84.00889859330977,5.415594627294544,621.4999573173224,-127.44228636203425,-27.4378662109375,4761.76025390625,True
1599387748.4007878,0.0,10,0.5,0.5,-12.836352890014648,-0.15025,-0.03,-0.12575,1.3489357618128877,10,1,100,-0.25264248811006496,-10,-1,-100,18715.494592966046,0.02338974301200615,0.12450712266511794,0.9919429904623982,84.00889859330977,5.415594627294544,621.4999573173224,-127.44228636203425,-27.4378662109375,4761.76025390625,True
1599387748.4386485,0.0,10,0.5,0.5,-5.744524780273437,-0.15025,-0.03,-0.12575,2.1647584376793745,10,1,100,-0.7981626033612708,-10,-1,-100,18705.26296533202,0.028345351893495095,0.1318865936446906,0.9908594589763143,77.4128395807021,5.010196229079178,576.338650400474,-128.16727251166887,-52.034820556640625,4761.76025390625,True
1599387748.4795713,0.0,10,0.5,0.5,-8.488983375549317,-0.15025,-0.03,-0.12575,1.4312674593805619,10,1,100,-0.3036040096838831,-10,-1,-100,18705.26296533202,0.028345351893495095,0.1318865936446906,0.9908594589763143,77.4128395807021,5.010196229079178,576.338650400474,-128.16727251166887,-52.034820556640625,4761.76025390625,True
1599387748.517438,0.0,10,0.5,0.5,-4.65401717376709,-0.15025,-0.03,-0.12575,1.7836650151447297,10,1,100,-0.616123331575422,-10,-1,-100,18700.125400806428,0.031176604568279562,0.1350532838560081,0.9903477317827822,81.2956361705127,5.274586967775379,607.1403956825134,-128.52969018483225,-64.77200317382812,4761.76025390625,True
1599387748.556336,0.0,10,0.5,0.5,-2.3617190780639645,-0.15025,-0.03,-0.12575,1.7614859331183608,10,1,100,-0.6236064617652817,-10,-1,-100,18694.973349419422,0.03380552336981391,0.1376984643439494,0.989897125719138,85.02944408523554,5.530555803824388,636.9925890235828,-128.89178840742431,-77.80484008789062,4761.76025390625,True
1599387748.5912397,0.0,10,0.5,0.5,-0.0025620956420895347,-0.15025,-0.03,-0.12575,1.7525146336283073,10,1,100,-0.6708258270997582,-10,-1,-100,18689.80682103266,0.03660941952583661,0.13998926800504227,0.9894760003382567,87.79334821750822,5.723139480661142,659.7225596497325,-129.25366207406455,-91.12995910644531,4761.76025390625,True
1599387748.629139,0.0,10,0.5,0.5,0.5192337379455566,-0.15025,-0.03,-0.12575,1.6355893317578887,10,1,100,-0.5302248951238954,-10,-1,-100,18687.21812982927,0.03786279161510404,0.14097861256760513,0.9892883501839209,88.60170603623799,5.78164030345467,666.8198781543348,-129.43455390234263,-97.90263366699219,4761.76025390625,True
1599387748.669069,0.0,10,0.5,0.5,7.619453929901122,-0.15025,-0.03,-0.12575,1.8976772010298064,10,1,100,-0.896910995172027,-10,-1,-100,18676.827183155343,0.04231795645572181,0.14423368901849876,0.9886383734781522,87.05716883405478,5.7018727211590985,659.2516568751603,-130.15824965925702,-125.57062530517578,4761.76025390625,True
1599387748.7074187,0.0,10,0.5,0.5,8.32592223548889,-0.15025,-0.03,-0.12575,1.7169259698159312,10,1,100,-0.6483817524743236,-10,-1,-100,18671.60998992331,0.044088108206181045,0.14552390742560561,0.9883719092944637,83.31542808883053,5.46835015678621,632.8750517127845,-130.52037915959866,-139.41494750976562,4761.76025390625,True
1599387748.7463145,0.0,10,0.5,0.5,10.751578033447265,-0.15025,-0.03,-0.12575,1.7412166538373892,10,1,100,-0.6157672904970837,-10,-1,-100,18666.378303417005,0.04537859137963631,0.14689073573285744,0.9881112767296302,78.45830451901399,5.162408310436266,597.8177572343556,-130.88277019585382,-153.03944396972656,4761.76025390625,True
1599387748.7852097,0.0,10,0.5,0.5,13.095724224090574,-0.15025,-0.03,-0.12575,1.751659772234474,10,1,100,-0.5953003994429933,-10,-1,-100,18661.132127827266,0.04634570539286061,0.1482078956220892,0.9878696752441135,83.85346790949886,5.532151443805366,640.8730662828217,-131.24489327153225,-166.37503051757812,4761.76025390625,True
1599387748.8246558,0.0,10,0.5,0.5,11.835585708618163,-0.15025,-0.03,-0.12575,1.6223138606069956,10,1,100,-0.5008845943586485,-10,-1,-100,18661.132127827266,0.04634570539286061,0.1482078956220892,0.9878696752441135,83.85346790949886,5.532151443805366,640.8730662828217,-131.24489327153225,-166.37503051757812,4761.76025390625,True
1599387748.8635504,0.0,10,0.5,0.5,-80.07299967956543,-0.15025,-0.03,-0.12575,1.9792805991222169,10,1,100,-0.5934600694636942,-10,-1,-100,18650.59636264795,0.047170936663361605,0.1514382102431572,0.9873405548303232,90.76000784015555,6.016249557717046,697.8507546327859,-131.96825636566444,167.8699188232422,4761.76025390625,True
1599387748.906398,0.0,10,0.5,0.5,-38.70141151809692,-0.15025,-0.03,-0.12575,1.6582042986752623,10,1,100,-0.5128195008905817,-10,-1,-100,18650.59636264795,0.047170936663361605,0.1514382102431572,0.9873405548303232,90.76000784015555,6.016249557717046,697.8507546327859,-131.96825636566444,167.8699188232422,4761.76025390625,True
1599387748.9432998,0.0,10,0.5,0.5,-32.548387760162356,-0.15025,-0.03,-0.12575,2.142599894509845,10,1,100,-0.49121957731462396,-10,-1,-100,18640.002748850384,0.04696003341985737,0.15582691118130146,0.9866674865489897,91.0994013900071,6.063733796393242,704.7238544143437,-132.69135081838988,143.04763793945312,4761.76025390625,True
