Timestamp,Input Throttle,horizon,dT,dt,Input Roll,Roll P,Roll I,Roll D,Input Pitch,Pitch P,Pitch I,Pitch D,Input Yaw,Yaw P,Yaw I,Yaw D,Altitude,Direction X,Direction Y,Direction Z,Drag X,Drag Y,Drag Z,Vertical Velocity,Roll,Mass,Has Fuel
1599388668.7073295,0.0,10,0.5,0.5,-11.214369049072266,-0.2,-0.03,-0.2505,0.0008110120387052615,10,1,100,0.5038537663857505,-10,-1,-100,19346.966160566313,-0.04889937397253553,-0.0001650118715275669,0.9988036964269688,61.25620081969506,3.698003127147046,235.70171192814848,-69.03057076700873,-33.9239501953125,4761.76025390625,True
1599388668.747257,0.0,10,0.5,0.5,-11.38288818359375,-0.2,-0.03,-0.2505,-0.0007084977619259394,10,1,100,0.49972181056858517,-10,-1,-100,19345.581900255755,-0.048952447912953494,-0.00015630167025027156,0.9988010980235842,61.34625387260044,3.704117926834607,236.6960196705174,-69.21302064977336,-33.9251708984375,4761.76025390625,True
1599388668.7881126,0.0,10,0.5,0.5,-11.482292663574219,-0.2,-0.03,-0.2505,0.024017545050062844,10,1,100,0.5102599202966381,-10,-1,-100,19340.008369509014,-0.04905199572184944,7.65409943564861e-05,0.9987962233895259,61.7121476190307,3.7289563208258056,240.71621442114207,-69.94278549514566,-34.07861328125,4761.76025390625,True
1599388668.828005,0.0,10,0.5,0.5,-11.49802700805664,-0.2,-0.03,-0.2505,0.028747722991724525,10,1,100,0.5015965750183297,-10,-1,-100,19337.199712020694,-0.04901914332220491,0.00033114817892832064,0.9987977843031296,61.9099406118287,3.7422789489933654,242.79716693767938,-70.307645919888,-34.50140380859375,4761.76025390625,True
1599388668.870923,0.0,10,0.5,0.5,-11.770431823730469,-0.2,-0.03,-0.2505,0.003320119352433903,10,1,100,0.5097837293150035,-10,-1,-100,19337.199712020694,-0.04901914332220491,0.00033114817892832064,0.9987977843031296,61.9099406118287,3.7422789489933654,242.79716693767938,-70.307645919888,-34.50140380859375,4761.76025390625,True
1599388668.9117818,0.0,10,0.5,0.5,-11.615756637573242,-0.2,-0.03,-0.2505,0.04601236453168547,10,1,100,0.5002496526715117,-10,-1,-100,19334.376460528118,-0.048887907040607526,0.0007189584549406728,0.9988040126290688,62.120394418475854,3.756346114614207,244.93702891831228,-70.67248984551102,-35.214324951171875,4761.76025390625,True
1599388668.9575024,0.0,10,0.5,0.5,-11.505533264160157,-0.2,-0.03,-0.2505,0.0657399104746877,10,1,100,0.49278666712784336,-10,-1,-100,19331.538616049686,-0.048656312455085095,0.0012502009794747035,0.9988147977757359,62.337771625960876,3.7707874877428167,247.11380881336444,-71.03731598923929,-36.220245361328125,4761.76025390625,True
1599388668.9994025,0.0,10,0.5,0.5,-11.333568542480469,-0.2,-0.03,-0.2505,0.08816905267081812,10,1,100,0.4840350182680323,-10,-1,-100,19328.686178740114,-0.04832197846728907,0.0019359134753982128,0.9988299347917153,62.55422987763266,3.7851023222980094,249.29664757504045,-71.40212358436885,-37.519439697265625,4761.76025390625,True
1599388669.0402932,0.0,10,0.5,0.5,-11.098858978271485,-0.2,-0.03,-0.2505,0.10902639867897697,10,1,100,0.4715029866050957,-10,-1,-100,19325.819149999297,-0.04786018184647754,0.002747140786788849,0.9988502671627614,62.759579713004804,3.7986451463837265,251.44463479267893,-71.76691241833343,-39.112335205078125,4761.76025390625,True
1599388669.0861695,0.0,10,0.5,0.5,-10.80069923400879,-0.2,-0.03,-0.2505,0.13164396244646168,10,1,100,0.4583011827444514,-10,-1,-100,19322.937529929215,-0.04727684108169168,0.0036877369761331162,0.9988750176540263,62.940109432084476,3.8105541737976707,253.50182838741864,-72.1316830825205,-40.998779296875,4761.76025390625,True
1599388669.12706,0.0,10,0.5,0.5,-9.32364762878418,-0.2,-0.03,-0.2505,0.28102759126861043,10,1,100,0.3479634098265571,-10,-1,-100,19317.130519603146,-0.045700481686194866,0.005897504922123682,0.9989377785474645,63.15972180348523,3.8252819811865555,257.0649698858119,-72.86117681227506,-45.652740478515625,4761.76025390625,True
1599388669.167985,0.0,10,0.5,0.5,-9.847393112182617,-0.2,-0.03,-0.2505,0.12756427226212183,10,1,100,0.45188976341244036,-10,-1,-100,19315.669648789102,-0.04521512080678428,0.006505752412243707,0.9989560891430507,63.170941559350226,3.826186061592972,257.7807616117596,-73.04354268065924,-46.9998779296875,4761.76025390625,True
1599388669.2098396,0.0,10,0.5,0.5,-8.125897171020508,-0.2,-0.03,-0.2505,0.2716950877503313,10,1,100,0.3141094351583451,-10,-1,-100,19311.265152319567,-0.04352473277510668,0.008362928403988822,0.999017346728957,63.05402188925585,3.8194126380184623,259.3113720188059,-73.5906320826136,-51.483184814453125,4761.76025390625,True
1599388669.2527242,0.0,10,0.5,0.5,-8.457444046020507,-0.2,-0.03,-0.2505,0.1613563713502958,10,1,100,0.4122817461543816,-10,-1,-100,19309.7896923566,-0.04288551672167895,0.009040657895202574,0.999039087804044,62.95418594606201,3.8133413624481536,259.56939408939667,-73.77299519463426,-53.124267578125,4761.76025390625,True
1599388669.2946124,0.0,10,0.5,0.5,-8.040184570312501,-0.2,-0.03,-0.2505,0.16907667197765605,10,1,100,0.400582495325291,-10,-1,-100,19308.310584805207,-0.04220363041702613,0.00971904242953992,0.9990617567467368,62.818390203305675,3.8050285511152864,259.67689586415264,-73.9553599086864,-54.8389892578125,4761.76025390625,True
1599388669.3365,0.0,10,0.5,0.5,-6.763686187744142,-0.2,-0.03,-0.2505,0.24190533884533064,10,1,100,0.30629532997499953,-10,-1,-100,19305.34142807685,-0.04073277364861653,0.010989299982961265,0.9991096418495694,62.4259236942988,3.780902032657211,259.3818503965217,-74.320098476311,-58.49053955078125,4761.76025390625,True
1599388669.7626941,0.0,10,0.5,0.5,-5.831303848266602,-0.2,-0.03,-0.2505,0.2642116346472505,10,1,100,0.271922764096257,-10,-1,-100,19302.357681188732,-0.03909056701788468,0.012337527410154469,0.9991595032764409,61.84790121522998,3.745332112110439,258.2964892089476,-74.68485737011595,-62.435638427734375,4761.76025390625,True
1599388669.8005927,0.0,10,0.5,0.5,-4.830789337158204,-0.2,-0.03,-0.2505,0.27503711308493195,10,1,100,0.23754232122881422,-10,-1,-100,19299.359343141783,-0.037293798550640064,0.01365152276028114,0.9992110930709235,61.055871453495044,3.696665541319697,256.28972618302276,-75.04964717787878,-66.67562866210938,4761.76025390625,True
1599388669.835534,0.0,10,0.5,0.5,-2.6909418792724615,-0.2,-0.03,-0.2505,0.3493252851212484,10,1,100,0.09241947614936563,-10,-1,-100,19294.834473921568,-0.03435109969780147,0.015510760452285641,0.9992894566939768,59.404833100529416,3.59560457437734,251.26118319695536,-75.59691357462827,-73.58905029296875,4761.76025390625,True
1599388669.8883572,0.0,10,0.5,0.5,-2.0768462677001955,-0.2,-0.03,-0.2505,0.2924214638570198,10,1,100,0.15166266370835327,-10,-1,-100,19291.799649946624,-0.03222677433861962,0.01667206577928266,0.9993415218224342,57.956574258409525,3.507367051804735,246.3747632231212,-75.96182757535527,-78.56680297851562,4761.76025390625,True
1599388669.9392211,0.0,10,0.5,0.5,-3.211069244384766,-0.2,-0.03,-0.2505,0.17758936403763295,10,1,100,0.3625901929522315,-10,-1,-100,19291.799649946624,-0.03222677433861962,0.01667206577928266,0.9993415218224342,57.956574258409525,3.507367051804735,246.3747632231212,-75.96182757535527,-78.56680297851562,4761.76025390625,True
1599388669.979115,0.0,10,0.5,0.5,-0.7364784851074218,-0.2,-0.03,-0.2505,0.29146737468390216,10,1,100,0.1220719718999419,-10,-1,-100,19288.75022734888,-0.030052493881187508,0.01769752536619678,0.9993916375512825,56.202849488545404,3.4009564716997827,240.1229335871643,-76.32680740095894,-83.84060668945312,4761.76025390625,True
1599388670.0200052,0.0,10,0.5,0.5,0.5617904815673828,-0.2,-0.03,-0.2505,0.29356280002780816,10,1,100,0.08666421312710931,-10,-1,-100,19285.686203405727,-0.02776777077370129,0.018638636336559714,0.9994406196176803,54.12441457358127,3.2753496691671558,232.40300000445637,-76.69185906989024,-89.40960693359375,4761.76025390625,True
1599388670.0608957,0.0,10,0.5,0.5,4.6799669990539545,-0.2,-0.03,-0.2505,0.3677033174278326,10,1,100,-0.21593240336466213,-10,-1,-100,19279.514345878735,-0.02295419594606263,0.020158854915132994,0.9995332538024838,54.7517242598447,3.315449229455432,237.44491140262275,-77.42199702588347,-101.39502716064453,4761.76025390625,True
1599388670.1017864,0.0,10,0.5,0.5,1.8224315109252929,-0.2,-0.03,-0.2505,0.21679327927249767,10,1,100,0.26343194732164227,-10,-1,-100,19279.514345878735,-0.02295419594606263,0.020158854915132994,0.9995332538024838,54.7517242598447,3.315449229455432,237.44491140262275,-77.42199702588347,-101.39502716064453,4761.76025390625,True
1599388670.1436741,0.0,10,0.5,0.5,6.087179286956787,-0.2,-0.03,-0.2505,0.3068347546829047,10,1,100,-0.13402366649897623,-10,-1,-100,19274.847129881848,-0.01935846257903061,0.020967923043877065,0.9995927151244163,57.289935012964065,3.472074340442776,250.29374140619663,-77.96936380945036,-110.55169677734375,4761.76025390625,True
1599388670.1851385,0.0,10,0.5,0.5,7.828817554473877,-0.2,-0.03,-0.2505,0.2834375713806283,10,1,100,-0.17827684472874786,-10,-1,-100,19270.147080554743,-0.015706743635157748,0.021481666382659238,0.9996458553977021,59.30153738086052,3.5972533155830253,260.9851955029383,-78.51652361794642,-119.1625747680664,4761.76025390625,True
1599388670.2260306,0.0,10,0.5,0.5,8.264060527801515,-0.2,-0.03,-0.2505,0.2587167200302184,10,1,100,-0.061348958756721694,-10,-1,-100,19266.995478835655,-0.01347123794354877,0.0217156579156643,0.9996734246490491,60.251332200446946,3.6568715320228584,266.45274432041896,-78.88120276534137,-124.53901672363281,4761.76025390625,True
1599388670.2719054,0.0,10,0.5,0.5,7.0908519821167,-0.2,-0.03,-0.2505,0.2361239802452504,10,1,100,0.1598193543434669,-10,-1,-100,19266.995478835655,-0.01347123794354877,0.0217156579156643,0.9996734246490491,60.251332200446946,3.6568715320228584,266.45274432041896,-78.88120276534137,-124.53901672363281,4761.76025390625,True
1599388670.3138206,0.0,10,0.5,0.5,9.532978233337403,-0.2,-0.03,-0.2505,0.2534204218795938,10,1,100,-0.08479446611198344,-10,-1,-100,19263.829291598522,-0.01126645763191218,0.021867257478282533,0.9996973992077837,60.8656459849108,3.695859566988787,270.46935008268593,-79.24582873970748,-129.6206512451172,4761.76025390625,True
1599388670.356714,0.0,10,0.5,0.5,10.56967311859131,-0.2,-0.03,-0.2505,0.2441944148951875,10,1,100,-0.10284546187932994,-10,-1,-100,19260.64852040203,-0.009117066765909135,0.02191647957016905,0.9997182338123258,61.192065851383894,3.717011309600805,273.226435761495,-79.61041960112651,-134.4075164794922,4761.76025390625,True
1599388670.399601,0.0,10,0.5,0.5,11.561932846069336,-0.2,-0.03,-0.2505,0.2314554578375112,10,1,100,-0.12218288993624576,-10,-1,-100,19257.453165915213,-0.007008289094091414,0.021840650577004385,0.9997369003224532,61.2730762889708,3.7228752491848094,274.8966080617583,-79.97499140962921,-138.89996337890625,4761.76025390625,True
1599388670.4454777,0.0,10,0.5,0.5,12.492112449645996,-0.2,-0.03,-0.2505,0.23193589442076362,10,1,100,-0.1276392362829718,-10,-1,-100,19254.243229077547,-0.00506256461182061,0.021772316256510795,0.999750137126461,61.148016103136186,3.7158566766994454,275.64186216379045,-80.33955758255058,-143.09609985351562,4761.76025390625,True
1599388670.4843373,0.0,10,0.5,0.5,14.983731849670411,-0.2,-0.03,-0.2505,0.20475548686771977,10,1,100,-0.3392471915405881,-10,-1,-100,19247.779606630327,-0.0013906565857432587,0.02146025073292536,0.9997687351146466,60.46047188663973,3.674371199846853,275.1285595961375,-81.06871206677624,-150.60263061523438,4761.76025390625,True
1599388670.5272217,0.0,10,0.5,0.5,14.74199887084961,-0.2,-0.03,-0.2505,0.215093993864526,10,1,100,-0.15923238421238123,-10,-1,-100,19244.525919873966,0.00029134015374307167,0.021269358142529754,0.9997737391655772,59.97502239813129,3.6447248898075806,274.2037984702639,-81.43331296182717,-153.912353515625,4761.76025390625,True
1599388670.5691469,0.0,10,0.5,0.5,14.0704652633667,-0.2,-0.03,-0.2505,0.2342943032268262,10,1,100,0.006642736126271227,-10,-1,-100,19244.525919873966,0.00029134015374307167,0.021269358142529754,0.9997737391655772,59.97502239813129,3.6447248898075806,274.2037984702639,-81.43331296182717,-153.912353515625,4761.76025390625,True
1599388670.6124032,0.0,10,0.5,0.5,15.557608367919922,-0.2,-0.03,-0.2505,0.22311747092418288,10,1,100,-0.1655478393098844,-10,-1,-100,19241.257648761733,0.001838845564314692,0.02116747654423422,0.9997742528109732,59.4412321390352,3.6120362539307846,273.03740732559237,-81.79793387349059,-156.92469787597656,4761.76025390625,True
1599388670.6552896,0.0,10,0.5,0.5,17.231500999450684,-0.2,-0.03,-0.2505,0.19596262299887268,10,1,100,-0.32377775117865504,-10,-1,-100,19234.677348915953,0.004668171873460014,0.020828280282679485,0.9997721695025452,58.34899748077258,3.5450654261290993,270.5251650766639,-82.52723695022789,-162.06387329101562,4761.76025390625,True
1599388670.6981742,0.0,10,0.5,0.5,17.013832153320312,-0.2,-0.03,-0.2505,0.22035549377971736,10,1,100,-0.17927821270356387,-10,-1,-100,19231.365318902303,0.00591016415943947,0.02074248012257648,0.9997673826835785,57.83001885947313,3.5132570355120176,269.3619019676079,-82.89191648432401,-164.18844604492188,4761.76025390625,True
1599388670.7440886,0.0,10,0.5,0.5,17.02894041442871,-0.2,-0.03,-0.2505,0.22762162605798225,10,1,100,-0.12120035608131768,-10,-1,-100,19229.70383346046,0.006493648084579476,0.020731420432097147,0.9997639925209455,57.586588405620944,3.498345655624064,268.8472464781454,-83.07426217688878,-165.13931274414062,4761.76025390625,True
1599388670.7879696,0.0,10,0.5,0.5,17.292344177246093,-0.2,-0.03,-0.2505,0.22788949787695884,10,1,100,-0.1261342658559914,-10,-1,-100,19228.03870126221,0.007052796191097886,0.020724833945512253,0.9997603409436772,57.357453879404005,3.4843163930391623,268.3944832526158,-83.2566113289709,-166.01620483398438,4761.76025390625,True
1599388670.834879,0.0,10,0.5,0.5,17.857914321899415,-0.2,-0.03,-0.2505,0.2239571332912082,10,1,100,-0.18667941836631452,-10,-1,-100,19224.697495262488,0.00809682325352028,0.020684180775677942,0.9997532726222208,56.94951092994319,3.45935938162512,267.71139251026057,-83.62131814120423,-167.54873657226562,4761.76025390625,True
1599388670.8777297,0.0,10,0.5,0.5,18.540295249938964,-0.2,-0.03,-0.2505,0.23489469343307454,10,1,100,-0.2794969029914227,-10,-1,-100,19217.97131779627,0.009876002159271067,0.020747707049664922,0.9997359637591975,56.36442149894637,3.4236393419331907,267.3897244842846,-84.3507519844292,-169.72483825683594,4761.76025390625,True
1599388670.9206142,0.0,10,0.5,0.5,18.365003128051757,-0.2,-0.03,-0.2505,0.24099809839528497,10,1,100,-0.1840450092782941,-10,-1,-100,19214.586346074706,0.010612112524587802,0.020861875170406677,0.9997260450904236,56.20232879593798,3.413776204423707,267.8326817226787,-84.715470954708,-170.36842346191406,4761.76025390625,True
1599388670.9634993,0.0,10,0.5,0.5,18.4194059677124,-0.2,-0.03,-0.2505,0.25064209194128406,10,1,100,-0.1802826168130342,-10,-1,-100,19211.18678550748,0.011236188589636716,0.0210538810174651,0.9997152005246698,56.13607406416901,3.4097679373415004,268.72805088685163,-85.08018545550037,-170.71542358398438,4761.76025390625,True
1599388671.0063846,0.0,10,0.5,0.5,18.406098556518558,-0.2,-0.03,-0.2505,0.2542356361211177,10,1,100,-0.1766402956315687,-10,-1,-100,19207.772636847338,0.011760468593998865,0.021261296259266756,0.9997047807527106,56.17061715698185,3.411902686477937,270.1058422762713,-85.44489114720064,-170.76693725585938,4761.76025390625,True
1599388671.04927,0.0,10,0.5,0.5,18.443758132934573,-0.2,-0.03,-0.2505,0.23349330575262567,10,1,100,-0.12535920803937928,-10,-1,-100,19207.772636847338,0.011760468593998865,0.021261296259266756,0.9997047807527106,56.17061715698185,3.411902686477937,270.1058422762713,-85.44489114720064,-170.76693725585938,4761.76025390625,True
1599388671.0901961,0.0,10,0.5,0.5,18.13143447875977,-0.2,-0.03,-0.2505,0.3005211673163378,10,1,100,-0.20464475197464682,-10,-1,-100,19200.900576222688,0.012472226608837948,0.021870555164650474,0.9996830109490747,56.53595737522295,3.4341748307966307,274.3048595824856,-86.17425769602102,-169.98147583007812,4761.76025390625,True
1599388671.1310859,0.0,10,0.5,0.5,18.35194537353516,-0.2,-0.03,-0.2505,0.23969950426616318,10,1,100,-0.1342493559642763,-10,-1,-100,19200.900576222688,0.012472226608837948,0.021870555164650474,0.9996830109490747,56.53595737522295,3.4341748307966307,274.3048595824856,-86.17425769602102,-169.98147583007812,4761.76025390625,True
1599388671.1749344,0.0,10,0.5,0.5,17.992665878295895,-0.2,-0.03,-0.2505,0.27914746399569695,10,1,100,-0.1571835142294014,-10,-1,-100,19197.442666269373,0.012674753445385087,0.022228147457607986,0.9996725764397568,56.86086509290809,3.4539300727940487,277.1101100036656,-86.53890974993253,-169.1453857421875,4761.76025390625,True
1599388671.216334,0.0,10,0.5,0.5,17.061230712890627,-0.2,-0.03,-0.2505,0.33885107959961236,10,1,100,-0.14082580820302726,-10,-1,-100,19190.4830911085,0.012704543146223806,0.023094630841218128,0.9996525559461915,57.76534704717184,3.5088255800218335,284.01605962410116,-87.26812989095826,-166.58624267578125,4761.76025390625,True
1599388671.2582557,0.0,10,0.5,0.5,17.704006164550783,-0.2,-0.03,-0.2505,0.2524397209281688,10,1,100,-0.13841201281466792,-10,-1,-100,19190.4830911085,0.012704543146223806,0.023094630841218128,0.9996525559461915,57.76534704717184,3.5088255800218335,284.01605962410116,-87.26812989095826,-166.58624267578125,4761.76025390625,True
1599388671.3026912,0.0,10,0.5,0.5,16.925165153503418,-0.2,-0.03,-0.2505,0.3057978508924019,10,1,100,-0.12029766543417866,-10,-1,-100,19186.981428617146,0.012535678424680537,0.023577513431742483,0.9996434152370579,58.327180002175545,3.5428838917079486,288.0400520580172,-87.63268992039856,-164.8638153076172,4761.76025390625,True
1599388671.345576,0.0,10,0.5,0.5,15.391714271545409,-0.2,-0.03,-0.2505,0.36958333169355956,10,1,100,-0.059556529430836475,-10,-1,-100,19179.934361831285,0.011827555008460446,0.02459379306097326,0.9996275577860965,59.610293326848925,3.6206319448387885,296.955878841648,-88.3616925768018,-160.5345458984375,4761.76025390625,True
1599388671.3864663,0.0,10,0.5,0.5,15.272546005249025,-0.2,-0.03,-0.2505,0.3251865264740117,10,1,100,-0.06943494352626887,-10,-1,-100,19176.3889607616,0.011272505265051682,0.025110683660195744,0.9996211203206777,60.29811098928786,3.66233135768378,301.6870570595663,-88.72613002059758,-157.92822265625,4761.76025390625,True
1599388671.429352,0.0,10,0.5,0.5,14.580621124267578,-0.2,-0.03,-0.2505,0.32698803359543466,10,1,100,-0.0486890253710279,-10,-1,-100,19172.82898351422,0.01057928231810933,0.025593273540008454,0.999616458015343,60.9903095867386,3.7043532462675746,306.4700517337576,-89.0905227526365,-155.02822875976562,4761.76025390625,True
1599388671.4712405,0.0,10,0.5,0.5,13.820949485778808,-0.2,-0.03,-0.2505,0.3316378292838325,10,1,100,-0.029003508112679433,-10,-1,-100,19169.254431610578,0.009771194196973013,0.02607032432129568,0.9996123558428774,61.66389453369004,3.745349138683313,311.1890896351348,-89.45487110899552,-151.83421325683594,4761.76025390625,True
1599388671.5138826,0.0,10,0.5,0.5,12.993276428222657,-0.2,-0.03,-0.2505,0.33126699874284427,10,1,100,-0.006152750988570335,-10,-1,-100,19165.665307296673,0.008830642907899939,0.026496263819309602,0.9996099077887588,62.291889212613164,3.7837380846170916,315.7062775567026,-89.81917674396139,-148.34703063964844,4761.76025390625,True
1599388671.5557709,0.0,10,0.5,0.5,12.09896102142334,-0.2,-0.03,-0.2505,0.3296854903840949,10,1,100,0.017053193198372674,-10,-1,-100,19162.061611903948,0.007767943683134879,0.026864899006374846,0.999608891643283,62.84442617362342,3.8177697052919988,319.866737460007,-90.18344323559447,-144.56689453125,4761.76025390625,True
1599388671.5966618,0.0,10,0.5,0.5,11.134865737915039,-0.2,-0.03,-0.2505,0.32599672675486,10,1,100,0.040385180743045576,-10,-1,-100,19158.44334681309,0.0065940211219657095,0.027161947376312275,0.999609297425834,63.28890299889891,3.8455268689238453,323.4991270171001,-90.5476767110127,-140.494140625,4761.76025390625,True
1599388671.6365542,0.0,10,0.5,0.5,10.102660636901856,-0.2,-0.03,-0.2505,0.3202167661427159,10,1,100,0.06380905869231848,-10,-1,-100,19154.810513227596,0.005319402387112547,0.02737496097985526,0.9996110821062336,63.58981542993253,3.864905742185591,326.4144841393455,-90.91188578094423,-136.12904357910156,4761.76025390625,True
1599388671.67934,0.0,10,0.5,0.5,11.104745849609374,-0.2,-0.03,-0.2505,0.2993434388022812,10,1,100,-0.06291430071708666,-10,-1,-100,19154.810513227596,0.005319402387112547,0.02737496097985526,0.9996110821062336,63.58981542993253,3.864905742185591,326.4144841393455,-90.91188578094423,-136.12904357910156,4761.76025390625,True
1599388671.719232,0.0,10,0.5,0.5,6.685931854248047,-0.2,-0.03,-0.2505,0.31320942652047823,10,1,100,0.2456524537455022,-10,-1,-100,19147.501142278197,0.0025209638381427494,0.02749712420444011,0.9996187037574938,63.60780892155574,3.8693076344448887,329.2657958093227,-91.64027856901598,-126.52317810058594,4761.76025390625,True
1599388671.7601235,0.0,10,0.5,0.5,8.977179244995117,-0.2,-0.03,-0.2505,0.30138506513926316,10,1,100,-0.03318992969282378,-10,-1,-100,19147.501142278197,0.0025209638381427494,0.02749712420444011,0.9996187037574938,63.60780892155574,3.8693076344448887,329.2657958093227,-91.64027856901598,-126.52317810058594,4761.76025390625,True
1599388671.802015,0.0,10,0.5,0.5,6.514075851440431,-0.2,-0.03,-0.2505,0.2943012685040896,10,1,100,0.1376938867632234,-10,-1,-100,19143.824604573543,0.0009759351350607913,0.02743008666126265,0.9996232479771404,63.245414295162526,3.8494343297065408,328.7643185275004,-92.00449234158093,-121.28218078613281,4761.76025390625,True
1599388671.8429055,0.0,10,0.5,0.5,5.225186302185059,-0.2,-0.03,-0.2505,0.27268245091838245,10,1,100,0.14742982388097509,-10,-1,-100,19140.13349711697,-0.0005077844141478308,0.027170500186684838,0.9996306848404535,62.58280643562269,3.811505855780186,326.6825638343792,-92.36874125174928,-115.75094604492188,4761.76025390625,True
1599388671.8837962,0.0,10,0.5,0.5,3.8694069213867186,-0.2,-0.03,-0.2505,0.26445479222630364,10,1,100,0.18054315302813956,-10,-1,-100,19136.42781842558,-0.002147571481373294,0.026858281742916403,0.9996369444145962,61.6290384751688,3.755889331233055,323.0487066336297,-92.73304325372703,-109.9273681640625,4761.76025390625,True
1599388671.9256845,0.0,10,0.5,0.5,2.4481019897460934,-0.2,-0.03,-0.2505,0.24305712605787477,10,1,100,0.1898003755315365,-10,-1,-100,19132.707565590972,-0.0037116083237197363,0.026379206231212454,0.9996451177504256,60.49015287851368,3.6888217240709285,318.4019033753786,-93.0974088227353,-103.81329345703125,4761.76025390625,True
1599388671.9665737,0.0,10,0.5,0.5,0.9604561271667478,-0.2,-0.03,-0.2505,0.22628219540903777,10,1,100,0.20764260522479389,-10,-1,-100,19128.972736191936,-0.00528426004012646,0.025791290085208616,0.9996533829040789,59.07605836804335,3.604564572090841,312.25350088485834,-93.46185034252412,-97.40792083740234,4761.76025390625,True
1599388672.0073838,0.0,10,0.5,0.5,-3.7410129890441897,-0.2,-0.03,-0.2505,0.11726474288401212,10,1,100,0.3821944450121265,-10,-1,-100,19121.459337361273,-0.008288912686087177,0.024266729119451408,0.9996711558229163,59.985726400229694,3.662257798534731,319.6972728047188,-94.19082925068841,-83.72415161132812,4761.76025390625,True
1599388672.0492713,0.0,10,0.5,0.5,-0.48353876495361336,-0.2,-0.03,-0.2505,0.2694313176340468,10,1,100,0.08321747379686008,-10,-1,-100,19121.459337361273,-0.008288912686087177,0.024266729119451408,0.9996711558229163,59.985726400229694,3.662257798534731,319.6972728047188,-94.19082925068841,-83.72415161132812,4761.76025390625,True
1599388672.0901623,0.0,10,0.5,0.5,-3.9170658340454105,-0.2,-0.03,-0.2505,0.16922050753986353,10,1,100,0.23798081408048527,-10,-1,-100,19117.68077391479,-0.009683480947689952,0.023358547420286473,0.9996802531105383,62.64080060548258,3.824547901703465,335.22432158463766,-94.5551483741389,-76.4515380859375,4761.76025390625,True
1599388672.1300566,0.0,10,0.5,0.5,-7.148364509582519,-0.2,-0.03,-0.2505,0.09938050377136248,10,1,100,0.3074333118421236,-10,-1,-100,19111.98561425775,-0.011569017634857548,0.021901669853658857,0.9996931902781901,65.89844454184198,4.02324339714554,354.8278852100261,-95.10138174018925,-65.63232421875,4761.76025390625,True
1599388672.1719456,0.0,10,0.5,0.5,-9.295132698059081,-0.2,-0.03,-0.2505,0.07021363790614218,10,1,100,0.3036231956423541,-10,-1,-100,19106.25769023574,-0.01323569540185473,0.020317169152814278,0.9997059712759774,68.04062246400962,4.154188916004567,368.6000834092289,-95.64737987563916,-55.256500244140625,4761.76025390625,True
1599388672.2128341,0.0,10,0.5,0.5,-6.90978882598877,-0.2,-0.03,-0.2505,0.22794571248543755,10,1,100,0.13853108486663562,-10,-1,-100,19106.25769023574,-0.01323569540185473,0.020317169152814278,0.9997059712759774,68.04062246400962,4.154188916004567,368.6000834092289,-95.64737987563916,-55.256500244140625,4761.76025390625,True
1599388672.2537246,0.0,10,0.5,0.5,-12.892009254455568,-0.2,-0.03,-0.2505,0.0009347160721585313,10,1,100,0.3449543212940314,-10,-1,-100,19098.569509227294,-0.01509935061434295,0.018259899110428513,0.999719253438435,69.24332917188154,4.229686694513711,378.15161392290844,-96.37517257144698,-42.4171142578125,4761.76025390625,True
1599388672.2956123,0.0,10,0.5,0.5,-9.895744560241699,-0.2,-0.03,-0.2505,0.20577066020310938,10,1,100,0.1600479566652289,-10,-1,-100,19098.569509227294,-0.01509935061434295,0.018259899110428513,0.999719253438435,69.24332917188154,4.229686694513711,378.15161392290844,-96.37517257144698,-42.4171142578125,4761.76025390625,True
1599388672.3365033,0.0,10,0.5,0.5,-12.789259422302244,-0.2,-0.03,-0.2505,0.08594114044581443,10,1,100,0.24695903718676446,-10,-1,-100,19094.70358603378,-0.015877677001690575,0.01717835655139173,0.9997263642813584,69.23151112818316,4.230908588743834,379.60711993002684,-96.73904544056434,-36.44378662109375,4761.76025390625,True
1599388672.3784332,0.0,10,0.5,0.5,-14.053129920959474,-0.2,-0.03,-0.2505,0.09439407140914681,10,1,100,0.24923605507192037,-10,-1,-100,19090.823107185308,-0.016594886544891677,0.016280345278915694,0.9997297435298009,68.88144042423163,4.211944110199496,379.2027564575787,-97.10293544564124,-30.765472412109375,4761.76025390625,True
1599388672.4253068,0.0,10,0.5,0.5,-17.544268020629882,-0.2,-0.03,-0.2505,-0.01924382756065074,10,1,100,0.3064150424244852,-10,-1,-100,19083.018478007987,-0.017756421808729845,0.014439545899490496,0.9997380701957722,67.38028453176527,4.1257066768615145,373.91307629221,-97.83083781903514,-20.3023681640625,4761.76025390625,True
1599388672.4652019,0.0,10,0.5,0.5,-15.113525756835937,-0.2,-0.03,-0.2505,0.16385339205987298,10,1,100,0.19120826695293267,-10,-1,-100,19083.018478007987,-0.017756421808729845,0.014439545899490496,0.9997380701957722,67.38028453176527,4.1257066768615145,373.91307629221,-97.83083781903514,-20.3023681640625,4761.76025390625,True
1599388672.5090845,0.0,10,0.5,0.5,-18.4886231842041,-0.2,-0.03,-0.2505,0.034432290941844135,10,1,100,0.2732288419664267,-10,-1,-100,19077.126784989377,-0.01849345657328648,0.01327192423770838,0.9997408904766278,65.9254150611514,4.040667961890808,368.0313280834193,-98.37690967267923,-13.232818603515625,4761.76025390625,True
1599388672.5519683,0.0,10,0.5,0.5,-17.902298416137693,-0.2,-0.03,-0.2505,0.11270456646200205,10,1,100,0.2263978431573052,-10,-1,-100,19075.15560581186,-0.018729742755868136,0.01293118579825569,0.9997409570334458,65.41137265282266,4.010382403569074,365.8881277817584,-98.55896202219022,-11.0242919921875,4761.76025390625,True
1599388672.5928586,0.0,10,0.5,0.5,-19.40233869934082,-0.2,-0.03,-0.2505,0.07092853209536171,10,1,100,0.244867825231054,-10,-1,-100,19071.20232277445,-0.019105947554230077,0.012249796435470518,0.9997424194538034,64.4509040542642,3.9536354081986187,361.94919943344513,-98.92310589074955,-6.830169677734375,4761.76025390625,True
1599388672.6317556,0.0,10,0.5,0.5,-20.2534698638916,-0.2,-0.03,-0.2505,0.07875619554933574,10,1,100,0.2530295053580157,-10,-1,-100,19067.234472767217,-0.019516812415574788,0.011708846112263164,0.999740964928343,63.468782371684206,3.895073865371561,357.84765910727333,-99.28729832225872,-2.93121337890625,4761.76025390625,True
1599388672.6736434,0.0,10,0.5,0.5,-21.056714767456057,-0.2,-0.03,-0.2505,0.07810158280931481,10,1,100,0.25025110534978073,-10,-1,-100,19063.252053519245,-0.019859357637619007,0.011218947814474972,0.9997398367196123,62.44580302813702,3.8334791402997435,353.4727195810612,-99.65153760961458,0.671356201171875,4761.76025390625,True
1599388672.7135367,0.0,10,0.5,0.5,-21.773329330444334,-0.2,-0.03,-0.2505,0.08347886610688052,10,1,100,0.2547866853175171,-10,-1,-100,19059.255064766505,-0.020207667650981104,0.010828870984005352,0.9997371583177848,63.18984534881757,3.8798599488830168,359.09487784409936,-100.01576662083824,3.97833251953125,4761.76025390625,True
1599388672.7554245,0.0,10,0.5,0.5,-22.440704925537112,-0.2,-0.03,-0.2505,0.08852182510653939,10,1,100,0.25657528413758207,-10,-1,-100,19055.243509248015,-0.020535929182368476,0.010526856245508436,0.9997336949959239,64.61137601928452,3.9674304846644035,368.6161384129254,-100.37991589492557,6.9896240234375,4761.76025390625,True
1599388672.7973132,0.0,10,0.5,0.5,-23.040098693847657,-0.2,-0.03,-0.2505,0.09460574386510895,10,1,100,0.25982721010540444,-10,-1,-100,19051.217389874044,-0.020859676944991128,0.010313652563139947,0.999729214561902,65.85836125234886,4.043947971667728,377.2016579016592,-100.74399096317634,9.705322265625,4761.76025390625,True
1599388672.8372056,0.0,10,0.5,0.5,-23.571595947265628,-0.2,-0.03,-0.2505,0.10230490238366508,10,1,100,0.2631886512609292,-10,-1,-100,19047.176709702122,-0.02118067456660731,0.010195247649987992,0.9997236797987026,66.94831560243642,4.110554454327847,384.94030742272724,-101.10799778156465,12.12567138671875,4761.76025390625,True
1599388672.8780956,0.0,10,0.5,0.5,-24.01992260742188,-0.2,-0.03,-0.2505,0.11107193947459318,10,1,100,0.2668694737110127,-10,-1,-100,19043.121471388964,-0.021502839651479255,0.010171165609994199,0.9997170476075002,67.89822002099285,4.168356806432014,391.9195347375626,-101.47194233033511,14.250732421875,4761.76025390625,True
1599388672.9204953,0.0,10,0.5,0.5,-24.415621826171876,-0.2,-0.03,-0.2505,0.12112387513255635,10,1,100,0.2708698905308447,-10,-1,-100,19039.051676710253,-0.02182867859259518,0.010244534425335412,0.9997092368810591,68.72394331776646,4.218387083470092,398.2219292378998,-101.83583057651767,16.08062744140625,4761.76025390625,True
1599388672.9603884,0.0,10,0.5,0.5,-25.29527384185791,-0.2,-0.03,-0.2505,0.162718581732954,10,1,100,0.3118847678934539,-10,-1,-100,19030.868427058333,-0.022494726313252184,0.010692119217296833,0.9996897848206389,70.06000303412334,4.298826792348333,409.0970329122506,-102.56346070398327,18.855545043945312,4761.76025390625,True
1599388673.0003183,0.0,10,0.5,0.5,-24.689796493530274,-0.2,-0.03,-0.2505,0.11773619587871602,10,1,100,0.2456564941834917,-10,-1,-100,19030.868427058333,-0.022494726313252184,0.010692119217296833,0.9996897848206389,70.06000303412334,4.298826792348333,409.0970329122506,-102.56346070398327,18.855545043945312,4761.76025390625,True
1599388673.0431683,0.0,10,0.5,0.5,-25.192710044860842,-0.2,-0.03,-0.2505,0.15931151329813303,10,1,100,0.2834084833884393,-10,-1,-100,19026.75497586152,-0.022834845507152597,0.011071492718580782,0.9996779440798155,70.5945654835574,4.33079362046693,413.7979154361345,-102.92721305352744,19.80084228515625,4761.76025390625,True
1599388673.0840578,0.0,10,0.5,0.5,-25.477826324462892,-0.2,-0.03,-0.2505,0.2413369695675915,10,1,100,0.32501404803845774,-10,-1,-100,19018.484427347663,-0.023519260786524433,0.01216264309801007,0.9996493957808037,71.44308591439803,4.381179985335153,421.9709435934364,-103.6546158423968,20.8079833984375,4761.76025390625,True
1599388673.1249495,0.0,10,0.5,0.5,-25.313979873657228,-0.2,-0.03,-0.2505,0.21177243764114903,10,1,100,0.2940173944676084,-10,-1,-100,19014.327332807472,-0.023856341550628466,0.01288497161153855,0.9996323586571164,71.76874262465074,4.400345920019511,425.5029306046378,-104.0182749673212,20.870208740234375,4761.76025390625,True
1599388673.1668372,0.0,10,0.5,0.5,-25.244746948242188,-0.2,-0.03,-0.2505,0.23433008387234242,10,1,100,0.29465171253227396,-10,-1,-100,19010.15569256351,-0.02416522816049305,0.01374483422536844,0.9996134859434763,72.03300210761542,4.415772198928813,428.68540580452196,-104.3819113613973,20.638641357421875,4761.76025390625,True
1599388673.2067292,0.0,10,0.5,0.5,-25.106861923217775,-0.2,-0.03,-0.2505,0.254553745800957,10,1,100,0.29772273388826637,-10,-1,-100,19005.969507332775,-0.024470653182717034,0.01470745354821951,0.9995923558846066,72.23530589637501,4.4274335282418456,431.5110875186111,-104.74552912757535,20.1129150390625,4761.76025390625,True
1599388673.259588,0.0,10,0.5,0.5,-24.900695800781254,-0.2,-0.03,-0.2505,0.27969832912202114,10,1,100,0.2971551890826807,-10,-1,-100,19001.768777774065,-0.02473987008992649,0.015807154780107358,0.9995689434379658,72.37377964958881,4.435224697037147,433.9647435659747,-105.10913237081003,19.29364013671875,4761.76025390625,True
1599388673.3015122,0.0,10,0.5,0.5,-24.626128585815433,-0.2,-0.03,-0.2505,0.30582177340147215,10,1,100,0.2960365057225325,-10,-1,-100,18997.553504516138,-0.02497120725182163,0.017039267296063938,0.9995429466403132,72.44435009496218,4.43890837130695,436.01774508309774,-105.47272565954825,18.180877685546875,4761.76025390625,True
1599388673.342405,0.0,10,0.5,0.5,-24.28321913146973,-0.2,-0.03,-0.2505,0.33323997067041966,10,1,100,0.2931393970986478,-10,-1,-100,18993.323687722324,-0.025152023350054314,0.018402382193300287,0.9995142460470535,72.44055436247373,4.438105778008012,437.62663882911517,-105.8363134955613,16.7747802734375,4761.76025390625,True
1599388673.3832936,0.0,10,0.5,0.5,-23.87197595214844,-0.2,-0.03,-0.2505,0.3623110060872262,10,1,100,0.2884712060005153,-10,-1,-100,18989.079327501357,-0.02527094229777604,0.019898443469333425,0.9994825818506694,72.35367424780004,4.432306675586918,438.73369902770713,-106.19990096312493,15.075439453125,4761.76025390625,True
1599388673.425727,0.0,10,0.5,0.5,-24.286320510864257,-0.2,-0.03,-0.2505,0.21362551090911616,10,1,100,0.276856932826795,-10,-1,-100,18989.079327501357,-0.02527094229777604,0.019898443469333425,0.9994825818506694,72.35367424780004,4.432306675586918,438.73369902770713,-106.19990096312493,15.075439453125,4761.76025390625,True
1599388673.4665792,0.0,10,0.5,0.5,-23.377389739990235,-0.2,-0.03,-0.2505,0.3935201732749968,10,1,100,0.2817430730266917,-10,-1,-100,18984.820423443336,-0.025312837921425534,0.02152548010515776,0.9994478045113743,72.17305112065803,4.420890530160789,439.2685765301559,-106.56349337510468,13.0830078125,4761.76025390625,True
1599388673.5070534,0.0,10,0.5,0.5,-22.826794982910158,-0.2,-0.03,-0.2505,0.425049740884869,10,1,100,0.27227876461720624,-10,-1,-100,18980.546975365607,-0.025262632964280413,0.023281733127463653,0.9994097059155937,71.88605303174944,4.403125744098568,439.1478530155718,-106.92709652302929,10.79766845703125,4761.76025390625,True
1599388673.5489416,0.0,10,0.5,0.5,-21.577415191650395,-0.2,-0.03,-0.2505,0.5640900184659929,10,1,100,0.2557745471080553,-10,-1,-100,18974.109531812137,-0.025065368869358243,0.026132221043906997,0.9993442021179466,71.2286706183947,4.363012428417097,437.5532978802899,-107.47253537796676,6.82025146484375,4761.76025390625,True
1599388673.5928566,0.0,10,0.5,0.5,-21.86841035461426,-0.2,-0.03,-0.2505,0.391635992450002,10,1,100,0.2604922255666732,-10,-1,-100,18971.956444635638,-0.024927826744217587,0.027143766868317057,0.999320678948459,70.94239522547558,4.345674710661721,436.59983223155757,-107.65436076843443,5.348114013671875,4761.76025390625,True
1599388673.633714,0.0,10,0.5,0.5,-20.765926544189455,-0.2,-0.03,-0.2505,0.5224768401751776,10,1,100,0.23477770088529204,-10,-1,-100,18967.63935987791,-0.02456832677100105,0.029240635385606936,0.9992704251412224,70.25411894111753,4.304183529507071,433.96034006359724,-108.01803556745101,2.184112548828125,4761.76025390625,True
1599388673.6756349,0.0,10,0.5,0.5,-19.94745365905762,-0.2,-0.03,-0.2505,0.5552349111020225,10,1,100,0.20939210587537432,-10,-1,-100,18963.307727014064,-0.024010641682906505,0.031431468153535064,0.9992174697710644,69.39531510575311,4.252672981782767,430.2344714887051,-108.38174811089974,-1.27264404296875,4761.76025390625,True
1599388673.7164931,0.0,10,0.5,0.5,-17.241462341308598,-0.2,-0.03,-0.2505,0.8462863826191642,10,1,100,0.09558460217781842,-10,-1,-100,18954.600809728377,-0.022469704504121883,0.03605485285328608,0.9990971724338055,67.1154606565069,4.116758672579065,419.1585534954011,-109.10931413984899,-9.064453125,4761.76025390625,True
1599388673.7580616,0.0,10,0.5,0.5,-19.111574523925782,-0.2,-0.03,-0.2505,0.38584947119978485,10,1,100,0.2494281697815106,-10,-1,-100,18954.600809728377,-0.022469704504121883,0.03605485285328608,0.9990971724338055,67.1154606565069,4.116758672579065,419.1585534954011,-109.10931413984899,-9.064453125,4761.76025390625,True
1599388673.8070788,0.0,10,0.5,0.5,-14.995229736328126,-0.2,-0.03,-0.2505,0.9039859818476307,10,1,100,-0.023922215618274623,-10,-1,-100,18945.835689327447,-0.019987139472165592,0.04074913706766651,0.9989694800563031,69.47515057426752,4.2681229196132575,437.0631410595173,-109.83676413158524,-18.0296630859375,4761.76025390625,True
1599388673.8629289,0.0,10,0.5,0.5,-14.924656051635743,-0.2,-0.03,-0.2505,0.7042830784280429,10,1,100,0.06299317929406592,-10,-1,-100,18941.431310650427,-0.018525205581249888,0.04318223205547216,0.9988954457764235,70.66209108566466,4.3453040060886226,446.13928758954455,-110.20035395828215,-22.950958251953125,4761.76025390625,True
1599388673.9108021,0.0,10,0.5,0.5,-13.692534393310547,-0.2,-0.03,-0.2505,0.7009789331904621,10,1,100,0.0009655896457197721,-10,-1,-100,18937.012391453376,-0.016638420080629306,0.04534293182533008,0.9988329097054741,71.92643058563635,4.427817504147718,455.7577394010645,-110.56384701545832,-28.169219970703125,4761.76025390625,True
1599388673.9656556,0.0,10,0.5,0.5,-13.651182891845702,-0.2,-0.03,-0.2505,0.6084670506578471,10,1,100,0.0809678949722871,-10,-1,-100,18934.797480110778,-0.015658340053798295,0.046444535000613345,0.9987981385421864,72.50233991633739,4.465772824781045,460.23037861674646,-110.7455575539601,-30.887908935546875,4761.76025390625,True
1599388674.0165174,0.0,10,0.5,0.5,-12.949200286865235,-0.2,-0.03,-0.2505,0.6180561407427678,10,1,100,0.06301938909365182,-10,-1,-100,18932.578935212805,-0.014612921151337494,0.04751210888630364,0.9987637668861445,73.06800688280345,4.503168474684779,464.6502033464687,-110.92724443574745,-33.680267333984375,4761.76025390625,True
1599388674.0604,0.0,10,0.5,0.5,-8.162937698364258,-0.2,-0.03,-0.2505,0.9358882645643423,10,1,100,-0.3538306926614899,-10,-1,-100,18923.668426974444,-0.009882496358342768,0.05135257728272513,0.9986316883977542,75.02307847087354,4.633861447307373,480.48001503956465,-111.65376886562613,-45.58758544921875,4761.76025390625,True
1599388674.113259,0.0,10,0.5,0.5,-8.111503799438477,-0.2,-0.03,-0.2505,0.7373009494707059,10,1,100,-0.1740888767285809,-10,-1,-100,18919.191381142708,-0.007229804264452077,0.05301656495097124,0.9985674608012706,75.57770310635108,4.672684233553229,485.73931235621995,-112.01692776189567,-51.983612060546875,4761.76025390625,True
1599388674.165121,0.0,10,0.5,0.5,-6.535255722045899,-0.2,-0.03,-0.2505,0.7099708251415401,10,1,100,-0.2104511607269438,-10,-1,-100,18914.69981002994,-0.004503462072299558,0.05425921085587041,0.9985167283859903,75.78229407594392,4.689299936505304,488.7647746627929,-112.38004904259081,-58.67828369140625,4761.76025390625,True
1599388674.2169814,0.0,10,0.5,0.5,-6.482606475830078,-0.2,-0.03,-0.2505,0.6542765017683487,10,1,100,-0.09545474707417198,-10,-1,-100,18912.44857794128,-0.0030881249122866536,0.05486182442720216,0.9984891805648397,75.73783344808807,4.68827528761149,489.33274262966427,-112.56160447527282,-62.13543701171875,4761.76025390625,True
1599388674.2718372,0.0,10,0.5,0.5,-2.3161932220458983,-0.2,-0.03,-0.2505,0.737774003232331,10,1,100,-0.4304277627940142,-10,-1,-100,18905.673094035126,0.0012261348491856114,0.05615162589483639,0.998421499920098,74.94137440257835,4.643126137287446,486.72619637732896,-113.10629777808903,-72.95278930664062,4761.76025390625,True
1599388674.3246942,0.0,10,0.5,0.5,-1.4186248779296877,-0.2,-0.03,-0.2505,0.6659378798605909,10,1,100,-0.32324045995007117,-10,-1,-100,18901.137946164003,0.0041522174798033626,0.056652847222904826,0.998385303373171,73.8029374393155,4.574715693903414,481.00283132864047,-113.46949073131339,-80.53469848632812,4761.76025390625,True
1599388674.3755572,0.0,10,0.5,0.5,-1.3722484283447267,-0.2,-0.03,-0.2505,0.6293203827437206,10,1,100,-0.18454899026671115,-10,-1,-100,18898.864923693356,0.005529516186014437,0.056761158719945276,0.998372473234072,73.03704548869263,4.528209792016893,476.8391338762535,-113.6511186075085,-84.43731689453125,4761.76025390625,True
1599388674.4304101,0.0,10,0.5,0.5,1.4506103248596194,-0.2,-0.03,-0.2505,0.6249762801596788,10,1,100,-0.3504766770630633,-10,-1,-100,18894.307978736237,0.00826817150638474,0.05680778739679578,0.9983508965444071,71.10239378072724,4.4101995611359905,465.822944236473,-114.01445531263495,-92.4639663696289,4761.76025390625,True
1599388674.484269,0.0,10,0.5,0.5,1.4907842292785645,-0.2,-0.03,-0.2505,0.6133452675080465,10,1,100,-0.22614978573616862,-10,-1,-100,18892.024055426475,0.009604971338670503,0.05673401802839825,0.9983431252449915,69.92964725459409,4.338525481030522,458.9348980647942,-114.19617079312215,-96.58819580078125,4761.76025390625,True
1599388674.5381322,0.0,10,0.5,0.5,6.388418853759766,-0.2,-0.03,-0.2505,0.5559754353268573,10,1,100,-0.5122340780510649,-10,-1,-100,18885.150471667876,0.013398043560527102,0.056136056961818975,0.9983332287054907,65.58009558061134,4.072579098830958,432.62845360310365,-114.74153636468998,-109.31550598144531,4761.76025390625,True
1599388674.5969763,0.0,10,0.5,0.5,9.023071197509767,-0.2,-0.03,-0.2505,0.499105558541037,10,1,100,-0.5052818394941918,-10,-1,-100,18878.244161765673,0.016757624352868924,0.055067617159534434,0.9983419952934061,67.11174537789816,4.173340165127119,445.0200666888223,-115.2869364423694,-121.73712158203125,4761.76025390625,True
1599388674.6596289,0.0,10,0.5,0.5,7.94145140838623,-0.2,-0.03,-0.2505,0.5626757896308373,10,1,100,-0.27835634647669494,-10,-1,-100,18875.934788408806,0.01772461139055587,0.05467084213111321,0.9983471025508758,68.10501955175091,4.237198667550198,452.3785121412034,-115.4686607997928,-125.73611450195312,4761.76025390625,True
1599388674.7094948,0.0,10,0.5,0.5,8.929381286621094,-0.2,-0.03,-0.2505,0.5554474953620897,10,1,100,-0.28487919687663105,-10,-1,-100,18873.621781195747,0.018640303323311597,0.05424292190539608,0.998353767216401,68.95072893314561,4.291931404318807,458.77671943619765,-115.65035296804835,-129.6615753173828,4761.76025390625,True
1599388675.1414132,0.0,10,0.5,0.5,11.595612396240233,-0.2,-0.03,-0.2505,0.49823211345918905,10,1,100,-0.37918918534267554,-10,-1,-100,18868.984867673367,0.020309074279693924,0.053333778491036384,0.9983701966574177,70.33633830113764,4.382317544666763,469.58653318937655,-116.01365571624783,-137.29000854492188,4761.76025390625,True
1599388675.1842685,0.0,10,0.5,0.5,11.578535133361816,-0.2,-0.03,-0.2505,0.5321449935506617,10,1,100,-0.2972503862319553,-10,-1,-100,18866.660962157417,0.0210599704306786,0.05281697252057384,0.9983821137516536,70.91312661202264,4.420180050422752,474.23819220697624,-116.19527175352921,-140.993408203125,4761.76025390625,True
1599388675.226156,0.0,10,0.5,0.5,14.090827529907227,-0.2,-0.03,-0.2505,0.4708058682583157,10,1,100,-0.36503846138861673,-10,-1,-100,18862.002255462925,0.02234082776428751,0.051792552002381344,0.9984079421618635,71.68355093831862,4.471667875133252,481.0088127263567,-116.55845575929939,-148.17625427246094,4761.76025390625,True
1599388675.2650542,0.0,10,0.5,0.5,14.061761138916015,-0.2,-0.03,-0.2505,0.5194268917647081,10,1,100,-0.29846621806854073,-10,-1,-100,18859.667454673327,0.022883506209854475,0.05130768837701039,0.9984206860121393,71.8905589677021,4.486089036710197,483.20941053464276,-116.74003283558879,-151.65530395507812,4761.76025390625,True
1599388675.3099325,0.0,10,0.5,0.5,17.892548110961915,-0.2,-0.03,-0.2505,0.4037550948968915,10,1,100,-0.386339781241866,-10,-1,-100,18852.641263669473,0.02415992447101482,0.049820299173641135,0.9984659412517803,71.88839891593543,4.489631203970663,485.6318216315598,-117.28475186409237,-161.64561462402344,4761.76025390625,True
1599388675.3617933,0.0,10,0.5,0.5,17.03031315612793,-0.2,-0.03,-0.2505,0.500763187619597,10,1,100,-0.2945231276512129,-10,-1,-100,18850.291936920374,0.024471160809459533,0.04935637118462382,0.998481402386706,71.70527619259343,4.479188839082471,485.2062844902188,-117.46633199363436,-164.82606506347656,4761.76025390625,True
1599388675.4037144,0.0,10,0.5,0.5,19.203080703735353,-0.2,-0.03,-0.2505,0.44602922087043956,10,1,100,-0.31303692397247773,-10,-1,-100,18845.582387890085,0.02490889545690187,0.04844374390311008,0.9985152730948921,71.11194336751844,4.443887729942049,482.803476798564,-117.82951961986657,-170.96315002441406,4761.76025390625,True
1599388675.4465995,0.0,10,0.5,0.5,-139.2052017288208,-0.2,-0.03,-0.2505,0.37405550909653956,10,1,100,-0.3036346058120919,-10,-1,-100,18836.119700840092,0.025210896015031056,0.04696676927929732,0.9985782559747557,69.22386727682753,4.329169214541254,473.13330483336495,-118.55605338662026,177.66256713867188,4761.76025390625,True
1599388675.4874575,0.0,10,0.5,0.5,-50.41323913574219,-0.2,-0.03,-0.2505,0.45960871184259855,10,1,100,-0.26128855555537145,-10,-1,-100,18831.366557802656,0.02509279309130362,0.046409185871595565,0.9986072997938743,68.04040742925264,4.25701553276897,466.596312603871,-118.91941682835522,172.42523193359375,4761.76025390625,True
1599388675.5283885,0.0,10,0.5,0.5,-52.6196756439209,-0.2,-0.03,-0.2505,0.5145408869868222,10,1,100,-0.27383566609818993,-10,-1,-100,18831.366557802656,0.02509279309130362,0.046409185871595565,0.9986072997938743,68.04040742925264,4.25701553276897,466.596312603871,-118.91941682835522,172.42523193359375,4761.76025390625,True
1599388675.5714025,0.0,10,0.5,0.5,-51.16591851043701,-0.2,-0.03,-0.2505,0.4664702728443396,10,1,100,-0.24620170521811874,-10,-1,-100,18826.598878053017,0.02483570936533207,0.04597930186669463,0.9986336121622243,66.73900919178215,4.177745882309847,459.195926033575,-119.28285016926179,167.1865692138672,4761.76025390625,True
1599388675.6132934,0.0,10,0.5,0.5,-50.921637222290045,-0.2,-0.03,-0.2505,0.4771858322461533,10,1,100,-0.223620700582034,-10,-1,-100,18821.816658720607,0.02439259990404295,0.04569259829009604,0.998657692871497,65.22455593582555,4.085480572363765,450.26652647934816,-119.64636024609408,161.7037811279297,4761.76025390625,True
1599388675.6541805,0.0,10,0.5,0.5,-47.87879008483887,-0.2,-0.03,-0.2505,0.4972546346499134,10,1,100,-0.12823813311930915,-10,-1,-100,18812.208605861175,0.0231196292082341,0.045620879037068296,0.9986912526607805,68.30746043114263,4.285326634087143,474.67118698816637,-120.3731765243244,149.8849639892578,4761.76025390625,True
1599388675.6960683,0.0,10,0.5,0.5,-51.73358743286133,-0.2,-0.03,-0.2505,0.5038093926561562,10,1,100,-0.2556130828445888,-10,-1,-100,18812.208605861175,0.0231196292082341,0.045620879037068296,0.9986912526607805,68.30746043114263,4.285326634087143,474.67118698816637,-120.3731765243244,149.8849639892578,4761.76025390625,True
1599388675.7379568,0.0,10,0.5,0.5,-49.78075443267823,-0.2,-0.03,-0.2505,0.5273751240702551,10,1,100,-0.16577658492485994,-10,-1,-100,18807.38278140209,0.022302719115328946,0.045840282785687324,0.9986997833153819,70.03175307752853,4.397413600841055,488.25252058770724,-120.73640406335488,143.5421142578125,4761.76025390625,True
1599388675.7818387,0.0,10,0.5,0.5,-46.17989398956299,-0.2,-0.03,-0.2505,0.6147109268740736,10,1,100,-0.03499125929052496,-10,-1,-100,18797.687560104998,0.02037280443906275,0.04683732077936475,0.9986947552788582,73.10255276612104,4.598325033836632,512.9963622327497,-121.46252152187519,129.9898223876953,4761.76025390625,True
1599388675.8237267,0.0,10,0.5,0.5,-50.45919076538086,-0.2,-0.03,-0.2505,0.5147552224658053,10,1,100,-0.227572891280105,-10,-1,-100,18797.687560104998,0.02037280443906275,0.04683732077936475,0.9986947552788582,73.10255276612104,4.598325033836632,512.9963622327497,-121.46252152187519,129.9898223876953,4761.76025390625,True
1599388675.8805747,0.0,10,0.5,0.5,-46.44204745483399,-0.2,-0.03,-0.2505,0.6545288829061477,10,1,100,-0.04220605712239148,-10,-1,-100,18790.378033985733,0.01869177512037248,0.04810945080438945,0.998667160913059,74.7178901960503,4.70525902465713,526.8873050205844,-122.00687163663551,119.06861877441406,4761.76025390625,True
1599388675.9214652,0.0,10,0.5,0.5,-43.790460594177254,-0.2,-0.03,-0.2505,0.7224168897977786,10,1,100,-0.0204588940403507,-10,-1,-100,18783.03585123201,0.016971791639812463,0.04988205754294937,0.9986109045187804,75.43233348336437,4.754461703551996,534.5097451137483,-122.55112222066667,107.50021362304688,4761.76025390625,True
1599388675.9623563,0.0,10,0.5,0.5,-46.49357102966309,-0.2,-0.03,-0.2505,0.5455035031089216,10,1,100,-0.19164514195120327,-10,-1,-100,18783.03585123201,0.016971791639812463,0.04988205754294937,0.9986109045187804,75.43233348336437,4.754461703551996,534.5097451137483,-122.55112222066667,107.50021362304688,4761.76025390625,True
1599388676.0012517,0.0,10,0.5,0.5,-42.662838356018064,-0.2,-0.03,-0.2505,0.7104810667509139,10,1,100,-0.05465691622333699,-10,-1,-100,18778.122921163333,0.015733826861787762,0.05137869641999353,0.9985552945362942,75.30130222825895,4.748471171655083,535.3067692977293,-122.91395843068716,99.42927551269531,4761.76025390625,True
1599388676.0411403,0.0,10,0.5,0.5,-40.71635916137696,-0.2,-0.03,-0.2505,0.7556533790829416,10,1,100,-0.04498628779382938,-10,-1,-100,18773.195476521738,0.014528763971045732,0.05314502606164001,0.9984811070933597,74.62815988399218,4.708130405275905,532.2375808630945,-123.27683967735379,91.07194519042969,4761.76025390625,True
1599388676.0830538,0.0,10,0.5,0.5,-38.7033111114502,-0.2,-0.03,-0.2505,0.792415096119566,10,1,100,-0.044127911994870775,-10,-1,-100,18768.253514029202,0.013434415959410624,0.05507820277458654,0.9983916606457361,73.36711813408037,4.630880696516689,524.9373511962808,-123.63980090272418,82.42674255371094,4761.76025390625,True
1599388676.1249142,0.0,10,0.5,0.5,-36.64350177001953,-0.2,-0.03,-0.2505,0.8491944922262362,10,1,100,-0.03482694324018329,-10,-1,-100,18763.297030045185,0.012363804608562297,0.05734321491120083,0.9982779633144514,71.47146322532892,4.5141223823035705,513.0286832536095,-124.00287435286059,73.49653625488281,4761.76025390625,True
1599388676.166659,0.0,10,0.5,0.5,-30.218377563476565,-0.2,-0.03,-0.2505,1.200952661146729,10,1,100,0.04183901414722095,-10,-1,-100,18753.34048394044,0.010703336335723481,0.06258946172024181,0.9979819626991536,72.59837530811149,4.5943421859195785,524.4827561201264,-124.72912819013362,54.77738952636719,4761.76025390625,True
1599388676.2095444,0.0,10,0.5,0.5,-30.231559448242184,-0.2,-0.03,-0.2505,1.0065985728066258,10,1,100,-0.06606240554558698,-10,-1,-100,18748.34043279465,0.01018528661469518,0.06557669512633763,0.9977955486936608,75.5453151973833,4.786727426694907,547.5197254597387,-125.09197126575549,44.98899841308594,4761.76025390625,True
1599388676.2514532,0.0,10,0.5,0.5,-27.89043648529053,-0.2,-0.03,-0.2505,1.0674924382668765,10,1,100,-0.09202894776506014,-10,-1,-100,18743.325873441994,0.009959653177414087,0.0688289066593843,0.9975787622622383,78.04696568013655,4.9513621398225025,567.4519247822358,-125.45462764890492,34.915496826171875,4761.76025390625,True
1599388676.2923446,0.0,10,0.5,0.5,-25.461170417785645,-0.2,-0.03,-0.2505,1.1157450947618084,10,1,100,-0.12625924989729795,-10,-1,-100,18738.296812779852,0.010075182936780391,0.07220413076130792,0.9973389865987364,80.06372552554998,5.085098498185649,583.9613491660594,-125.81713052033852,24.554885864257812,4761.76025390625,True
1599388676.3352296,0.0,10,0.5,0.5,-27.772962265014648,-0.2,-0.03,-0.2505,0.7806321525651384,10,1,100,-0.11384461474230836,-10,-1,-100,18738.296812779852,0.010075182936780391,0.07220413076130792,0.9973389865987364,80.06372552554998,5.085098498185649,583.9613491660594,-125.81713052033852,24.554885864257812,4761.76025390625,True
1599388676.376121,0.0,10,0.5,0.5,-17.80118061065674,-0.2,-0.03,-0.2505,1.5557151756948393,10,1,100,-0.2622445877814624,-10,-1,-100,18728.195201369235,0.011430543245048184,0.07923004726865215,0.99679082173289,81.5060240424324,5.186281472163031,598.2507238895182,-126.54193377967756,2.972320556640625,4761.76025390625,True
1599388676.4180481,0.0,10,0.5,0.5,-17.83776921081543,-0.2,-0.03,-0.2505,1.2414876716967989,10,1,100,-0.2556905661928458,-10,-1,-100,18723.122650981997,0.012608144463935813,0.08273395043014135,0.9964919107245173,80.73406452687179,5.14142608638425,594.4637514019071,-126.90437710226361,-8.2513427734375,4761.76025390625,True
1599388676.4598958,0.0,10,0.5,0.5,-20.326255020141602,-0.2,-0.03,-0.2505,0.8942328809488936,10,1,100,-0.13761787606429776,-10,-1,-100,18723.122650981997,0.012608144463935813,0.08273395043014135,0.9964919107245173,80.73406452687179,5.14142608638425,594.4637514019071,-126.90437710226361,-8.2513427734375,4761.76025390625,True
1599388676.5047767,0.0,10,0.5,0.5,-14.840991027832033,-0.2,-0.03,-0.2505,1.2609787424144605,10,1,100,-0.3165883961883399,-10,-1,-100,18718.035599383875,0.014236895210069933,0.08604110469403878,0.9961898609792247,78.88517776380142,5.028446385812311,582.694762783927,-127.26693554604628,-19.765869140625,4761.76025390625,True
1599388676.542717,0.0,10,0.5,0.5,-6.651291122436524,-0.2,-0.03,-0.2505,1.5934692549166893,10,1,100,-0.6077613498545896,-10,-1,-100,18707.817968426272,0.01836387503147535,0.09204210150040265,0.995585767096546,74.93325439484269,4.789732443291911,557.0131986968855,-127.99249250621693,-43.6671142578125,4761.76025390625,True
1599388676.5855594,0.0,10,0.5,0.5,-12.287062072753907,-0.2,-0.03,-0.2505,0.9968394629392221,10,1,100,-0.19566337475633935,-10,-1,-100,18707.817968426272,0.01836387503147535,0.09204210150040265,0.995585767096546,74.93325439484269,4.789732443291911,557.0131986968855,-127.99249250621693,-43.6671142578125,4761.76025390625,True
1599388676.6264784,0.0,10,0.5,0.5,-0.6959579925537112,-0.2,-0.03,-0.2505,1.4988078713930397,10,1,100,-0.7265938772953828,-10,-1,-100,18697.542316113133,0.023183551837561423,0.09657867554109176,0.9950553162286625,81.04566897698965,5.198369483257848,606.2138799226345,-128.71743049328128,-68.740966796875,4761.76025390625,True
1599388676.6673405,0.0,10,0.5,0.5,-6.635768157958985,-0.2,-0.03,-0.2505,1.0482506653656047,10,1,100,-0.2459260232090619,-10,-1,-100,18697.542316113133,0.023183551837561423,0.09657867554109176,0.9950553162286625,81.04566897698965,5.198369483257848,606.2138799226345,-128.71743049328128,-68.740966796875,4761.76025390625,True
1599388676.7092621,0.0,10,0.5,0.5,-0.47904983520507827,-0.2,-0.03,-0.2505,1.2407095748258108,10,1,100,-0.5347924197095816,-10,-1,-100,18692.382752251346,0.02579758826151147,0.09830307492811026,0.9948220895715815,82.75351064273794,5.315889837066649,620.9015786405864,-129.07963780573246,-81.71710205078125,4761.76025390625,True
1599388676.7561038,0.0,10,0.5,0.5,5.567461917877198,-0.2,-0.03,-0.2505,1.2685566758730502,10,1,100,-0.6572684993150346,-10,-1,-100,18684.61624313728,0.029273110820311327,0.10010013988567762,0.9945466539975737,82.55431939953617,5.3128473475224425,622.2788676944949,-129.62291301899734,-101.64655303955078,4761.76025390625,True
1599388676.7969942,0.0,10,0.5,0.5,4.006014430999756,-0.2,-0.03,-0.2505,1.1362856144146805,10,1,100,-0.4361508783356956,-10,-1,-100,18682.020162294968,0.03040506393042309,0.10050601109827698,0.9944717561703298,81.70229201770586,5.261006813110696,616.8087186435404,-129.80405254035313,-108.42185974121094,4761.76025390625,True
1599388676.8388822,0.0,10,0.5,0.5,14.940967231750488,-0.2,-0.03,-0.2505,1.2185085836462002,10,1,100,-0.7098973741423469,-10,-1,-100,18671.599589262856,0.03390546715541663,0.10160312468108146,0.9942470640399264,74.37976232370714,4.802526714528157,565.0081053273636,-130.52914302792072,-135.7203826904297,4761.76025390625,True
1599388676.879774,0.0,10,0.5,0.5,8.48509435272217,-0.2,-0.03,-0.2505,1.110684142790846,10,1,100,-0.36198678391214056,-10,-1,-100,18671.599589262856,0.03390546715541663,0.10160312468108146,0.9942470640399264,74.37976232370714,4.802526714528157,565.0081053273636,-130.52914302792072,-135.7203826904297,4761.76025390625,True
1599388676.9207003,0.0,10,0.5,0.5,17.836710655212404,-0.2,-0.03,-0.2505,1.1607192357642317,10,1,100,-0.5530712598196861,-10,-1,-100,18663.74608475971,0.03562323755212934,0.10204083536788411,0.9941421693418548,78.55452932107713,5.085294403881011,599.4617112268687,-131.07295525203094,-155.6298370361328,4761.76025390625,True
1599388676.963586,0.0,10,0.5,0.5,21.921898330688474,-0.2,-0.03,-0.2505,1.1704185127465492,10,1,100,-0.47347982959361135,-10,-1,-100,18655.859974357532,0.03644184641768379,0.10251238420965864,0.9940639833095861,82.38648223417438,5.345924909065018,631.5643026287703,-131.61623403116636,-174.86383056640625,4761.76025390625,True
1599388677.0054748,0.0,10,0.5,0.5,17.49737310028076,-0.2,-0.03,-0.2505,1.124310656840022,10,1,100,-0.3934267401767869,-10,-1,-100,18655.859974357532,0.03644184641768379,0.10251238420965864,0.9940639833095861,82.38648223417438,5.345924909065018,631.5643026287703,-131.61623403116636,-174.86383056640625,4761.76025390625,True
1599388677.0465107,0.0,10,0.5,0.5,-133.21868115997316,-0.2,-0.03,-0.2505,1.2684252739618802,10,1,100,-0.3768985562775693,-10,-1,-100,18645.294468143256,0.03627515568097617,0.10381299865375802,0.9939350956631101,82.93222336034327,5.394774581634368,639.6084232251517,-132.34038775824834,160.56268310546875,4761.76025390625,True
1599388677.0883965,0.0,10,0.5,0.5,-49.88225043487549,-0.2,-0.03,-0.2505,1.139087261863208,10,1,100,-0.39487679033267303,-10,-1,-100,18645.294468143256,0.03627515568097617,0.10381299865375802,0.9939350956631101,82.93222336034327,5.394774581634368,639.6084232251517,-132.34038775824834,160.56268310546875,4761.76025390625,True
1599388677.1292903,0.0,10,0.5,0.5,-39.9185818939209,-0.2,-0.03,-0.2505,1.4024878250398438,10,1,100,-0.2586393306793502,-10,-1,-100,18634.67101197096,0.03502473186245195,0.10620097257071592,0.99372763953862,78.25355182485858,5.104775529403219,607.2049312174064,-133.06497587396035,136.9187774658203,4761.76025390625,True
1599388677.1691806,0.0,10,0.5,0.5,-41.067799148559565,-0.2,-0.03,-0.2505,1.35653365824671,10,1,100,-0.2908794336156564,-10,-1,-100,18629.337537554326,0.034172686469031856,0.10794691289015589,0.993569167948047,77.52575033953757,5.066596120199556,603.3793743171454,-133.4274638370728,124.86663818359375,4761.76025390625,True
1599388677.2100706,0.0,10,0.5,0.5,-44.76639961242676,-0.2,-0.03,-0.2505,1.1827243036031616,10,1,100,-0.3765739305225375,-10,-1,-100,18629.337537554326,0.034172686469031856,0.10794691289015589,0.993569167948047,77.52575033953757,5.066596120199556,603.3793743171454,-133.4274638370728,124.86663818359375,4761.76025390625,True
1599388677.2519593,0.0,10,0.5,0.5,-39.9137714920044,-0.2,-0.03,-0.2505,1.4159573898736129,10,1,100,-0.27158370740348226,-10,-1,-100,18623.989572452963,0.03321480478382353,0.11006044921825828,0.9933697570698676,81.8635590256734,5.360756959394862,639.0542996851741,-133.789647183035,112.54145812988281,4761.76025390625,True
1599388677.292849,0.0,10,0.5,0.5,-32.26468501281738,-0.2,-0.03,-0.2505,1.8037601849973952,10,1,100,-0.18103232313183218,-10,-1,-100,18613.250214109197,0.031521436724229676,0.11549963735898831,0.992807248561765,87.63694421323147,5.75961437676519,688.208409717538,-134.51328257312517,87.05570983886719,4761.76025390625,True
1599388677.3347397,0.0,10,0.5,0.5,-39.317193237304686,-0.2,-0.03,-0.2505,1.2612310221921823,10,1,100,-0.3501307260480986,-10,-1,-100,18613.250214109197,0.031521436724229676,0.11549963735898831,0.992807248561765,87.63694421323147,5.75961437676519,688.208409717538,-134.51328257312517,87.05570983886719,4761.76025390625,True
