Timestamp,Input Throttle,horizon,dT,dt,Input Roll,Roll P,Roll I,Roll D,Input Pitch,Pitch P,Pitch I,Pitch D,Input Yaw,Yaw P,Yaw I,Yaw D,Altitude,Direction X,Direction Y,Direction Z,Drag X,Drag Y,Drag Z,Vertical Velocity,Roll,Mass,Has Fuel
1599388381.8915837,0.0,10,0.5,0.5,-11.214379882812501,-0.2,-0.0155,-0.5,-0.00012509805466685516,10,1,100,0.49812673052849255,-10,-1,-100,19349.72230260691,-0.04884544023970107,-0.00017368214205021372,0.9988063339818702,61.07640875537549,3.6862907407725194,233.731070477598,-68.66499567417014,-33.922607421875,4761.76025390625,True
1599388381.9254935,0.0,10,0.5,0.5,-11.301586706542968,-0.2,-0.0155,-0.5,-0.0008034448892882255,10,1,100,0.4989575581230947,-10,-1,-100,19348.34535352164,-0.048896518527902104,-0.0001650390080009507,0.998803836215088,61.166241383420974,3.692385776742347,234.72043444575766,-68.84745231064889,-33.92376708984375,4761.76025390625,True
1599388381.9614363,0.0,10,0.5,0.5,-11.356314926147462,-0.2,-0.0155,-0.5,0.011939272954092073,10,1,100,0.5096441083484542,-10,-1,-100,19344.1926118813,-0.04899565241147186,-4.1188688463617075e-05,0.9987989909627794,61.43705394484172,3.710772693456487,237.70605238121365,-69.39480182738737,-33.9705810546875,4761.76025390625,True
1599388381.9983113,0.0,10,0.5,0.5,-11.46656750793457,-0.2,-0.0155,-0.5,-0.0004498778684876489,10,1,100,0.5046302852326261,-10,-1,-100,19344.1926118813,-0.04899565241147186,-4.1188688463617075e-05,0.9987989909627794,61.43705394484172,3.710772693456487,237.70605238121365,-69.39480182738737,-33.9705810546875,4761.76025390625,True
1599388382.0332117,0.0,10,0.5,0.5,-11.356046774291993,-0.2,-0.0155,-0.5,0.02360644231377894,10,1,100,0.5077961406390387,-10,-1,-100,19341.405873039854,-0.04897989141297427,0.00017754257563740974,0.9987997490567402,61.62749436495429,3.7236400898184288,239.74537804968048,-69.75968376439266,-34.252532958984375,4761.76025390625,True
1599388382.0731049,0.0,10,0.5,0.5,-11.186519679260256,-0.2,-0.0155,-0.5,0.03657467881446028,10,1,100,0.5051385233142467,-10,-1,-100,19338.604539440712,-0.048896875901012014,0.0004941208361212305,0.998803710131135,61.83150895295899,3.7373176483891277,241.8464894048145,-70.1245499754255,-34.819549560546875,4761.76025390625,True
1599388382.110006,0.0,10,0.5,0.5,-10.576480529785156,-0.2,-0.0155,-0.5,0.08720033078477121,10,1,100,0.48427440911899555,-10,-1,-100,19334.375175153953,-0.04858728178299767,0.001241703253712875,0.9988181687484311,62.154814195826965,3.7588105883260456,245.08356969983075,-70.67181683603648,-36.218231201171875,4761.76025390625,True
1599388382.1508968,0.0,10,0.5,0.5,-11.35918309173584,-0.2,-0.0155,-0.5,0.01256625935097806,10,1,100,0.5200925490987298,-10,-1,-100,19334.375175153953,-0.04858728178299767,0.001241703253712875,0.9988181687484311,62.154814195826965,3.7588105883260456,245.08356969983075,-70.67181683603648,-36.218231201171875,4761.76025390625,True
1599388382.193782,0.0,10,0.5,0.5,-9.418017855834961,-0.2,-0.0155,-0.5,0.174438849074458,10,1,100,0.4347756723537205,-10,-1,-100,19328.68494794867,-0.04776750355642213,0.0027121434300593173,0.9988547991985631,62.57545305798743,3.786572194904502,249.3918061765354,-71.40144138260824,-39.11041259765625,4761.76025390625,True
1599388382.2321882,0.0,10,0.5,0.5,-10.942987414550782,-0.2,-0.0155,-0.5,0.027666045782819705,10,1,100,0.5215302453669164,-10,-1,-100,19328.68494794867,-0.04776750355642213,0.0027121434300593173,0.9988547991985631,62.57545305798743,3.786572194904502,249.3918061765354,-71.40144138260824,-39.11041259765625,4761.76025390625,True
1599388382.2720811,0.0,10,0.5,0.5,-9.701611758422853,-0.2,-0.0155,-0.5,0.13342798623629656,10,1,100,0.46223028126324966,-10,-1,-100,19325.817946432042,-0.047184987970428416,0.0036711500310635985,0.9988794219362416,62.754601369247965,3.798385799688539,251.43510020437364,-71.76622614914575,-40.996490478515625,4761.76025390625,True
1599388382.3110092,0.0,10,0.5,0.5,-9.107199974060059,-0.2,-0.0155,-0.5,0.1478498976693236,10,1,100,0.43835690722584353,-10,-1,-100,19322.936354003847,-0.04643990717579341,0.004670587197573997,0.9989101664497831,62.892928089670896,3.8075646735030855,253.32204220071657,-72.13099433746305,-43.17718505859375,4761.76025390625,True
1599388382.3511329,0.0,10,0.5,0.5,-6.514378172302246,-0.2,-0.0155,-0.5,0.3129312636117449,10,1,100,0.3050430136950516,-10,-1,-100,19317.12939891161,-0.044552849795256304,0.007075510106418575,0.9989819721756021,62.96881671543345,3.813148685320872,256.2980089699114,-72.86049293033516,-48.418365478515625,4761.76025390625,True
1599388382.390996,0.0,10,0.5,0.5,-9.112574316406251,-0.2,-0.0155,-0.5,0.0731506426067753,10,1,100,0.49330447148714063,-10,-1,-100,19317.12939891161,-0.044552849795256304,0.007075510106418575,0.9989819721756021,62.96881671543345,3.813148685320872,256.2980089699114,-72.86049293033516,-48.418365478515625,4761.76025390625,True
1599388382.4299462,0.0,10,0.5,0.5,-6.947007032775879,-0.2,-0.0155,-0.5,0.21685361989295077,10,1,100,0.3638990894105757,-10,-1,-100,19314.204036784824,-0.04338047614239318,0.008375431082843004,0.9990235164618678,62.86253188694382,3.8068501405660276,257.1993295036031,-73.22523283922759,-51.48004150390625,4761.76025390625,True
1599388382.4698386,0.0,10,0.5,0.5,-6.1013102539062505,-0.2,-0.0155,-0.5,0.22655701985011012,10,1,100,0.3344985486583708,-10,-1,-100,19311.264084854745,-0.042052494646834464,0.009637937526014656,0.9990689154679083,62.62690847777734,3.792466976862306,257.5650987049583,-73.58997509478608,-54.836944580078125,4761.76025390625,True
1599388382.513722,0.0,10,0.5,0.5,-5.19410226135254,-0.2,-0.0155,-0.5,0.2577769682286385,10,1,100,0.3018735720238256,-10,-1,-100,19308.309543216135,-0.040554870209879926,0.011061175808075604,0.9991160857938394,62.234043523453266,3.7683214880570826,257.27192080750353,-73.9547280591539,-58.486419677734375,4761.76025390625,True
1599388382.5546098,0.0,10,0.5,0.5,-1.2548044647216798,-0.2,-0.0155,-0.5,0.40820787212822984,10,1,100,0.0722790817026619,-10,-1,-100,19302.356686439016,-0.037113473002068055,0.013713655670350603,0.9992169563062268,60.86671218692393,3.68427632699267,254.21050751940354,-74.68430522156281,-66.67144775390625,4761.76025390625,True
1599388382.593507,0.0,10,0.5,0.5,-2.1258057144165043,-0.2,-0.0155,-0.5,0.2850720695803075,10,1,100,0.20176352837792166,-10,-1,-100,19299.3583687091,-0.03517249215454229,0.014994246474331637,0.9992687668331806,59.83500951035308,3.6210825658134085,251.17755911603493,-75.04915067717792,-71.2061767578125,4761.76025390625,True
1599388382.6344142,0.0,10,0.5,0.5,-4.343421781921387,-0.2,-0.0155,-0.5,0.15824119948663135,10,1,100,0.39460211199031037,-10,-1,-100,19299.3583687091,-0.03517249215454229,0.014994246474331637,0.9992687668331806,59.83500951035308,3.6210825658134085,251.17755911603493,-75.04915067717792,-71.2061767578125,4761.76025390625,True
1599388382.6743069,0.0,10,0.5,0.5,2.6760349044799803,-0.2,-0.0155,-0.5,0.404241377360309,10,1,100,-0.06303494972173324,-10,-1,-100,19293.317944800598,-0.031023605240252692,0.01721944617950664,0.999370315044012,56.9400892138632,3.4447933961672486,241.45870211954593,-75.77900751953153,-81.16290283203125,4761.76025390625,True
1599388382.7154598,0.0,10,0.5,0.5,-2.2400701934814453,-0.2,-0.0155,-0.5,0.18307623645765292,10,1,100,0.35023760343420884,-10,-1,-100,19293.317944800598,-0.031023605240252692,0.01721944617950664,0.999370315044012,56.9400892138632,3.4447933961672486,241.45870211954593,-75.77900751953153,-81.16290283203125,4761.76025390625,True
1599388382.7553523,0.0,10,0.5,0.5,5.405245657348633,-0.2,-0.0155,-0.5,0.3833498184524562,10,1,100,-0.14626138695724122,-10,-1,-100,19287.219119111425,-0.026523992874817274,0.019028707053112187,0.9994670510376336,52.81976917370712,3.195870905724464,226.2489286897222,-76.50913651995954,-92.00067138671875,4761.76025390625,True
1599388382.7952466,0.0,10,0.5,0.5,3.88153159942627,-0.2,-0.0155,-0.5,0.28921363035269665,10,1,100,0.03013799256435362,-10,-1,-100,19284.14780018269,-0.024053456771818155,0.01980683959462242,0.9995144422781489,53.48687623515185,3.2372452690770572,230.25293741753475,-76.87423431183815,-97.46869659423828,4761.76025390625,True
1599388382.835139,0.0,10,0.5,0.5,5.021022442245483,-0.2,-0.0155,-0.5,0.27593118948490464,10,1,100,0.027827819733404535,-10,-1,-100,19281.061880280147,-0.021805149100649818,0.02038190941584434,0.9995544573665123,55.09823585126205,3.3363125816148367,238.370378754374,-77.23924602729767,-102.89366149902344,4761.76025390625,True
1599388382.8750327,0.0,10,0.5,0.5,6.007080282974243,-0.2,-0.0155,-0.5,0.2733668979100148,10,1,100,-0.010627777803646765,-10,-1,-100,19277.96136207215,-0.01943125062837972,0.02087047344051708,0.9995933422334232,56.54450663479354,3.4258012615565714,245.83837949015142,-77.60417197993942,-108.06344604492188,4761.76025390625,True
1599388382.913928,0.0,10,0.5,0.5,6.921894134902955,-0.2,-0.0155,-0.5,0.2650171585960317,10,1,100,-0.030358144648848034,-10,-1,-100,19274.846249257214,-0.01711435890410367,0.021228504436533818,0.9996281555251882,57.746174453673895,3.500713990143985,252.29866697210352,-77.96901725737358,-112.9451675415039,4761.76025390625,True
1599388382.9523401,0.0,10,0.5,0.5,6.197017169189453,-0.2,-0.0155,-0.5,0.2454062345015043,10,1,100,0.07417764426382843,-10,-1,-100,19273.283220832585,-0.01597972860970048,0.02136646300602746,0.9996439978973376,58.3291394691215,3.537127446932825,255.4694626972587,-78.15141132822366,-115.27598571777344,4761.76025390625,True
1599388382.9912128,0.0,10,0.5,0.5,6.687002640533448,-0.2,-0.0155,-0.5,0.2445368039428618,10,1,100,0.061788044947962556,-10,-1,-100,19271.716545067495,-0.014854826297728224,0.021477018875637948,0.9996589777498524,58.83886854354516,3.5691019406722826,258.3309532196324,-78.33378805175794,-117.53321075439453,4761.76025390625,True
1599388383.0314798,0.0,10,0.5,0.5,10.061032748794556,-0.2,-0.0155,-0.5,0.2538941961948764,10,1,100,-0.19176259874873564,-10,-1,-100,19266.99463530886,-0.011545652585835111,0.021656697984482793,0.9996987973078572,59.97374448671957,3.64095699168279,265.23578121234294,-78.8808308448508,-123.86297607421875,4761.76025390625,True
1599388383.072373,0.0,10,0.5,0.5,8.35163134803772,-0.2,-0.0155,-0.5,0.23717228742237267,10,1,100,0.01744121907703511,-10,-1,-100,19265.413372309413,-0.010460644682138113,0.021661968502309753,0.9997106251478168,60.23553733070352,3.6577487032702334,267.0368019768501,-79.06315466967634,-125.82563781738281,4761.76025390625,True
1599388383.1137471,0.0,10,0.5,0.5,10.032494939804078,-0.2,-0.0155,-0.5,0.23112853716197213,10,1,100,-0.10922004909849573,-10,-1,-100,19262.239907251205,-0.008341501386779757,0.02160777804130989,0.9997317256558041,60.60936253928401,3.682057604607794,269.9882697649538,-79.42777569615548,-129.52987670898438,4761.76025390625,True
1599388383.153677,0.0,10,0.5,0.5,10.641321476364135,-0.2,-0.0155,-0.5,0.22891637895048,10,1,100,-0.11735113864830168,-10,-1,-100,19259.051858127583,-0.006361708580413445,0.021534414064058448,0.999747867051916,60.813751571901236,3.6958097944443837,272.19723188414184,-79.79236998952581,-132.93841552734375,4761.76025390625,True
1599388383.1925359,0.0,10,0.5,0.5,11.18072102470398,-0.2,-0.0155,-0.5,0.21366470211472388,10,1,100,-0.13983936897903332,-10,-1,-100,19255.849225967075,-0.004375787830068696,0.02132679001622213,0.9997629821655082,60.886473674360474,3.7012936009107453,273.8229362419671,-80.1569463098054,-136.05300903320312,4761.76025390625,True
1599388383.2326865,0.0,10,0.5,0.5,13.422968420410156,-0.2,-0.0155,-0.5,0.18313604354994684,10,1,100,-0.339683106012579,-10,-1,-100,19249.40021343436,-0.000771532873942826,0.02085912584903514,0.9997821270686121,60.74852909729901,3.6943087124249323,275.7983089903405,-80.88607140110147,-141.39549255371094,4761.76025390625,True
1599388383.2715826,0.0,10,0.5,0.5,10.811404498291015,-0.2,-0.0155,-0.5,0.22995018191196484,10,1,100,0.018639027977337262,-10,-1,-100,19249.40021343436,-0.000771532873942826,0.02085912584903514,0.9997821270686121,60.74852909729901,3.6943087124249323,275.7983089903405,-80.88607140110147,-141.39549255371094,4761.76025390625,True
1599388383.312473,0.0,10,0.5,0.5,12.422859209442139,-0.2,-0.0155,-0.5,0.1994536883119269,10,1,100,-0.16607323156197823,-10,-1,-100,19246.153833541553,0.0008907061057287362,0.02058189531411796,0.9997877735939321,60.59332568823397,3.68527211034393,276.3891122275967,-81.25062873825864,-143.62376403808594,4761.76025390625,True
1599388383.3541763,0.0,10,0.5,0.5,12.058187218093872,-0.2,-0.0155,-0.5,0.21560294677117364,10,1,100,-0.08653937610333019,-10,-1,-100,19244.525175569346,0.001662429160342599,0.020477266822115873,0.999788936662525,60.50436714021458,3.680003261278419,276.6303545855351,-81.43290725063811,-144.62649536132812,4761.76025390625,True
1599388383.3940687,0.0,10,0.5,0.5,13.398767177963258,-0.2,-0.0155,-0.5,0.17984412165307226,10,1,100,-0.25457937646702533,-10,-1,-100,19239.617327285814,0.003875593615325118,0.0200578781430257,0.9997913088732711,60.22718012367848,3.6633819659269347,277.29625120779065,-81.97974339067228,-147.19285583496094,4761.76025390625,True
1599388383.4329638,0.0,10,0.5,0.5,13.492420291900634,-0.2,-0.0155,-0.5,0.17700917408442096,10,1,100,-0.25219079771562763,-10,-1,-100,19234.67666862544,0.005848819294921017,0.019652133584803815,0.9997897703809638,59.96839142966845,3.6476770716461093,278.03124894071925,-82.52657996774774,-149.09408569335938,4761.76025390625,True
1599388383.472858,0.0,10,0.5,0.5,12.580913582611084,-0.2,-0.0155,-0.5,0.21738317346664154,10,1,100,-0.05660767694411335,-10,-1,-100,19234.67666862544,0.005848819294921017,0.019652133584803815,0.9997897703809638,59.96839142966845,3.6476770716461093,278.03124894071925,-82.52657996774774,-149.09408569335938,4761.76025390625,True
1599388383.5117538,0.0,10,0.5,0.5,13.244999391174316,-0.2,-0.0155,-0.5,0.19437910879745268,10,1,100,-0.18712584556896983,-10,-1,-100,19231.3646687757,0.007020521315167841,0.019444832846827104,0.9997862825404349,59.826518136512924,3.63899939542442,278.65563268577336,-82.89113613112318,-149.9912567138672,4761.76025390625,True
1599388383.551157,0.0,10,0.5,0.5,13.249350943756104,-0.2,-0.0155,-0.5,0.19258431290772632,10,1,100,-0.18972174142853995,-10,-1,-100,19228.038086503628,0.00809533854802291,0.019242027618027565,0.9997820811891659,59.722654495985665,3.6325986331728464,279.45242743814873,-83.25568885585105,-150.59300231933594,4761.76025390625,True
1599388383.5920475,0.0,10,0.5,0.5,13.198341835021973,-0.2,-0.0155,-0.5,0.16717643879360794,10,1,100,-0.28842103091412497,-10,-1,-100,19221.341176451417,0.009956568621279714,0.0188287625421233,0.9997731464899535,59.646578941600566,3.6277618805830283,281.6560463830552,-83.98477486544894,-150.91085815429688,4761.76025390625,True
1599388383.6319418,0.0,10,0.5,0.5,12.863314860534668,-0.2,-0.0155,-0.5,0.19031124773580863,10,1,100,-0.18883072331021838,-10,-1,-100,19217.970849220757,0.010730200112885523,0.018665654397570428,0.9997682012103845,59.678338171556895,3.6295920526706746,283.0872565271061,-84.34930320396646,-150.6263885498047,4761.76025390625,True
1599388383.6708367,0.0,10,0.5,0.5,13.019857551574708,-0.2,-0.0155,-0.5,0.20640271504594934,10,1,100,-0.11261774744832038,-10,-1,-100,19217.970849220757,0.010730200112885523,0.018665654397570428,0.9997682012103845,59.678338171556895,3.6295920526706746,283.0872565271061,-84.34930320396646,-150.6263885498047,4761.76025390625,True
1599388383.7107327,0.0,10,0.5,0.5,12.015044651794435,-0.2,-0.0155,-0.5,0.18366849690259002,10,1,100,-0.24843683536301225,-10,-1,-100,19211.18645369797,0.01195446297303106,0.01846097375213213,0.9997581123767637,59.88110186475423,3.641790193704217,286.621553329963,-85.07831815713965,-149.17050170898438,4761.76025390625,True
1599388383.7507834,0.0,10,0.5,0.5,11.93231976852417,-0.2,-0.0155,-0.5,0.19336576486993545,10,1,100,-0.17855435383338195,-10,-1,-100,19207.772386230296,0.012422075962105542,0.01836498553012953,0.9997541794537643,60.04213123321687,3.6515812313887492,288.68258087951824,-85.44280013916261,-148.0001220703125,4761.76025390625,True
1599388383.792511,0.0,10,0.5,0.5,12.522738709259034,-0.2,-0.0155,-0.5,0.20275335894099666,10,1,100,-0.13286901960610994,-10,-1,-100,19207.772386230296,0.012422075962105542,0.01836498553012953,0.9997541794537643,60.04213123321687,3.6515812313887492,288.68258087951824,-85.44280013916261,-148.0001220703125,4761.76025390625,True
1599388383.8324053,0.0,10,0.5,0.5,11.497520550537109,-0.2,-0.0155,-0.5,0.20052229792957338,10,1,100,-0.1711469928050195,-10,-1,-100,19204.343739978154,0.01276228800723492,0.01834624215058286,0.9997502385114856,60.2311058189862,3.663137850928002,290.8858256603949,-85.80726290852863,-146.5337371826172,4761.76025390625,True
1599388383.8713,0.0,10,0.5,0.5,10.994246285247803,-0.2,-0.0155,-0.5,0.1978705125976466,10,1,100,-0.16564124642275513,-10,-1,-100,19200.90051597508,0.013015234473229846,0.0183062827492813,0.9997477100166372,60.439584793287764,3.6759682420009505,293.19213404480485,-86.17170521961852,-144.7730255126953,4761.76025390625,True
1599388383.910197,0.0,10,0.5,0.5,10.429153256225586,-0.2,-0.0155,-0.5,0.1979165186850194,10,1,100,-0.15782374169488428,-10,-1,-100,19197.442714901408,0.01316760265826431,0.018271597758742836,0.9997463493084517,60.65307178518068,3.689215868974236,295.532143327409,-86.5361268833258,-142.71766662597656,4761.76025390625,True
1599388383.9508576,0.0,10,0.5,0.5,9.800426188659669,-0.2,-0.0155,-0.5,0.19989534983012638,10,1,100,-0.1475632209625326,-10,-1,-100,19193.970337489154,0.013207253473144174,0.018259121900561646,0.9997460542173281,60.85540414652508,3.701924846221985,297.8271136393056,-86.90052837751975,-140.3674774169922,4761.76025390625,True
1599388383.9907527,0.0,10,0.5,0.5,8.105806178283693,-0.2,-0.0155,-0.5,0.19753569153570194,10,1,100,-0.1305031884492558,-10,-1,-100,19188.73444245814,0.013083561268436877,0.018227222322918037,0.9997482627096314,61.099757693488506,3.7177145139948324,300.99539352907135,-87.44709709872971,-136.29052734375,4761.76025390625,True
1599388384.0296507,0.0,10,0.5,0.5,9.067368603515625,-0.2,-0.0155,-0.5,0.1991289695544875,10,1,100,-0.13307969713023557,-10,-1,-100,19186.981856849627,0.012991693895214464,0.01821325390724845,0.9997497153147098,61.1549891150048,3.721482390780384,301.92583500824713,-87.62927929221183,-134.78445434570312,4761.76025390625,True
1599388384.0705385,0.0,10,0.5,0.5,7.533090705108641,-0.2,-0.0155,-0.5,0.19600442321886458,10,1,100,-0.11424059719080187,-10,-1,-100,19183.465754780686,0.012734857653033482,0.01817256165403436,0.9997537603847695,61.209142878211765,3.7257576283785854,303.51163546625986,-87.99363621343248,-131.55194091796875,4761.76025390625,True
1599388384.114421,0.0,10,0.5,0.5,6.651431805419923,-0.2,-0.0155,-0.5,0.19316530637086454,10,1,100,-0.10183920969883489,-10,-1,-100,19179.935078792972,0.012386807857905482,0.01811020680953386,0.999759264723467,61.166939154433926,3.724398687844709,304.62082579988544,-88.35798832013676,-128.02572631835938,4761.76025390625,True
1599388384.153316,0.0,10,0.5,0.5,5.707930474853516,-0.2,-0.0155,-0.5,0.18962188315687312,10,1,100,-0.08791845783697459,-10,-1,-100,19176.38982855447,0.011943453622785958,0.01802162652799039,0.9997662601292594,61.001204032788955,3.7157460675982628,305.1115074791311,-88.72234316114779,-124.20596313476562,4761.76025390625,True
1599388384.1932564,0.0,10,0.5,0.5,4.701847868347168,-0.2,-0.0155,-0.5,0.18444175201063687,10,1,100,-0.07465291986046599,-10,-1,-100,19172.830003719777,0.011420243629562966,0.017894319042532487,0.9997746603017329,60.68365865822827,3.698049982744682,304.8339055992415,-89.08671006624932,-120.09298706054688,4761.76025390625,True
1599388384.2331169,0.0,10,0.5,0.5,0.3416362426757811,-0.2,-0.0155,-0.5,0.15405400049951767,10,1,100,0.012995436266993898,-10,-1,-100,19165.66662658658,0.010148705700322013,0.017502760557003852,0.9997953076232616,59.472613584800335,3.6279232352539266,301.3248617786694,-89.81552376693888,-110.98806762695312,4761.76025390625,True
1599388384.27301,0.0,10,0.5,0.5,4.839000171661377,-0.2,-0.0155,-0.5,0.19312550089302324,10,1,100,-0.1138969984264101,-10,-1,-100,19165.66662658658,0.010148705700322013,0.017502760557003852,0.9997953076232616,59.472613584800335,3.6279232352539266,301.3248617786694,-89.81552376693888,-110.98806762695312,4761.76025390625,True
1599388384.3139684,0.0,10,0.5,0.5,1.2925722076416015,-0.2,-0.0155,-0.5,0.1624937839307502,10,1,100,-0.03342766485228532,-10,-1,-100,19162.06307147676,0.009419772239441704,0.017225020877521622,0.9998072646999151,58.607637583426694,3.5770226306807453,298.2139525901954,-90.17999282280195,-105.99655151367188,4761.76025390625,True
1599388384.3558562,0.0,10,0.5,0.5,-3.6759719551086425,-0.2,-0.0155,-0.5,0.10829856730137834,10,1,100,0.0680262475143301,-10,-1,-100,19154.812218459672,0.00783820428114385,0.016480797905799142,0.999833459059075,56.44182282472384,3.447943433249001,289.64887671729196,-90.90908803215429,-95.4145736694336,4761.76025390625,True
1599388384.397745,0.0,10,0.5,0.5,1.5453399662017824,-0.2,-0.0155,-0.5,0.18254303207415004,10,1,100,-0.08959364339625536,-10,-1,-100,19154.812218459672,0.00783820428114385,0.016480797905799142,0.999833459059075,56.44182282472384,3.447943433249001,289.64887671729196,-90.90908803215429,-95.4145736694336,4761.76025390625,True
1599388384.444135,0.0,10,0.5,0.5,-2.491657440948486,-0.2,-0.0155,-0.5,0.13090275986708558,10,1,100,0.0014499897220481839,-10,-1,-100,19151.164915789384,0.007015303395511356,0.016012928544295937,0.9998471741409805,55.0817096246152,3.3658690178299926,283.86950827733597,-91.27372335869836,-89.73794555664062,4761.76025390625,True
1599388384.4840288,0.0,10,0.5,0.5,-7.689019355010986,-0.2,-0.0155,-0.5,0.053603230285611994,10,1,100,0.10657863579741012,-10,-1,-100,19143.826558451517,0.005316929799250984,0.014886870060700493,0.9998750478721358,58.42446448952098,3.570822911426875,303.6455611616573,-92.0028541427311,-78.358154296875,4761.76025390625,True
1599388384.5247717,0.0,10,0.5,0.5,-6.048126828765869,-0.2,-0.0155,-0.5,0.09522027583545453,10,1,100,0.029432144310733828,-10,-1,-100,19140.13551152195,0.0044810291142147775,0.014244504300242598,0.9998885010216477,60.30320731156127,3.6854795225502976,314.7250114236527,-92.36726516245352,-72.691650390625,4761.76025390625,True
1599388384.566659,0.0,10,0.5,0.5,-3.3006426933288573,-0.2,-0.0155,-0.5,0.15907028163031492,10,1,100,-0.05336734631851772,-10,-1,-100,19140.13551152195,0.0044810291142147775,0.014244504300242598,0.9998885010216477,60.30320731156127,3.6854795225502976,314.7250114236527,-92.36726516245352,-72.691650390625,4761.76025390625,True
1599388384.605556,0.0,10,0.5,0.5,-10.748412851715088,-0.2,-0.0155,-0.5,0.005790917356940289,10,1,100,0.12618522614588912,-10,-1,-100,19132.70970035554,0.0028555170231825073,0.012854489281600781,0.9999133003055013,63.17674916983848,3.8604735295136283,332.4759533207502,-93.0958162841577,-62.166046142578125,4761.76025390625,True
1599388384.644491,0.0,10,0.5,0.5,-8.948996729278566,-0.2,-0.0155,-0.5,0.05661892407756387,10,1,100,0.0524034856317563,-10,-1,-100,19128.974942540517,0.0020563079692874514,0.012057493716442009,0.9999251914232451,64.19549779738021,3.9225638628753683,339.23559922496025,-93.45998245194495,-57.34661865234375,4761.76025390625,True
1599388384.6853817,0.0,10,0.5,0.5,-9.788833480072022,-0.2,-0.0155,-0.5,0.05564507071013408,10,1,100,0.05539986027326584,-10,-1,-100,19125.225619614357,0.0013098712396700724,0.011329049323721547,0.9999349663246886,64.976455354229,3.970357200668003,344.77776785087576,-93.8240938408101,-52.82318115234375,4761.76025390625,True
1599388385.0858948,0.0,10,0.5,0.5,-9.122073770904542,-0.2,-0.0155,-0.5,0.08366858682585439,10,1,100,0.022980730621884497,-10,-1,-100,19123.34549685847,0.0009340470590856056,0.010927198850694295,0.9999398601322826,65.28782099002962,3.9895270811479877,347.141050315589,-94.00613327714053,-50.6734619140625,4761.76025390625,True
1599388385.1212797,0.0,10,0.5,0.5,-12.33546433029175,-0.2,-0.0155,-0.5,-0.008497567701934161,10,1,100,0.10488640340350043,-10,-1,-100,19117.68328558514,-0.0001444940165691854,0.009729731399532196,0.9999526546033927,65.95352492735157,4.031108575663241,352.8367182492611,-94.55220352281762,-44.669891357421875,4761.76025390625,True
1599388385.160197,0.0,10,0.5,0.5,-11.953934872055054,-0.2,-0.0155,-0.5,0.020663147131566445,10,1,100,0.07347675600275873,-10,-1,-100,19113.890276551014,-0.000832186655977968,0.008912359366513262,0.9999599378554582,66.21337504605671,4.047978174640149,355.67116169738733,-94.9162232366254,-41.039031982421875,4761.76025390625,True
1599388385.204031,0.0,10,0.5,0.5,-11.41593607788086,-0.2,-0.0155,-0.5,0.05968938756713053,10,1,100,0.04279908672513788,-10,-1,-100,19111.98831196048,-0.0011705917066101973,0.008530958284582347,0.999962925545644,66.29963866760677,4.053852714225766,356.8581226494702,-95.09822797052665,-39.33453369140625,4761.76025390625,True
1599388385.2419617,0.0,10,0.5,0.5,-11.78298653717041,-0.2,-0.0155,-0.5,0.05475558115263658,10,1,100,0.046520067063991685,-10,-1,-100,19110.082707203692,-0.0015046180328998754,0.008146179033840401,0.9999656873571832,66.36156984012678,4.05830585864953,357.9161040147829,-95.2802304326317,-37.70428466796875,4761.76025390625,True
1599388385.280863,0.0,10,0.5,0.5,-15.07582791595459,-0.2,-0.0155,-0.5,-0.08055005821268327,10,1,100,0.15460176657145322,-10,-1,-100,19102.42388840264,-0.002784637827020005,0.006572456348960142,0.9999745239803429,66.4332656881664,4.065906742407484,361.20863820038755,-96.00823027892457,-31.92578125,4761.76025390625,True
1599388385.3164651,0.0,10,0.5,0.5,-12.249763304138185,-0.2,-0.0155,-0.5,0.07605500548021438,10,1,100,0.02732635385356373,-10,-1,-100,19102.42388840264,-0.002784637827020005,0.006572456348960142,0.9999745239803429,66.4332656881664,4.065906742407484,361.20863820038755,-96.00823027892457,-31.92578125,4761.76025390625,True
1599388385.3553317,0.0,10,0.5,0.5,-14.802299766540528,-0.2,-0.0155,-0.5,-0.047442139012296144,10,1,100,0.13029902010365813,-10,-1,-100,19096.641554358182,-0.003714147822983377,0.005456729624438485,0.9999782143665705,66.3858084144979,4.065836222918785,363.13314128581277,-96.55422947248833,-28.36956787109375,4761.76025390625,True
1599388385.393842,0.0,10,0.5,0.5,-13.076577618408203,-0.2,-0.0155,-0.5,0.06339075747415333,10,1,100,0.038004986991937516,-10,-1,-100,19096.641554358182,-0.003714147822983377,0.005456729624438485,0.9999782143665705,66.3858084144979,4.065836222918785,363.13314128581277,-96.55422947248833,-28.36956787109375,4761.76025390625,True
1599388385.4317524,0.0,10,0.5,0.5,-15.714640850830078,-0.2,-0.0155,-0.5,-0.09710647219415139,10,1,100,0.16945204237283287,-10,-1,-100,19088.88081548002,-0.004903875184816725,0.004003664594810263,0.9999799611382141,66.31842079642362,4.065800387162993,365.677970548725,-97.28223193932195,-24.665069580078125,4761.76025390625,True
1599388385.470642,0.0,10,0.5,0.5,-13.906036778259278,-0.2,-0.0155,-0.5,0.04746749229577964,10,1,100,0.051100680831946764,-10,-1,-100,19088.88081548002,-0.004903875184816725,0.004003664594810263,0.9999799611382141,66.31842079642362,4.065800387162993,365.677970548725,-97.28223193932195,-24.665069580078125,4761.76025390625,True
1599388385.5105343,0.0,10,0.5,0.5,-14.931814263916015,-0.2,-0.0155,-0.5,-0.03289621228971011,10,1,100,0.11404084285298743,-10,-1,-100,19084.978605946293,-0.005470751273877183,0.0032793795842657055,0.9999796580681237,66.31928719026953,4.067969692407366,367.1420994999559,-97.64623207889836,-23.25726318359375,4761.76025390625,True
1599388385.5494318,0.0,10,0.5,0.5,-15.0405043258667,-0.2,-0.0155,-0.5,-0.027723751051984782,10,1,100,0.12489014919179312,-10,-1,-100,19081.061836531735,-0.006079881178596463,0.002673824996672944,0.9999779426091063,66.36004034685102,4.072607673886887,368.829588187238,-98.01022827706777,-22.143829345703125,4761.76025390625,True
1599388385.5905876,0.0,10,0.5,0.5,-15.084708882141113,-0.2,-0.0155,-0.5,-0.03989841826836524,10,1,100,0.12655821146011764,-10,-1,-100,19077.130507472204,-0.0066440292084872865,0.0020183134281395567,0.9999758913527779,66.45038126689147,4.0803022577827734,370.7971145226132,-98.3742175832244,-21.32720947265625,4761.76025390625,True
1599388385.6315088,0.0,10,0.5,0.5,-15.069712519836425,-0.2,-0.0155,-0.5,-0.03724154882506632,10,1,100,0.13630573526597967,-10,-1,-100,19073.184619241045,-0.007240529054348711,0.0014524677651905065,0.9999727321664349,66.59731999047294,4.091482173628898,373.0871281841112,-98.73819621147258,-20.805206298828125,4761.76025390625,True
1599388385.671406,0.0,10,0.5,0.5,-14.945561242675781,-0.2,-0.0155,-0.5,-0.09434135818449395,10,1,100,0.20807860823212979,-10,-1,-100,19065.24916711962,-0.008430067840259145,0.00042505863312261854,0.9999643760061491,67.0778133001078,4.125341611634205,378.74418272698097,-99.46610568645366,-20.647125244140625,4761.76025390625,True
1599388385.7112963,0.0,10,0.5,0.5,-14.629641670227052,-0.2,-0.0155,-0.5,-0.04056944401253029,10,1,100,0.15612141459034995,-10,-1,-100,19061.259605184663,-0.009033996403422232,-1.4525541997757567e-05,0.9999591925163706,67.41391665610978,4.148187577073608,382.13371422760764,-99.83002848603795,-21.010498046875,4761.76025390625,True
1599388385.7511024,0.0,10,0.5,0.5,-14.828246760559082,-0.2,-0.0155,-0.5,0.0027302753104115314,10,1,100,0.09635349413168144,-10,-1,-100,19061.259605184663,-0.009033996403422232,-1.4525541997757567e-05,0.9999591925163706,67.41391665610978,4.148187577073608,382.13371422760764,-99.83002848603795,-21.010498046875,4761.76025390625,True
1599388385.7919948,0.0,10,0.5,0.5,-14.071763914489747,-0.2,-0.0155,-0.5,-0.054766076395528565,10,1,100,0.19950668842822195,-10,-1,-100,19055.24796931527,-0.009966916489226747,-0.000532245780082271,0.9999501874044158,68.03153323985293,4.1894711757624545,387.8946329118313,-100.37586123625229,-22.10748291015625,4761.76025390625,True
1599388385.830897,0.0,10,0.5,0.5,-14.270819511413574,-0.2,-0.0155,-0.5,-0.020027755779030494,10,1,100,0.14112661017372824,-10,-1,-100,19053.23681339831,-0.01027861333885705,-0.0006816531041868273,0.9999469413208263,68.26510901551947,4.204945978209273,389.9827439413751,-100.55778985377219,-22.62054443359375,4761.76025390625,True
1599388385.8707862,0.0,10,0.5,0.5,-12.5789873046875,-0.2,-0.0155,-0.5,-0.05430959342651713,10,1,100,0.24852898337028903,-10,-1,-100,19045.155807726085,-0.01153347319653148,-0.0011248716340781233,0.9999328545756618,69.31172328120842,4.273771743182762,399.0352230389523,-101.2854145027382,-25.408447265625,4761.76025390625,True
1599388385.9096825,0.0,10,0.5,0.5,-13.971786485290528,-0.2,-0.0155,-0.5,-0.010500594060276373,10,1,100,0.12370595740401764,-10,-1,-100,19045.155807726085,-0.01153347319653148,-0.0011248716340781233,0.9999328545756618,69.31172328120842,4.273771743182762,399.0352230389523,-101.2854145027382,-25.408447265625,4761.76025390625,True
1599388385.9495757,0.0,10,0.5,0.5,-12.68355224761963,-0.2,-0.0155,-0.5,-0.02732781915888198,10,1,100,0.19306963514469258,-10,-1,-100,19041.09347825998,-0.012158540519698838,-0.0012738425429578617,0.9999252708165779,69.88190501520162,4.31104235473895,403.86796974213365,-101.64916823006295,-27.2440185546875,4761.76025390625,True
1599388385.991511,0.0,10,0.5,0.5,-11.280770855712891,-0.2,-0.0155,-0.5,-0.0188835341577837,10,1,100,0.23235915475981583,-10,-1,-100,19034.972705359105,-0.013078434937860192,-0.0013289156259843388,0.9999135905281192,70.75316390829944,4.367802287862658,411.25814581262114,-102.1947206628722,-30.547821044921875,4761.76025390625,True
1599388386.0314012,0.0,10,0.5,0.5,-12.044448268127443,-0.2,-0.0155,-0.5,-0.014030030298115392,10,1,100,0.17460209978648064,-10,-1,-100,19032.925174159463,-0.013383788994858946,-0.001331816367234948,0.9999095461377019,71.03845176390314,4.386347405597823,413.7046942018729,-102.376550479774,-31.796295166015625,4761.76025390625,True
1599388386.0712972,0.0,10,0.5,0.5,-10.749998139953613,-0.2,-0.0155,-0.5,-0.0053650176412856476,10,1,100,0.20941669670693508,-10,-1,-100,19028.819203093066,-0.013972295146006935,-0.0012531493950075719,0.9999015974509426,71.58655036557568,4.421920339435679,418.4856120954276,-102.74017966868078,-34.512939453125,4761.76025390625,True
1599388386.1111882,0.0,10,0.5,0.5,-9.979650537109375,-0.2,-0.0155,-0.5,0.002543062606270234,10,1,100,0.21254455491418695,-10,-1,-100,19024.698688067496,-0.014530697424111262,-0.0011082166834338763,0.9998938097058864,72.0827208033149,4.454059741366145,422.98649400490933,-103.10377039194805,-37.523193359375,4761.76025390625,True
1599388386.1520789,0.0,10,0.5,0.5,-9.14632880859375,-0.2,-0.0155,-0.5,0.008627426056274834,10,1,100,0.2173634917761733,-10,-1,-100,19020.56363023224,-0.01507714737475081,-0.0009201530132382603,0.9998859099644681,72.49892477869757,4.480966281508046,427.03887534267494,-103.46732721149635,-40.8272705078125,4761.76025390625,True
1599388386.1919746,0.0,10,0.5,0.5,-5.5261963073730485,-0.2,-0.0155,-0.5,0.0536828965977107,10,1,100,0.2685031899065929,-10,-1,-100,19012.249891241314,-0.016033332630180277,-0.00033876755589170096,0.9998714004717373,72.97237883596279,4.5114807546050715,433.07145201425027,-104.19436888290838,-48.3150634765625,4761.76025390625,True
1599388386.2318656,0.0,10,0.5,0.5,-9.229471041870118,-0.2,-0.0155,-0.5,-0.004436301314526173,10,1,100,0.1734913059777415,-10,-1,-100,19012.249891241314,-0.016033332630180277,-0.00033876755589170096,0.9998714004717373,72.97237883596279,4.5114807546050715,433.07145201425027,-104.19436888290838,-48.3150634765625,4761.76025390625,True
1599388386.289732,0.0,10,0.5,0.5,-6.260936651611328,-0.2,-0.0155,-0.5,0.036310665134054974,10,1,100,0.21897596699307684,-10,-1,-100,19008.071210980415,-0.016441597985509395,3.134769768785932e-05,0.999864827300673,72.96080404078123,4.5107598487805936,434.6266035252491,-104.55787454733317,-52.498931884765625,4761.76025390625,True
1599388386.3306215,0.0,10,0.5,0.5,-5.176966419982911,-0.2,-0.0155,-0.5,0.04498436445386758,10,1,100,0.21415694258621493,-10,-1,-100,19003.877990415436,-0.01676447706411987,0.00044561681354778694,0.9998593669783877,72.73440269189503,4.496347047410527,434.89896317031173,-104.92138799473928,-56.9759521484375,4761.76025390625,True
1599388386.3725088,0.0,10,0.5,0.5,-0.48307829132080027,-0.2,-0.0155,-0.5,0.10656721082890132,10,1,100,0.23919245056807723,-10,-1,-100,18995.44792400417,-0.017280843568266695,0.0013806414418774588,0.9998497218456271,71.48466472108332,4.417354460326245,430.6218840755058,-105.64850551586487,-66.80947875976562,4761.76025390625,True
1599388386.4133992,0.0,10,0.5,0.5,-1.5889820526123053,-0.2,-0.0155,-0.5,0.0680820184668113,10,1,100,0.20450184869482035,-10,-1,-100,18991.211074632825,-0.017430241915871867,0.0018783852788992193,0.999846317358572,70.38880583340371,4.3486108779480555,425.59923619862843,-106.01214613598086,-72.16595458984375,4761.76025390625,True
1599388386.4542913,0.0,10,0.5,0.5,-4.202711860656739,-0.2,-0.0155,-0.5,0.01862836485512362,10,1,100,0.1899971946321043,-10,-1,-100,18991.211074632825,-0.017430241915871867,0.0018783852788992193,0.999846317358572,70.38880583340371,4.3486108779480555,425.59923619862843,-106.01214613598086,-72.16595458984375,4761.76025390625,True
1599388386.4971752,0.0,10,0.5,0.5,-0.2396811248779298,-0.2,-0.0155,-0.5,0.07216851479071566,10,1,100,0.19716133828042667,-10,-1,-100,18986.95967729669,-0.017491691900928422,0.0023621955495444795,0.9998442182393359,68.93787425970956,4.258133330722748,418.37650512740095,-106.37586586381211,-77.738037109375,4761.76025390625,True
1599388386.5430708,0.0,10,0.5,0.5,1.1028701446533202,-0.2,-0.0155,-0.5,0.07823155139014715,10,1,100,0.19216585308661507,-10,-1,-100,18982.693728194572,-0.017498942570349802,0.002853854905630864,0.9998428089060286,67.13271544850336,4.146228533322338,408.93437158055116,-106.7396805839504,-83.54031372070312,4761.76025390625,True
1599388386.5829632,0.0,10,0.5,0.5,2.5327446548461916,-0.2,-0.0155,-0.5,0.08348656699214868,10,1,100,0.18474652061155708,-10,-1,-100,18978.413223301643,-0.01743538720628122,0.003344988942464805,0.9998423967415774,64.93409863943077,4.01070876384325,397.00798841014176,-107.10360416374976,-89.62557983398438,4761.76025390625,True
1599388386.6248517,0.0,10,0.5,0.5,3.9496570587158204,-0.2,-0.0155,-0.5,0.08361138455417391,10,1,100,0.17664647750593748,-10,-1,-100,18974.11816171056,-0.01730182899268458,0.003788731733827069,0.9998431338091776,66.27834408225236,4.09487747560395,406.7248423736751,-107.46750910192408,-95.8883056640625,4761.76025390625,True
1599388386.6647449,0.0,10,0.5,0.5,5.205503890991211,-0.2,-0.0155,-0.5,0.08564201236359238,10,1,100,0.16952877360383617,-10,-1,-100,18969.808547480614,-0.01711455285724807,0.00420684225216046,0.9998446852180402,68.36550852016214,4.225751057975507,421.0780947994202,-107.83128394398179,-102.05040740966797,4761.76025390625,True
1599388386.7054033,0.0,10,0.5,0.5,10.258688083267213,-0.2,-0.0155,-0.5,0.12179852288275099,10,1,100,0.13106453485478653,-10,-1,-100,18961.14568232512,-0.016593643999835275,0.004911505900994028,0.9998502528321885,71.91266171030158,4.450201211097831,446.1715013777958,-108.55846055373827,-113.5517578125,4761.76025390625,True
1599388386.7452955,0.0,10,0.5,0.5,8.318932756423951,-0.2,-0.0155,-0.5,0.08186078920356873,10,1,100,0.1481665425800313,-10,-1,-100,18956.7924409057,-0.01627542506694921,0.005184602404483518,0.9998541045756614,73.29135574317237,4.538166737146539,456.3763158354711,-108.92188505335267,-118.8607406616211,4761.76025390625,True
1599388386.7851927,0.0,10,0.5,0.5,5.760362754058838,-0.2,-0.0155,-0.5,0.05502503741371329,10,1,100,0.1799395306689208,-10,-1,-100,18956.7924409057,-0.01627542506694921,0.005184602404483518,0.9998541045756614,73.29135574317237,4.538166737146539,456.3763158354711,-108.92188505335267,-118.8607406616211,4761.76025390625,True
1599388386.8251204,0.0,10,0.5,0.5,12.651393009567261,-0.2,-0.0155,-0.5,0.09573215651017333,10,1,100,0.10442699570116068,-10,-1,-100,18948.04235679086,-0.015589861493152588,0.0055512089772126036,0.9998630607725818,75.04781042550012,4.651279841774103,470.6902885326404,-109.64850354588246,-128.58981323242188,4761.76025390625,True
1599388386.8659756,0.0,10,0.5,0.5,7.874313705062867,-0.2,-0.0155,-0.5,0.05943878160709609,10,1,100,0.1727993150385509,-10,-1,-100,18948.04235679086,-0.015589861493152588,0.0055512089772126036,0.9998630607725818,75.04781042550012,4.651279841774103,470.6902885326404,-109.64850354588246,-128.58981323242188,4761.76025390625,True
1599388386.905503,0.0,10,0.5,0.5,11.055929621505738,-0.2,-0.0155,-0.5,0.06980039548730521,10,1,100,0.1302989276693262,-10,-1,-100,18943.645519399084,-0.015205167408362108,0.005642066536397856,0.999868476335404,75.50519858736892,4.681075843050766,475.25704293299583,-110.01173779634857,-133.01004028320312,4761.76025390625,True
1599388386.9453526,0.0,10,0.5,0.5,11.818325469589233,-0.2,-0.0155,-0.5,0.06533934545631462,10,1,100,0.12933159913031003,-10,-1,-100,18939.23415358772,-0.014848730275918404,0.005681127616296486,0.9998736120121384,75.73386680747727,4.696178426431138,478.40024723201105,-110.3749456110662,-137.13409423828125,4761.76025390625,True
1599388386.983284,0.0,10,0.5,0.5,12.519152482223511,-0.2,-0.0155,-0.5,0.058059758268487124,10,1,100,0.12084335888257738,-10,-1,-100,18934.808259739657,-0.014449939982621495,0.005647889375668931,0.9998796430471514,75.7761118552398,4.699233096021579,480.3732980118725,-110.7381411714455,-140.9623565673828,4761.76025390625,True
1599388387.0228844,0.0,10,0.5,0.5,11.946774412918092,-0.2,-0.0155,-0.5,0.057982786752843365,10,1,100,0.13978754007543417,-10,-1,-100,18932.58986475889,-0.014262337224308148,0.005614879506380571,0.9998825225320367,75.73809261034717,4.696927872782828,480.9856373680571,-110.91973805018132,-142.76547241210938,4761.76025390625,True
1599388387.0647383,0.0,10,0.5,0.5,14.593907593154908,-0.2,-0.0155,-0.5,0.040813648685114785,10,1,100,0.09589637748583602,-10,-1,-100,18925.912888224004,-0.013695541867543647,0.005427127326618571,0.999891483323033,75.44374338737362,4.678289660869807,481.66980823964263,-111.46453840666838,-147.73123168945312,4761.76025390625,True
1599388387.1066704,0.0,10,0.5,0.5,15.192337382507326,-0.2,-0.0155,-0.5,0.024450103945700852,10,1,100,0.09104919700362618,-10,-1,-100,18919.20322254754,-0.013139316276091923,0.00510657467913621,0.999900635694789,74.96479059958455,4.647615606998463,481.1548260434008,-112.00936879913054,-152.03195190429688,4761.76025390625,True
1599388387.147562,0.0,10,0.5,0.5,14.849891229248048,-0.2,-0.0155,-0.5,0.02764579871728345,10,1,100,0.10718929216456569,-10,-1,-100,18914.711950297118,-0.012783525083256846,0.004844037616822867,0.9999065540269313,74.5915020584487,4.623625754127787,480.4489821786614,-112.37261123216804,-154.52947998046875,4761.76025390625,True
1599388387.188455,0.0,10,0.5,0.5,13.656413737106323,-0.2,-0.0155,-0.5,0.05386544846985169,10,1,100,0.14241922144970418,-10,-1,-100,18914.711950297118,-0.012783525083256846,0.004844037616822867,0.9999065540269313,74.5915020584487,4.623625754127787,480.4489821786614,-112.37261123216804,-154.52947998046875,4761.76025390625,True
1599388387.231246,0.0,10,0.5,0.5,15.253204189300538,-0.2,-0.0155,-0.5,0.019661087775115025,10,1,100,0.10352885631572689,-10,-1,-100,18910.206147972844,-0.012433150763842228,0.0045333984875867706,0.9999124286957515,74.20551748206107,4.598771410752949,479.64671400324636,-112.73587236369443,-156.73162841796875,4761.76025390625,True
1599388387.2713194,0.0,10,0.5,0.5,15.530637479400635,-0.2,-0.0155,-0.5,0.011001198109318724,10,1,100,0.10102531055196785,-10,-1,-100,18905.685814434313,-0.012094738885366866,0.004173198291764558,0.9999181475037405,73.82862346930246,4.5744527861264075,478.88832663729033,-113.09915144713804,-158.63861083984375,4761.76025390625,True
1599388387.3147116,0.0,10,0.5,0.5,16.238754863739015,-0.2,-0.0155,-0.5,-0.022854992351378105,10,1,100,0.08155567719490461,-10,-1,-100,18898.87806734792,-0.01161327244042304,0.003539212755633892,0.9999263002223188,73.32009574753286,4.541514020132267,478.0932759302944,-113.64409867015861,-160.94580078125,4761.76025390625,True
1599388387.355634,0.0,10,0.5,0.5,15.563525019073488,-0.2,-0.0155,-0.5,0.01514746796161712,10,1,100,0.11208795496909292,-10,-1,-100,18896.601552094216,-0.011456407192937581,0.003310250865433938,0.9999288939586841,73.17344245011394,4.531964383796142,477.970866895072,-113.82575363149337,-161.56732177734375,4761.76025390625,True
1599388387.395494,0.0,10,0.5,0.5,16.006016883087156,-0.2,-0.0155,-0.5,-0.016469457469263905,10,1,100,0.09373584364731982,-10,-1,-100,18892.037622273434,-0.01115004897691921,0.0028168324401994815,0.9999338687447367,72.92432226178852,4.515627418209113,478.00706679950247,-114.18906967660705,-162.58929443359375,4761.76025390625,True
1599388387.4348981,0.0,10,0.5,0.5,16.0374664932251,-0.2,-0.0155,-0.5,-0.024879842868919054,10,1,100,0.09012426690015055,-10,-1,-100,18887.459159741178,-0.010841708892842517,0.0022943858744762648,0.9999385946855647,72.74228795951615,4.5034760760646915,478.4748958193942,-114.55238987946635,-163.31631469726562,4761.76025390625,True
1599388387.4757888,0.0,10,0.5,0.5,16.00866356048584,-0.2,-0.0155,-0.5,-0.03648812781951162,10,1,100,0.08877967873079393,-10,-1,-100,18882.8661643666,-0.01055228585880725,0.0017169232184787756,0.9999428490857943,72.63519950102378,4.495986165650367,479.43064163133124,-114.91570930556865,-163.74896240234375,4761.76025390625,True
1599388387.514684,0.0,10,0.5,0.5,15.80421095275879,-0.2,-0.0155,-0.5,-0.1149012869322197,10,1,100,0.051776354460813086,-10,-1,-100,18873.636576224235,-0.009955637658146943,0.00048248317937293,0.9999503250105986,72.66623840660245,4.496180426485738,482.96118951012465,-115.64232429733782,-163.73045349121094,4761.76025390625,True
1599388387.5565734,0.0,10,0.5,0.5,15.831598085784913,-0.2,-0.0155,-0.5,0.008080307828388535,10,1,100,0.11112280666504937,-10,-1,-100,18873.636576224235,-0.009955637658146943,0.00048248317937293,0.9999503250105986,72.66623840660245,4.496180426485738,482.96118951012465,-115.64232429733782,-163.73045349121094,4761.76025390625,True
1599388387.597463,0.0,10,0.5,0.5,15.008767004394533,-0.2,-0.0155,-0.5,-0.13946114607721177,10,1,100,0.04022310497213494,-10,-1,-100,18864.348861876293,-0.009313665722234184,-0.0008548377157348455,0.9999562614851183,73.03331224550828,4.517025970328342,488.7475883652144,-116.36887101554174,-162.53460693359375,4761.76025390625,True
1599388387.6363595,0.0,10,0.5,0.5,14.892106958007812,-0.2,-0.0155,-0.5,-0.08738198302761561,10,1,100,0.07029921126245907,-10,-1,-100,18859.683209995623,-0.00900662843709919,-0.0015919562514432604,0.999958172284966,73.33673911046738,4.53476216048807,492.4596153387096,-116.73210477153927,-161.4960479736328,4761.76025390625,True
1599388387.6757665,0.0,10,0.5,0.5,15.41877128829956,-0.2,-0.0155,-0.5,-0.014282664930677137,10,1,100,0.10066028754328427,-10,-1,-100,18859.683209995623,-0.00900662843709919,-0.0015919562514432604,0.999958172284966,73.33673911046738,4.53476216048807,492.4596153387096,-116.73210477153927,-161.4960479736328,4761.76025390625,True
1599388387.7176545,0.0,10,0.5,0.5,13.351227659606934,-0.2,-0.0155,-0.5,-0.17446830591468157,10,1,100,0.016875865358364037,-10,-1,-100,18850.308322038618,-0.008247759244916521,-0.0030429483017131117,0.9999613567198841,74.15582994946666,4.58308576014313,501.3616747702496,-117.45846722681463,-158.5360870361328,4761.76025390625,True
1599388387.7595427,0.0,10,0.5,0.5,14.827473072052003,-0.2,-0.0155,-0.5,-0.03002731699343113,10,1,100,0.09242623325708017,-10,-1,-100,18850.308322038618,-0.008247759244916521,-0.0030429483017131117,0.9999613567198841,74.15582994946666,4.58308576014313,501.3616747702496,-117.45846722681463,-158.5360870361328,4761.76025390625,True
1599388387.8014293,0.0,10,0.5,0.5,12.729322204589845,-0.2,-0.0155,-0.5,-0.1563231919064487,10,1,100,0.02463605961301034,-10,-1,-100,18843.23902685463,-0.00763440189174136,-0.004185316983497683,0.9999620987965008,74.91572064772802,4.628084243240897,509.07707206936,-118.00312894062104,-155.54544067382812,4761.76025390625,True
1599388387.8433175,0.0,10,0.5,0.5,11.658229670715333,-0.2,-0.0155,-0.5,-0.17197805035149516,10,1,100,0.012224540288692048,-10,-1,-100,18836.13705621066,-0.0069671683468930275,-0.005359785271507991,0.9999613648871988,75.75031733557745,4.677548299550701,517.3544607262246,-118.54768269241562,-151.8947296142578,4761.76025390625,True
1599388387.8842087,0.0,10,0.5,0.5,11.505110564422608,-0.2,-0.0155,-0.5,-0.13730142588344973,10,1,100,0.022486672657721668,-10,-1,-100,18831.384259420913,-0.006457406819063857,-0.006105283337129691,0.9999605129266589,76.31923687134152,4.711275901541778,522.9898191145705,-118.91065528993555,-149.0936279296875,4761.76025390625,True
1599388387.9260972,0.0,10,0.5,0.5,12.882945638275146,-0.2,-0.0155,-0.5,-0.06353383997684062,10,1,100,0.07305333753666435,-10,-1,-100,18831.384259420913,-0.006457406819063857,-0.006105283337129691,0.9999605129266589,76.31923687134152,4.711275901541778,522.9898191145705,-118.91065528993555,-149.0936279296875,4761.76025390625,True
1599388387.967985,0.0,10,0.5,0.5,8.32311866607666,-0.2,-0.0155,-0.5,-0.2262553220214059,10,1,100,-0.048719434650996436,-10,-1,-100,18821.835115520284,-0.005353561827211562,-0.007578580658883464,0.999956951318885,77.38418708278196,4.774450573390725,533.8340286950689,-119.636448811341,-142.61199951171875,4761.76025390625,True
1599388388.0078773,0.0,10,0.5,0.5,8.955225760650634,-0.2,-0.0155,-0.5,-0.16121569503280503,10,1,100,-0.00449124144770497,-10,-1,-100,18817.03877257346,-0.004756324569040248,-0.008319344284364835,0.9999540818893997,77.82825168699163,4.800851790223784,538.6798928332314,-119.99927517232244,-138.93203735351562,4761.76025390625,True
1599388388.047771,0.0,10,0.5,0.5,7.976641960906981,-0.2,-0.0155,-0.5,-0.15683695513209278,10,1,100,-0.016439020825631916,-10,-1,-100,18812.22791780322,-0.004108908468315349,-0.00894617312064267,0.9999515402546738,78.17556509076964,4.821580089609625,542.8738980937896,-120.36206191335683,-134.95777893066406,4761.76025390625,True
1599388388.0886617,0.0,10,0.5,0.5,9.922636855316162,-0.2,-0.0155,-0.5,-0.09488949319122925,10,1,100,0.04781281724997964,-10,-1,-100,18812.22791780322,-0.004108908468315349,-0.00894617312064267,0.9999515402546738,78.17556509076964,4.821580089609625,542.8738980937896,-120.36206191335683,-134.95777893066406,4761.76025390625,True
1599388388.127557,0.0,10,0.5,0.5,6.894988256072999,-0.2,-0.0155,-0.5,-0.16592022456892092,10,1,100,-0.02601112352126951,-10,-1,-100,18807.402552260435,-0.00344223420673016,-0.009585221390558776,0.9999481359323392,78.39190325171603,4.834609107615775,546.1713824194256,-120.7248181579718,-130.6913299560547,4761.76025390625,True
1599388388.1664534,0.0,10,0.5,0.5,5.793354151153565,-0.2,-0.0155,-0.5,-0.16591364140980125,10,1,100,-0.03602842516750176,-10,-1,-100,18802.562677316717,-0.002749468976721683,-0.010160166995318834,0.9999446041791381,78.44219521234248,4.837842405525153,548.318811932508,-121.08755575001769,-126.13175964355469,4761.76025390625,True
1599388388.207344,0.0,10,0.5,0.5,4.626658632659913,-0.2,-0.0155,-0.5,-0.1707964072809547,10,1,100,-0.0470755843648273,-10,-1,-100,18797.70829290047,-0.002024252129709376,-0.010720763399662459,0.9999404820465284,78.29023273904927,4.829076398350188,549.0516158188876,-121.45028928439102,-121.27996826171875,4761.76025390625,True
1599388388.2612002,0.0,10,0.5,0.5,3.3979291694641116,-0.2,-0.0155,-0.5,-0.16668004083473537,10,1,100,-0.055538165799445954,-10,-1,-100,18792.83939880319,-0.0012931316646216835,-0.011187033666449065,0.9999365870335197,77.89900589041027,4.806003131088524,548.0963348870788,-121.8130363724639,-116.13494873046875,4761.76025390625,True
1599388388.3000963,0.0,10,0.5,0.5,2.108921492004395,-0.2,-0.0155,-0.5,-0.1672784780593179,10,1,100,-0.06442349298657332,-10,-1,-100,18787.955993883777,-0.0005528592098246883,-0.011611058567028602,0.9999324365504139,77.23147460643534,4.766246471500056,545.1758443276499,-122.17581661292047,-110.69767761230469,4761.76025390625,True
1599388388.3439782,0.0,10,0.5,0.5,0.7572759635925292,-0.2,-0.0155,-0.5,-0.16487705776558845,10,1,100,-0.07219658766152606,-10,-1,-100,18783.058076114277,0.00018541247557284205,-0.011969699405585277,0.9999283433918422,76.25133064383331,4.707402847873844,540.0145717443194,-122.53865172259222,-104.96800994873047,4761.76025390625,True
1599388388.7456472,0.0,10,0.5,0.5,-5.081441162490845,-0.2,-0.0155,-0.5,-0.18635369362832088,10,1,100,-0.15606798624594856,-10,-1,-100,18773.218690466834,0.0016129968864338588,-0.01248564738841759,0.9999207502849097,73.47766831385285,4.539185870231416,523.770663406525,-123.26456399978387,-92.63207244873047,4761.76025390625,True
1599388388.783071,0.0,10,0.5,0.5,1.0090587005615235,-0.2,-0.0155,-0.5,-0.13524960201804298,10,1,100,-0.014006201031211404,-10,-1,-100,18773.218690466834,0.0016129968864338588,-0.01248564738841759,0.9999207502849097,73.47766831385285,4.539185870231416,523.770663406525,-123.26456399978387,-92.63207244873047,4761.76025390625,True
1599388388.8199716,0.0,10,0.5,0.5,-8.232470191574096,-0.2,-0.0155,-0.5,-0.16336450460125748,10,1,100,-0.15290105678915458,-10,-1,-100,18763.321212147595,0.002869887101092002,-0.012737449863624947,0.9999147569263085,69.74924629936446,4.309904052043475,500.4312359873256,-123.99087780617795,-79.53240966796875,4761.76025390625,True
1599388388.8568742,0.0,10,0.5,0.5,-1.7685481235504152,-0.2,-0.0155,-0.5,-0.13856338475482005,10,1,100,-0.027909914880280984,-10,-1,-100,18763.321212147595,0.002869887101092002,-0.012737449863624947,0.9999147569263085,69.74924629936446,4.309904052043475,500.4312359873256,-123.99087780617795,-79.53240966796875,4761.76025390625,True
1599388388.9032538,0.0,10,0.5,0.5,-11.023414965438842,-0.2,-0.0155,-0.5,-0.14381492536414722,10,1,100,-0.14608473259190935,-10,-1,-100,18753.36562841735,0.003937859266134617,-0.012781744526670665,0.999910556135525,73.49830820910834,4.539708576362373,530.7403531788025,-124.71706189623853,-66.43389892578125,4761.76025390625,True
1599388388.9421499,0.0,10,0.5,0.5,-4.573758612442017,-0.2,-0.0155,-0.5,-0.13970511137318667,10,1,100,-0.040025525434934345,-10,-1,-100,18753.36562841735,0.003937859266134617,-0.012781744526670665,0.999910556135525,73.49830820910834,4.539708576362373,530.7403531788025,-124.71706189623853,-66.43389892578125,4761.76025390625,True
1599388388.9800482,0.0,10,0.5,0.5,-9.052099622726441,-0.2,-0.0155,-0.5,-0.13420386758055214,10,1,100,-0.09236521885565875,-10,-1,-100,18748.366059385473,0.004407595271556788,-0.012729349967163668,0.9999092642601807,75.34995554635123,4.652567975473293,545.8559237783016,-125.07992759151279,-60.16845703125,4761.76025390625,True
1599388389.0154624,0.0,10,0.5,0.5,-12.206862748336793,-0.2,-0.0155,-0.5,-0.12712064134770917,10,1,100,-0.10307936874649594,-10,-1,-100,18740.839499129914,0.004926182232401584,-0.012615499595888278,0.999908286743619,77.37438428297175,4.775428370226178,563.2040364317565,-125.62400918959027,-51.3216552734375,4761.76025390625,True
1599388389.0543582,0.0,10,0.5,0.5,-7.8839224742889416,-0.2,-0.0155,-0.5,-0.13864852506819203,10,1,100,-0.051842604051718595,-10,-1,-100,18740.839499129914,0.004926182232401584,-0.012615499595888278,0.999908286743619,77.37438428297175,4.775428370226178,563.2040364317565,-125.62400918959027,-51.3216552734375,4761.76025390625,True
1599388389.0932548,0.0,10,0.5,0.5,-13.698489488601686,-0.2,-0.0155,-0.5,-0.12038542888176451,10,1,100,-0.09422603502808669,-10,-1,-100,18733.280301767867,0.005306505203602907,-0.012448558320530883,0.999908433006875,78.60197444997684,4.849885589207742,574.8618584200636,-126.16790734990568,-43.1466064453125,4761.76025390625,True
1599388389.1311529,0.0,10,0.5,0.5,-11.50961722946167,-0.2,-0.0155,-0.5,-0.1305780273668187,10,1,100,-0.0666739652601128,-10,-1,-100,18730.753318022355,0.0053971244588697734,-0.012389018184692884,0.9999086874690082,78.85797175537576,4.865504354257786,577.6445247414175,-126.34918011709505,-40.571136474609375,4761.76025390625,True
1599388389.1700487,0.0,10,0.5,0.5,-13.751413975143432,-0.2,-0.0155,-0.5,-0.120464896094644,10,1,100,-0.07320568733516322,-10,-1,-100,18725.688474766794,0.005535444775637896,-0.01224304107618741,0.999909729323774,79.17275355799204,4.8849836719338375,581.779356796416,-126.71170170974102,-35.64422607421875,4761.76025390625,True
1599388389.2089448,0.0,10,0.5,0.5,-14.615648457336427,-0.2,-0.0155,-0.5,-0.121002811882369,10,1,100,-0.06658978276149934,-10,-1,-100,18720.609131426783,0.005597480069403605,-0.012115445308627416,0.9999109381349152,79.25940542244052,4.890909575394474,584.2492098751158,-127.07420679109757,-31.016571044921875,4761.76025390625,True
1599388389.247841,0.0,10,0.5,0.5,-15.407348861694338,-0.2,-0.0155,-0.5,-0.11792642546073924,10,1,100,-0.060307673091450686,-10,-1,-100,18715.515287901508,0.00559428607312807,-0.011972047465698967,0.9999126832092947,79.16069219254518,4.885846805558148,585.3553097731387,-127.43671082863018,-26.687530517578125,4761.76025390625,True
1599388389.2887325,0.0,10,0.5,0.5,-16.145865480041508,-0.2,-0.0155,-0.5,-0.1176712901769534,10,1,100,-0.05324434543330377,-10,-1,-100,18710.4069438288,0.005524693644192578,-0.011840062199000438,0.9999146417006111,78.91635460188537,4.872142538929616,585.3801100821169,-127.79922566340277,-22.6573486328125,4761.76025390625,True
1599388389.3306544,0.0,10,0.5,0.5,-19.21389918670654,-0.2,-0.0155,-0.5,-0.10373913292402295,10,1,100,-0.023463422425927208,-10,-1,-100,18700.14675140183,0.005189249559295019,-0.011594275692727562,0.9999193189753722,78.1381547167334,4.827443978050227,583.2459942870072,-128.52431944117953,-15.49267578125,4761.76025390625,True
1599388389.3705127,0.0,10,0.5,0.5,-15.710521656799317,-0.2,-0.0155,-0.5,-0.1281990366679162,10,1,100,-0.057132969944999175,-10,-1,-100,18700.14675140183,0.005189249559295019,-0.011594275692727562,0.9999193189753722,78.1381547167334,4.827443978050227,583.2459942870072,-128.52431944117953,-15.49267578125,4761.76025390625,True
1599388389.411403,0.0,10,0.5,0.5,-17.97414777984619,-0.2,-0.0155,-0.5,-0.11616754674656296,10,1,100,-0.028320716500072035,-10,-1,-100,18694.994900859543,0.0049266093877159195,-0.011485930397328384,0.999921897911456,77.67018262692493,4.800306997589296,581.5669024665267,-128.88690742968475,-12.35784912109375,4761.76025390625,True
1599388389.4512963,0.0,10,0.5,0.5,-18.45288274383545,-0.2,-0.0155,-0.5,-0.11515301176635681,10,1,100,-0.019819867516775516,-10,-1,-100,18689.82854618563,0.004610564761745575,-0.01137923851005322,0.999924624971057,77.18793356620978,4.772232322680602,579.7623152475759,-129.24952444058943,-9.52105712890625,4761.76025390625,True
1599388389.4911902,0.0,10,0.5,0.5,-19.6867227432251,-0.2,-0.0155,-0.5,-0.11216364949396954,10,1,100,0.014729669316027282,-10,-1,-100,18682.05181563727,0.004009451691902196,-0.011256193738313946,0.9999286086514656,76.56191099554357,4.735916982417285,577.7539262025566,-129.7934988888328,-5.82470703125,4761.76025390625,True
1599388389.5320818,0.0,10,0.5,0.5,-18.654694367980955,-0.2,-0.0155,-0.5,-0.12001598872534558,10,1,100,-0.020193264719764556,-10,-1,-100,18679.452318875818,0.0037816456228351417,-0.01121680372482004,0.9999299387810039,76.38988669687937,4.7260032106057555,577.3531993234916,-129.97483361673605,-4.741424560546875,4761.76025390625,True
1599388389.571974,0.0,10,0.5,0.5,-19.52896211090088,-0.2,-0.0155,-0.5,-0.11617975999665482,10,1,100,0.012307809166160116,-10,-1,-100,18674.24244492431,0.003280553505480354,-0.011147185464528276,0.9999324868334447,76.12115513787265,4.710711678559255,577.112752445184,-130.33751391467197,-2.79803466796875,4761.76025390625,True
1599388389.6118681,0.0,10,0.5,0.5,-20.704739430236817,-0.2,-0.0155,-0.5,-0.10928021079208475,10,1,100,0.09213676181055148,-10,-1,-100,18663.779174863128,0.0021013473668180416,-0.011022169194777543,0.9999370460811449,75.83947949292646,4.695478186388089,578.5530344746751,-131.0628916748611,0.197052001953125,4761.76025390625,True
1599388389.6517603,0.0,10,0.5,0.5,-19.255577210998535,-0.2,-0.0155,-0.5,-0.12167251015577302,10,1,100,-0.02543423878542121,-10,-1,-100,18663.779174863128,0.0021013473668180416,-0.011022169194777543,0.9999370460811449,75.83947949292646,4.695478186388089,578.5530344746751,-131.0628916748611,0.197052001953125,4761.76025390625,True
1599388389.6946461,0.0,10,0.5,0.5,-20.03375649261475,-0.2,-0.0155,-0.5,-0.11467192559626191,10,1,100,0.0493266209186662,-10,-1,-100,18658.525778196752,0.0014248785865138924,-0.010959391042664643,0.9999389288696523,75.79952357613764,4.693896246656655,580.0388527872149,-131.42558019296385,1.24920654296875,4761.76025390625,True
1599388389.7345388,0.0,10,0.5,0.5,-20.073921394348147,-0.2,-0.0155,-0.5,-0.1105929933522519,10,1,100,0.06288437869968418,-10,-1,-100,18653.257874463918,0.0006903817291896649,-0.01086603940321313,0.9999407245235868,75.83898480968105,4.697123652729303,582.1347454782878,-131.78826146730893,2.00518798828125,4761.76025390625,True
1599388389.7754312,0.0,10,0.5,0.5,-20.044170524597167,-0.2,-0.0155,-0.5,-0.11493654314896215,10,1,100,0.0774857506872982,-10,-1,-100,18647.97546370281,-0.000105992552056028,-0.010821323125763225,0.9999414421511825,75.96368720457986,4.705553350829181,584.8911828320238,-132.15092997689044,2.46392822265625,4761.76025390625,True
1599388389.8143253,0.0,10,0.5,0.5,-19.956921473693846,-0.2,-0.0155,-0.5,-0.10895074858578929,10,1,100,0.09223340168134016,-10,-1,-100,18642.67854678852,-0.0009592248693967204,-0.010726958334386253,0.9999420044445289,76.1833806553788,4.71982601833778,588.3895664054236,-132.5135797730856,2.627197265625,4761.76025390625,True
1599388389.8562136,0.0,10,0.5,0.5,-19.805630473327636,-0.2,-0.0155,-0.5,-0.10746601436302225,10,1,100,0.10781730291418962,-10,-1,-100,18637.3671244781,-0.001871211683407697,-0.010628364551166525,0.9999417665213327,76.4993959552286,4.740063978233735,592.6470330385574,-132.87620435765834,2.4945068359375,4761.76025390625,True
1599388389.8971424,0.0,10,0.5,0.5,-19.084386433410643,-0.2,-0.0155,-0.5,-0.08815429043582651,10,1,100,0.23746516522762984,-10,-1,-100,18626.70076942246,-0.003873015011316993,-0.010363855325227617,0.9999387932556272,77.42478229247338,4.798882331034852,603.5012365120749,-133.60135253765915,1.3427734375,4761.76025390625,True
