Timestamp,Input Throttle,horizon,dT,dt,Input Roll,Roll P,Roll I,Roll D,Input Pitch,Pitch P,Pitch I,Pitch D,Input Yaw,Yaw P,Yaw I,Yaw D,Altitude,Direction X,Direction Y,Direction Z,Drag X,Drag Y,Drag Z,Vertical Velocity,Roll,Mass,Has Fuel
1599384778.542884,0.0,10,0.5,0.5,-0.05553477478027344,-0.001,-0.00825,-0.2505,-0.00014395647910190506,10,1,100,0.49813169092297405,-10,-1,-100,19349.72229960549,-0.0488454992786256,-0.0001745258826593629,0.9988063309475655,61.076454017851,3.686293221941253,233.73123409882044,-68.66499492973892,-33.922454833984375,4761.76025390625,True
1599384778.562866,0.0,10,0.5,0.5,-0.10175053176879882,-0.001,-0.00825,-0.2505,0.00014062612450339677,10,1,100,0.5047632590256724,-10,-1,-100,19346.964752215892,-0.04894935124509427,-0.0001572228141196996,0.9988012496456294,61.25623260189019,3.698493839947435,235.71247115435222,-69.0299048576865,-33.9248046875,4761.76025390625,True
1599384778.5942702,0.0,10,0.5,0.5,-0.14797184219360351,-0.001,-0.00825,-0.2505,0.0004207803793601528,10,1,100,0.5115087819179138,-10,-1,-100,19344.19260912598,-0.049060585648863356,-0.00013880296511756274,0.9987957947796575,61.437103812329184,3.7107753726882047,237.7062317236681,-69.39480090871405,-33.92730712890625,4761.76025390625,True
1599384778.626715,0.0,10,0.5,0.5,-0.19421396102905272,-0.001,-0.00825,-0.2505,0.01029145586787831,10,1,100,0.5045609866649832,-10,-1,-100,19342.801064078347,-0.049053945526673276,-3.219804979716635e-05,0.9987961300443409,61.527961438055264,3.716947337615124,238.70788394390345,-69.57724384894905,-33.92987060546875,4761.76025390625,True
1599384778.6606889,0.0,10,0.5,0.5,-0.23485102920532225,-0.001,-0.00825,-0.2505,0.02417828096559031,10,1,100,0.5085824253802292,-10,-1,-100,19340.007027850603,-0.04903987308979665,0.00019098864506402776,0.9987968033442408,61.704366860428046,3.7289819958172026,240.69677239070577,-69.94211946659982,-33.95477294921875,4761.76025390625,True
1599384778.6963058,0.0,10,0.5,0.5,-0.28732637863159183,-0.001,-0.00825,-0.2505,0.0018787103439773013,10,1,100,0.5148936563768718,-10,-1,-100,19340.007027850603,-0.04903987308979665,0.00019098864506402776,0.9987968033442408,61.704366860428046,3.7289819958172026,240.69677239070577,-69.94211946659982,-33.95477294921875,4761.76025390625,True
1599384778.7264695,0.0,10,0.5,0.5,-0.3015505531311035,-0.001,-0.00825,-0.2505,0.06041300374551617,10,1,100,0.5031596706066293,-10,-1,-100,19335.78860871063,-0.048888618789076445,0.0007229449590370502,0.9988039749137378,61.951332231940526,3.7459995296892843,243.62603522380164,-70.48940724094004,-34.082061767578125,4761.76025390625,True
1599384778.7606857,0.0,10,0.5,0.5,-0.3365416931152344,-0.001,-0.00825,-0.2505,0.06774746813684247,10,1,100,0.49912902299104295,-10,-1,-100,19332.95808682521,-0.04867002842938086,0.0012725613344254578,0.9988141012822823,62.10501342198922,3.7567021350328846,245.5451061486745,-70.85424845607157,-34.253143310546875,4761.76025390625,True
1599384778.7955909,0.0,10,0.5,0.5,-0.42538877639770506,-0.001,-0.00825,-0.2505,0.012913086731444255,10,1,100,0.5258550618035394,-10,-1,-100,19332.95808682521,-0.04867002842938086,0.0012725613344254578,0.9988141012822823,62.10501342198922,3.7567021350328846,245.5451061486745,-70.85424845607157,-34.253143310546875,4761.76025390625,True
1599384778.8267272,0.0,10,0.5,0.5,-0.4072922561645508,-0.001,-0.00825,-0.2505,0.0880554960401303,10,1,100,0.493427562706677,-10,-1,-100,19330.112971799797,-0.0483309875026554,0.001954517272382217,0.9988294626758115,62.251163623637886,3.7669629370479436,247.4414167582392,-71.219075666819,-34.507965087890625,4761.76025390625,True
1599384778.859645,0.0,10,0.5,0.5,-0.476304386138916,-0.001,-0.00825,-0.2505,0.06370210029283617,10,1,100,0.5091833853864751,-10,-1,-100,19328.68494190951,-0.04812206596862801,0.0023513058753017037,0.9988386947488528,62.321191293851655,3.7719130094700084,248.37999001140793,-71.40148391028666,-34.669403076171875,4761.76025390625,True
1599384778.8935866,0.0,10,0.5,0.5,-0.4158215614318848,-0.001,-0.00825,-0.2505,0.12468229309702306,10,1,100,0.4754666324011763,-10,-1,-100,19325.817938152235,-0.04762627903174584,0.003264091965486608,0.998859891701149,62.455240680522905,3.7814550024772293,250.23799637166698,-71.76628962038464,-35.0682373046875,4761.76025390625,True
1599384778.92935,0.0,10,0.5,0.5,-0.3853060707092285,-0.001,-0.00825,-0.2505,0.14711156148317087,10,1,100,0.4560073661439508,-10,-1,-100,19322.936342714005,-0.04699986400698123,0.0042946896557291316,0.998885663338946,62.582059135464725,3.79056158726577,252.0731652500975,-72.13108071814324,-35.58306884765625,4761.76025390625,True
1599384778.9600985,0.0,10,0.5,0.5,-0.4362918128967285,-0.001,-0.00825,-0.2505,0.1077578863136493,10,1,100,0.47953656575540426,-10,-1,-100,19321.490072985063,-0.046646171000610144,0.004869805515662278,0.9988996044274026,62.64250395682438,3.794934014962972,252.98101164976703,-72.3134706782403,-35.8876953125,4761.76025390625,True
1599384778.9941492,0.0,10,0.5,0.5,-0.3326836418151856,-0.001,-0.00825,-0.2505,0.18655502866170276,10,1,100,0.4258401858252428,-10,-1,-100,19318.586591041065,-0.04583867188138593,0.006104519406433389,0.9989302032689606,62.75751543062411,3.803314779596046,254.7771030363081,-72.67823934797266,-36.596649169921875,4761.76025390625,True
1599384779.0140958,0.0,10,0.5,0.5,-0.18422017364501958,-0.001,-0.00825,-0.2505,0.29041810594854267,10,1,100,0.3457635273509528,-10,-1,-100,19314.204011168913,-0.04437952233342347,0.008165820436322607,0.9989813698833722,62.909182672888214,3.8145856024771354,257.3960639420566,-73.22536383608201,-37.884429931640625,4761.76025390625,True
1599384779.0330746,0.0,10,0.5,0.5,-0.5035672874450684,-0.001,-0.00825,-0.2505,0.08508548613874667,10,1,100,0.4912124470715615,-10,-1,-100,19314.204011168913,-0.04437952233342347,0.008165820436322607,0.9989813698833722,62.909182672888214,3.8145856024771354,257.3960639420566,-73.22536383608201,-37.884429931640625,4761.76025390625,True
1599384779.060074,0.0,10,0.5,0.5,-0.24956737289428713,-0.001,-0.00825,-0.2505,0.24877921218984755,10,1,100,0.36417703217980946,-10,-1,-100,19311.264054459287,-0.04322875410391268,0.009647178968171447,0.9990186218267302,62.99195683980097,3.8209495048414417,259.07260058854945,-73.59009454970558,-38.88189697265625,4761.76025390625,True
1599384779.0939257,0.0,10,0.5,0.5,-0.495614144897461,-0.001,-0.00825,-0.2505,0.10148082076833821,10,1,100,0.4787097276983415,-10,-1,-100,19311.264054459287,-0.04322875410391268,0.009647178968171447,0.9990186218267302,62.99195683980097,3.8209495048414417,259.07260058854945,-73.59009454970558,-38.88189697265625,4761.76025390625,True
1599384779.1279347,0.0,10,0.5,0.5,-0.35854678115844724,-0.001,-0.00825,-0.2505,0.18462220034718785,10,1,100,0.40839289586961247,-10,-1,-100,19309.78860545403,-0.04259445679122011,0.010395396402857584,0.9990383616179552,63.02642561567851,3.8236969908302814,259.8838346392873,-73.77245438740132,-39.411712646484375,4761.76025390625,True
1599384779.1629012,0.0,10,0.5,0.5,-0.20049098129272463,-0.001,-0.00825,-0.2505,0.28899828112472015,10,1,100,0.3218976603456467,-10,-1,-100,19306.82676570653,-0.04123671757556485,0.012016794005885751,0.999077139056546,63.079115433454,3.828171490539337,261.4415005969471,-74.13716324880836,-40.551788330078125,4761.76025390625,True
1599384779.1939542,0.0,10,0.5,0.5,-0.16480270156860355,-0.001,-0.00825,-0.2505,0.3173517856511845,10,1,100,0.2918302067541487,-10,-1,-100,19303.850338074495,-0.039735328118131054,0.013739764151487775,0.9991157703591741,63.109506334723605,3.831238349149284,262.90895075159204,-74.50185830895067,-41.8099365234375,4761.76025390625,True
1599384779.226949,0.0,10,0.5,0.5,0.05432025070190427,-0.001,-0.00825,-0.2505,0.43423305537292334,10,1,100,0.16171728160536036,-10,-1,-100,19299.358345442335,-0.03719475742903281,0.01635913430660906,0.9991741233361349,63.10843208797267,3.832881106242242,264.91747851287573,-75.04887633020715,-43.9122314453125,4761.76025390625,True
1599384779.2610202,0.0,10,0.5,0.5,-0.27937157516479494,-0.001,-0.00825,-0.2505,0.2714833953332719,10,1,100,0.31340277353979495,-10,-1,-100,19297.85372108,-0.03627302046250922,0.017249869861221685,0.9991930293873639,63.093231328405075,3.832489730576442,265.5247209407017,-75.23120972408671,-44.65203857421875,4761.76025390625,True
1599384779.29699,0.0,10,0.5,0.5,-0.26789363174438474,-0.001,-0.00825,-0.2505,0.281866446933624,10,1,100,0.2990873036316033,-10,-1,-100,19296.345450215274,-0.0353143672669934,0.018142766230558584,0.9992115569277785,63.069758421973084,3.831575804830281,266.09684499964953,-75.41354047216215,-45.405792236328125,4761.76025390625,True
1599384779.328479,0.0,10,0.5,0.5,-0.2589589897155762,-0.001,-0.00825,-0.2505,0.28799183003438616,10,1,100,0.2845572967254356,-10,-1,-100,19294.833532601944,-0.03432034093975421,0.01899923164284985,0.9992302754594461,63.03769779883366,3.830119383552084,266.63225392954297,-75.59586864137559,-46.163177490234375,4761.76025390625,True
1599384779.3604991,0.0,10,0.5,0.5,-0.058701822662353575,-0.001,-0.00825,-0.2505,0.39711452771891126,10,1,100,0.15178555555068265,-10,-1,-100,19291.798758169985,-0.03221880952376053,0.020760012531877117,0.99926521514188,62.947198539248724,3.8255420057444223,267.5892185280476,-75.96051802092117,-47.6866455078125,4761.76025390625,True
1599384779.3946064,0.0,10,0.5,0.5,-0.03311182098388671,-0.001,-0.00825,-0.2505,0.41468942368776074,10,1,100,0.11296137596710493,-10,-1,-100,19288.749397790874,-0.029966434524651624,0.022509044946986394,0.9992974310471604,62.82139979119154,3.818734454693673,268.3919635057789,-76.32515948965516,-49.273651123046875,4761.76025390625,True
1599384779.4305909,0.0,10,0.5,0.5,-0.00397859573364262,-0.001,-0.00825,-0.2505,0.4288668530801319,10,1,100,0.07319359182557211,-10,-1,-100,19285.68545220769,-0.027569352232883468,0.024216267531581098,0.9993265248177383,62.65815408928023,3.8095630910008893,269.0290228371834,-76.68979482178649,-50.93609619140625,4761.76025390625,True
1599384779.4505374,0.0,10,0.5,0.5,0.23569626693725587,-0.001,-0.00825,-0.2505,0.5216514947278409,10,1,100,-0.10999331844882881,-10,-1,-100,19281.062186510768,-0.02373908678502789,0.026598540179315993,0.9993642846424632,62.33969658806138,3.7911651049820616,269.65414316507173,-77.23673974080046,-53.50537109375,4761.76025390625,True
1599384779.4953902,0.0,10,0.5,0.5,-0.39627982788085936,-0.001,-0.00825,-0.2505,0.2850445443319973,10,1,100,0.27114768933610983,-10,-1,-100,19281.062186510768,-0.02373908678502789,0.026598540179315993,0.9993642846424632,62.33969658806138,3.7911651049820616,269.65414316507173,-77.23673974080046,-53.50537109375,4761.76025390625,True
1599384779.5293283,0.0,10,0.5,0.5,0.26353445663452146,-0.001,-0.00825,-0.2505,0.5228087437426032,10,1,100,-0.17893752547334768,-10,-1,-100,19276.40610419656,-0.019663309951115128,0.028746776768345656,0.9993933044938801,61.93635485487394,3.767414413340438,269.8901283413764,-77.78368032449261,-56.086395263671875,4761.76025390625,True
1599384779.5657291,0.0,10,0.5,0.5,-0.15988283843994144,-0.001,-0.00825,-0.2505,0.3791298381054254,10,1,100,0.0727927457188225,-10,-1,-100,19274.846784021473,-0.01826476258400236,0.0293799045138375,0.9994014306866426,61.784922163698454,3.7584254894570113,269.8891135955177,-77.96599389475222,-56.9267578125,4761.76025390625,True
1599384779.5966098,0.0,10,0.5,0.5,-0.14560383148193362,-0.001,-0.00825,-0.2505,0.39337733187196505,10,1,100,0.04928011074902089,-10,-1,-100,19273.28381780733,-0.016796813745851676,0.03007316079833751,0.9994065599382388,61.62654192976772,3.7489961919245705,269.85457668143977,-78.14830775984291,-57.777862548828125,4761.76025390625,True
1599384779.62982,0.0,10,0.5,0.5,0.28362072525024407,-0.001,-0.00825,-0.2505,0.5004106266279632,10,1,100,-0.28715209093751975,-10,-1,-100,19268.573041178635,-0.012421545883761282,0.031664766199358305,0.9994213564755345,61.1010142931399,3.7175435831115915,269.50922639575305,-78.69525311722381,-60.2891845703125,4761.76025390625,True
1599384779.663051,0.0,10,0.5,0.5,-0.3331866424560547,-0.001,-0.00825,-0.2505,0.3426022865227636,10,1,100,0.14808541313319643,-10,-1,-100,19268.573041178635,-0.012421545883761282,0.031664766199358305,0.9994213564755345,61.1010142931399,3.7175435831115915,269.50922639575305,-78.69525311722381,-60.2891845703125,4761.76025390625,True
1599384779.6989174,0.0,10,0.5,0.5,0.3163123908996582,-0.001,-0.00825,-0.2505,0.48497875048469075,10,1,100,-0.35199816803830297,-10,-1,-100,19263.829447517637,-0.007895239504980372,0.03294758356759718,0.9994258961675024,60.50454739038172,3.6816463962247936,268.81623652229865,-79.24220770063927,-62.825347900390625,4761.76025390625,True
1599384779.729923,0.0,10,0.5,0.5,0.11195089874267578,-0.001,-0.00825,-0.2505,0.43245361653200387,10,1,100,-0.24200866273027477,-10,-1,-100,19260.64881972561,-0.00480243245436051,0.033625200347302896,0.9994229747930179,60.07207425342058,3.655537464406882,268.1781981437069,-79.60685139243469,-64.48919677734375,4761.76025390625,True
1599384779.7638814,0.0,10,0.5,0.5,-0.29229041976928716,-0.001,-0.00825,-0.2505,0.36580355410146403,10,1,100,0.0647556421246823,-10,-1,-100,19260.64881972561,-0.00480243245436051,0.033625200347302896,0.9994229747930179,60.07207425342058,3.655537464406882,268.1781981437069,-79.60685139243469,-64.48919677734375,4761.76025390625,True
1599384779.7964208,0.0,10,0.5,0.5,0.1474724311828613,-0.001,-0.00825,-0.2505,0.4207352622874457,10,1,100,-0.2778303454935066,-10,-1,-100,19257.45360582904,-0.0017087115849029049,0.03411602593734298,0.9994164182556549,59.60686713426546,3.627398745690612,267.37538277586066,-79.97150273887185,-66.19329833984375,4761.76025390625,True
1599384779.8326097,0.0,10,0.5,0.5,0.3649855949401855,-0.001,-0.00825,-0.2505,0.42169615125170123,10,1,100,-0.486015150023471,-10,-1,-100,19252.633435637923,0.002976323451058117,0.03456413229545627,0.9993980499567612,58.860817380308504,3.582203363506582,265.91693124625226,-80.51849686227669,-68.7138671875,4761.76025390625,True
1599384779.8635619,0.0,10,0.5,0.5,-0.2538698921203614,-0.001,-0.00825,-0.2505,0.3776820746519866,10,1,100,-0.02018318745097738,-10,-1,-100,19252.633435637923,0.002976323451058117,0.03456413229545627,0.9993980499567612,58.860817380308504,3.582203363506582,265.91693124625226,-80.51849686227669,-68.7138671875,4761.76025390625,True
1599384779.896412,0.0,10,0.5,0.5,0.1903714569091797,-0.001,-0.00825,-0.2505,0.38776000944777955,10,1,100,-0.3653544169697839,-10,-1,-100,19249.401755302795,0.006093662234499837,0.034650461379484285,0.9993809147701195,58.32538374928301,3.5497340028669315,264.74591288825184,-80.8831724545999,-70.43881225585938,4761.76025390625,True
1599384779.9294636,0.0,10,0.5,0.5,0.398561595916748,-0.001,-0.00825,-0.2505,0.3561747703511079,10,1,100,-0.5567159846227596,-10,-1,-100,19244.526883310755,0.010645113175547996,0.034437012412389424,0.9993501757350066,57.48263235991529,3.4986085375580593,262.7663599745425,-81.43020832303658,-72.94036865234375,4761.76025390625,True
1599384779.9664783,0.0,10,0.5,0.5,-0.21556921386718753,-0.001,-0.00825,-0.2505,0.37795605222199913,10,1,100,-0.10431508321008368,-10,-1,-100,19244.526883310755,0.010645113175547996,0.034437012412389424,0.9993501757350066,57.48263235991529,3.4986085375580593,262.7663599745425,-81.43020832303658,-72.94036865234375,4761.76025390625,True
1599384779.9984243,0.0,10,0.5,0.5,0.6234641128540039,-0.001,-0.00825,-0.2505,0.2813924295891031,10,1,100,-0.7444542939361937,-10,-1,-100,19237.97599517915,0.01644359085573144,0.033556641073714887,0.9993015361539375,56.295292324790786,3.426587106041866,259.75070018409474,-82.15963527503843,-76.2349853515625,4761.76025390625,True
1599384780.0313027,0.0,10,0.5,0.5,0.01127914276123046,-0.001,-0.00825,-0.2505,0.3355064216919118,10,1,100,-0.3300491284611904,-10,-1,-100,19236.329154934152,0.017921373481816823,0.03324652898960506,0.9992864917943546,55.99738314482716,3.408526354421894,258.9762160587542,-82.3420006051817,-77.03005981445312,4761.76025390625,True
1599384780.0652115,0.0,10,0.5,0.5,0.22304821624755858,-0.001,-0.00825,-0.2505,0.2826119378149628,10,1,100,-0.48077206077409346,-10,-1,-100,19233.024532529525,0.020611551060205565,0.03248347820024022,0.9992597197960633,55.38444731529229,3.3713801864894744,257.3289027973818,-82.70674199974515,-78.61740112304688,4761.76025390625,True
1599384780.0999072,0.0,10,0.5,0.5,-0.1629250129699707,-0.001,-0.00825,-0.2505,0.3588028445367404,10,1,100,-0.2142957012866759,-10,-1,-100,19233.024532529525,0.020611551060205565,0.03248347820024022,0.9992597197960633,55.38444731529229,3.3713801864894744,257.3289027973818,-82.70674199974515,-78.61740112304688,4761.76025390625,True
1599384780.1310487,0.0,10,0.5,0.5,0.42690137939453127,-0.001,-0.00825,-0.2505,0.20229326767739586,10,1,100,-0.6438606382676877,-10,-1,-100,19228.04024236009,0.024493583229565158,0.031061701794379875,0.9992173112302516,54.460723013811,3.315451481572678,254.7892466350912,-83.25388127590828,-80.91629028320312,4761.76025390625,True
1599384780.1638162,0.0,10,0.5,0.5,-0.1368238868713379,-0.001,-0.00825,-0.2505,0.3441654758491344,10,1,100,-0.2582776508131752,-10,-1,-100,19228.04024236009,0.024493583229565158,0.031061701794379875,0.9992173112302516,54.460723013811,3.315451481572678,254.7892466350912,-83.25388127590828,-80.91629028320312,4761.76025390625,True
1599384780.1974754,0.0,10,0.5,0.5,0.43085195312499996,-0.001,-0.00825,-0.2505,0.15328516567594233,10,1,100,-0.6474417987664389,-10,-1,-100,19223.02312255802,0.028011877974796186,0.029329610275079108,0.9991772158398314,53.53310107492986,3.25936248891308,252.1727098351831,-83.80105367212221,-83.1334228515625,4761.76025390625,True
1599384780.2337437,0.0,10,0.5,0.5,0.239569970703125,-0.001,-0.00825,-0.2505,0.18104004128196377,10,1,100,-0.53581628564529,-10,-1,-100,19219.66013627348,0.030172790756156004,0.028012057328515312,0.9991521042074671,52.92520593164373,3.2226582646200606,250.4454308210392,-84.1658534932421,-84.53387451171875,4761.76025390625,True
1599384780.264658,0.0,10,0.5,0.5,-0.09961474380493165,-0.001,-0.00825,-0.2505,0.31213149553324643,10,1,100,-0.32213292036147384,-10,-1,-100,19219.66013627348,0.030172790756156004,0.028012057328515312,0.9991521042074671,52.92520593164373,3.2226582646200606,250.4454308210392,-84.1658534932421,-84.53387451171875,4761.76025390625,True
1599384780.2975714,0.0,10,0.5,0.5,0.2593160026550293,-0.001,-0.00825,-0.2505,0.15509045474873728,10,1,100,-0.5410935195046246,-10,-1,-100,19216.28255752835,0.032145589223293185,0.02659025237145966,0.9991294308408242,52.31809473633339,3.186043085238301,248.6961497340612,-84.53066766551268,-85.92300415039062,4761.76025390625,True
1599384780.3304863,0.0,10,0.5,0.5,0.4176738632202148,-0.001,-0.00825,-0.2505,0.040015029486847264,10,1,100,-0.638276199273117,-10,-1,-100,19211.188827492064,0.03480297539490624,0.024258695599065457,0.9990997290518566,51.42871301374049,3.1324979619121933,246.1258529320259,-85.07791570196781,-87.8936767578125,4761.76025390625,True
1599384780.367386,0.0,10,0.5,0.5,-0.0663612045288086,-0.001,-0.00825,-0.2505,0.2722409121788026,10,1,100,-0.374373520565729,-10,-1,-100,19211.188827492064,0.03480297539490624,0.024258695599065457,0.9990997290518566,51.42871301374049,3.1324979619121933,246.1258529320259,-85.07791570196781,-87.8936767578125,4761.76025390625,True
1599384780.3983,0.0,10,0.5,0.5,0.2688420936584473,-0.001,-0.00825,-0.2505,0.08793974867713178,10,1,100,-0.5460005706004577,-10,-1,-100,19207.774765134673,0.03634787439348278,0.02259140123395076,0.9990838106071794,50.84111781755929,3.097181378170271,244.4065023500722,-85.44276525549581,-89.19085693359375,4761.76025390625,True
1599384780.430215,0.0,10,0.5,0.5,0.4057310310363769,-0.001,-0.00825,-0.2505,-0.03197142267835196,10,1,100,-0.6053093406997453,-10,-1,-100,19202.62630699086,0.03827719291733382,0.019994570323311443,0.9990671016803402,49.989003774444605,3.0460770928397376,241.92241152369596,-85.99006539088292,-90.99248504638672,4761.76025390625,True
1599384780.464129,0.0,10,0.5,0.5,-0.035367366981506346,-0.001,-0.00825,-0.2505,0.22646277759788666,10,1,100,-0.4141440525003543,-10,-1,-100,19202.62630699086,0.03827719291733382,0.019994570323311443,0.9990671016803402,49.989003774444605,3.0460770928397376,241.92241152369596,-85.99006539088292,-90.99248504638672,4761.76025390625,True
1599384780.5006185,0.0,10,0.5,0.5,0.26496080207824707,-0.001,-0.00825,-0.2505,0.025037752200796848,10,1,100,-0.5326009104021764,-10,-1,-100,19199.175757719437,0.039341542889452415,0.018173494757402507,0.9990605422552629,49.45189131865555,3.013951372290883,240.38672818195693,-86.35494821063307,-92.15357971191406,4761.76025390625,True
1599384780.5315359,0.0,10,0.5,0.5,0.3838428253173828,-0.001,-0.00825,-0.2505,-0.09691729694467499,10,1,100,-0.559146224574315,-10,-1,-100,19193.972568201483,0.04053695666597977,0.015421005802560074,0.9990590311509615,49.91538814872261,3.0432215137123415,244.25087248394183,-86.90224888995256,-93.74588775634766,4761.76025390625,True
1599384780.5644448,0.0,10,0.5,0.5,-0.006275056266784668,-0.001,-0.00825,-0.2505,0.17694073809231647,10,1,100,-0.44085735479069776,-10,-1,-100,19193.972568201483,0.04053695666597977,0.015421005802560074,0.9990590311509615,49.91538814872261,3.0432215137123415,244.25087248394183,-86.90224888995256,-93.74588775634766,4761.76025390625,True
1599384780.5983644,0.0,10,0.5,0.5,0.49092592506408694,-0.001,-0.00825,-0.2505,-0.23134089446518247,10,1,100,-0.5418021437004884,-10,-1,-100,19186.983905255212,0.041445214596150755,0.011720801007970042,0.9990720279393325,50.82960596989785,3.1005036639568755,250.91306636297196,-87.63188596616834,-95.69261169433594,4761.76025390625,True
1599384780.63437,0.0,10,0.5,0.5,0.01247753677368164,-0.001,-0.00825,-0.2505,0.13705045936176613,10,1,100,-0.4521035930673894,-10,-1,-100,19186.983905255212,0.041445214596150755,0.011720801007970042,0.9990720279393325,50.82960596989785,3.1005036639568755,250.91306636297196,-87.63188596616834,-95.69261169433594,4761.76025390625,True
1599384780.66334,0.0,10,0.5,0.5,0.34732129554748536,-0.001,-0.00825,-0.2505,-0.1737130680308035,10,1,100,-0.474539555929469,-10,-1,-100,19181.70410522027,0.04164072369001252,0.008909195714731673,0.9990929267902404,51.501108490819654,3.1427201974782317,255.8920165676281,-88.17904247515504,-96.99195098876953,4761.76025390625,True
1599384780.6972966,0.0,10,0.5,0.5,0.02934287853240967,-0.001,-0.00825,-0.2505,0.10591251130460008,10,1,100,-0.4556724213728034,-10,-1,-100,19181.70410522027,0.04164072369001252,0.008909195714731673,0.9990929267902404,51.501108490819654,3.1427201974782317,255.8920165676281,-88.17904247515504,-96.99195098876953,4761.76025390625,True
1599384780.730327,0.0,10,0.5,0.5,0.24038297424316407,-0.001,-0.00825,-0.2505,-0.10609482812892783,10,1,100,-0.44466416108640994,-10,-1,-100,19178.166001115693,0.041534432461686116,0.006995810356139905,0.9991125810225525,51.947992773488345,3.1708612550838557,259.2320390369723,-88.54378014061031,-97.80123138427734,4761.76025390625,True
1599384780.766354,0.0,10,0.5,0.5,0.3208012342453003,-0.001,-0.00825,-0.2505,-0.21168312526445476,10,1,100,-0.40115739006653833,-10,-1,-100,19172.83149169013,0.04103757291932855,0.0043106533206224255,0.9991483052464436,52.624303221423304,3.2134923704799756,264.3091142934956,-89.09083676599246,-98.8988037109375,4761.76025390625,True
1599384780.7968817,0.0,10,0.5,0.5,0.21742511672973636,-0.001,-0.00825,-0.2505,-0.1352189127555211,10,1,100,-0.39180429566868474,-10,-1,-100,19169.25691765058,0.04049834485902119,0.002578988781144741,0.9991762771806318,53.07474519013759,3.241916069764584,267.7165931113572,-89.45550865863744,-99.55503845214844,4761.76025390625,True
1599384780.8303535,0.0,10,0.5,0.5,0.060102420616149906,-0.001,-0.00825,-0.2505,0.03620598303803072,10,1,100,-0.4459492168935894,-10,-1,-100,19169.25691765058,0.04049834485902119,0.002578988781144741,0.9991762771806318,53.07474519013759,3.241916069764584,267.7165931113572,-89.45550865863744,-99.55503845214844,4761.76025390625,True
1599384780.8628953,0.0,10,0.5,0.5,0.14123725719451904,-0.001,-0.00825,-0.2505,-0.056410166177565516,10,1,100,-0.41082813130193774,-10,-1,-100,19167.464160860167,0.0401780106245793,0.001751200611890464,0.9991910031413754,53.299563659825886,3.2561106102652815,269.4257925912893,-89.6378349498539,-99.85336303710938,4761.76025390625,True
1599384780.8998709,0.0,10,0.5,0.5,0.20546199760437012,-0.001,-0.00825,-0.2505,-0.15444104404465606,10,1,100,-0.35866023880557074,-10,-1,-100,19163.86770807847,0.039412870430611875,0.0001199032094045434,0.9992230037722509,53.74292890065725,3.284128624292566,272.8273439162452,-90.00246852727614,-100.38583374023438,4761.76025390625,True
1599384780.929886,0.0,10,0.5,0.5,0.20002874393463135,-0.001,-0.00825,-0.2505,-0.1726669085840655,10,1,100,-0.33010450625893717,-10,-1,-100,19160.25667080679,0.038458712764067884,-0.0015148740135835109,0.9992590417750815,54.196821671855986,3.312804236876713,276.30233494840553,-90.36707709128652,-100.872802734375,4761.76025390625,True
1599384780.9632797,0.0,10,0.5,0.5,0.14023734569549562,-0.001,-0.00825,-0.2505,-0.0949252839791855,10,1,100,-0.3680724699139919,-10,-1,-100,19158.445683283964,0.03793917501119392,-0.0022822606516905114,0.9992774440993791,54.438063855190464,3.3280208102134776,278.1204692616289,-90.54937158297574,-101.10310363769531,4761.76025390625,True
1599384780.9967375,0.0,10,0.5,0.5,0.19442464199066162,-0.001,-0.00825,-0.2505,-0.18346811860299742,10,1,100,-0.29370276454855704,-10,-1,-100,19154.81277097354,0.036793967041245414,-0.003772089672313656,0.999315753567846,54.955917959909314,3.360626106484725,281.9543658262503,-90.91393983570512,-101.53019714355469,4761.76025390625,True
1599384781.0327308,0.0,10,0.5,0.5,0.2259731231689453,-0.001,-0.00825,-0.2505,-0.2693253856397206,10,1,100,-0.19103703511667905,-10,-1,-100,19149.33606195147,0.03482395021613767,-0.005895471859225775,0.9993760733091929,55.73497572663589,3.409695557698263,287.76036843596745,-91.46074084628549,-102.06614685058594,4761.76025390625,True
1599384781.0636477,0.0,10,0.5,0.5,0.09590393314361573,-0.001,-0.00825,-0.2505,-0.05846763370590441,10,1,100,-0.38735704028006596,-10,-1,-100,19149.33606195147,0.03482395021613767,-0.005895471859225775,0.9993760733091929,55.73497572663589,3.409695557698263,287.76036843596745,-91.46074084628549,-102.06614685058594,4761.76025390625,True
1599384781.0969152,0.0,10,0.5,0.5,0.17361452789306642,-0.001,-0.00825,-0.2505,-0.20539041534087552,10,1,100,-0.22541574753512994,-10,-1,-100,19145.66669702716,0.033357857084134204,-0.0072194141629842706,0.9994173970018222,56.252962542108925,3.4423373479176536,291.6529676193406,-91.82524100924127,-102.36114501953125,4761.76025390625,True
1599384781.129989,0.0,10,0.5,0.5,0.18596464996337891,-0.001,-0.00825,-0.2505,-0.2741385495635171,10,1,100,-0.11072838555416692,-10,-1,-100,19140.135314098326,0.030989414324154294,-0.009037499234349093,0.9994788541071968,57.02029005453617,3.4907283862862246,297.4852285343102,-92.37194158288357,-102.69271850585938,4761.76025390625,True
1599384781.1670165,0.0,10,0.5,0.5,0.12792668342590333,-0.001,-0.00825,-0.2505,-0.1578276145819617,10,1,100,-0.2508460226080217,-10,-1,-100,19138.284230762627,0.030118725725148388,-0.009622371264834343,0.9995000111715532,57.27307896158242,3.506681129206488,299.42525349533577,-92.5541621230809,-102.78191375732422,4761.76025390625,True
1599384781.1980703,0.0,10,0.5,0.5,0.1276732213973999,-0.001,-0.00825,-0.2505,-0.15943684121785173,10,1,100,-0.2439261541447926,-10,-1,-100,19136.42950307275,0.029273718757417185,-0.010157610298287226,0.9995198208855789,57.52784817877692,3.522757862747483,301.38137976767894,-92.73637617701252,-102.85916137695312,4761.76025390625,True
1599384781.2300243,0.0,10,0.5,0.5,0.13965152492523192,-0.001,-0.00825,-0.2505,-0.2173150115180696,10,1,100,-0.13790862845242874,-10,-1,-100,19132.70911553572,0.027551647909428385,-0.011159530230600756,0.9995580881482112,58.03387770938563,3.5547051494974022,305.2925212578489,-93.10078503746236,-102.97386932373047,4761.76025390625,True
1599384781.2643425,0.0,10,0.5,0.5,0.13513761787414552,-0.001,-0.00825,-0.2505,-0.2721862765559194,10,1,100,0.002895267465276685,-10,-1,-100,19127.101205250015,0.02471687646884232,-0.012558942184466232,0.9996156006129712,58.77481413459029,3.6015404815414565,311.10659495431645,-93.64735154811673,-103.06168365478516,4761.76025390625,True
1599384781.3002214,0.0,10,0.5,0.5,0.11494595470428468,-0.001,-0.00825,-0.2505,-0.1333494879864601,10,1,100,-0.27920769296380715,-10,-1,-100,19127.101205250015,0.02471687646884232,-0.012558942184466232,0.9996156006129712,58.77481413459029,3.6015404815414565,311.10659495431645,-93.64735154811673,-103.06168365478516,4761.76025390625,True
1599384781.3307884,0.0,10,0.5,0.5,0.11511501350402832,-0.001,-0.00825,-0.2505,-0.2635712309641094,10,1,100,0.036571573786475686,-10,-1,-100,19121.460503149894,0.021858176133423706,-0.013733433773778702,0.9996667509389824,59.506600622841916,3.647848484039854,316.92282641746317,-94.19386301703364,-103.0559310913086,4761.76025390625,True
1599384781.3632658,0.0,10,0.5,0.5,0.104101149559021,-0.001,-0.00825,-0.2505,-0.2229333498651826,10,1,100,-0.027386485497399915,-10,-1,-100,19117.681819078745,0.01985437254099458,-0.014422662350343918,0.9996988500052061,59.97969548926423,3.677836747445373,320.749424449664,-94.55817427264759,-103.00140380859375,4761.76025390625,True
1599384781.3971086,0.0,10,0.5,0.5,0.11853182086944582,-0.001,-0.00825,-0.2505,-0.15486321125777283,10,1,100,-0.22626988697279812,-10,-1,-100,19117.681819078745,0.01985437254099458,-0.014422662350343918,0.9996988500052061,59.97969548926423,3.677836747445373,320.749424449664,-94.55817427264759,-103.00140380859375,4761.76025390625,True
1599384781.4322815,0.0,10,0.5,0.5,0.08172960872650148,-0.001,-0.00825,-0.2505,-0.249931371574833,10,1,100,0.09685364244042816,-10,-1,-100,19111.98647109128,0.016930494616942654,-0.015279166361870721,0.9997399188925649,60.669520294895335,3.7216402426492508,326.42374267806645,-95.1045979222447,-102.85200500488281,4761.76025390625,True
1599384781.4641232,0.0,10,0.5,0.5,0.0840190896987915,-0.001,-0.00825,-0.2505,-0.21767515900409087,10,1,100,0.029958341815583323,-10,-1,-100,19108.171359413187,0.014895496839364211,-0.015757241028798444,0.9997648891259729,61.111691147986555,3.7497827365483865,330.13766976649157,-95.46885256518122,-102.710693359375,4761.76025390625,True
1599384781.4981155,0.0,10,0.5,0.5,0.07637093982696536,-0.001,-0.00825,-0.2505,-0.21328814102284083,10,1,100,0.03978617915313906,-10,-1,-100,19104.34167792194,0.012970785718028566,-0.016145863524544602,0.9997855119018798,61.543964463167974,3.7773413346157545,333.8186035427298,-95.83308565723752,-102.53947448730469,4761.76025390625,True
1599384781.5310767,0.0,10,0.5,0.5,0.11906125488281251,-0.001,-0.00825,-0.2505,-0.17507824067419608,10,1,100,-0.1509701389797135,-10,-1,-100,19104.34167792194,0.012970785718028566,-0.016145863524544602,0.9997855119018798,61.543964463167974,3.7773413346157545,333.8186035427298,-95.83308565723752,-102.53947448730469,4761.76025390625,True
1599384781.566019,0.0,10,0.5,0.5,0.04204772300720215,-0.001,-0.00825,-0.2505,-0.22527984429466813,10,1,100,0.17526841619841105,-10,-1,-100,19098.569839891745,0.010019801519172332,-0.01659679787270684,0.999812057277711,62.16292124053209,3.816918960199401,339.2174031476236,-96.379396143427,-102.23430633544922,4761.76025390625,True
1599384781.5970526,0.0,10,0.5,0.5,0.08875685081481935,-0.001,-0.00825,-0.2505,-0.1930639769886129,10,1,100,-0.0064163232579604185,-10,-1,-100,19096.638610104215,0.009004706102897548,-0.016708923697670096,0.9998198473409428,62.36179425327986,3.829667595970393,340.9860510442907,-96.56148953988085,-102.11849975585938,4761.76025390625,True
1599384781.6304944,0.0,10,0.5,0.5,0.08572346363067629,-0.001,-0.00825,-0.2505,-0.1926089791702436,10,1,100,0.004730939043654708,-10,-1,-100,19094.703738425975,0.007994837131147556,-0.016802947211548604,0.9998268567828393,62.55807239990748,3.842263822245176,342.74521450548525,-96.74357801178279,-101.99418640136719,4761.76025390625,True
1599384781.664116,0.0,10,0.5,0.5,0.08338106651306154,-0.001,-0.00825,-0.2505,-0.1923774292515608,10,1,100,0.007878547965693927,-10,-1,-100,19092.765224985662,0.00706336165693602,-0.01688245994760733,0.9998325317112965,62.75202029229844,3.8547241043836835,344.49626820216156,-96.92566162238363,-101.86455535888672,4761.76025390625,True
1599384781.7010267,0.0,10,0.5,0.5,-0.028706745529174793,-0.001,-0.00825,-0.2505,-0.1999871702643773,10,1,100,0.34190572445749406,-10,-1,-100,19084.974756782525,0.0031934049072514297,-0.01702106096580102,0.9998500315790848,63.486624715983616,3.9021090008420205,351.3190493061604,-97.65394942300834,-101.29367065429688,4761.76025390625,True
1599384781.7309697,0.0,10,0.5,0.5,0.11289099311828614,-0.001,-0.00825,-0.2505,-0.18638690830655383,10,1,100,-0.04342385374759065,-10,-1,-100,19084.974756782525,0.0031934049072514297,-0.01702106096580102,0.9998500315790848,63.486624715983616,3.9021090008420205,351.3190493061604,-97.65394942300834,-101.29367065429688,4761.76025390625,True
1599384781.7641687,0.0,10,0.5,0.5,-0.011431911087036131,-0.001,-0.00825,-0.2505,-0.18003812167082228,10,1,100,0.2657236811511484,-10,-1,-100,19079.093672640854,0.0003981191060208413,-0.0169609825430985,0.9998560729286741,63.99760632089379,3.9352707670206364,356.2602433348977,-98.20011869824019,-100.80494689941406,4761.76025390625,True
1599384781.797211,0.0,10,0.5,0.5,0.06614324302673341,-0.001,-0.00825,-0.2505,-0.17973393604773663,10,1,100,0.09426984787300363,-10,-1,-100,19077.126029172214,-0.0005693491602866303,-0.016902071547539768,0.9998569876832063,64.15910392058115,3.945797306020708,357.8663936285562,-98.38216677737645,-100.63333129882812,4761.76025390625,True
1599384781.8332086,0.0,10,0.5,0.5,0.062419600296020526,-0.001,-0.00825,-0.2505,-0.1775696106248643,10,1,100,0.10462259917731453,-10,-1,-100,19075.15474488132,-0.001528922736060203,-0.016827799656352317,0.999857233585872,64.3164182834112,3.9560741507541817,359.4531454430539,-98.56421085746209,-100.45440673828125,4761.76025390625,True
1599384781.864325,0.0,10,0.5,0.5,0.014248808288574222,-0.001,-0.00825,-0.2505,-0.16693503423144146,10,1,100,0.2016483060527629,-10,-1,-100,19071.20125396643,-0.0032701326779456283,-0.016662981846121874,0.9998558152395096,64.618322334533,3.9758678174958635,362.5669499569692,-98.92828724045157,-100.09149932861328,4761.76025390625,True
1599384781.8973053,0.0,10,0.5,0.5,0.056593379783630375,-0.001,-0.00825,-0.2505,-0.17100946495012115,10,1,100,0.12866745940806296,-10,-1,-100,19069.21904742415,-0.004174824093438766,-0.016549717644880762,0.9998543282347003,64.76192501980628,3.9853236165827903,364.088181917174,-99.11031975840561,-99.90643310546875,4761.76025390625,True
1599384781.9312518,0.0,10,0.5,0.5,-0.044493104553222654,-0.001,-0.00825,-0.2505,-0.13742202528397976,10,1,100,0.32386383930689433,-10,-1,-100,19063.25058483903,-0.006758879174228621,-0.016141452628812853,0.9998468738058541,65.1649125743739,4.012020780838586,368.5162143038778,-99.6563957572816,-99.32780456542969,4761.76025390625,True
1599384781.9670656,0.0,10,0.5,0.5,0.09815102119445801,-0.001,-0.00825,-0.2505,-0.17819177978388492,10,1,100,0.06703468975562148,-10,-1,-100,19063.25058483903,-0.006758879174228621,-0.016141452628812853,0.9998468738058541,65.1649125743739,4.012020780838586,368.5162143038778,-99.6563957572816,-99.32780456542969,4761.76025390625,True
1599384781.9972434,0.0,10,0.5,0.5,-0.10429203376770019,-0.001,-0.00825,-0.2505,-0.10134303256309445,10,1,100,0.41738505840235285,-10,-1,-100,19055.241669658804,-0.009930470056194018,-0.015443429012789972,0.9998314289242911,65.63433130042978,4.043526110000431,374.08112458879265,-100.38445023947057,-98.53160858154297,4761.76025390625,True
1599384782.032241,0.0,10,0.5,0.5,0.09240537910461427,-0.001,-0.00825,-0.2505,-0.17100149107190082,10,1,100,0.10192535337712606,-10,-1,-100,19055.241669658804,-0.009930470056194018,-0.015443429012789972,0.9998314289242911,65.63433130042978,4.043526110000431,374.08112458879265,-100.38445023947057,-98.53160858154297,4761.76025390625,True
1599384782.0653098,0.0,10,0.5,0.5,0.03944368686676025,-0.001,-0.00825,-0.2505,-0.1469601294877562,10,1,100,0.190680711461429,-10,-1,-100,19053.23034050467,-0.010725406152448186,-0.015226305391073213,0.999826547600634,65.73971580417454,4.05067921475426,375.4116199459592,-100.56645619118702,-98.33008575439453,4761.76025390625,True
1599384782.1011722,0.0,10,0.5,0.5,-0.12210377540588378,-0.001,-0.00825,-0.2505,-0.0654759180989929,10,1,100,0.43003403623777425,-10,-1,-100,19045.14862365753,-0.013611361182409932,-0.014289786318318972,0.9998052474625939,66.11275859334927,4.07634775600648,380.4823970149578,-101.29445143110947,-97.49674987792969,4761.76025390625,True
1599384782.1319778,0.0,10,0.5,0.5,0.08391759910583496,-0.001,-0.00825,-0.2505,-0.15886070575193897,10,1,100,0.14283948127044277,-10,-1,-100,19045.14862365753,-0.013611361182409932,-0.014289786318318972,0.9998052474625939,66.11275859334927,4.07634775600648,380.4823970149578,-101.29445143110947,-97.49674987792969,4761.76025390625,True
1599384782.1653173,0.0,10,0.5,0.5,0.026690377807617204,-0.001,-0.00825,-0.2505,-0.1301547395280441,10,1,100,0.21829156579198394,-10,-1,-100,19043.119094632217,-0.014285432848949285,-0.014031197793764674,0.999799505849443,66.20557162548558,4.082746535320567,381.75381985693554,-101.47644323468916,-97.27949523925781,4761.76025390625,True
1599384782.1993113,0.0,10,0.5,0.5,-0.03134984550476075,-0.001,-0.00825,-0.2505,-0.09765720404488956,10,1,100,0.2902771907746422,-10,-1,-100,19039.049117431277,-0.015541043218270236,-0.013503227541470805,0.9997880469487775,66.3885663911297,4.095390536797967,384.2889968773422,-101.84041859280605,-96.84274291992188,4761.76025390625,True
1599384782.2343187,0.0,10,0.5,0.5,-0.03578119487762452,-0.001,-0.00825,-0.2505,-0.08331210868408011,10,1,100,0.30598661970192065,-10,-1,-100,19034.96458146791,-0.0168141648074097,-0.012895717130927794,0.9997754669632118,66.56678947902175,4.107749076925614,386.80641029631227,-102.20438239573416,-96.40076446533203,4761.76025390625,True
1599384782.265294,0.0,10,0.5,0.5,0.015190321731567383,-0.001,-0.00825,-0.2505,-0.11007521342859479,10,1,100,0.24414580451936194,-10,-1,-100,19032.91685437772,-0.017397868531591434,-0.012590057710396965,0.9997693757149227,66.6481664585129,4.11345321599952,388.02374263535984,-102.38636008108406,-96.17471313476562,4761.76025390625,True
1599384782.2983835,0.0,10,0.5,0.5,-0.04555386962890624,-0.001,-0.00825,-0.2505,-0.07055541599028697,10,1,100,0.3082659702645544,-10,-1,-100,19028.810481343186,-0.01850174707002443,-0.011956143164946519,0.9997573385556999,66.79588796743464,4.12393503944433,390.3773569688453,-102.75030773390863,-95.71837615966797,4761.76025390625,True
1599384782.3323672,0.0,10,0.5,0.5,-0.04736084880828857,-0.001,-0.00825,-0.2505,-0.061053693737409126,10,1,100,0.31085282686825993,-10,-1,-100,19024.689550822484,-0.019518114557819207,-0.011297282748114375,0.9997456749626962,66.9250358840541,4.133268529276165,392.63039922984245,-103.11424549001151,-95.26850891113281,4761.76025390625,True
1599384782.3673275,0.0,10,0.5,0.5,0.006400943756103519,-0.001,-0.00825,-0.2505,-0.08822090227172752,10,1,100,0.26408169401231896,-10,-1,-100,19022.62362646882,-0.02000817684394079,-0.010949062579728662,0.9997398616080119,66.9831303911778,4.137533339852434,393.7216644965197,-103.29621082225889,-95.0448989868164,4761.76025390625,True
1599384782.399262,0.0,10,0.5,0.5,-0.05267997932434082,-0.001,-0.00825,-0.2505,-0.045315951171619115,10,1,100,0.31429027356417616,-10,-1,-100,19018.48086006171,-0.020900968093806618,-0.010246539567952538,0.9997290422707666,67.0851254752944,4.14517983070503,395.8256557909882,-103.66013476461438,-94.59870147705078,4761.76025390625,True
1599384782.4326026,0.0,10,0.5,0.5,-0.053418481826782216,-0.001,-0.00825,-0.2505,-0.03642254191210037,10,1,100,0.3129812697291908,-10,-1,-100,19014.323536962038,-0.021691445957056268,-0.009531560169272365,0.9997192758634954,67.16975836634475,4.151741766981612,397.83310273132963,-104.02405015218842,-94.16358184814453,4761.76025390625,True
1599384782.4663045,0.0,10,0.5,0.5,-0.10858739757537843,-0.001,-0.00825,-0.2505,0.01566487464774384,10,1,100,0.34778133076911655,-10,-1,-100,19008.06025930727,-0.02271908085603287,-0.008412382589154575,0.9997064945193819,67.26576152093878,4.159642000682421,400.67020026215147,-104.56990795511793,-93.52176666259766,4761.76025390625,True
1599384782.5062008,0.0,10,0.5,0.5,-0.05512132110595703,-0.001,-0.00825,-0.2505,-0.012886118534781263,10,1,100,0.30692631256852454,-10,-1,-100,19003.86654590012,-0.023273605399030194,-0.0076598460031878715,0.9996997879618348,67.30930676408677,4.163618501020468,402.44491863474536,-104.93380363698225,-93.1081314086914,4761.76025390625,True
1599384782.5321283,0.0,10,0.5,0.5,0.04505293483734131,-0.001,-0.00825,-0.2505,-0.08750264195239396,10,1,100,0.2523726755238001,-10,-1,-100,19003.86654590012,-0.023273605399030194,-0.0076598460031878715,0.9996997879618348,67.30930676408677,4.163618501020468,402.44491863474536,-104.93380363698225,-93.1081314086914,4761.76025390625,True
1599384782.5663042,0.0,10,0.5,0.5,-0.10259763870239257,-0.001,-0.00825,-0.2505,0.03640853981019307,10,1,100,0.3230638908968309,-10,-1,-100,18997.548684040084,-0.023909223209529783,-0.006538692879471883,0.9996927500692124,67.35232467748597,4.168159608782042,404.9795134618032,-105.47963362206221,-92.5333023071289,4761.76025390625,True
1599384782.5993109,0.0,10,0.5,0.5,0.0382063949584961,-0.001,-0.00825,-0.2505,-0.07507107013626019,10,1,100,0.260211615687084,-10,-1,-100,18997.548684040084,-0.023909223209529783,-0.006538692879471883,0.9996927500692124,67.35232467748597,4.168159608782042,404.9795134618032,-105.47963362206221,-92.5333023071289,4761.76025390625,True
1599384782.6353598,0.0,10,0.5,0.5,-0.055786919975280756,-0.001,-0.00825,-0.2505,0.010377717983344761,10,1,100,0.29541981438955617,-10,-1,-100,18993.31858207076,-0.02422337832984504,-0.005767386955503588,0.999689934524698,67.36898569423593,4.170411916504156,406.6001931953448,-105.84351108625926,-92.17151641845703,4761.76025390625,True
1599384782.6662683,0.0,10,0.5,0.5,-0.0974583948135376,-0.001,-0.00825,-0.2505,0.05720391713735736,10,1,100,0.2940990466608236,-10,-1,-100,18986.946139126434,-0.024491765431452414,-0.004646133174322699,0.9996892351488921,67.37057838729126,4.172290374327972,408.89328025731277,-106.3893139826763,-91.65711212158203,4761.76025390625,True
1599384782.6993,0.0,10,0.5,0.5,-0.053974399185180655,-0.001,-0.00825,-0.2505,0.027289440570672792,10,1,100,0.27456208569322,-10,-1,-100,18982.679650431965,-0.0245536234687776,-0.0039048078416497427,0.9996908882500998,67.357449005149,4.172627433618349,410.33731533310265,-106.75317400223834,-91.32949829101562,4761.76025390625,True
1599384782.7332397,0.0,10,0.5,0.5,-0.01418286952972412,-0.001,-0.00825,-0.2505,-0.006465906321310222,10,1,100,0.2684835339788668,-10,-1,-100,18980.540948391776,-0.02455046626292016,-0.003544146378908791,0.999692309479631,67.34706878414421,4.172548186895835,411.03631458641394,-106.9351014900067,-91.17359161376953,4761.76025390625,True
1599384782.7692447,0.0,10,0.5,0.5,-0.015468279075622558,-0.001,-0.00825,-0.2505,-0.0021832553072012664,10,1,100,0.26625862890440494,-10,-1,-100,18978.398607742623,-0.024524051940400915,-0.00318343221555152,0.9996941715523572,67.3354140499229,4.172382405243701,411.72760387097554,-107.11702731065935,-91.02442932128906,4761.76025390625,True
1599384782.8002589,0.0,10,0.5,0.5,-0.016921651077270505,-0.001,-0.00825,-0.2505,0.002566930519921809,10,1,100,0.2641743694630346,-10,-1,-100,18976.25262864679,-0.02447851601047701,-0.002818097766756265,0.9996963841981734,67.3229757564454,4.172160676473416,412.4141411223722,-107.29895143701269,-90.88037872314453,4761.76025390625,True
1599384782.8322577,0.0,10,0.5,0.5,-0.05362577476501464,-0.001,-0.00825,-0.2505,0.04714613105611986,10,1,100,0.25152831834513245,-10,-1,-100,18971.949755078764,-0.02432055612297031,-0.0020857957946336858,0.9997020356114978,67.29284068621884,4.171369122126444,413.75494202042927,-107.66279443720592,-90.59962463378906,4761.76025390625,True
1599384782.8662922,0.0,10,0.5,0.5,-0.08836910572052002,-0.001,-0.00825,-0.2505,0.09276031353496776,10,1,100,0.2234962813617863,-10,-1,-100,18965.46815706673,-0.023921167752002946,-0.001010459661267773,0.9997133372645648,67.22695782563014,4.168842340373072,415.63788448573547,-108.20854628567838,-90.19007110595703,4761.76025390625,True
1599384782.9053545,0.0,10,0.5,0.5,0.01181665325164795,-0.001,-0.00825,-0.2505,-0.014108361167431513,10,1,100,0.2634998746938201,-10,-1,-100,18965.46815706673,-0.023921167752002946,-0.001010459661267773,0.9997133372645648,67.22695782563014,4.168842340373072,415.63788448573547,-108.20854628567838,-90.19007110595703,4761.76025390625,True
1599384782.932285,0.0,10,0.5,0.5,-0.11575330371856689,-0.001,-0.00825,-0.2505,0.13605330772599217,10,1,100,0.17566513430184927,-10,-1,-100,18956.775090497802,-0.023122659253400964,0.00034962075301952936,0.9997325744389749,67.10858834583952,4.163469667678705,417.9551541668715,-108.93619289359656,-89.69052124023438,4761.76025390625,True
1599384782.9663393,0.0,10,0.5,0.5,0.007038643264770508,-0.001,-0.00825,-0.2505,0.0007340976605110629,10,1,100,0.25543732776643463,-10,-1,-100,18956.775090497802,-0.023122659253400964,0.00034962075301952936,0.9997325744389749,67.10858834583952,4.163469667678705,417.9551541668715,-108.93619289359656,-89.69052124023438,4761.76025390625,True
1599384782.9994478,0.0,10,0.5,0.5,-0.023866820335388183,-0.001,-0.00825,-0.2505,0.040056409834152845,10,1,100,0.22726129462438216,-10,-1,-100,18954.592728454038,-0.02286751415126998,0.0007015354021357973,0.999738258067891,67.07822937688888,4.162059951901367,418.52863850200316,-109.11810039444529,-89.57577514648438,4761.76025390625,True
1599384783.034427,0.0,10,0.5,0.5,-0.05283807373046875,-0.001,-0.00825,-0.2505,0.0765496722610749,10,1,100,0.1928567824939318,-10,-1,-100,18950.21708989027,-0.022324272358401523,0.0013483532246894609,0.9997498731218971,67.00992115325144,4.158747247928134,419.6267166279345,-109.48191055804547,-89.35311889648438,4761.76025390625,True
1599384783.0654461,0.0,10,0.5,0.5,-0.025571644592285156,-0.001,-0.00825,-0.2505,0.04903455430106254,10,1,100,0.21302326355706877,-10,-1,-100,18948.023813573294,-0.022015774511922694,0.0016814563900414616,0.9997562094716135,66.97473745272066,4.157016096602573,420.16847313946624,-109.66381322181073,-89.24624633789062,4761.76025390625,True
1599384783.0983484,0.0,10,0.5,0.5,-0.05349463596343994,-0.001,-0.00825,-0.2505,0.08738887907418567,10,1,100,0.17051632727155208,-10,-1,-100,18943.626346836332,-0.02135119949593815,0.0023282025812362632,0.999769326271228,66.89797835280396,4.153135274717218,421.2100011711698,-110.02761372035815,-89.03509521484375,4761.76025390625,True
1599384783.1322994,0.0,10,0.5,0.5,-0.05247647380828858,-0.001,-0.00825,-0.2505,0.09008025990539577,10,1,100,0.15809655348831797,-10,-1,-100,18939.2143282271,-0.020637017767417765,0.002935610185518186,0.9997827242408752,66.8135981497458,4.148752491613422,422.2007078339718,-110.39140779827304,-88.83535766601562,4761.76025390625,True
1599384783.1683009,0.0,10,0.5,0.5,-0.028137294769287106,-0.001,-0.00825,-0.2505,0.06361739689386324,10,1,100,0.18636363469981054,-10,-1,-100,18937.002862227382,-0.02024822738727013,0.0032419967911675703,0.9997897272649282,66.7708754118967,4.146517547723446,422.6915482639327,-110.57330249988728,-88.73989868164062,4761.76025390625,True
1599384783.1983466,0.0,10,0.5,0.5,-0.09382400398254395,-0.001,-0.00825,-0.2505,0.15898101661314784,10,1,100,0.04086294839161311,-10,-1,-100,18928.12061923754,-0.018575750192275666,0.004382628618673415,0.9998178504463625,66.59287061327669,4.137070329430991,424.6016738981001,-111.30086499200343,-88.38973999023438,4761.76025390625,True
1599384783.2323592,0.0,10,0.5,0.5,-0.007594524955749513,-0.001,-0.00825,-0.2505,0.04545714269055749,10,1,100,0.20757612613508675,-10,-1,-100,18928.12061923754,-0.018575750192275666,0.004382628618673415,0.9998178504463625,66.59287061327669,4.137070329430991,424.6016738981001,-111.30086499200343,-88.38973999023438,4761.76025390625,True
1599384783.266314,0.0,10,0.5,0.5,-0.028912439727783203,-0.001,-0.00825,-0.2505,0.07616255069649402,10,1,100,0.15678300469333487,-10,-1,-100,18925.89096410072,-0.018118854013314038,0.004656865883927437,0.9998249950513257,66.54885482369109,4.134723302065817,425.0802061386153,-111.48275155030636,-88.31088256835938,4761.76025390625,True
1599384783.300936,0.0,10,0.5,0.5,-0.0644758888244629,-0.001,-0.00825,-0.2505,0.13271540789772845,10,1,100,0.046390419292238555,-10,-1,-100,18919.18017311208,-0.016704473806284488,0.005416373694959672,0.9998457998365805,66.6653479920733,4.143095730644292,428.10682302792225,-112.02839013304069,-88.095458984375,4761.76025390625,True
1599384783.3321853,0.0,10,0.5,0.5,-0.028667532348632813,-0.001,-0.00825,-0.2505,0.08476650500386008,10,1,100,0.13116101033555666,-10,-1,-100,18916.935967676574,-0.016195150068876077,0.0056663300850975,0.9998527940740144,66.74094301497524,4.148163646836526,429.3542929684921,-112.210259827617,-88.02850341796875,4761.76025390625,True
1599384783.3651433,0.0,10,0.5,0.5,-0.05991345291137695,-0.001,-0.00825,-0.2505,0.13344046732448225,10,1,100,0.013270355912082088,-10,-1,-100,18910.181528478977,-0.014666461052911747,0.006331540283880307,0.9998723951174054,66.94517251948905,4.161947283815158,432.96207429572144,-112.7558394894328,-87.8426513671875,4761.76025390625,True
1599384783.4000945,0.0,10,0.5,0.5,-0.01460364990234375,-0.001,-0.00825,-0.2505,0.0674177661521206,10,1,100,0.16537347637796612,-10,-1,-100,18910.181528478977,-0.014666461052911747,0.006331540283880307,0.9998723951174054,66.94517251948905,4.161947283815158,432.96207429572144,-112.7558394894328,-87.8426513671875,4761.76025390625,True
1599384783.4353,0.0,10,0.5,0.5,-0.04314662551879883,-0.001,-0.00825,-0.2505,0.1139387578204821,10,1,100,0.045260236022375167,-10,-1,-100,18905.660383771872,-0.013581203698278203,0.006750231040961922,0.9998849860293931,67.06129035547669,4.169878191933552,435.2457068288607,-113.1195358307196,-87.7337646484375,4761.76025390625,True
1599384783.4653509,0.0,10,0.5,0.5,-0.05123676376342773,-0.001,-0.00825,-0.2505,0.13204944981223432,10,1,100,-0.026717930779211613,-10,-1,-100,18898.85139065492,-0.01194732276477661,0.007291481630543205,0.9999020430894147,67.20716008580723,4.180000061755136,438.49741433124353,-113.66504672698395,-87.597412109375,4761.76025390625,True
1599384783.4993935,0.0,10,0.5,0.5,-0.0181017578125,-0.001,-0.00825,-0.2505,0.07835997799860853,10,1,100,0.13580119307068356,-10,-1,-100,18898.85139065492,-0.01194732276477661,0.007291481630543205,0.9999020430894147,67.20716008580723,4.180000061755136,438.49741433124353,-113.66504672698395,-87.597412109375,4761.76025390625,True
1599384783.5353267,0.0,10,0.5,0.5,-0.04598415908813476,-0.001,-0.00825,-0.2505,0.1277510086739132,10,1,100,-0.045137413010165536,-10,-1,-100,18892.009668671293,-0.01030997262278934,0.0077368096504647245,0.9999169196693042,67.32083126612736,4.188108060862954,441.54910854080504,-114.21051978823532,-87.49029541015625,4761.76025390625,True
1599384783.5662887,0.0,10,0.5,0.5,-0.02696997528076172,-0.001,-0.00825,-0.2505,0.09744341227785816,10,1,100,0.05803700277278811,-10,-1,-100,18889.721821730025,-0.009766936071345479,0.007863080445854886,0.9999213863727889,67.35226558432228,4.190407561458027,442.52590492519244,-114.39233611522184,-87.462158203125,4761.76025390625,True
1599384783.5993226,0.0,10,0.5,0.5,-0.027172379302978517,-0.001,-0.00825,-0.2505,0.09945579919389488,10,1,100,0.047530473754903685,-10,-1,-100,18887.430338737322,-0.00918576059179841,0.007993002457421565,0.9999258641089678,67.38084600483728,4.192529128245486,443.4847632305031,-114.5741485750734,-87.43637084960938,4761.76025390625,True
1599384783.6323123,0.0,10,0.5,0.5,-0.032593817901611324,-0.001,-0.00825,-0.2505,0.11009855607565336,10,1,100,-0.01738010318988456,-10,-1,-100,18882.83646410529,-0.00807544408673165,0.008204832860885901,0.9999337317645238,67.42828926237125,4.196166907690033,445.34063479842575,-114.9377622200141,-87.39199829101562,4761.76025390625,True
1599384783.6692386,0.0,10,0.5,0.5,-0.026633248901367187,-0.001,-0.00825,-0.2505,0.09944431662570999,10,1,100,0.030854648216738986,-10,-1,-100,18880.53407261346,-0.007512407758294404,0.008298014269794061,0.999937351382001,67.44777176216633,4.197721915269819,446.2415209300064,-115.11956353294669,-87.37380981445312,4761.76025390625,True
1599384783.6992202,0.0,10,0.5,0.5,-0.03482067947387695,-0.001,-0.00825,-0.2505,0.12050084556325558,10,1,100,-0.15962687300869607,-10,-1,-100,18871.28814829362,-0.005276799759766209,0.00857175519170217,0.9999493389153415,67.49883913325121,4.202271995407109,449.6717673085625,-115.84673408931032,-87.32528686523438,4761.76025390625,True
1599384783.7332726,0.0,10,0.5,0.5,-0.023092506408691406,-0.001,-0.00825,-0.2505,0.09335077486322689,10,1,100,0.06299496071480895,-10,-1,-100,18871.28814829362,-0.005276799759766209,0.00857175519170217,0.9999493389153415,67.49883913325121,4.202271995407109,449.6717673085625,-115.84673408931032,-87.32528686523438,4761.76025390625,True
1599384783.766332,0.0,10,0.5,0.5,-0.025023665618896487,-0.001,-0.00825,-0.2505,0.09869157622878394,10,1,100,6.096107577700793e-06,-10,-1,-100,18868.967577775707,-0.00471270977360333,0.008618271372381942,0.9999517567188638,67.50568930085754,4.203042216845437,450.4908723153427,-116.02851842732301,-87.31930541992188,4761.76025390625,True
1599384783.8022811,0.0,10,0.5,0.5,-0.024726861572265627,-0.001,-0.00825,-0.2505,0.10240228680657648,10,1,100,-0.1247459113657235,-10,-1,-100,18861.98405295494,-0.003073853803629497,0.00869259432340583,0.9999574942099901,67.51359079063495,4.204569249455385,452.8649964754818,-116.573852540172,-87.31588745117188,4761.76025390625,True
1599384783.8331447,0.0,10,0.5,0.5,-0.02328167495727539,-0.001,-0.00825,-0.2505,0.09608550220575368,10,1,100,-0.023371290780996527,-10,-1,-100,18859.648940387764,-0.002513638989842755,0.008701461589153827,0.9999589822513929,67.5127070514889,4.204860819266547,453.63309942099863,-116.75562452356878,-87.31915283203125,4761.76025390625,True
1599384783.8662224,0.0,10,0.5,0.5,-0.01865726547241211,-0.001,-0.00825,-0.2505,0.09090746582179171,10,1,100,-0.14198919022770046,-10,-1,-100,18852.621790607343,-0.000934584331225621,0.008661167881835434,0.9999620546416002,67.4966520092622,4.204906211378905,455.84748118904275,-117.30092316550281,-87.34170532226562,4761.76025390625,True
1599384783.900218,0.0,10,0.5,0.5,-0.024429251098632813,-0.001,-0.00825,-0.2505,0.09502927237676811,10,1,100,0.014978736804856566,-10,-1,-100,18852.621790607343,-0.000934584331225621,0.008661167881835434,0.9999620546416002,67.4966520092622,4.204906211378905,455.84748118904275,-117.30092316550281,-87.34170532226562,4761.76025390625,True
1599384783.9359283,0.0,10,0.5,0.5,-0.01811985702514649,-0.001,-0.00825,-0.2505,0.08710969742804708,10,1,100,-0.09923753947070123,-10,-1,-100,18847.9188479851,9.571604242479556e-05,0.00858844621190526,0.999963114034765,67.47973441659168,4.2045546411626225,457.28162362714437,-117.66444171294307,-87.3671875,4761.76025390625,True
1599384783.9660938,0.0,10,0.5,0.5,-0.020661231994628906,-0.001,-0.00825,-0.2505,0.08899367325568425,10,1,100,-0.050548000950396375,-10,-1,-100,18845.56192392751,0.0005812828713458362,0.008538921343352273,0.9999633737955183,67.46998598259104,4.20430026133468,457.9898424092888,-117.8461970021706,-87.3826904296875,4761.76025390625,True
1599384784.0001154,0.0,10,0.5,0.5,-0.004451122283935547,-0.001,-0.00825,-0.2505,0.06206288473372077,10,1,100,-0.21014783679146415,-10,-1,-100,18836.097877747263,0.002465745108049146,0.00824876966857492,0.9999629382632224,67.42773514360994,4.20309234005639,460.79956272456474,-118.57319222459223,-87.46261596679688,4761.76025390625,True
1599384784.0331798,0.0,10,0.5,0.5,-0.024399204254150392,-0.001,-0.00825,-0.2505,0.09107312775133414,10,1,100,-0.022699428407767515,-10,-1,-100,18836.097877747263,0.002465745108049146,0.00824876966857492,0.9999629382632224,67.42773514360994,4.20309234005639,460.79956272456474,-118.57319222459223,-87.46261596679688,4761.76025390625,True
1599384784.070421,0.0,10,0.5,0.5,-0.004821674346923828,-0.001,-0.00825,-0.2505,0.05753431953665674,10,1,100,-0.16529461336769452,-10,-1,-100,18828.96167704265,0.0037550262941686502,0.007944165035280696,0.9999613942645098,67.39044675891631,4.201851718670745,462.8673315063647,-119.11841260907649,-87.54000854492188,4761.76025390625,True
1599384784.1003716,0.0,10,0.5,0.5,-0.009072461700439452,-0.001,-0.00825,-0.2505,0.06047083540866203,10,1,100,-0.13065077375859582,-10,-1,-100,18824.186036261148,0.004603945352327362,0.007694517867628196,0.9999597982328977,67.36575939466927,4.20104268101533,464.24635040247273,-119.4818808817648,-87.5994873046875,4761.76025390625,True
1599384784.1329844,0.0,10,0.5,0.5,-0.015766238403320313,-0.001,-0.00825,-0.2505,0.07108729161806515,10,1,100,-0.08743777283285911,-10,-1,-100,18821.792764071026,0.004974374801214101,0.007564918911215728,0.9999590129586331,67.35208832907813,4.200557768717552,464.9265097867729,-119.66361162150405,-87.63119506835938,4761.76025390625,True
1599384784.1674294,0.0,10,0.5,0.5,-0.006862860107421879,-0.001,-0.00825,-0.2505,0.05263926808673475,10,1,100,-0.13078383979587366,-10,-1,-100,18816.995315734763,0.005697867428406866,0.0072804175327488355,0.9999572640004758,67.32724084047463,4.199748332998573,466.30364712104006,-120.02706600390813,-87.6971435546875,4761.76025390625,True
1599384784.2034178,0.0,10,0.5,0.5,-0.005326118469238285,-0.001,-0.00825,-0.2505,0.04607794475815512,10,1,100,-0.13596684843728374,-10,-1,-100,18812.183329501073,0.00639524125312379,0.006963423380297668,0.9999553048132408,67.30629748808487,4.199188995988527,467.70745291425476,-120.39051117266051,-87.7677001953125,4761.76025390625,True
1599384784.233203,0.0,10,0.5,0.5,-0.022649111175537112,-0.001,-0.00825,-0.2505,0.07760758555311807,10,1,100,-0.0669624485240263,-10,-1,-100,18812.183329501073,0.00639524125312379,0.006963423380297668,0.9999553048132408,67.30629748808487,4.199188995988527,467.70745291425476,-120.39051117266051,-87.7677001953125,4761.76025390625,True
1599384784.2672207,0.0,10,0.5,0.5,0.006092791748046878,-0.001,-0.00825,-0.2505,0.021234808130579055,10,1,100,-0.1675747473709765,-10,-1,-100,18804.938092353055,0.0073032350375648375,0.006452486989639621,0.9999525129573078,67.27873261749205,4.198603362398252,469.8395836133822,-120.93566192206615,-87.88058471679688,4761.76025390625,True
1599384784.3071146,0.0,10,0.5,0.5,-0.02176122817993164,-0.001,-0.00825,-0.2505,0.07211485127415726,10,1,100,-0.07749612082638573,-10,-1,-100,18804.938092353055,0.0073032350375648375,0.006452486989639621,0.9999525129573078,67.27873261749205,4.198603362398252,469.8395836133822,-120.93566192206615,-87.88058471679688,4761.76025390625,True
1599384784.334042,0.0,10,0.5,0.5,0.008889707946777344,-0.001,-0.00825,-0.2505,0.009987594142546005,10,1,100,-0.1651913140592997,-10,-1,-100,18797.660147177405,0.00809435320134931,0.005889590501491984,0.9999498958297743,67.26078598658246,4.198634622098653,472.039028851414,-121.48079221649063,-88.00082397460938,4761.76025390625,True
1599384784.3680186,0.0,10,0.5,0.5,-0.010532176208496096,-0.001,-0.00825,-0.2505,0.04486824221716346,10,1,100,-0.11128083319889953,-10,-1,-100,18795.226897076587,0.008318339335064921,0.005697107930369822,0.9999491728042662,67.25695243940805,4.198783097114623,472.78740654153427,-121.6624975884833,-88.04159545898438,4761.76025390625,True
1599384784.4049187,0.0,10,0.5,0.5,-0.01004444732666016,-0.001,-0.00825,-0.2505,0.04206871917201695,10,1,100,-0.11269299652894288,-10,-1,-100,18792.79001302924,0.008529480401236765,0.005498993257792165,0.9999485031926573,67.25545723657191,4.199079571715548,473.55237045260986,-121.84420076294826,-88.08224487304688,4761.76025390625,True
