Timestamp,Input Throttle,horizon,dT,dt,Input Roll,Roll P,Roll I,Roll D,Input Pitch,Pitch P,Pitch I,Pitch D,Input Yaw,Yaw P,Yaw I,Yaw D,Altitude,Direction X,Direction Y,Direction Z,Drag X,Drag Y,Drag Z,Vertical Velocity,Roll,Mass,Has Fuel
1599386972.721745,0.0,10,0.5,0.5,-5.634660919189454,-0.1005,-0.03,-0.5,-0.00019608993556395442,10,1,100,0.4981282946934702,-10,-1,-100,19349.72230351204,-0.048845672479212815,-0.00017474759590027322,0.9988063224386053,61.076512677635286,3.686296767127494,233.7314634477187,-68.66499476916368,-33.92279052734375,4761.76025390625,True
1599386972.7566504,0.0,10,0.5,0.5,-5.8032947998046875,-0.1005,-0.03,-0.5,-0.0008191333025663224,10,1,100,0.49897702809769523,-10,-1,-100,19348.34535448253,-0.04889690644337323,-0.00016614925575457833,0.9988038170405101,61.1662730957365,3.6923874271777937,234.72055177880654,-68.84745141500373,-33.9239501953125,4761.76025390625,True
1599386972.7926142,0.0,10,0.5,0.5,-5.943990997314454,-0.1005,-0.03,-0.5,0.011946799941677737,10,1,100,0.5096445100768614,-10,-1,-100,19344.192612930085,-0.048996008150199326,-4.2127599532860096e-05,0.998798973472946,61.43718834336642,3.710780481147805,237.70656895276994,-69.39480102810002,-33.97076416015625,4761.76025390625,True
1599386972.8276546,0.0,10,0.5,0.5,-6.135485687255859,-0.1005,-0.03,-0.5,-0.0004595784404473721,10,1,100,0.5046339402092718,-10,-1,-100,19344.192612930085,-0.048996008150199326,-4.2127599532860096e-05,0.998798973472946,61.43718834336642,3.710780481147805,237.70656895276994,-69.39480102810002,-33.97076416015625,4761.76025390625,True
1599386972.8685453,0.0,10,0.5,0.5,-6.134242950439454,-0.1005,-0.03,-0.5,0.02360155645809762,10,1,100,0.507835475723221,-10,-1,-100,19341.405874305172,-0.048980571192916864,0.00017664828827166973,0.9987997158795141,61.627620602874956,3.723647302548299,239.74586483710738,-69.75968295663748,-34.25274658203125,4761.76025390625,True
1599386972.906475,0.0,10,0.5,0.5,-5.58607437133789,-0.1005,-0.03,-0.5,0.08765400931112059,10,1,100,0.4860027663977851,-10,-1,-100,19335.788612806704,-0.04872353062770801,0.0009576698955866586,0.9988118443588573,62.04591675714052,3.751590678879953,243.99768235231014,-70.48939820049415,-35.67889404296875,4761.76025390625,True
1599386972.9428995,0.0,10,0.5,0.5,-5.770055694580079,-0.1005,-0.03,-0.5,0.07648040966251371,10,1,100,0.4849726720601859,-10,-1,-100,19332.9580917774,-0.04843619877387842,0.001565240750980598,0.9988250520835613,62.26405481777957,3.7660328473622466,246.17323686087354,-70.85422910910825,-36.83135986328125,4761.76025390625,True
1599386972.9777675,0.0,10,0.5,0.5,-6.505794525146485,-0.1005,-0.03,-0.5,0.01587984819821782,10,1,100,0.518549477320533,-10,-1,-100,19332.9580917774,-0.04843619877387842,0.001565240750980598,0.9988250520835613,62.26405481777957,3.7660328473622466,246.17323686087354,-70.85422910910825,-36.83135986328125,4761.76025390625,True
1599386973.0161848,0.0,10,0.5,0.5,-5.296546020507813,-0.1005,-0.03,-0.5,0.14193497694935295,10,1,100,0.45073940271866064,-10,-1,-100,19328.68494904181,-0.04777571064224878,0.002709773520762753,0.9988544131153921,62.57628501435979,3.7866220975054645,249.39511776173939,-71.40144051700004,-39.1107177734375,4761.76025390625,True
1599386973.0520957,0.0,10,0.5,0.5,-6.588892822265626,-0.1005,-0.03,-0.5,0.027752677323213702,10,1,100,0.5215657869458493,-10,-1,-100,19328.68494904181,-0.04777571064224878,0.002709773520762753,0.9988544131153921,62.57628501435979,3.7866220975054645,249.39511776173939,-71.40144051700004,-39.1107177734375,4761.76025390625,True
1599386973.0909946,0.0,10,0.5,0.5,-4.299500457763672,-0.1005,-0.03,-0.5,0.24426457918803626,10,1,100,0.38114854729239533,-10,-1,-100,19322.93635536346,-0.04645575781754261,0.004675600107242265,0.9989094059669451,62.894165512470586,3.807638722093587,253.3270219078749,-72.13099329644612,-43.17742919921875,4761.76025390625,True
1599386973.126933,0.0,10,0.5,0.5,-4.819840682983399,-0.1005,-0.03,-0.5,0.178722944732975,10,1,100,0.418542085177088,-10,-1,-100,19320.040172718815,-0.045597914607362997,0.005862472738356589,0.9989426718269933,62.97281287698322,3.813007602540547,254.9787351944967,-72.49574754732919,-45.650787353515625,4761.76025390625,True
1599386973.1627874,0.0,10,0.5,0.5,-6.0213392486572275,-0.1005,-0.03,-0.5,0.060638543820953704,10,1,100,0.5039965070114484,-10,-1,-100,19320.040172718815,-0.045597914607362997,0.005862472738356589,0.9989426718269933,62.97281287698322,3.813007602540547,254.9787351944967,-72.49574754732919,-45.650787353515625,4761.76025390625,True
1599386973.1986907,0.0,10,0.5,0.5,-4.323745437622071,-0.1005,-0.03,-0.5,0.188882457153246,10,1,100,0.39050798410136867,-10,-1,-100,19317.129400205566,-0.04456928993867394,0.007022958677433892,0.99898160966345,62.97117137811067,3.813290548673795,256.307593450593,-72.86049187602089,-48.419403076171875,4761.76025390625,True
1599386973.2405791,0.0,10,0.5,0.5,-2.8405907745361327,-0.1005,-0.03,-0.5,0.28919724452578516,10,1,100,0.2932279252650495,-10,-1,-100,19312.73588598147,-0.042753836721546014,0.00898347570154819,0.999045247528813,62.764075664011216,3.8008595940586964,257.4627452097047,-73.40760200913365,-53.122344970703125,4761.76025390625,True
1599386973.2814708,0.0,10,0.5,0.5,-4.105560974121094,-0.1005,-0.03,-0.5,0.16541482094999527,10,1,100,0.39892165358024734,-10,-1,-100,19311.264086543582,-0.042069937449269124,0.009632462938769211,0.9990682339163566,62.62789410647426,3.7925229352979017,257.5691598969927,-73.58997393490762,-54.83740234375,4761.76025390625,True
1599386973.3233595,0.0,10,0.5,0.5,-3.8315386657714843,-0.1005,-0.03,-0.5,0.17378433743069305,10,1,100,0.3870357906486679,-10,-1,-100,19309.78863937524,-0.04134620625980163,0.010290651674209953,0.9990918845211595,62.45276626498466,3.781767459056319,257.51236664904184,-73.77234857128038,-56.62603759765625,4761.76025390625,True
1599386973.3672714,0.0,10,0.5,0.5,-2.385385925292969,-0.1005,-0.03,-0.5,0.24972363124739164,10,1,100,0.2878765564593422,-10,-1,-100,19306.82680233987,-0.03979326667903192,0.011571430094832224,0.9991409299656239,61.9709187690115,3.752123603652394,256.8431474517721,-74.13711043818489,-60.4246826171875,4761.76025390625,True
1599386973.408131,0.0,10,0.5,0.5,-1.7565112304687496,-0.1005,-0.03,-0.5,0.2706228902074018,10,1,100,0.25272525004871293,-10,-1,-100,19303.850374200614,-0.03806980330377633,0.012916670841085425,0.9991915980885722,61.28945012201433,3.7102200587946728,255.32325624084018,-74.50189793908834,-64.5169677734375,4761.76025390625,True
1599386973.452014,0.0,10,0.5,0.5,0.29204760742187474,-0.1005,-0.03,-0.5,0.34706966845053555,10,1,100,0.1102400267903787,-10,-1,-100,19299.358370293514,-0.03521652175786682,0.014825308687780167,0.9992697367665999,59.83101234726497,3.620823637941857,251.16082045633965,-75.04915036584144,-71.2088623046875,4761.76025390625,True
1599386973.4909093,0.0,10,0.5,0.5,-1.5295118408203123,-0.1005,-0.03,-0.5,0.22421737528726787,10,1,100,0.28244077316879734,-10,-1,-100,19297.853738120524,-0.03419950821855687,0.015432580851321119,0.9992958666410446,59.214719883670085,3.583171424405885,249.20576150698196,-75.23159226851253,-73.5870361328125,4761.76025390625,True
1599386973.529806,0.0,10,0.5,0.5,0.3617888793945312,-0.1005,-0.03,-0.5,0.29216854829583494,10,1,100,0.14900211407359185,-10,-1,-100,19294.833526737173,-0.03207301378159049,0.016592605317577978,0.9993477909295346,57.76735719258445,3.4950108990037507,244.34899335204824,-75.59652001130016,-78.5648193359375,4761.76025390625,True
1599386973.5707247,0.0,10,0.5,0.5,4.154326385498047,-0.1005,-0.03,-0.5,0.398567303009587,10,1,100,-0.1386615664502442,-10,-1,-100,19288.74930347083,-0.02753700801670052,0.018604679754682666,0.9994476369879082,54.08365031979799,3.272001863040589,231.08310333765905,-76.32657321858079,-88.8607177734375,4761.76025390625,True
1599386973.6165762,0.0,10,0.5,0.5,0.7260409049987794,-0.1005,-0.03,-0.5,0.2449394758777085,10,1,100,0.18469182443234045,-10,-1,-100,19287.219120764756,-0.026369361698997375,0.019025637899018646,0.9994712011189332,53.00245303542022,3.2068492419594654,227.03143342203683,-76.50912910934699,-91.5085678100586,4761.76025390625,True
1599386973.655469,0.0,10,0.5,0.5,2.6668600082397464,-0.1005,-0.03,-0.5,0.28580247390225033,10,1,100,0.04393082349455968,-10,-1,-100,19284.14780201693,-0.02404476497277803,0.019768897394800294,0.9995154025692639,53.280656139889615,3.2246330492230344,229.36519848887005,-76.87423449063024,-96.73001098632812,4761.76025390625,True
1599386973.6944015,0.0,10,0.5,0.5,4.628247909545898,-0.1005,-0.03,-0.5,0.312061945784297,10,1,100,-0.12221542635513497,-10,-1,-100,19279.513446620665,-0.02043808301553483,0.020673505388353806,0.999577356154894,55.44917636190461,3.3582302665394232,240.48277253546536,-77.42174088412098,-104.12599182128906,4761.76025390625,True
1599386973.7332618,0.0,10,0.5,0.5,1.0781232604980469,-0.1005,-0.03,-0.5,0.2227052506739043,10,1,100,0.23628958392581179,-10,-1,-100,19279.513446620665,-0.02043808301553483,0.020673505388353806,0.999577356154894,55.44917636190461,3.3582302665394232,240.48277253546536,-77.42174088412098,-104.12599182128906,4761.76025390625,True
1599386973.774152,0.0,10,0.5,0.5,3.992492858886719,-0.1005,-0.03,-0.5,0.27145227090076207,10,1,100,-0.02413612290503994,-10,-1,-100,19276.405629345216,-0.01808958397456733,0.021107221159766928,0.9996135514120144,56.70594627153226,3.4363058123847927,247.14775442708967,-77.78664772055436,-108.74192810058594,4761.76025390625,True
1599386973.817037,0.0,10,0.5,0.5,6.850119548797608,-0.1005,-0.03,-0.5,0.2862270998667643,10,1,100,-0.3057933746754177,-10,-1,-100,19270.14621510869,-0.01341379499641568,0.021627155950683482,0.999676115664108,58.69375545560751,3.5610423315763895,258.3227758417934,-78.5162502435803,-117.10269927978516,4761.76025390625,True
1599386973.8549354,0.0,10,0.5,0.5,5.072745956420899,-0.1005,-0.03,-0.5,0.24754857877022998,10,1,100,-0.08543005024843339,-10,-1,-100,19266.99462347047,-0.011188795245893458,0.021740282400539494,0.9997010408027442,59.397327835838176,3.6057827670884293,262.68892445418345,-78.88096198775979,-120.8416748046875,4761.76025390625,True
1599386973.8928342,0.0,10,0.5,0.5,3.352156631469727,-0.1005,-0.03,-0.5,0.23692743115590476,10,1,100,0.1346671521525915,-10,-1,-100,19266.99462347047,-0.011188795245893458,0.021740282400539494,0.9997010408027442,59.397327835838176,3.6057827670884293,262.68892445418345,-78.88096198775979,-120.8416748046875,4761.76025390625,True
1599386973.9362285,0.0,10,0.5,0.5,5.561776969909668,-0.1005,-0.03,-0.5,0.24552441360320923,10,1,100,-0.09874664069965414,-10,-1,-100,19263.828444615472,-0.009087770504484555,0.021812702512288427,0.9997207702335529,59.90597581558711,3.6385614126938477,266.21838203731176,-79.24562832827644,-124.28523254394531,4761.76025390625,True
1599386973.9751225,0.0,10,0.5,0.5,5.868364158630371,-0.1005,-0.03,-0.5,0.23379022364767937,10,1,100,-0.1231805292589633,-10,-1,-100,19260.647680263268,-0.00697651742837102,0.021767118980469267,0.9997387262359411,60.2579530530232,3.6616459246508604,269.06967500372815,-79.61025881408244,-127.43461608886719,4761.76025390625,True
1599386974.0160148,0.0,10,0.5,0.5,6.12391064453125,-0.1005,-0.03,-0.5,0.22185841571113002,10,1,100,-0.14069148914077967,-10,-1,-100,19257.45233140583,-0.004916697260786139,0.02161433348009614,0.999754293152201,60.47826664561525,3.676527676587114,271.34516822635226,-79.97486188152622,-130.28976440429688,4761.76025390625,True
1599386974.0638874,0.0,10,0.5,0.5,6.349537117004394,-0.1005,-0.03,-0.5,0.22058798997070606,10,1,100,-0.14516038304973097,-10,-1,-100,19254.242399426526,-0.0030230095860259722,0.021461534886133917,0.9997651043787105,60.58957232521857,3.684574925755263,273.1387357555113,-80.33944437678441,-132.84906005859375,4761.76025390625,True
1599386974.123802,0.0,10,0.5,0.5,7.720851181030273,-0.1005,-0.03,-0.5,0.18338695912455777,10,1,100,-0.3514228059871356,-10,-1,-100,19247.778786971583,0.0005545269128353557,0.02098289712257479,0.9997796809938909,60.59612316837079,3.6869514242273915,275.75767907256306,-81.068568429803,-137.0832061767578,4761.76025390625,True
1599386974.1656904,0.0,10,0.5,0.5,6.70810425567627,-0.1005,-0.03,-0.5,0.19983177682427386,10,1,100,-0.1760806434480843,-10,-1,-100,19244.525107465568,0.0021937289706012142,0.02069698896048735,0.9997833876401292,60.53479616322455,3.6839640501057325,276.7725857998414,-81.43311652087594,-138.757568359375,4761.76025390625,True
1599386974.226161,0.0,10,0.5,0.5,6.802173042297364,-0.1005,-0.03,-0.5,0.2042130992793112,10,1,100,-0.17800932605856684,-10,-1,-100,19241.25684652268,0.0036808717632235304,0.02047688130493353,0.9997835508324222,60.45507311946655,3.6797281736737393,277.7008486251961,-81.79765791782037,-140.13534545898438,4761.76025390625,True
1599386974.2730355,0.0,10,0.5,0.5,6.554967834472657,-0.1005,-0.03,-0.5,0.21000604197700373,10,1,100,-0.11135713240427192,-10,-1,-100,19239.61724782281,0.004407099399897691,0.020330019587913473,0.9997836104770044,60.414293417924554,3.677514600296274,278.1596650939654,-81.97992628397624,-140.7140350341797,4761.76025390625,True
1599386974.3248951,0.0,10,0.5,0.5,6.639510902404785,-0.1005,-0.03,-0.5,0.20943725187326157,10,1,100,-0.11670096909479949,-10,-1,-100,19237.974003901938,0.005099685862791439,0.020192517331827375,0.9997831042020588,60.37431684182049,3.6753280521476617,278.62144654771504,-82.16219315711069,-141.2187042236328,4761.76025390625,True
1599386974.3777547,0.0,10,0.5,0.5,7.216864196777344,-0.1005,-0.03,-0.5,0.16586433572077958,10,1,100,-0.32219349541924014,-10,-1,-100,19231.364575335407,0.007582616085545502,0.01967280492042537,0.9997777176352062,60.242136700617124,3.668111487221282,280.59047836905324,-82.89124446599345,-142.49856567382812,4761.76025390625,True
1599386974.4306152,0.0,10,0.5,0.5,6.760288848876954,-0.1005,-0.03,-0.5,0.18837732568606202,10,1,100,-0.19561874537612534,-10,-1,-100,19228.03798985167,0.008672080913719571,0.019406882161998946,0.9997740584438947,60.202747769345024,3.6660726713227727,281.69645750419915,-83.25575901737253,-142.69570922851562,4761.76025390625,True
1599386974.4844697,0.0,10,0.5,0.5,6.657352981567383,-0.1005,-0.03,-0.5,0.19390537887975695,10,1,100,-0.1932149251316404,-10,-1,-100,19224.696824075887,0.009624505254002312,0.01921757633823605,0.9997690001486842,60.18647969901687,3.6654310747212775,282.9099221482769,-83.62026474065163,-142.59646606445312,4761.76025390625,True
1599386974.5363393,0.0,10,0.5,0.5,6.516130523681641,-0.1005,-0.03,-0.5,0.1865847011438144,10,1,100,-0.19591784159451142,-10,-1,-100,19221.341078526573,0.010499825692392384,0.018981246285072334,0.9997647052931479,60.19745355152803,3.6664580396058115,284.25179812064334,-83.98476035009445,-142.20291137695312,4761.76025390625,True
1599386974.590194,0.0,10,0.5,0.5,6.74864730834961,-0.1005,-0.03,-0.5,0.20995439774068364,10,1,100,-0.10992745005082213,-10,-1,-100,19221.341078526573,0.010499825692392384,0.018981246285072334,0.9997647052931479,60.19745355152803,3.6664580396058115,284.25179812064334,-83.98476035009445,-142.20291137695312,4761.76025390625,True
1599386974.6615274,0.0,10,0.5,0.5,5.771794982910157,-0.1005,-0.03,-0.5,0.16780430558657594,10,1,100,-0.26571014598037723,-10,-1,-100,19214.585849116673,0.011903738532407959,0.018600318436945047,0.9997561348463917,60.28562589115015,3.6726554008048664,287.2538817869726,-84.71371645279895,-140.52944946289062,4761.76025390625,True
1599386974.7223644,0.0,10,0.5,0.5,6.256875030517579,-0.1005,-0.03,-0.5,0.19621422815124484,10,1,100,-0.15769478814613377,-10,-1,-100,19212.887930177734,0.012187747668820293,0.01851445839713144,0.9997543066358964,60.31772544672286,3.674855008734484,288.05389240177885,-84.89594760914147,-139.9266357421875,4761.76025390625,True
1599386974.7652493,0.0,10,0.5,0.5,5.210105155944825,-0.1005,-0.03,-0.5,0.17917971854419207,10,1,100,-0.20578661030181952,-10,-1,-100,19207.77230571711,0.012874050704521177,0.01828352875593073,0.9997499544359523,60.42143083444028,3.682037568714716,290.4943705954895,-85.4426216771737,-137.6757049560547,4761.76025390625,True
1599386974.8151186,0.0,10,0.5,0.5,5.205845985412598,-0.1005,-0.03,-0.5,0.18563994735130424,10,1,100,-0.17408119358944008,-10,-1,-100,19204.34366772708,0.013201374058735534,0.0181343160281302,0.9997484035021776,60.48479329978223,3.686611594419648,292.09781225349565,-85.80705542709569,-135.8066864013672,4761.76025390625,True
1599386974.8709674,0.0,10,0.5,0.5,5.498047676086426,-0.1005,-0.03,-0.5,0.1930773829853471,10,1,100,-0.15564740631562887,-10,-1,-100,19202.623882394517,0.013323366064933177,0.01806827723912991,0.9997479808803363,60.50960381099507,3.6885293906331738,292.8675112977949,-85.98926807888613,-134.76158142089844,4761.76025390625,True
1599386974.9248242,0.0,10,0.5,0.5,3.8532336273193364,-0.1005,-0.03,-0.5,0.17783090828636972,10,1,100,-0.1671683885363976,-10,-1,-100,19197.442660978297,0.013531528017845166,0.017871568788314123,0.9997487208186601,60.53253137758592,3.691369676803553,294.9298594550898,-86.53589260180637,-131.1845703125,4761.76025390625,True
1599386974.976726,0.0,10,0.5,0.5,5.607797195434571,-0.1005,-0.03,-0.5,0.19732162975473735,10,1,100,-0.14694708443842866,-10,-1,-100,19197.442660978297,0.013531528017845166,0.017871568788314123,0.9997487208186601,60.53253137758592,3.691369676803553,294.9298594550898,-86.53589260180637,-131.1845703125,4761.76025390625,True
1599386975.0286217,0.0,10,0.5,0.5,2.0909941864013675,-0.1005,-0.03,-0.5,0.1646610661635518,10,1,100,-0.13987179699940963,-10,-1,-100,19190.483348230366,0.013462789543759424,0.017576050313279423,0.9997548878365564,60.355029435297226,3.6830534192137714,296.6621607481071,-87.26471134784016,-125.3856201171875,4761.76025390625,True
1599386975.08547,0.0,10,0.5,0.5,2.9330864791870113,-0.1005,-0.03,-0.5,0.1737061673810265,10,1,100,-0.12769270462738977,-10,-1,-100,19186.981826899806,0.013286091650945154,0.017391117643429425,0.9997604857143311,60.129460074739804,3.6707992140160286,296.84877878523554,-87.62912651494611,-122.04548645019531,4761.76025390625,True
1599386975.1263256,0.0,10,0.5,0.5,3.473613094329834,-0.1005,-0.03,-0.5,0.1814823520629978,10,1,100,-0.13272601111124113,-10,-1,-100,19185.225600157748,0.013168681565550327,0.017295135193985206,0.9997637041443578,59.972376351131715,3.6620235843933346,296.71976713858425,-87.8113385511084,-120.26519012451172,4761.76025390625,True
1599386975.226058,0.0,10,0.5,0.5,0.8265411224365238,-0.1005,-0.03,-0.5,0.1529308577789557,10,1,100,-0.09169562789880159,-10,-1,-100,19179.935052959714,0.01268651540792089,0.016949852211081976,0.9997758522973171,59.284607226398926,3.622634471424952,295.23646314497176,-88.3580049902413,-114.48432922363281,4761.76025390625,True
1599386975.2739313,0.0,10,0.5,0.5,1.1044643363952638,-0.1005,-0.03,-0.5,0.15638023530067188,10,1,100,-0.09338918649007824,-10,-1,-100,19176.38979837729,0.012262866909200724,0.0166688169915727,0.9997858633903907,58.61305383958305,3.5834108525117916,293.1594515120967,-88.72248615679244,-110.2638931274414,4761.76025390625,True
1599386975.3218024,0.0,10,0.5,0.5,-2.455155071258545,-0.1005,-0.03,-0.5,0.10731135466527333,10,1,100,-0.02125089704000334,-10,-1,-100,19169.25554599287,0.011221860988781364,0.015968927551156604,0.9998095134518447,56.90324380765356,3.4822589756963325,287.0738594108623,-89.45157149446044,-100.97022247314453,4761.76025390625,True
1599386975.3666823,0.0,10,0.5,0.5,-0.9520213394165038,-0.1005,-0.03,-0.5,0.1296805032775437,10,1,100,-0.05832092030183279,-10,-1,-100,19165.666544820997,0.01061399417234016,0.015538124502894225,0.9998229392320632,55.862736911671696,3.419969540751957,283.03774604766056,-89.81618574348731,-95.91845703125,4761.76025390625,True
1599386975.731636,0.0,10,0.5,0.5,1.4541966934204102,-0.1005,-0.03,-0.5,0.17250118895125802,10,1,100,-0.11884886395731374,-10,-1,-100,19165.666544820997,0.01061399417234016,0.015538124502894225,0.9998229392320632,55.862736911671696,3.419969540751957,283.03774604766056,-89.81618574348731,-95.91845703125,4761.76025390625,True
1599386975.773524,0.0,10,0.5,0.5,-0.19098434066772474,-0.1005,-0.03,-0.5,0.14733856646993204,10,1,100,-0.08512930873985275,-10,-1,-100,19163.86657449091,0.010309915826629235,0.015311673528278748,0.9998296146291183,55.279107085706244,3.3848063351283852,280.6815054223097,-89.99851230783128,-93.3728256225586,4761.76025390625,True
1599386975.8124232,0.0,10,0.5,0.5,-3.4605983276367187,-0.1005,-0.03,-0.5,0.08344125214695847,10,1,100,-0.005107233581758408,-10,-1,-100,19158.44478199107,0.009308936294719551,0.01452725150774677,0.9998511402547338,54.87644847605909,3.361243661001752,280.42786412664714,-90.54553959076863,-85.997314453125,4761.76025390625,True
1599386975.8572998,0.0,10,0.5,0.5,0.09159548950195306,-0.1005,-0.03,-0.5,0.16154902247209962,10,1,100,-0.10478292760041422,-10,-1,-100,19158.44478199107,0.009308936294719551,0.01452725150774677,0.9998511402547338,54.87644847605909,3.361243661001752,280.42786412664714,-90.54553959076863,-85.997314453125,4761.76025390625,True
1599386975.8991957,0.0,10,0.5,0.5,-2.961593811035156,-0.1005,-0.03,-0.5,0.09581230312429896,10,1,100,-0.02750475687469825,-10,-1,-100,19154.812021894963,0.008610183700166715,0.013932416603499066,0.9998658672563215,56.73063554308923,3.4750715635637164,291.1380214539417,-90.91013948704301,-81.10968017578125,4761.76025390625,True
1599386975.9569426,0.0,10,0.5,0.5,-6.237981521606446,-0.1005,-0.03,-0.5,0.006606261128482616,10,1,100,0.06191674315462435,-10,-1,-100,19147.502761475276,0.007166282166625548,0.012583837855166397,0.9998951402145843,59.870420537012876,3.6671171800184714,309.85771971788864,-91.6390806017293,-71.7884521484375,4761.76025390625,True
1599386975.997833,0.0,10,0.5,0.5,-1.722797721862793,-0.1005,-0.03,-0.5,0.1409930062278677,10,1,100,-0.08187317025959986,-10,-1,-100,19147.502761475276,0.007166282166625548,0.012583837855166397,0.9998951402145843,59.870420537012876,3.6671171800184714,309.85771971788864,-91.6390806017293,-71.7884521484375,4761.76025390625,True
1599386976.0392942,0.0,10,0.5,0.5,-4.518499580383301,-0.1005,-0.03,-0.5,0.05960779635054185,10,1,100,-0.0012849798394461848,-10,-1,-100,19143.826267251396,0.006438680647570783,0.011847941414786994,0.9999090807047161,61.160178135746726,3.7457729708805223,317.8637165863663,-92.00343301498306,-67.34613037109375,4761.76025390625,True
1599386976.0841744,0.0,10,0.5,0.5,-4.928352462768554,-0.1005,-0.03,-0.5,0.051165591461149074,10,1,100,0.0057387413093964446,-10,-1,-100,19140.135201060213,0.005718667425496636,0.011106579947790135,0.9999219673178203,62.248055186371985,3.812053813098302,324.8719095130502,-92.36771668277241,-63.179168701171875,4761.76025390625,True
1599386976.13181,0.0,10,0.5,0.5,-5.283093147277832,-0.1005,-0.03,-0.5,0.030197253275475927,10,1,100,0.01633325253479745,-10,-1,-100,19136.429565238184,0.004972799115710389,0.010246414037562658,0.9999351390306901,63.147876354671936,3.8668910139294765,330.9417004080901,-92.7319412176491,-59.307647705078125,4761.76025390625,True
1599386976.1776857,0.0,10,0.5,0.5,-7.573031074523926,-0.1005,-0.03,-0.5,-0.07096046733552958,10,1,100,0.100559546000278,-10,-1,-100,19128.97459293867,0.0035341717980881863,0.008549640032224295,0.9999572057268358,64.48402781351679,3.948621872999618,340.74984924812725,-93.4602486872915,-52.453582763671875,4761.76025390625,True
1599386976.2205706,0.0,10,0.5,0.5,-6.066732810974122,-0.1005,-0.03,-0.5,0.0010657878456342695,10,1,100,0.03583388950538399,-10,-1,-100,19125.225259975647,0.0028211800432709037,0.007668255514900609,0.99996661884311,64.97142586091348,3.9786995036560673,344.7394874965489,-93.82434737939133,-49.47216796875,4761.76025390625,True
1599386976.2614603,0.0,10,0.5,0.5,-5.536310363769532,-0.1005,-0.03,-0.5,0.04267718513134057,10,1,100,0.004288322641539041,-10,-1,-100,19123.34513209469,0.0024665915429113814,0.007252230854488568,0.9999706601064822,65.18044311751363,3.9916870647659524,346.5581202330876,-94.00638583023716,-48.09234619140625,4761.76025390625,True
1599386976.3003564,0.0,10,0.5,0.5,-5.744165649414063,-0.1005,-0.03,-0.5,0.0375206582905724,10,1,100,0.008452543482118432,-10,-1,-100,19121.46136368951,0.0021126021210809195,0.006833762756155418,0.9999744179722152,65.37019084917206,4.003541958118971,348.27884019636804,-94.18841783911135,-46.78668212890625,4761.76025390625,True
1599386976.34025,0.0,10,0.5,0.5,-6.6431430664062505,-0.1005,-0.03,-0.5,-0.017600324729480227,10,1,100,0.051030989033120845,-10,-1,-100,19117.68290515535,0.001410258900020149,0.005959231447262614,0.9999812491893999,65.70166329397877,4.024447541249079,351.4764644876006,-94.55246477977462,-44.39837646484375,4761.76025390625,True
1599386976.3791463,0.0,10,0.5,0.5,-6.815321472167969,-0.1005,-0.03,-0.5,-0.026717645747185312,10,1,100,0.057928752150097365,-10,-1,-100,19113.889885583078,0.0007156035114470682,0.005088566598250233,0.9999867971136367,65.98458005518006,4.042546757463167,354.42875281559634,-94.9164917002684,-42.30645751953125,4761.76025390625,True
1599386976.4220316,0.0,10,0.5,0.5,-7.408665939331055,-0.1005,-0.03,-0.5,-0.08107065337936747,10,1,100,0.1033872403757491,-10,-1,-100,19108.1730553502,-0.0003232961178024044,0.003809748730907246,0.9999926906204003,66.35397101402525,4.066591352205799,358.5853143513642,-95.46249944140796,-39.723846435546875,4761.76025390625,True
1599386976.4639204,0.0,10,0.5,0.5,-6.641608383178711,-0.1005,-0.03,-0.5,-0.00021803812262336658,10,1,100,0.03836109678978482,-10,-1,-100,19106.26016523235,-0.0006697948588073151,0.0033901872530424397,0.9999940289847916,66.46979538878716,4.074216141108665,359.9372436291231,-95.64449387093197,-39.011016845703125,4761.76025390625,True
1599386976.5028157,0.0,10,0.5,0.5,-7.093005355834961,-0.1005,-0.03,-0.5,-0.05065774223799181,10,1,100,0.0806085280479942,-10,-1,-100,19102.42346583365,-0.0013623990206987936,0.0025579138304453975,0.9999958004640542,66.69956145551494,4.089417855573652,362.63936762635933,-96.00847079764252,-37.807342529296875,4761.76025390625,True
1599386976.5440423,0.0,10,0.5,0.5,-7.112732955932618,-0.1005,-0.03,-0.5,-0.054413356558811216,10,1,100,0.08926101532467048,-10,-1,-100,19098.572207847843,-0.0020642608099824718,0.0017749311943654963,0.9999962942164154,66.93490760714363,4.105031594127367,365.38321330907155,-96.37243162214129,-36.899017333984375,4761.76025390625,True
1599386976.5895836,0.0,10,0.5,0.5,-7.09335693359375,-0.1005,-0.03,-0.5,-0.06511897748434085,10,1,100,0.0962650427815165,-10,-1,-100,19094.706392149907,-0.002759592631733786,0.0009735063193727685,0.9999957184578108,67.1832496802681,4.1214894480810464,368.20978105474774,-96.7363755487384,-36.28692626953125,4761.76025390625,True
1599386976.6284792,0.0,10,0.5,0.5,-7.026289794921875,-0.1005,-0.03,-0.5,-0.0666608729423649,10,1,100,0.10544237633122663,-10,-1,-100,19090.826019079308,-0.00346942117065978,0.00023780841404538985,0.9999939532636678,67.44919532749743,4.139051280578331,371.1452518538594,-97.10030124466222,-35.9697265625,4761.76025390625,True
1599386976.6675322,0.0,10,0.5,0.5,-6.757247604370118,-0.1005,-0.03,-0.5,-0.14550274124843893,10,1,100,0.19310925091653303,-10,-1,-100,19083.02160457871,-0.004905972701173532,-0.0011409971689430318,0.9999873146981996,68.04146021394916,4.1778602244477065,377.3893437031389,-97.82809294350805,-36.221099853515625,4761.76025390625,True
1599386976.7104182,0.0,10,0.5,0.5,-6.770108963012695,-0.1005,-0.03,-0.5,-0.0434543793989451,10,1,100,0.0901706820845519,-10,-1,-100,19081.061403757194,-0.005269421135673401,-0.0014591142020976243,0.9999850519815985,68.20138148079201,4.188268933726583,379.0250282710633,-98.01002741548281,-36.468292236328125,4761.76025390625,True
1599386976.7582908,0.0,10,0.5,0.5,-6.731964477539063,-0.1005,-0.03,-0.5,-0.04630024473947186,10,1,100,0.09475410941682004,-10,-1,-100,19079.09756447957,-0.005634785394369579,-0.0017666440290081762,0.9999825639292087,68.36521910407477,4.198903333653171,380.6862810638326,-98.19195608196839,-36.7891845703125,4761.76025390625,True
1599386976.7941933,0.0,10,0.5,0.5,-6.0721045532226565,-0.1005,-0.03,-0.5,-0.10472689183123148,10,1,100,0.18112395637887407,-10,-1,-100,19073.184216521215,-0.0067457105616626056,-0.0025703444129644283,0.9999739440198514,68.87152738063808,4.231591957686948,385.7759706059413,-98.73770638130868,-38.1932373046875,4761.76025390625,True
1599386976.834087,0.0,10,0.5,0.5,-6.416857406616211,-0.1005,-0.03,-0.5,-0.05344452412384974,10,1,100,0.11168633351542583,-10,-1,-100,19071.20582446363,-0.007117608402194818,-0.0028278151364837193,0.999970671126002,69.0417810869746,4.242526474729269,387.48876099786673,-98.91961103731595,-38.808746337890625,4761.76025390625,True
1599386976.8739798,0.0,10,0.5,0.5,-4.807564147949219,-0.1005,-0.03,-0.5,-0.11988837341259667,10,1,100,0.23957474455383476,-10,-1,-100,19063.2558764189,-0.008612142619132918,-0.0036598802751558733,0.999956217179472,69.69292711729143,4.284054488261329,394.21085989374853,-99.64717087042933,-42.0057373046875,4761.76025390625,True
1599386976.9108818,0.0,10,0.5,0.5,-6.397075469970703,-0.1005,-0.03,-0.5,-0.037386866298201114,10,1,100,0.09091555763605734,-10,-1,-100,19063.2558764189,-0.008612142619132918,-0.0036598802751558733,0.999956217179472,69.69292711729143,4.284054488261329,394.21085989374853,-99.64717087042933,-42.0057373046875,4761.76025390625,True
1599386976.95277,0.0,10,0.5,0.5,-5.159326873779297,-0.1005,-0.03,-0.5,-0.07762265453708417,10,1,100,0.17394736879446743,-10,-1,-100,19059.259077235474,-0.009360386590028979,-0.004020007628140627,0.9999481100044917,69.97423737607679,4.3018118026801515,397.34362105692827,-100.01091796145828,-44.04595947265625,4761.76025390625,True
1599386976.9916658,0.0,10,0.5,0.5,-5.479539154052735,-0.1005,-0.03,-0.5,-0.05564359961046523,10,1,100,0.13975840310891174,-10,-1,-100,19057.255221231375,-0.009723166761174849,-0.004142318414409771,0.99994414905348,70.09640176376395,4.3094673694647465,398.8098797524968,-100.19278444320497,-45.17578125,4761.76025390625,True
1599386977.0305617,0.0,10,0.5,0.5,-2.861768203735352,-0.1005,-0.03,-0.5,-0.09448989203167311,10,1,100,0.2646227213228165,-10,-1,-100,19049.203426150954,-0.0111817665604071,-0.004602007401452899,0.9999268921398531,70.39851365688132,4.327962295869782,403.6356948855001,-100.92021681493804,-50.431427001953125,4761.76025390625,True
1599386977.0724492,0.0,10,0.5,0.5,-5.446205978393555,-0.1005,-0.03,-0.5,-0.04900497490891018,10,1,100,0.11953397593856607,-10,-1,-100,19049.203426150954,-0.0111817665604071,-0.004602007401452899,0.9999268921398531,70.39851365688132,4.327962295869782,403.6356948855001,-100.92021681493804,-50.431427001953125,4761.76025390625,True
1599386977.1126359,0.0,10,0.5,0.5,-3.560915237426758,-0.1005,-0.03,-0.5,-0.0658695046239803,10,1,100,0.19815842321511562,-10,-1,-100,19045.1557060224,-0.01189082899577643,-0.004752174935014891,0.9999180091483403,70.39605840492122,4.32734870244926,405.1775374276773,-101.28392393716979,-53.499969482421875,4761.76025390625,True
1599386977.1555219,0.0,10,0.5,0.5,-0.8303839721679687,-0.1005,-0.03,-0.5,-0.0607764658297895,10,1,100,0.27298762454051906,-10,-1,-100,19037.01662005298,-0.01320967721465212,-0.0048393968303668605,0.9999010374363069,69.94574614331505,4.297950258171328,405.68422455235196,-102.01136339195575,-60.5169677734375,4761.76025390625,True
1599386977.1934202,0.0,10,0.5,0.5,-3.1041943664550784,-0.1005,-0.03,-0.5,-0.05021607255812535,10,1,100,0.17518944133878933,-10,-1,-100,19034.972755331662,-0.013512669482868585,-0.004819892475670469,0.9998970829040205,69.7191277908515,4.2834629556168045,405.14361704482695,-102.1932364061601,-62.45452880859375,4761.76025390625,True
1599386977.2343109,0.0,10,0.5,0.5,-2.792667022705078,-0.1005,-0.03,-0.5,-0.04900163797852489,10,1,100,0.17801730708941346,-10,-1,-100,19032.925252912333,-0.013807673089051767,-0.004789075886074922,0.9998932007549725,69.43919404113814,4.265668949833777,404.28832075623006,-102.37511779985904,-64.46539306640625,4761.76025390625,True
1599386977.274204,0.0,10,0.5,0.5,-1.1784969787597657,-0.1005,-0.03,-0.5,-0.04134346295433068,10,1,100,0.20953583286993688,-10,-1,-100,19028.81933415588,-0.014356308361144094,-0.004689658067359394,0.9998859452544829,68.70323152576083,4.219231677637081,401.5322936565003,-102.73891229180956,-68.6995849609375,4761.76025390625,True
1599386977.323073,0.0,10,0.5,0.5,0.9147586975097655,-0.1005,-0.03,-0.5,-0.02747328661432156,10,1,100,0.23944095462902304,-10,-1,-100,19022.63316802308,-0.015121710473817891,-0.004472249558352283,0.9998756586977371,67.1088797448772,4.119665604639759,394.46051819541435,-103.28470915175465,-75.57763671875,4761.76025390625,True
1599386977.3629665,0.0,10,0.5,0.5,0.5488392181396484,-0.1005,-0.03,-0.5,-0.027593224686367337,10,1,100,0.21108173694817006,-10,-1,-100,19018.49086106033,-0.015553801717463876,-0.004274957287834238,0.999869893532314,65.6747154792995,4.030893215382917,387.50019858037297,-103.64866368543186,-80.52749633789062,4761.76025390625,True
1599386977.4038577,0.0,10,0.5,0.5,-0.2645052185058594,-0.1005,-0.03,-0.5,-0.03532547895416888,10,1,100,0.18978159379547527,-10,-1,-100,19016.41424754681,-0.01574734389654715,-0.0041656621264708526,0.9998673254083523,64.83549010217568,3.9792004140471775,383.27500631416166,-103.83067283975734,-83.11224365234375,4761.76025390625,True
1599386977.44831,0.0,10,0.5,0.5,1.6201255798339844,-0.1005,-0.03,-0.5,-0.020727297812183586,10,1,100,0.2073201352488131,-10,-1,-100,19012.25009817665,-0.016077256093348313,-0.003933570929656944,0.9998630150456863,62.97728031249188,3.8652670177004422,373.70320523414864,-104.19475986971167,-88.21331787109375,4761.76025390625,True
1599386977.511141,0.0,10,0.5,0.5,2.142409732818604,-0.1005,-0.03,-0.5,-0.01646700981514136,10,1,100,0.20532241880612515,-10,-1,-100,19008.0713864445,-0.016354564768658625,-0.0036844567111910037,0.9998594666201701,64.92539879221714,3.985631096196745,386.72137309056853,-104.55878950048137,-93.14167022705078,4761.76025390625,True
1599386977.5560215,0.0,10,0.5,0.5,2.740073791503906,-0.1005,-0.03,-0.5,-0.012444788136947244,10,1,100,0.2016205517875127,-10,-1,-100,19003.87811633863,-0.016568307684036748,-0.003422257725229531,0.9998568794245252,66.63008734385694,4.09166935965845,398.372081895053,-104.92271656358494,-98.02711486816406,4761.76025390625,True
1599386977.5949187,0.0,10,0.5,0.5,4.652131053924561,-0.1005,-0.03,-0.5,0.0034567332972621906,10,1,100,0.2014676672930773,-10,-1,-100,18997.56092428253,-0.016756977312896302,-0.0030405447405988206,0.9998549688824951,69.01155836871945,4.2408365889118596,414.93534972330497,-105.4684155503573,-105.05658721923828,4761.76025390625,True
1599386977.6358085,0.0,10,0.5,0.5,3.875106140136719,-0.1005,-0.03,-0.5,-0.0076813370454942645,10,1,100,0.18840291442688545,-10,-1,-100,18993.33127690479,-0.016806499858441203,-0.0027964234414048408,0.999854850254998,70.417059470523,4.329444441665084,424.9661920969015,-105.8320934181803,-109.39312744140625,4761.76025390625,True
1599386977.676503,0.0,10,0.5,0.5,3.083388389587402,-0.1005,-0.03,-0.5,-0.019226604772911042,10,1,100,0.18403397282214987,-10,-1,-100,18991.210998699768,-0.01680880831218845,-0.002681291484236162,0.999855126825432,71.05686813003278,4.36992136282676,429.6242939673664,-106.01389818963982,-111.45097351074219,4761.76025390625,True
1599386977.723377,0.0,10,0.5,0.5,5.63606462097168,-0.1005,-0.03,-0.5,0.0029276648204038004,10,1,100,0.1756989311879033,-10,-1,-100,18984.828351711272,-0.016732405495989946,-0.002377139785417991,0.9998571777072756,72.61355471504338,4.468984691253742,441.47780928891024,-106.55919621533405,-117.18060302734375,4761.76025390625,True
1599386977.759985,0.0,10,0.5,0.5,4.98816410446167,-0.1005,-0.03,-0.5,-0.008303023341687497,10,1,100,0.1704253339719768,-10,-1,-100,18980.555080072954,-0.016612846509178478,-0.0022048376954949757,0.9998595661499665,73.38685205128931,4.51855806172497,447.8234012350898,-106.9226475307876,-120.63018035888672,4761.76025390625,True
1599386977.799878,0.0,10,0.5,0.5,6.172556087493897,-0.1005,-0.03,-0.5,-0.003957401548347866,10,1,100,0.15289912838077163,-10,-1,-100,18974.117917299853,-0.01634347180121586,-0.0020107550627735627,0.999864414705094,74.22364563242392,4.572546081948071,455.4234703093606,-107.46773299789008,-125.24970245361328,4761.76025390625,True
1599386977.841849,0.0,10,0.5,0.5,5.6242977828979495,-0.1005,-0.03,-0.5,-0.01349269792822774,10,1,100,0.15424456732987166,-10,-1,-100,18969.80830745166,-0.01611009908434734,-0.001923059183957605,0.9998683746128125,74.60772393757354,4.597469789273656,459.45142868224644,-107.83107649373811,-127.95967102050781,4761.76025390625,True
1599386977.8817265,0.0,10,0.5,0.5,4.403855781555176,-0.1005,-0.03,-0.5,-0.022038025515572192,10,1,100,0.17761811453550352,-10,-1,-100,18969.80830745166,-0.01611009908434734,-0.001923059183957605,0.9998683746128125,74.60772393757354,4.597469789273656,459.45142868224644,-107.83107649373811,-127.95967102050781,4761.76025390625,True
1599386977.9216197,0.0,10,0.5,0.5,5.972895141601563,-0.1005,-0.03,-0.5,-0.016022605204258755,10,1,100,0.14819559923733555,-10,-1,-100,18965.484164427617,-0.01584259181528127,-0.0018702012827144822,0.9998727492194878,74.88400489831453,4.615456174173685,462.8308783458394,-108.19439166846273,-130.37399291992188,4761.76025390625,True
1599386977.9610226,0.0,10,0.5,0.5,6.149810173034668,-0.1005,-0.03,-0.5,-0.019239929116075024,10,1,100,0.14112713533814766,-10,-1,-100,18961.14548982447,-0.015535610056095293,-0.0018530463675358608,0.9998775980285511,75.07697024068861,4.628029538309167,465.7066990931119,-108.5576847431127,-132.49285888671875,4761.76025390625,True
1599386977.9989216,0.0,10,0.5,0.5,6.288860427856446,-0.1005,-0.03,-0.5,-0.023677849800395348,10,1,100,0.1333283624359227,-10,-1,-100,18956.792283960618,-0.015186576610113217,-0.001879222279374293,0.9998829113523693,75.20742678520507,4.6364996792927755,468.2030166832521,-108.92096035256564,-134.3164825439453,4761.76025390625,True
1599386978.0368204,0.0,10,0.5,0.5,6.382602958679199,-0.1005,-0.03,-0.5,-0.027265691024834202,10,1,100,0.12723908241610693,-10,-1,-100,18952.42454749008,-0.014815344023315535,-0.0019366910489597888,0.9998883711741283,75.293369940916,4.642009553213887,470.42818569852267,-109.28422153226101,-135.84483337402344,4761.76025390625,True
1599386978.074753,0.0,10,0.5,0.5,6.438383445739746,-0.1005,-0.03,-0.5,-0.03184238243074253,10,1,100,0.11957755229962522,-10,-1,-100,18948.04228089354,-0.014410019721381558,-0.0020313232453570834,0.9998941069220791,75.35165795667476,4.6456346712113294,472.484983314191,-109.6474702225859,-137.07814025878906,4761.76025390625,True
1599386978.1136153,0.0,10,0.5,0.5,6.462075050354004,-0.1005,-0.03,-0.5,-0.03638212724919891,10,1,100,0.11213056233468839,-10,-1,-100,18943.64548479498,-0.013976023891388342,-0.002159213802466845,0.9998999992758989,75.39598317755694,4.648255661631985,474.45773234877504,-110.01070731057597,-138.01646423339844,4761.76025390625,True
1599386978.1515155,0.0,10,0.5,0.5,6.44182942199707,-0.1005,-0.03,-0.5,-0.041143733623490455,10,1,100,0.1045739926124514,-10,-1,-100,18939.234159433166,-0.013515291940832902,-0.002318963390499234,0.9999059752259447,75.43712131273371,4.650571912987376,476.4135198204457,-110.37393267152946,-138.65994262695312,4761.76025390625,True
1599386978.1973913,0.0,10,0.5,0.5,6.383588493347169,-0.1005,-0.03,-0.5,-0.04585383401221082,10,1,100,0.09686306979216164,-10,-1,-100,18934.8083054038,-0.013029161373387454,-0.002506905632521587,0.9999119743147673,75.48300183942014,4.6531055534773875,478.4023379029835,-110.73714608758523,-139.0086669921875,4761.76025390625,True
1599386978.2362862,0.0,10,0.5,0.5,6.138560020446777,-0.1005,-0.03,-0.5,-0.07651126033280284,10,1,100,0.030076643885522086,-10,-1,-100,18925.913013695972,-0.01198308817694744,-0.002956015045847519,0.999923830885529,75.60749824772955,4.660091100167704,482.5981815863571,-111.46353214360254,-138.82225036621094,4761.76025390625,True
1599386978.2771778,0.0,10,0.5,0.5,6.264356071472168,-0.1005,-0.03,-0.5,-0.03170361458639862,10,1,100,0.13427126243878343,-10,-1,-100,18925.913013695972,-0.01198308817694744,-0.002956015045847519,0.999923830885529,75.60749824772955,4.660091100167704,482.5981815863571,-111.46353214360254,-138.82225036621094,4761.76025390625,True
1599386978.3220887,0.0,10,0.5,0.5,5.477477920532227,-0.1005,-0.03,-0.5,-0.08622157451367907,10,1,100,0.009313565165648324,-10,-1,-100,18916.959613965126,-0.010850860938925667,-0.0034506938125847143,0.999935173663321,75.77952727842826,4.670077095593931,487.11432371747134,-112.18985651208732,-137.45761108398438,4761.76025390625,True
1599386978.3623302,0.0,10,0.5,0.5,6.1810484161376955,-0.1005,-0.03,-0.5,-0.03691174709294658,10,1,100,0.12203711588019014,-10,-1,-100,18916.959613965126,-0.010850860938925667,-0.0034506938125847143,0.999935173663321,75.77952727842826,4.670077095593931,487.11432371747134,-112.18985651208732,-137.45761108398438,4761.76025390625,True
1599386978.4032187,0.0,10,0.5,0.5,5.521433906555176,-0.1005,-0.03,-0.5,-0.0699371297704661,10,1,100,0.05412634908449137,-10,-1,-100,18912.461125566624,-0.010237749194525832,-0.0037494721574303017,0.9999405632086192,75.87558738463403,4.675795291223288,489.44416276261575,-112.55299302471124,-136.33436584472656,4761.76025390625,True
1599386978.4460714,0.0,10,0.5,0.5,4.745562896728516,-0.1005,-0.03,-0.5,-0.0836146159299489,10,1,100,0.011826380813308307,-10,-1,-100,18905.686158720753,-0.00930032864934758,-0.00414372939066881,0.9999481653534603,76.00891792382936,4.6839376215156046,492.8786200733487,-113.0976652064728,-134.09698486328125,4761.76025390625,True
1599386978.485969,0.0,10,0.5,0.5,4.118397331237793,-0.1005,-0.03,-0.5,-0.090138281225246,10,1,100,-0.004461922043756228,-10,-1,-100,18898.878512952477,-0.008305066323552188,-0.0045594447068958745,0.999955117661451,76.09453474188082,4.689520803989508,496.0127827401048,-113.64230109392685,-131.19837951660156,4761.76025390625,True
1599386978.5258932,0.0,10,0.5,0.5,5.550060722351074,-0.1005,-0.03,-0.5,-0.04881956174869346,10,1,100,0.09445381519599992,-10,-1,-100,18898.878512952477,-0.008305066323552188,-0.0045594447068958745,0.999955117661451,76.09453474188082,4.689520803989508,496.0127827401048,-113.64230109392685,-131.19837951660156,4761.76025390625,True
1599386978.5657508,0.0,10,0.5,0.5,4.1484637985229496,-0.1005,-0.03,-0.5,-0.07710319381861168,10,1,100,0.019280721003242685,-10,-1,-100,18894.32192857866,-0.007626829974134246,-0.0048143866067092865,0.999959325745876,76.10042941629888,4.690357472523495,497.77175477198057,-114.00537538474548,-128.8983917236328,4761.76025390625,True
1599386978.603685,0.0,10,0.5,0.5,2.8667973632812505,-0.1005,-0.03,-0.5,-0.0925061671324222,10,1,100,-0.02954894593008288,-10,-1,-100,18887.45982166601,-0.006571698558875611,-0.005183910433741384,0.9999649693117586,75.98889025048392,4.684669816167295,499.6213206003124,-114.54997241117263,-124.89776611328125,4761.76025390625,True
1599386978.6415787,0.0,10,0.5,0.5,3.9358934249877935,-0.1005,-0.03,-0.5,-0.06942216314017424,10,1,100,0.03507547280618403,-10,-1,-100,18885.165191676468,-0.00620585331789247,-0.005307552963112655,0.9999666580772284,75.9086940888903,4.680259244196341,499.9535405441242,-114.73150373405774,-123.41752624511719,4761.76025390625,True
1599386978.6804445,0.0,10,0.5,0.5,1.6983116836547847,-0.1005,-0.03,-0.5,-0.08949116110180919,10,1,100,-0.047537021126459716,-10,-1,-100,18878.259517114027,-0.005127496094755631,-0.005600262936812978,0.9999711725039061,75.49740969291283,4.6569132983300205,499.811910417675,-115.2761084662972,-118.53578186035156,4761.76025390625,True
1599386978.7193413,0.0,10,0.5,0.5,4.07832447052002,-0.1005,-0.03,-0.5,-0.060484588520873434,10,1,100,0.05961314197900501,-10,-1,-100,18878.259517114027,-0.005127496094755631,-0.005600262936812978,0.9999711725039061,75.49740969291283,4.6569132983300205,499.811910417675,-115.2761084662972,-118.53578186035156,4761.76025390625,True
1599386978.7562413,0.0,10,0.5,0.5,1.8471929779052734,-0.1005,-0.03,-0.5,-0.08132968926156196,10,1,100,-0.02317095512217362,-10,-1,-100,18873.637580057723,-0.004380116452785071,-0.005787809698888121,0.999973657572413,75.05119808123953,4.631050172355738,498.5619054692534,-115.63919878757196,-114.91485595703125,4761.76025390625,True
1599386978.7941403,0.0,10,0.5,0.5,-1.2871564407348632,-0.1005,-0.03,-0.5,-0.09235449652906241,10,1,100,-0.1118534070157943,-10,-1,-100,18864.350130636594,-0.002900358801493592,-0.006056407625127979,0.9999774536685819,73.6263551331747,4.5469288384744,492.448129504997,-116.36548019293046,-106.79298400878906,4761.76025390625,True
1599386978.8320386,0.0,10,0.5,0.5,-0.01747029113769516,-0.1005,-0.03,-0.5,-0.0744949819275796,10,1,100,-0.043851299120795335,-10,-1,-100,18859.684615007835,-0.0021799959088131767,-0.006136131120361917,0.9999787975315834,72.59239092063012,4.485023911377522,487.18917407697336,-116.72869745546606,-102.2923583984375,4761.76025390625,True
1599386979.1653895,0.0,10,0.5,0.5,0.7733243827819822,-0.1005,-0.03,-0.5,-0.06946590513410592,10,1,100,-0.010103258846927352,-10,-1,-100,18857.346408377634,-0.0018383939477211759,-0.006161076870879652,0.999979330506128,72.02293383495245,4.45076831737395,484.19038565100607,-116.91033037251039,-100.02074432373047,4761.76025390625,True
1599386979.199306,0.0,10,0.5,0.5,0.4820204734802247,-0.1005,-0.03,-0.5,-0.0691952811953316,10,1,100,-0.013913753996710292,-10,-1,-100,18855.00456848205,-0.001499084638435722,-0.006179838579030568,0.9999797809657871,71.46649704779652,4.417253136418551,481.26698895180334,-117.09197902719039,-97.79996490478516,4761.76025390625,True
1599386979.2342458,0.0,10,0.5,0.5,-1.1432420806884767,-0.1005,-0.03,-0.5,-0.06986826842463456,10,1,100,-0.05636151501632952,-10,-1,-100,18850.309988943627,-0.0008109201495297858,-0.006201539657732215,0.9999804414659244,70.26660919293204,4.344593424027387,474.7959430542179,-117.45532607099423,-93.41119384765625,4761.76025390625,True
1599386979.291104,0.0,10,0.5,0.5,-3.132608322143555,-0.1005,-0.03,-0.5,-0.06413845894828496,10,1,100,-0.0962521747302347,-10,-1,-100,18843.240864205407,0.0001711300106705628,-0.006167917685811422,0.9999809635717773,68.44677135282674,4.233548628811531,464.85400450820384,-118.00046673535877,-86.62136840820312,4761.76025390625,True
1599386979.3279617,0.0,10,0.5,0.5,0.1474752044677734,-0.1005,-0.03,-0.5,-0.06759905686557127,10,1,100,0.0012785584328455417,-10,-1,-100,18843.240864205407,0.0001711300106705628,-0.006167917685811422,0.9999809635717773,68.44677135282674,4.233548628811531,464.85400450820384,-118.00046673535877,-86.62136840820312,4761.76025390625,True
1599386979.3619046,0.0,10,0.5,0.5,-2.756993881225586,-0.1005,-0.03,-0.5,-0.061297885231775096,10,1,100,-0.06659693857243118,-10,-1,-100,18838.509940232267,0.0007823827258743848,-0.006109852157574458,0.9999810286119848,66.99269585752852,4.143945758110898,456.5164936865194,-118.36398183357232,-81.96844482421875,4761.76025390625,True
1599386979.3957877,0.0,10,0.5,0.5,-3.20762841796875,-0.1005,-0.03,-0.5,-0.058866532592617496,10,1,100,-0.06782818671407119,-10,-1,-100,18833.764476996846,0.0013438875602376503,-0.0060344988449841834,0.9999808892123466,68.73723311520672,4.251647816812247,469.9823399620895,-118.72743027876723,-77.5264892578125,4761.76025390625,True
1599386979.4296975,0.0,10,0.5,0.5,-4.982727584838868,-0.1005,-0.03,-0.5,-0.04820808755470777,10,1,100,-0.10248054868085166,-10,-1,-100,18826.619031001115,0.002163484896943175,-0.005868706118731872,0.9999804386194726,71.05591103979849,4.393993034407042,488.2812162984979,-119.27239627964224,-71.0767822265625,4761.76025390625,True
1599386979.4616432,0.0,10,0.5,0.5,-3.1239061889648436,-0.1005,-0.03,-0.5,-0.05818293014382726,10,1,100,-0.04803284135430029,-10,-1,-100,18824.229951032787,0.0024076454988434318,-0.005808592303476454,0.9999802315539064,71.73439561067562,4.435461115514958,493.76590086167613,-119.45400051902479,-69.02096557617188,4761.76025390625,True
1599386979.4950018,0.0,10,0.5,0.5,-3.4018840484619144,-0.1005,-0.03,-0.5,-0.057047443798523646,10,1,100,-0.0502891253758654,-10,-1,-100,18821.837239243905,0.002645295896857587,-0.005743846064033905,0.9999800051211079,72.35745741878304,4.473460201679687,498.88370127548535,-119.63558142653653,-67.03500366210938,4761.76025390625,True
1599386979.5289109,0.0,10,0.5,0.5,-5.828457290649414,-0.1005,-0.03,-0.5,-0.040513042416977674,10,1,100,-0.09842327450482541,-10,-1,-100,18814.63731857913,0.0032945382582194823,-0.005535029729305105,0.999979254516593,73.91203775303978,4.567916380736987,512.1410888194755,-120.18020028451694,-61.516632080078125,4761.76025390625,True
1599386979.562825,0.0,10,0.5,0.5,-5.171191215515137,-0.1005,-0.03,-0.5,-0.044321206256310794,10,1,100,-0.07626695019432325,-10,-1,-100,18809.81922055385,0.0036786711546294214,-0.0053803855027652015,0.9999787591896029,74.71731054871677,4.616657845774846,519.430812515983,-120.54319112876439,-58.208709716796875,4761.76025390625,True
1599386979.5976932,0.0,10,0.5,0.5,-3.636003799438477,-0.1005,-0.03,-0.5,-0.05970568360267464,10,1,100,-0.038371436132635856,-10,-1,-100,18809.81922055385,0.0036786711546294214,-0.0053803855027652015,0.9999787591896029,74.71731054871677,4.616657845774846,519.430812515983,-120.54319112876439,-58.208709716796875,4761.76025390625,True
1599386979.631191,0.0,10,0.5,0.5,-7.178121307373047,-0.1005,-0.03,-0.5,-0.027627009171540665,10,1,100,-0.10673044625395957,-10,-1,-100,18800.139472922427,0.004296035254546765,-0.005089507693532135,0.9999778202502939,75.89237042538957,4.687684852639417,531.0720937640438,-121.2690074262837,-52.4859619140625,4761.76025390625,True
1599386979.6621435,0.0,10,0.5,0.5,-4.419153625488281,-0.1005,-0.03,-0.5,-0.05660694909561935,10,1,100,-0.04540652678661284,-10,-1,-100,18800.139472922427,0.004296035254546765,-0.005089507693532135,0.9999778202502939,75.89237042538957,4.687684852639417,531.0720937640438,-121.2690074262837,-52.4859619140625,4761.76025390625,True
1599386979.6970148,0.0,10,0.5,0.5,-5.269087783813477,-0.1005,-0.03,-0.5,-0.04762843116552543,10,1,100,-0.06034956563945677,-10,-1,-100,18797.710464167758,0.004428131148441822,-0.005008865175978808,0.9999776512123564,76.11421797237769,4.701120775281523,533.4951228576031,-121.4504335012937,-51.241119384765625,4761.76025390625,True
1599386979.7478795,0.0,10,0.5,0.5,-6.099869430541992,-0.1005,-0.03,-0.5,-0.03995358568115587,10,1,100,-0.07199107869780284,-10,-1,-100,18792.841561998124,0.004650735944856323,-0.004866783371055693,0.9999773422807091,76.49101435001374,4.724019174992929,537.886249419098,-121.81325841870795,-48.974639892578125,4761.76025390625,True
1599386979.782786,0.0,10,0.5,0.5,-6.234941101074219,-0.1005,-0.03,-0.5,-0.0369180230339889,10,1,100,-0.07070449306437411,-10,-1,-100,18787.958147566882,0.004838401482761409,-0.004711083629309459,0.999977197521088,76.79645851957531,4.742719328917135,541.7918313367517,-122.17605158480401,-47.00518798828125,4761.76025390625,True
1599386979.8147264,0.0,10,0.5,0.5,-6.326629104614258,-0.1005,-0.03,-0.5,-0.0365338679072299,10,1,100,-0.06793268808596856,-10,-1,-100,18783.06022218382,0.00498137654779342,-0.0045670984742872765,0.9999771634888547,77.04869463212293,4.758328481419864,545.3356345506295,-122.53881747014903,-45.332916259765625,4761.76025390625,True
1599386979.8506052,0.0,10,0.5,0.5,-6.733510986328126,-0.1005,-0.03,-0.5,-0.028466865191713594,10,1,100,-0.06915935128496226,-10,-1,-100,18775.686128499336,0.005120165607768873,-0.004363995121243498,0.9999773694692949,77.36246004869703,4.778071466488124,550.2155693485782,-123.08292160146328,-43.38128662109375,4761.76025390625,True
1599386979.8875067,0.0,10,0.5,0.5,-6.130208450317383,-0.1005,-0.03,-0.5,-0.04147221564475168,10,1,100,-0.05848225383334865,-10,-1,-100,18773.220842844923,0.00514702307663106,-0.004298840577997491,0.9999775138087524,77.45652110480046,4.784073816623053,551.7725910615428,-123.26427872550528,-42.879119873046875,4761.76025390625,True
1599386979.9184234,0.0,10,0.5,0.5,-6.404526428222657,-0.1005,-0.03,-0.5,-0.034495206757267555,10,1,100,-0.05863169024135535,-10,-1,-100,18768.279390629614,0.00517111339310728,-0.004177305629843363,0.9999779046078722,77.63684935391129,4.795682518996263,554.8383314897768,-123.62697733938177,-42.0972900390625,4761.76025390625,True
1599386979.9553466,0.0,10,0.5,0.5,-6.353399383544922,-0.1005,-0.03,-0.5,-0.03398846295197688,10,1,100,-0.05480917353686408,-10,-1,-100,18763.32343101222,0.00515690676328258,-0.004063306260448716,0.9999784476951834,77.81331319057708,4.807141058303385,557.8859168558155,-123.98965566876932,-41.6119384765625,4761.76025390625,True
1599386979.9912438,0.0,10,0.5,0.5,-6.2395164642333985,-0.1005,-0.03,-0.5,-0.03935418017834079,10,1,100,-0.0540889123925868,-10,-1,-100,18760.840011087595,0.005136099966122465,-0.004009647062368086,0.9999787713784595,77.90201189229099,4.812922671937945,559.4165867079728,-124.1709872250989,-41.480377197265625,4761.76025390625,True
1599386980.0251744,0.0,10,0.5,0.5,-6.241260070800782,-0.1005,-0.03,-0.5,-0.03903625676845858,10,1,100,-0.052964445714921815,-10,-1,-100,18758.352964883903,0.0051061985764421555,-0.003958957451869643,0.9999791264781441,77.99170655697628,4.818776397019297,560.9567888949755,-124.35231380683827,-41.42291259765625,4761.76025390625,True
1599386980.0570858,0.0,10,0.5,0.5,-6.08263557434082,-0.1005,-0.03,-0.5,-0.028211626874060817,10,1,100,-0.04013184289879389,-10,-1,-100,18750.870067476295,0.0049616189572026246,-0.0038154980344144085,0.9999804119641907,78.2689028513844,4.836863155551708,565.6503618107959,-124.89626242267383,-41.694488525390625,4761.76025390625,True
1599386980.0909643,0.0,10,0.5,0.5,-6.247063430786133,-0.1005,-0.03,-0.5,-0.04243823190542785,10,1,100,-0.05464315360362306,-10,-1,-100,18750.870067476295,0.0049616189572026246,-0.0038154980344144085,0.9999804119641907,78.2689028513844,4.836863155551708,565.6503618107959,-124.89626242267383,-41.694488525390625,4761.76025390625,True
1599386980.1259038,0.0,10,0.5,0.5,-5.938104766845703,-0.1005,-0.03,-0.5,-0.032648184918132435,10,1,100,-0.039090564782189564,-10,-1,-100,18745.863338613068,0.004819949165178369,-0.0037274533211995786,0.9999814369185978,78.46017418593331,4.84930218790095,568.8386275009865,-125.25886872791732,-42.245361328125,4761.76025390625,True
1599386980.1567879,0.0,10,0.5,0.5,-5.719517776489258,-0.1005,-0.03,-0.5,-0.03217317251232673,10,1,100,-0.03457047422480004,-10,-1,-100,18740.84210619796,0.00465008348765058,-0.003643988587595236,0.9999825488830948,78.65317142628817,4.861795681709657,572.0495956614709,-125.62145376249538,-43.091827392578125,4761.76025390625,True
1599386980.1916928,0.0,10,0.5,0.5,-5.054433883666992,-0.1005,-0.03,-0.5,-0.027409795518591053,10,1,100,-0.01534139354470549,-10,-1,-100,18733.283064765506,0.004321151495588224,-0.003525647320636138,0.9999844486094385,78.93174004512454,4.879691959714441,576.8054920292861,-126.16529259796935,-44.915374755859375,4761.76025390625,True
1599386980.2256036,0.0,10,0.5,0.5,-5.0100744934082035,-0.1005,-0.03,-0.5,-0.030641877333675342,10,1,100,-0.02014439355308972,-10,-1,-100,18728.225576704368,0.004066512424800648,-0.003448209046992822,0.9999857865645229,79.09740633008889,4.890224371087842,579.8417120450406,-126.52782755868446,-46.49993896484375,4761.76025390625,True
1599386980.2585523,0.0,10,0.5,0.5,-5.791494140625001,-0.1005,-0.03,-0.5,-0.038300641544906464,10,1,100,-0.045500249566664236,-10,-1,-100,18728.225576704368,0.004066512424800648,-0.003448209046992822,0.9999857865645229,79.09740633008889,4.890224371087842,579.8417120450406,-126.52782755868446,-46.49993896484375,4761.76025390625,True
1599386980.2934523,0.0,10,0.5,0.5,-4.649728103637695,-0.1005,-0.03,-0.5,-0.029344690717923033,10,1,100,-0.014671109614480548,-10,-1,-100,18723.15358780697,0.0037872516988428934,-0.0033674541272773824,0.9999871584061819,79.23200444733321,4.898673375760786,582.6587651811657,-126.89034556432394,-48.379302978515625,4761.76025390625,True
1599386980.3273683,0.0,10,0.5,0.5,-4.938462066650391,-0.1005,-0.03,-0.5,-0.03292609317518274,10,1,100,-0.025730778404382405,-10,-1,-100,18720.612155669136,0.0036351658961208057,-0.003327231360904954,0.9999878574764688,79.28280392313175,4.901808505461363,583.9487781523234,-127.07159917772061,-49.42950439453125,4761.76025390625,True
1599386980.3642309,0.0,10,0.5,0.5,-2.4751498107910157,-0.1005,-0.03,-0.5,-0.01844545694793788,10,1,100,0.0340935280065624,-10,-1,-100,18710.410177627928,0.0029544132299739565,-0.0031596434400473048,0.9999906440041318,79.32743486741568,4.904031402161207,587.9506351181114,-127.79659148694307,-54.3663330078125,4761.76025390625,True
1599386980.4001348,0.0,10,0.5,0.5,-4.05318864440918,-0.1005,-0.03,-0.5,-0.030248885220058898,10,1,100,-0.013115465565456084,-10,-1,-100,18707.850620928686,0.002766676007173778,-0.0031153213272067442,0.9999913201007794,79.28643794169967,4.9012301443566875,588.5661226238394,-127.97783785367642,-55.784393310546875,4761.76025390625,True
1599386980.4400284,0.0,10,0.5,0.5,-4.719949081420899,-0.1005,-0.03,-0.5,-0.034611078833394184,10,1,100,-0.031669693550471036,-10,-1,-100,18707.850620928686,0.002766676007173778,-0.0031153213272067442,0.9999913201007794,79.28643794169967,4.9012301443566875,588.5661226238394,-127.97783785367642,-55.784393310546875,4761.76025390625,True
1599386980.475931,0.0,10,0.5,0.5,-2.842239974975586,-0.1005,-0.03,-0.5,-0.023763475348182787,10,1,100,0.010438519833788611,-10,-1,-100,18702.720632225974,0.0023858694699987167,-0.0030173432743477386,0.9999926016058502,79.12258120041552,4.890417114539354,589.186834846789,-128.34033516916662,-58.840911865234375,4761.76025390625,True
1599386980.513856,0.0,10,0.5,0.5,-2.3088506774902346,-0.1005,-0.03,-0.5,-0.02232114576637454,10,1,100,0.018031715372510543,-10,-1,-100,18697.57614332519,0.001972865458301352,-0.0029158057846838874,0.9999938029200529,78.82739268051563,4.8713161268411405,588.8221936968289,-128.7028467559484,-62.19122314453125,4761.76025390625,True
1599386980.5497758,0.0,10,0.5,0.5,0.6255319519042963,-0.1005,-0.03,-0.5,-0.006936230934306908,10,1,100,0.07376407312720132,-10,-1,-100,18687.243660594104,0.001093183302651422,-0.0026842980981551454,0.9999957997381724,77.74187797053966,4.802278125257272,584.3414991501138,-129.427957849413,-69.77197265625,4761.76025390625,True
1599386980.5872312,0.0,10,0.5,0.5,-0.5501330871582031,-0.1005,-0.03,-0.5,-0.015654214913085666,10,1,100,0.036727573037240266,-10,-1,-100,18682.055663570878,0.000633102223962892,-0.002553855827683806,0.9999965384950017,76.89510989707348,4.74907372657621,579.7773110981942,-129.79058397025068,-74.00201416015625,4761.76025390625,True
1599386980.6201441,0.0,10,0.5,0.5,-2.5826476135253906,-0.1005,-0.03,-0.5,-0.028609006638288713,10,1,100,-0.008937193811528944,-10,-1,-100,18682.055663570878,0.000633102223962892,-0.002553855827683806,0.9999965384950017,76.89510989707348,4.74907372657621,579.7773110981942,-129.79058397025068,-74.00201416015625,4761.76025390625,True
1599386980.6550457,0.0,10,0.5,0.5,-1.2073474273681644,-0.1005,-0.03,-0.5,-0.020948263379175658,10,1,100,0.015756661541822987,-10,-1,-100,18679.456224945025,0.00041173391184227243,-0.0024850257555276045,0.9999968275560579,76.38265833276377,4.7170567492211575,576.8093884664507,-129.9719210665898,-76.15487670898438,4761.76025390625,True
1599386980.6889548,0.0,10,0.5,0.5,1.673238494873047,-0.1005,-0.03,-0.5,-0.0033652564970340637,10,1,100,0.07113114680900749,-10,-1,-100,18671.636145333177,-0.000289845767253604,-0.002263409653158634,0.9999973964796974,74.61978587784006,4.607635399531801,566.1284751688374,-130.51604216265648,-82.60565185546875,4761.76025390625,True
1599386980.722866,0.0,10,0.5,0.5,-0.10100083923339853,-0.1005,-0.03,-0.5,-0.016572315843222777,10,1,100,0.02784927113087564,-10,-1,-100,18669.02219615772,-0.0005306056860274072,-0.0021829717557046912,0.999997476542776,73.93961901619416,4.565687235155373,561.8390843631878,-130.69745612310157,-84.85647583007812,4761.76025390625,True
1599386980.7587373,0.0,10,0.5,0.5,1.694561996459961,-0.1005,-0.03,-0.5,-0.0062567648295103855,10,1,100,0.056138879592540825,-10,-1,-100,18663.783411930897,-0.0010034883991860014,-0.002016956541244033,0.9999974624454521,73.55255001793608,4.542354433098719,560.6326800547916,-131.06031638334304,-89.56838989257812,4761.76025390625,True
