Timestamp,Input Throttle,horizon,dT,dt,Input Roll,Roll P,Roll I,Roll D,Input Pitch,Pitch P,Pitch I,Pitch D,Input Yaw,Yaw P,Yaw I,Yaw D,Altitude,Direction X,Direction Y,Direction Z,Drag X,Drag Y,Drag Z,Vertical Velocity,Roll,Mass,Has Fuel
1599386904.28729,0.0,10,0.5,0.5,-5.635199935913087,-0.1005,-0.03,-0.2505,-0.0001630981364710857,10,1,100,0.498158680747966,-10,-1,-100,19349.72230040212,-0.04884631175200664,-0.00017465089649346507,0.9988062911922861,61.07656733119302,3.6863001230384933,233.73168328255903,-68.66499588381637,-33.922882080078125,4761.76025390625,True
1599386904.3172092,0.0,10,0.5,0.5,-5.803574661254883,-0.1005,-0.03,-0.2505,-0.0008173231932605264,10,1,100,0.4989570952923189,-10,-1,-100,19348.345351161784,-0.04889730581197984,-0.0001660449795723426,0.9988037975064946,61.16634308095738,3.6923916947179922,234.72083056240692,-68.8474525731125,-33.924041748046875,4761.76025390625,True
1599386904.350122,0.0,10,0.5,0.5,-5.971664566040039,-0.1005,-0.03,-0.2505,-0.0007454267883571478,10,1,100,0.5045764039511184,-10,-1,-100,19346.96475285699,-0.048950296576297306,-0.00015741686507258934,0.9988012032857305,61.25634848539716,3.6985008792347447,235.71293439864596,-69.02990592282536,-33.925262451171875,4761.76025390625,True
1599386904.3860254,0.0,10,0.5,0.5,-6.139755386352539,-0.1005,-0.03,-0.2505,-0.0006355515944221605,10,1,100,0.5101945902178829,-10,-1,-100,19345.580505629536,-0.04900504414939623,-0.00014843115297788413,0.9987985200309963,61.346675085866146,3.7046331797068563,236.70835311760973,-69.2123556881176,-33.926513671875,4761.76025390625,True
1599386904.4179397,0.0,10,0.5,0.5,-6.255352203369141,-0.1005,-0.03,-0.2505,0.021751740700434938,10,1,100,0.5080306116923056,-10,-1,-100,19342.801064388477,-0.04899059209820873,6.339345265507408e-05,0.998799238018901,61.53083325152793,3.7171189883392532,238.7190399776356,-69.57724476428643,-34.07733154296875,4761.76025390625,True
1599386904.449855,0.0,10,0.5,0.5,-6.312532745361327,-0.1005,-0.03,-0.2505,0.028657045762559483,10,1,100,0.5102578891541081,-10,-1,-100,19340.007028209162,-0.04895316494487448,0.0003186791461110274,0.9988010242713419,61.72809032700705,3.7303956923870194,240.78927758114878,-69.94211910317028,-34.500030517578125,4761.76025390625,True
1599386904.4837642,0.0,10,0.5,0.5,-6.472671157836914,-0.1005,-0.03,-0.2505,0.022731805330932508,10,1,100,0.5133275485748812,-10,-1,-100,19338.604536932777,-0.04890254337753684,0.000496601518832457,0.9988034314308994,61.831754734070174,3.7373320095988993,241.847455774981,-70.12455022004009,-34.81982421875,4761.76025390625,True
1599386904.5194137,0.0,10,0.5,0.5,-6.012260284423829,-0.1005,-0.03,-0.2505,0.1231312603240018,10,1,100,0.47206992173840917,-10,-1,-100,19332.958088107407,-0.0484369975783733,0.0015706199925899934,0.998825004902476,62.264407650270826,3.766054369390492,246.17464375257074,-70.85423029805975,-36.831390380859375,4761.76025390625,True
1599386904.5523264,0.0,10,0.5,0.5,-6.675663436889649,-0.1005,-0.03,-0.2505,0.01588647494750716,10,1,100,0.5234682014126004,-10,-1,-100,19332.958088107407,-0.0484369975783733,0.0015706199925899934,0.998825004902476,62.264407650270826,3.766054369390492,246.17464375257074,-70.85423029805975,-36.831390380859375,4761.76025390625,True
1599386904.5832448,0.0,10,0.5,0.5,-6.3276824798583995,-0.1005,-0.03,-0.2505,0.09945458046475691,10,1,100,0.4846450703349494,-10,-1,-100,19330.112974148942,-0.048040026388959774,0.0023289022063899094,0.9988426963636773,62.47657954131544,3.7800512798327426,248.33622112634183,-71.21904246640608,-38.2772216796875,4761.76025390625,True
1599386904.6171527,0.0,10,0.5,0.5,-6.552560119628907,-0.1005,-0.03,-0.2505,0.06889186320324292,10,1,100,0.5010846607219576,-10,-1,-100,19328.68494521489,-0.04778492155993031,0.0027382896054611696,0.9988538947421428,62.576877678056434,3.7866585984327594,249.39748954864663,-71.40144151575834,-39.1104736328125,4761.76025390625,True
1599386904.6529593,0.0,10,0.5,0.5,-6.083638641357422,-0.1005,-0.03,-0.2505,0.13227554890722398,10,1,100,0.4616509380283447,-10,-1,-100,19325.817943686037,-0.0471954845910453,0.0036840271651058204,0.9988788786324712,62.75642862137258,3.7984976243827715,251.44243049292112,-71.7662262559177,-40.99676513671875,4761.76025390625,True
1599386904.686865,0.0,10,0.5,0.5,-6.165212493896485,-0.1005,-0.03,-0.2505,0.09415306264805455,10,1,100,0.48205997803175715,-10,-1,-100,19324.37897136039,-0.04684671663865443,0.004193720460476983,0.9988932865170717,62.83182833094557,3.8034875211865597,252.4101801964023,-71.94861225921619,-42.05010986328125,4761.76025390625,True
1599386904.7197797,0.0,10,0.5,0.5,-5.587978820800782,-0.1005,-0.03,-0.2505,0.16552199791474245,10,1,100,0.4286990018444712,-10,-1,-100,19321.49008365441,-0.04604646742563072,0.005301930924761066,0.998925228616281,62.94264427012678,3.8109076782555498,254.18937997798594,-72.31337294802964,-44.376953125,4761.76025390625,True
1599386904.7576818,0.0,10,0.5,0.5,-5.219583526611329,-0.1005,-0.03,-0.2505,0.1858179701307296,10,1,100,0.40394859803131844,-10,-1,-100,19318.586606021272,-0.04509665408523847,0.0064889489469121715,0.9989615534803532,62.98349196961577,3.8138806608989486,255.68979142613344,-72.67812166804123,-46.997802734375,4761.76025390625,True
1599386904.7886024,0.0,10,0.5,0.5,-4.814423309326172,-0.1005,-0.03,-0.2505,0.21043649330257685,10,1,100,0.37785665787249956,-10,-1,-100,19315.66853857739,-0.0439995278998135,0.007786019581798827,0.9990012109320315,62.93212896684362,3.8110339647276157,256.8162979857891,-73.04286285785675,-49.912109375,4761.76025390625,True
1599386904.8224428,0.0,10,0.5,0.5,-4.947983825683593,-0.1005,-0.03,-0.2505,0.15345919209093883,10,1,100,0.4200783619484531,-10,-1,-100,19314.204033862217,-0.04339047743834043,0.008440410747557543,0.9990225352483724,62.864514494359405,3.806977488546213,257.2074568779218,-73.22523255180619,-51.479736328125,4761.76025390625,True
1599386904.8573503,0.0,10,0.5,0.5,-4.112828704833984,-0.1005,-0.03,-0.2505,0.23769508040314524,10,1,100,0.3336257885029711,-10,-1,-100,19311.264082144597,-0.042055873683805256,0.009793870965423047,0.9990672567851498,62.62931127406939,3.7926222313798177,257.574997154683,-73.58997479593242,-54.835479736328125,4761.76025390625,True
1599386904.8872635,0.0,10,0.5,0.5,-3.618228744506836,-0.1005,-0.03,-0.2505,0.25413320932048356,10,1,100,0.302449377652359,-10,-1,-100,19308.30954034964,-0.04056497664821732,0.011166251198210369,0.9991145067026642,62.23811087086268,3.7685815073295856,257.28874889998787,-73.95472752177585,-58.485626220703125,4761.76025390625,True
1599386904.9231713,0.0,10,0.5,0.5,-3.7883471832275384,-0.1005,-0.03,-0.2505,0.19575396722212107,10,1,100,0.36186777444583806,-10,-1,-100,19306.826797885704,-0.03975693933301461,0.011874425907844984,0.9991388210775468,61.97524970843099,3.7524093221346386,256.8610961173901,-74.13711082811261,-60.4208984375,4761.76025390625,True
1599386904.9570444,0.0,10,0.5,0.5,-2.7704918518066406,-0.1005,-0.03,-0.2505,0.27803097820909645,10,1,100,0.25160460058771705,-10,-1,-100,19303.8503697681,-0.03802749754508008,0.013257516176756724,0.9991887447801252,61.297331873889036,3.7107291080408746,255.35607481151317,-74.5018976765943,-64.51266479492188,4761.76025390625,True
1599386904.9899921,0.0,10,0.5,0.5,-1.3708890838623047,-0.1005,-0.03,-0.2505,0.36170774417042717,10,1,100,0.10806381504480467,-10,-1,-100,19299.358365947963,-0.03515923189112662,0.01526600590580559,0.9992651187130019,59.846915410233606,3.6218322232622615,251.22753206564246,-75.04914888698482,-71.20321655273438,4761.76025390625,True
1599386905.023868,0.0,10,0.5,0.5,-2.9562529449462893,-0.1005,-0.03,-0.2505,0.16201696913961064,10,1,100,0.3936867551701584,-10,-1,-100,19299.358365947963,-0.03515923189112662,0.01526600590580559,0.9992651187130019,59.846915410233606,3.6218322232622615,251.22753206564246,-75.04914888698482,-71.20321655273438,4761.76025390625,True
1599386905.0597985,0.0,10,0.5,0.5,-0.28721690368652375,-0.1005,-0.03,-0.2505,0.3656091377403476,10,1,100,0.04689812882333344,-10,-1,-100,19294.83352261514,-0.03201723300138051,0.017106778088134718,0.9993409102675517,57.79412600133031,3.4966879750914317,244.4621370869122,-75.59651675705365,-78.55813598632812,4761.76025390625,True
1599386905.094713,0.0,10,0.5,0.5,0.7875070037841796,-0.1005,-0.03,-0.2505,0.36878109246826696,10,1,100,-0.020588238669126346,-10,-1,-100,19290.27583136689,-0.02856011179206555,0.018798311617630126,0.9994153008108045,55.05846197717856,3.330921258962988,234.6582729273414,-76.14403076375964,-86.576904296875,4761.76025390625,True
1599386905.1266286,0.0,10,0.5,0.5,-0.12323913574218759,-0.1005,-0.03,-0.2505,0.25165404187458495,10,1,100,0.19867766007891335,-10,-1,-100,19288.74930003262,-0.027425633901573376,0.019260087672982734,0.9994382840515597,53.98297209713104,3.2660023224300097,230.652843561349,-76.32657132733799,-89.36669921875,4761.76025390625,True
1599386905.1614976,0.0,10,0.5,0.5,1.2673809127807618,-0.1005,-0.03,-0.2505,0.30174181712884485,10,1,100,0.0540799460753017,-10,-1,-100,19285.68528358871,-0.02509483286836424,0.02012479652735003,0.9994824870541963,52.5946857316537,3.182733893321264,225.8483807197309,-76.69168923998352,-94.98236846923828,4761.76025390625,True
1599386905.1984272,0.0,10,0.5,0.5,-0.008836338043212821,-0.1005,-0.03,-0.2505,0.21643937027009466,10,1,100,0.28533048493921775,-10,-1,-100,19285.68528358871,-0.02509483286836424,0.02012479652735003,0.9994824870541963,52.5946857316537,3.182733893321264,225.8483807197309,-76.69168923998352,-94.98236846923828,4761.76025390625,True
1599386905.2303467,0.0,10,0.5,0.5,3.0401025810241697,-0.1005,-0.03,-0.2505,0.33857339012145304,10,1,100,-0.11989899693456368,-10,-1,-100,19281.061878956272,-0.021426347615707535,0.02122571404821517,0.9995450868725203,55.12975608610237,3.3383214914143555,238.50651830728722,-77.23923598681836,-103.32566833496094,4761.76025390625,True
1599386905.2642224,0.0,10,0.5,0.5,2.966677207946778,-0.1005,-0.03,-0.2505,0.2909581536238692,10,1,100,-0.0269844182777787,-10,-1,-100,19277.961361398106,-0.01895343776383813,0.021784537405523625,0.9995830136246613,56.605115104096846,3.429606790882765,246.10151839659005,-77.60415778296269,-108.68763732910156,4761.76025390625,True
1599386905.2991292,0.0,10,0.5,0.5,1.7683041915893556,-0.1005,-0.03,-0.2505,0.23606682904279166,10,1,100,0.21822621675224402,-10,-1,-100,19277.961361398106,-0.01895343776383813,0.021784537405523625,0.9995830136246613,56.605115104096846,3.429606790882765,246.10151839659005,-77.60415778296269,-108.68763732910156,4761.76025390625,True
1599386905.3330386,0.0,10,0.5,0.5,3.7135971450805663,-0.1005,-0.03,-0.2505,0.2854602262821454,10,1,100,-0.04050502405578932,-10,-1,-100,19274.84624961822,-0.016618675629020776,0.022225816452037053,0.9996148421784152,57.852017881512765,3.507290781169358,252.7605046924303,-77.96899620144225,-113.85221862792969,4761.76025390625,True
1599386905.3679824,0.0,10,0.5,0.5,3.417912094116211,-0.1005,-0.03,-0.2505,0.2617393296387781,10,1,100,0.059830650523566176,-10,-1,-100,19273.28322167066,-0.015425162144691962,0.022405007606158437,0.9996299715429594,58.449577309366184,3.5445983542876385,255.99619802847315,-78.15138587185359,-116.33112335205078,4761.76025390625,True
1599386905.4068842,0.0,10,0.5,0.5,4.596122989654541,-0.1005,-0.03,-0.2505,0.27225839607511526,10,1,100,-0.08561437767031316,-10,-1,-100,19270.146224067197,-0.013035862420581806,0.022657046530507895,0.9996583038886167,59.41366659377651,3.6051719660901065,261.4883858764744,-78.51611360348141,-121.07127380371094,4761.76025390625,True
1599386905.444746,0.0,10,0.5,0.5,6.554155242919922,-0.1005,-0.03,-0.2505,0.2713847681368674,10,1,100,-0.34413444423391437,-10,-1,-100,19263.82846840925,-0.00853084513043147,0.022873185054621173,0.9997019766344457,60.536112013429936,3.676880606639242,269.01373549017916,-79.24541471699925,-129.66928100585938,4761.76025390625,True
1599386905.482667,0.0,10,0.5,0.5,5.883308143615723,-0.1005,-0.03,-0.2505,0.2494550555088061,10,1,100,-0.12968428251087413,-10,-1,-100,19260.647713494254,-0.006403130215651197,0.02286660916770815,0.9997180192977482,60.77226329234627,3.6925854150572337,271.360444615284,-79.61001495352812,-133.52590942382812,4761.76025390625,True
1599386905.5175827,0.0,10,0.5,0.5,5.049700355529785,-0.1005,-0.03,-0.2505,0.250473296349581,10,1,100,0.08098495859856092,-10,-1,-100,19260.647713494254,-0.006403130215651197,0.02286660916770815,0.9997180192977482,60.77226329234627,3.6925854150572337,271.360444615284,-79.61001495352812,-133.52590942382812,4761.76025390625,True
1599386905.5494914,0.0,10,0.5,0.5,6.4150507965087895,-0.1005,-0.03,-0.2505,0.2504951541343935,10,1,100,-0.13811457808878352,-10,-1,-100,19257.452375079272,-0.0044283087027232595,0.022864315317897028,0.9997287698006281,60.845695652477694,3.6981045191889272,272.9873205846221,-79.97459675719084,-137.08636474609375,4761.76025390625,True
1599386905.586401,0.0,10,0.5,0.5,7.330317192077636,-0.1005,-0.03,-0.2505,0.22889078935172444,10,1,100,-0.25916800469989454,-10,-1,-100,19252.632024751278,-0.0015513184710201626,0.022663336212053065,0.9997419500064709,60.7359073896548,3.6924983262383,274.44051015250756,-80.52145298885384,-141.87510681152344,4761.76025390625,True
1599386905.6223,0.0,10,0.5,0.5,6.246385620117188,-0.1005,-0.03,-0.2505,0.24913246215250448,10,1,100,0.026543515555946435,-10,-1,-100,19252.632024751278,-0.0015513184710201626,0.022663336212053065,0.9997419500064709,60.7359073896548,3.6924983262383,274.44051015250756,-80.52145298885384,-141.87510681152344,4761.76025390625,True
1599386905.6591954,0.0,10,0.5,0.5,8.223371704101563,-0.1005,-0.03,-0.2505,0.22410265289039166,10,1,100,-0.3427941267498638,-10,-1,-100,19246.15385123901,0.0017904763505846417,0.022434993583482467,0.9997467005483675,60.322593415884434,3.6680225473073116,275.1519580527259,-81.25059317418732,-147.22389221191406,4761.76025390625,True
1599386905.6970928,0.0,10,0.5,0.5,7.4039197998046875,-0.1005,-0.03,-0.2505,0.2338896994154697,10,1,100,-0.09837109474520957,-10,-1,-100,19244.52519339032,0.002587585975533586,0.022315791202120853,0.9997476230838673,60.1956875278665,3.6603667174264767,275.2170028499113,-81.43288067300955,-148.377197265625,4761.76025390625,True
1599386905.7319727,0.0,10,0.5,0.5,7.2185918197631835,-0.1005,-0.03,-0.2505,0.24581893502663954,10,1,100,-0.02058075841077056,-10,-1,-100,19244.52519339032,0.002587585975533586,0.022315791202120853,0.9997476230838673,60.1956875278665,3.6603667174264767,275.2170028499113,-81.43288067300955,-148.377197265625,4761.76025390625,True
1599386905.7689083,0.0,10,0.5,0.5,8.046005035400391,-0.1005,-0.03,-0.2505,0.22933078146685415,10,1,100,-0.1828424483737682,-10,-1,-100,19241.256940541556,0.004046317022360632,0.022165980002853747,0.9997461160960156,59.92982836259925,3.6442339107402466,275.2842484488711,-81.7974596858033,-150.46060180664062,4761.76025390625,True
1599386905.8058,0.0,10,0.5,0.5,8.515075790405273,-0.1005,-0.03,-0.2505,0.2105271249128265,10,1,100,-0.26118903290729945,-10,-1,-100,19236.32721748331,0.006069148579378283,0.02185929209532672,0.9997426352740052,59.54194444377072,3.6205370413280025,275.4157979106682,-82.34433785128488,-153.0326690673828,4761.76025390625,True
1599386905.8429215,0.0,10,0.5,0.5,8.412974601745606,-0.1005,-0.03,-0.2505,0.22018280667720694,10,1,100,-0.1930036726853849,-10,-1,-100,19233.02250608313,0.007274946725822552,0.021669185552668606,0.9997387266419265,59.31071529137108,3.606335157979003,275.6178088689599,-82.70892822487727,-154.37771606445312,4761.76025390625,True
1599386905.8798568,0.0,10,0.5,0.5,8.65197395324707,-0.1005,-0.03,-0.2505,0.21407723873472992,10,1,100,-0.24958596952044015,-10,-1,-100,19228.03809470893,0.008873076760234687,0.021441944826788746,0.9997307194994319,59.03857411732561,3.5895196763563533,276.25319752994244,-83.2558164330208,-155.84033203125,4761.76025390625,True
1599386905.9137695,0.0,10,0.5,0.5,8.352531921386719,-0.1005,-0.03,-0.2505,0.23665884488862396,10,1,100,-0.09130058677681531,-10,-1,-100,19228.03809470893,0.008873076760234687,0.021441944826788746,0.9997307194994319,59.03857411732561,3.5895196763563533,276.25319752994244,-83.2558164330208,-155.84033203125,4761.76025390625,True
1599386905.949703,0.0,10,0.5,0.5,8.528100402832033,-0.1005,-0.03,-0.2505,0.22784564458718592,10,1,100,-0.145638859909117,-10,-1,-100,19226.369332238915,0.00935496889283474,0.021363117888131226,0.9997280138873333,58.973842140980636,3.5854865283789032,276.58330499022827,-83.4381118508279,-156.18023681640625,4761.76025390625,True
1599386905.987571,0.0,10,0.5,0.5,8.703541488647462,-0.1005,-0.03,-0.2505,0.20938175277990614,10,1,100,-0.2795885283127116,-10,-1,-100,19219.657824375783,0.011000862101263963,0.021124785489579957,0.9997163219989199,58.862829748919346,3.5783391626501917,278.5914688719027,-84.16728066766598,-156.80038452148438,4761.76025390625,True
1599386906.0250835,0.0,10,0.5,0.5,8.592970321655274,-0.1005,-0.03,-0.2505,0.23306113756278574,10,1,100,-0.11625442552701776,-10,-1,-100,19219.657824375783,0.011000862101263963,0.021124785489579957,0.9997163219989199,58.862829748919346,3.5783391626501917,278.5914688719027,-84.16728066766598,-156.80038452148438,4761.76025390625,True
1599386906.0629556,0.0,10,0.5,0.5,8.574857666015625,-0.1005,-0.03,-0.2505,0.22484583469404085,10,1,100,-0.18944437240001316,-10,-1,-100,19216.28019583749,0.011657852176699667,0.021051292016313096,0.9997104268672353,58.89878823000085,3.5803317474147316,280.0276687716835,-84.5318515615593,-156.66693115234375,4761.76025390625,True
1599386906.099888,0.0,10,0.5,0.5,8.228287948608399,-0.1005,-0.03,-0.2505,0.225456663485898,10,1,100,-0.23265051011807247,-10,-1,-100,19209.481191780418,0.012639653255258877,0.02099118230161993,0.9996997596434476,59.15628408079688,3.595634154240365,283.7963901400026,-85.26095047487362,-155.51345825195312,4761.76025390625,True
1599386906.395147,0.0,10,0.5,0.5,8.538641693115235,-0.1005,-0.03,-0.2505,0.23133517406516438,10,1,100,-0.13547560899012395,-10,-1,-100,19209.481191780418,0.012639653255258877,0.02099118230161993,0.9996997596434476,59.15628408079688,3.595634154240365,283.7963901400026,-85.26095047487362,-155.51345825195312,4761.76025390625,True
1599386906.4250576,0.0,10,0.5,0.5,8.387758666992188,-0.1005,-0.03,-0.2505,0.23203408385049945,10,1,100,-0.15552157708148973,-10,-1,-100,19207.77232753916,0.012814077204968658,0.02099860402485137,0.9996973832387442,59.25660793492822,3.60165757946933,284.9151345867315,-85.44321397491102,-155.0404052734375,4761.76025390625,True
1599386906.4559894,0.0,10,0.5,0.5,8.320339233398437,-0.1005,-0.03,-0.2505,0.23247459298504433,10,1,100,-0.15491883233789536,-10,-1,-100,19206.05981787457,0.01296103318101252,0.021010138118167158,0.9996952464201959,59.369873028493615,3.608474831105728,286.09848730031916,-85.6254723168775,-154.49356079101562,4761.76025390625,True
1599386906.4919634,0.0,10,0.5,0.5,7.996137588500978,-0.1005,-0.03,-0.2505,0.2345404844461988,10,1,100,-0.16416080792321272,-10,-1,-100,19202.623863842222,0.013173478313232378,0.02104000362304155,0.9996918413774684,59.632104253720904,3.624307353727114,288.6455478991786,-85.9899719270663,-153.17864990234375,4761.76025390625,True
1599386906.5458257,0.0,10,0.5,0.5,8.047957122802734,-0.1005,-0.03,-0.2505,0.23348785070696274,10,1,100,-0.15060955236813267,-10,-1,-100,19200.900419466896,0.013239507563337888,0.021057950085483168,0.9996905912219428,59.77852870020586,3.633172110904314,289.9976865213924,-86.17221274192954,-152.41061401367188,4761.76025390625,True
1599386906.5853453,0.0,10,0.5,0.5,7.613250869750978,-0.1005,-0.03,-0.2505,0.2373433637977545,10,1,100,-0.14951945703108624,-10,-1,-100,19197.442596857087,0.013285654714185108,0.02110966425647484,0.9996888883316621,60.094238521430135,3.652338974209322,292.823010997048,-86.5366752176193,-150.6533203125,4761.76025390625,True
1599386906.6182547,0.0,10,0.5,0.5,6.917722274780273,-0.1005,-0.03,-0.2505,0.24241256058664953,10,1,100,-0.1298319938454242,-10,-1,-100,19192.228529987507,0.013145056380702607,0.021202991158758733,0.9996887718978691,60.60042863972826,3.6832375565387068,297.24698052465476,-87.08331890728422,-147.46485900878906,4761.76025390625,True
1599386906.6481743,0.0,10,0.5,0.5,7.2637021865844735,-0.1005,-0.03,-0.2505,0.23652381629832747,10,1,100,-0.13294801271064663,-10,-1,-100,19190.4832194848,0.013043617890602866,0.021234228662150998,0.9996894375582086,60.7699884439594,3.693646102761723,298.73311076341093,-87.26551996503628,-146.25482177734375,4761.76025390625,True
1599386906.681087,0.0,10,0.5,0.5,7.084625564575196,-0.1005,-0.03,-0.2505,0.2367916994214339,10,1,100,-0.12896411388730017,-10,-1,-100,19188.734265108127,0.01291332676867328,0.021264962199833506,0.9996904757845826,60.93617918059789,3.703886074692734,300.2063662514181,-87.44771446873787,-144.97119140625,4761.76025390625,True
1599386906.716991,0.0,10,0.5,0.5,6.392560638427735,-0.1005,-0.03,-0.2505,0.23955713063138473,10,1,100,-0.10452990345284577,-10,-1,-100,19185.22542529076,0.012571609767885914,0.02131784781765032,0.9996937050878472,61.24843239270902,3.7232690307788125,303.0642690745003,-87.81208443284343,-142.18336486816406,4761.76025390625,True
1599386906.746912,0.0,10,0.5,0.5,5.9692029190063485,-0.1005,-0.03,-0.2505,0.2386730624243426,10,1,100,-0.08936180908569989,-10,-1,-100,19181.702011124697,0.012123128039730048,0.021357591699677922,0.9996983960391865,61.51518779135572,3.7400850895488666,305.7099372460669,-88.17643158125603,-139.10154724121094,4761.76025390625,True
1599386906.779823,0.0,10,0.5,0.5,6.112439735412598,-0.1005,-0.03,-0.2505,0.23602806183629538,10,1,100,-0.10510159105128981,-10,-1,-100,19179.934839000227,0.011858975873107832,0.02136934394217708,0.9997013133084912,61.623967851048555,3.7470831324935374,306.9147791740177,-88.35859777734154,-137.4504852294922,4761.76025390625,True
1599386906.8137338,0.0,10,0.5,0.5,4.580192939758301,-0.1005,-0.03,-0.2505,0.23295653612085238,10,1,100,-0.02812555247123931,-10,-1,-100,19174.61146347283,0.010919923644843413,0.021351767801656533,0.9997123872791289,61.812069763445706,3.7600548342186313,309.8515413782954,-88.90507547813885,-132.05712890625,4761.76025390625,True
1599386906.846752,0.0,10,0.5,0.5,5.181430709838867,-0.1005,-0.03,-0.2505,0.2318876605017794,10,1,100,-0.08221160297503587,-10,-1,-100,19172.829718854628,0.010559786723306791,0.021325761868570384,0.9997168112946202,61.81658219345391,3.7609744773292677,310.5413362735607,-89.08723085576207,-130.1127166748047,4761.76025390625,True
1599386906.880661,0.0,10,0.5,0.5,4.891079338073731,-0.1005,-0.03,-0.2505,0.23076459656852805,10,1,100,-0.07545961773003462,-10,-1,-100,19171.04433104419,0.010173383921127965,0.021291650658875665,0.99972154516736,61.78567083569338,3.7598069256954365,311.0531958828805,-89.26938615959742,-128.094970703125,4761.76025390625,True
1599386906.9155672,0.0,10,0.5,0.5,3.8300683822631836,-0.1005,-0.03,-0.2505,0.22122074733193425,10,1,100,-0.023199377440490762,-10,-1,-100,19167.462626077817,0.009349802938007915,0.021173665747390165,0.9997320926447436,61.60230515541887,3.7502694534937944,311.4614723400992,-89.63370169762479,-123.83995819091797,4761.76025390625,True
1599386906.9469993,0.0,10,0.5,0.5,3.2192103538513184,-0.1005,-0.03,-0.2505,0.2143707752921798,10,1,100,-0.004640695138631426,-10,-1,-100,19163.866347959614,0.00843595570676931,0.021004076080686565,0.9997437989001534,61.228763734782035,3.7293769422610294,310.89791077907506,-89.99803379000427,-119.29209899902344,4761.76025390625,True
1599386906.9819071,0.0,10,0.5,0.5,3.4372851104736335,-0.1005,-0.03,-0.2505,0.21909515494020831,10,1,100,-0.04250727020622914,-10,-1,-100,19162.062743588933,0.007953708088688678,0.02089303339419089,0.9997500786112643,60.96061661568103,3.7140356966714094,310.19673772182875,-90.18020999262455,-116.90849304199219,4761.76025390625,True
1599386907.0168123,0.0,10,0.5,0.5,2.196079330444336,-0.1005,-0.03,-0.2505,0.19968304466572134,10,1,100,0.02025522533593259,-10,-1,-100,19158.444603693322,0.006949360212597465,0.020615921945124904,0.999763317068089,60.240826702115655,3.6722277280085276,307.84095145391666,-90.54459134647126,-111.9219970703125,4761.76025390625,True
1599386907.0482419,0.0,10,0.5,0.5,1.493227340698242,-0.1005,-0.03,-0.2505,0.18845468424141265,10,1,100,0.03538861012185984,-10,-1,-100,19154.811887019663,0.005904162251329819,0.020262516478711846,0.9997772608406634,59.351320395291715,3.620033427901594,304.58535411554345,-90.90902086314826,-106.64330291748047,4761.76025390625,True
1599386907.084146,0.0,10,0.5,0.5,-0.2625212974548341,-0.1005,-0.03,-0.2505,0.14888669086084166,10,1,100,0.11323454522113716,-10,-1,-100,19149.33547606261,0.004252353283380853,0.019582489143366546,0.9997992016452619,57.65225146769829,3.5190667699134432,297.74978069910554,-91.45577136247749,-98.17765808105469,4761.76025390625,True
1599386907.1210487,0.0,10,0.5,0.5,-0.3736910476684572,-0.1005,-0.03,-0.2505,0.15597402465259094,10,1,100,0.07055301059651657,-10,-1,-100,19145.66630772676,0.003145877967975025,0.019030326511665186,0.9998139577564767,56.286761305033025,3.437020675589125,291.9262583297778,-91.82035215582596,-92.16899108886719,4761.76025390625,True
1599386907.1549563,0.0,10,0.5,0.5,-1.1491888961791992,-0.1005,-0.03,-0.2505,0.14322731697764668,10,1,100,0.07937315523178567,-10,-1,-100,19141.982554835384,0.0020677291826537644,0.01841460770164674,0.9998282986189287,56.56939087361956,3.455054474690468,294.62821856342816,-92.18496125000284,-86.05838012695312,4761.76025390625,True
1599386907.1858735,0.0,10,0.5,0.5,-0.8211956634521486,-0.1005,-0.03,-0.2505,0.16728115240307118,10,1,100,0.0323047945609414,-10,-1,-100,19140.135210177978,0.001523535560698648,0.018076204705588385,0.9998354512932801,57.77355471497033,3.5287946985278302,301.5312582714936,-92.36722474664597,-83.02499389648438,4761.76025390625,True
1599386907.2197826,0.0,10,0.5,0.5,-1.2586376953125,-0.1005,-0.03,-0.2505,0.16173035538026675,10,1,100,0.03762539273355058,-10,-1,-100,19138.28422094765,0.0009886597856817389,0.01772105797002164,0.9998424809219958,58.90851867099703,3.598204407072104,308.0987098978323,-92.54946003442089,-80.01632690429688,4761.76025390625,True
1599386907.2556872,0.0,10,0.5,0.5,-1.6860814819335939,-0.1005,-0.03,-0.2505,0.1565172108925693,10,1,100,0.04254096331231792,-10,-1,-100,19136.42958745372,0.0004660718250734331,0.017354051072062674,0.9998492984887484,59.97070054656952,3.663080140346695,314.30944785886237,-92.7316675719374,-77.062255859375,4761.76025390625,True
1599386907.2856073,0.0,10,0.5,0.5,-3.097685783386231,-0.1005,-0.03,-0.2505,0.10541327222260728,10,1,100,0.10503280169240327,-10,-1,-100,19132.709390059346,-0.0005690396415594985,0.016559299553896074,0.9998627234736629,61.8492397343154,3.7776309981815483,325.5063984696402,-93.09600400060745,-71.3321533203125,4761.76025390625,True
1599386907.3195155,0.0,10,0.5,0.5,-2.7770592727661136,-0.1005,-0.03,-0.2505,0.13858212525127078,10,1,100,0.057576113452907425,-10,-1,-100,19130.843827195,-0.0010704392678228115,0.01614237390721137,0.9998691303987806,62.667705073212616,3.827477921461539,330.49828985059764,-93.27813560300422,-68.56610107421875,4761.76025390625,True
1599386907.3534243,0.0,10,0.5,0.5,-5.855669059753419,-0.1005,-0.03,-0.2505,-0.014985434472246623,10,1,100,0.21771795057486532,-10,-1,-100,19123.34515816276,-0.0029738882224831574,0.014371600648636008,0.9998923007422531,65.17814912286163,3.9803834089260968,346.5835315594156,-94.00645877495296,-58.2342529296875,4761.76025390625,True
1599386907.3853397,0.0,10,0.5,0.5,-3.4286043319702153,-0.1005,-0.03,-0.2505,0.1614674592556407,10,1,100,0.028365379952338794,-10,-1,-100,19123.34515816276,-0.0029738882224831574,0.014371600648636008,0.9998923007422531,65.17814912286163,3.9803834089260968,346.5835315594156,-94.00645877495296,-58.2342529296875,4761.76025390625,True
1599386907.4212444,0.0,10,0.5,0.5,-4.4152331542968755,-0.1005,-0.03,-0.2505,0.10845393192704035,10,1,100,0.07922274633539853,-10,-1,-100,19121.461388034746,-0.003428156961898416,0.013895014869130619,0.999897582906185,65.63254391267091,4.008151185420812,349.71590393271435,-94.18849801625042,-55.83709716796875,4761.76025390625,True
1599386907.4571476,0.0,10,0.5,0.5,-5.546514724731445,-0.1005,-0.03,-0.2505,0.054251624009989355,10,1,100,0.12933248263601793,-10,-1,-100,19117.682926579495,-0.00428968931842221,0.012974177246947289,0.9999066302862064,66.36208672639911,4.0529663045648165,355.0514755817665,-94.55253933658845,-51.265167236328125,4761.76025390625,True
1599386907.4900599,0.0,10,0.5,0.5,-6.023923599243165,-0.1005,-0.03,-0.2505,0.03445469511743621,10,1,100,0.13469266230206045,-10,-1,-100,19113.889904743875,-0.0051148698510565934,0.011962585645270795,0.9999153637438953,66.88090926425087,4.0852516767337645,359.28739530765915,-94.91654255601601,-46.99176025390625,4761.76025390625,True
1599386907.5319476,0.0,10,0.5,0.5,-5.7816006774902355,-0.1005,-0.03,-0.2505,0.08139589013247388,10,1,100,0.09597091200205349,-10,-1,-100,19111.987933816272,-0.005506488424329869,0.01147556052757103,0.9999189917667384,67.07180384603728,4.097342157678485,361.04535643815746,-95.09853372990493,-44.966217041015625,4761.76025390625,True
1599386907.5669885,0.0,10,0.5,0.5,-6.732136001586913,-0.1005,-0.03,-0.2505,0.022483998392920715,10,1,100,0.14031112902267437,-10,-1,-100,19108.173073087935,-0.0062592072602339205,0.010503248354009866,0.9999252492554068,67.3377485519448,4.114702596854098,363.94857848273335,-95.46250175829485,-41.137847900390625,4761.76025390625,True
1599386907.6027832,0.0,10,0.5,0.5,-7.1293408355712895,-0.1005,-0.03,-0.2505,0.013083442585698726,10,1,100,0.14461981535854068,-10,-1,-100,19104.343654162483,-0.0069760780167946465,0.009540430243084983,0.999930154823966,67.4759043074373,4.124568766912156,366.17144729993197,-95.82645799945466,-37.606292724609375,4761.76025390625,True
1599386907.6436744,0.0,10,0.5,0.5,-7.498330490112305,-0.1005,-0.03,-0.2505,0.0011723034060679566,10,1,100,0.14745428172463187,-10,-1,-100,19100.49967707123,-0.0076467809898671645,0.008563961259546608,0.9999340904819867,67.51635292378161,4.128731342775017,367.86975090062526,-96.19040953977651,-34.37188720703125,4761.76025390625,True
1599386907.6825695,0.0,10,0.5,0.5,-8.757814361572265,-0.1005,-0.03,-0.2505,-0.10156407713343844,10,1,100,0.2199769083605292,-10,-1,-100,19092.76804854453,-0.008909373260851877,0.006749563577147436,0.9999375312786379,67.41324065194082,4.1263937998723605,370.26688219144467,-96.91831644988376,-28.79119873046875,4761.76025390625,True
1599386907.7184737,0.0,10,0.5,0.5,-7.479176605224609,-0.1005,-0.03,-0.2505,0.07893641007347242,10,1,100,0.09450157466136087,-10,-1,-100,19092.76804854453,-0.008909373260851877,0.006749563577147436,0.9999375312786379,67.41324065194082,4.1263937998723605,370.26688219144467,-96.91831644988376,-28.79119873046875,4761.76025390625,True
1599386907.7543788,0.0,10,0.5,0.5,-8.763967163085939,-0.1005,-0.03,-0.2505,-0.057962231257185,10,1,100,0.19417415178231323,-10,-1,-100,19086.931111653335,-0.009810091702825654,0.005511959598751903,0.9999366881968897,67.26899467705267,4.120864299992796,371.6944063794108,-97.46425804313854,-25.382476806640625,4761.76025390625,True
1599386907.7902813,0.0,10,0.5,0.5,-8.67645671081543,-0.1005,-0.03,-0.2505,-0.020543962955640246,10,1,100,0.16793098202469267,-10,-1,-100,19083.02162201854,-0.010384137649114044,0.00473508536754263,0.9999348722051085,67.17958825471764,4.1176671520446995,372.68078691482,-97.8282246980979,-23.4798583984375,4761.76025390625,True
1599386907.825189,0.0,10,0.5,0.5,-8.296922515869142,-0.1005,-0.03,-0.2505,0.05622746721512829,10,1,100,0.11122198546457522,-10,-1,-100,19083.02162201854,-0.010384137649114044,0.00473508536754263,0.9999348722051085,67.17958825471764,4.1176671520446995,372.68078691482,-97.8282246980979,-23.4798583984375,4761.76025390625,True
1599386907.8630862,0.0,10,0.5,0.5,-8.94457992553711,-0.1005,-0.03,-0.2505,-0.019485373971427217,10,1,100,0.17641084652747308,-10,-1,-100,19079.097573674982,-0.010971223251203395,0.004054276894827948,0.9999315952100086,67.11416849922182,4.115968473236662,373.7987448522347,-98.19219399682581,-21.872161865234375,4761.76025390625,True
1599386907.8979948,0.0,10,0.5,0.5,-9.269047988891602,-0.1005,-0.03,-0.2505,-0.05721483292479657,10,1,100,0.21108706477618752,-10,-1,-100,19073.18420357292,-0.011814851825000076,0.0030995543916480088,0.9999253982367518,67.09042110349827,4.117998896916447,375.89040801302417,-98.73814747968723,-20.01507568359375,4761.76025390625,True
1599386907.929908,0.0,10,0.5,0.5,-9.044110931396485,-0.1005,-0.03,-0.2505,0.004714326367219156,10,1,100,0.15737892775597456,-10,-1,-100,19071.205800840748,-0.012087796225176332,0.00280223175153541,0.9999230133763446,67.10757530142527,4.120214599426359,376.72886988526,-98.92013021288908,-19.5438232421875,4761.76025390625,True
1599386907.9653227,0.0,10,0.5,0.5,-9.130460174560547,-0.1005,-0.03,-0.2505,0.0047327233012311246,10,1,100,0.16179350023169747,-10,-1,-100,19069.223758649547,-0.012370761257875007,0.00253910661138086,0.9999202554221596,67.1390631473395,4.123309799756389,377.6487386144589,-99.10211132722809,-19.14605712890625,4761.76025390625,True
1599386908.0022242,0.0,10,0.5,0.5,-9.28772982788086,-0.1005,-0.03,-0.2505,-0.023125042074864356,10,1,100,0.1956520605482812,-10,-1,-100,19065.24875521823,-0.012930903032987218,0.0020530143656683143,0.9999142847658322,67.24865238923266,4.132362979109051,379.7549396410479,-99.46606659233953,-18.5718994140625,4761.76025390625,True
1599386908.0381281,0.0,10,0.5,0.5,-9.289122253417968,-0.1005,-0.03,-0.2505,-0.025158895342597673,10,1,100,0.19948932937358543,-10,-1,-100,19061.25919400947,-0.013470203343280066,0.001598541791581041,0.9999079949105473,67.42456173505676,4.145496599894803,382.24340652303437,-99.83000905153004,-18.293212890625,4761.76025390625,True
1599386908.0700428,0.0,10,0.5,0.5,-9.245170898437502,-0.1005,-0.03,-0.2505,-0.022606706628573607,10,1,100,0.20522767571070769,-10,-1,-100,19057.255075483816,-0.014008496928354286,0.0012132693687069806,0.9999011401089846,67.6698522416201,4.162909838189697,385.1358591870581,-100.19393440351357,-18.30926513671875,4761.76025390625,True
1599386908.105946,0.0,10,0.5,0.5,-9.078326477050782,-0.1005,-0.03,-0.2505,-0.03299783741697909,10,1,100,0.24066740341256002,-10,-1,-100,19051.221605184604,-0.01481539850874087,0.000773589880934549,0.9998899467069982,68.16855530306687,4.197121232649632,390.24573236868764,-100.73978001223233,-18.885650634765625,4761.76025390625,True
1599386908.142847,0.0,10,0.5,0.5,-9.242201522827148,-0.1005,-0.03,-0.2505,0.010496274388482328,10,1,100,0.1604777760544932,-10,-1,-100,19051.221605184604,-0.01481539850874087,0.000773589880934549,0.9998899467069982,68.16855530306687,4.197121232649632,390.24573236868764,-100.73978001223233,-18.885650634765625,4761.76025390625,True
1599386908.1827407,0.0,10,0.5,0.5,-8.991887924194337,-0.1005,-0.03,-0.2505,-0.012828483195340759,10,1,100,0.21921703252348482,-10,-1,-100,19047.1810977353,-0.015345363330404769,0.000565147989705801,0.9998820932650048,68.58483813062577,4.225131519754909,394.15371369112324,-101.103642360587,-19.6380615234375,4761.76025390625,True
1599386908.2196424,0.0,10,0.5,0.5,-8.602075561523439,-0.1005,-0.03,-0.2505,-0.011059439921851603,10,1,100,0.25276771232743894,-10,-1,-100,19041.09304922889,-0.01612764550678854,0.00039552842505487414,0.9998698628359953,69.32139347964943,4.274128715872542,400.7000860229451,-101.6493733482259,-21.318450927734375,4761.76025390625,True
1599386908.252554,0.0,10,0.5,0.5,-8.776388442993163,-0.1005,-0.03,-0.2505,0.0021941781825817975,10,1,100,0.20319747018171874,-10,-1,-100,19039.056423815317,-0.0163834849001258,0.00036514239311231066,0.9998657150305535,69.59278361404519,4.292074045635876,403.0433047750729,-101.83126498533431,-22.02581787109375,4761.76025390625,True
1599386908.2884576,0.0,10,0.5,0.5,-8.04813555908203,-0.1005,-0.03,-0.2505,0.012500161320061537,10,1,100,0.2601011081889939,-10,-1,-100,19032.92472264287,-0.017129218664066605,0.0004336953125948285,0.9998531901115955,70.46671117708303,4.349626436366174,410.4580196069239,-102.37687808931665,-24.5882568359375,4761.76025390625,True
1599386908.323364,0.0,10,0.5,0.5,-8.674893218994141,-0.1005,-0.03,-0.2505,0.005408015727915696,10,1,100,0.18603187403880247,-10,-1,-100,19032.92472264287,-0.017129218664066605,0.0004336953125948285,0.9998531901115955,70.46671117708303,4.349626436366174,410.4580196069239,-102.37687808931665,-24.5882568359375,4761.76025390625,True
1599386908.3602655,0.0,10,0.5,0.5,-7.929894561767578,-0.1005,-0.03,-0.2505,0.01813132421556987,10,1,100,0.23883811806962035,-10,-1,-100,19028.81873653899,-0.017604949557613866,0.0005512757636633083,0.9998448688902225,71.08024164349128,4.38989557354534,415.6147727620765,-102.74056545905185,-26.66424560546875,4761.76025390625,True
1599386908.3931775,0.0,10,0.5,0.5,-7.59398794555664,-0.1005,-0.03,-0.2505,0.030036749358504807,10,1,100,0.23977151484169773,-10,-1,-100,19024.69820433203,-0.018041668480107874,0.0007677634373904303,0.9998369410747726,71.69901049266234,4.430438067888023,420.82979774219365,-103.10420730389791,-29.033660888671875,4761.76025390625,True
1599386908.4300795,0.0,10,0.5,0.5,-7.700744705200195,-0.1005,-0.03,-0.2505,0.021555390645623836,10,1,100,0.2205218031872652,-10,-1,-100,19022.632483967347,-0.018259532426301378,0.0008882224055290692,0.9998328863047719,72.00352424107064,4.450373500069307,423.41904930351035,-103.28601097138723,-30.328704833984375,4761.76025390625,True
1599386908.4664917,0.0,10,0.5,0.5,-7.002753616333008,-0.1005,-0.03,-0.2505,0.043522552348620035,10,1,100,0.24312511461673436,-10,-1,-100,19018.490135673317,-0.018659210630837968,0.0011977275256488682,0.9998251843734526,72.59064651244633,4.488782061295164,428.48866184402675,-103.64958465850636,-33.1387939453125,4761.76025390625,True
1599386908.5013988,0.0,10,0.5,0.5,-6.57456610107422,-0.1005,-0.03,-0.2505,0.0545500868015964,10,1,100,0.2420886756221689,-10,-1,-100,19014.333246294293,-0.01900963790580964,0.0015789605501987302,0.9998180537229117,73.12698353506931,4.523846772717743,433.2836300030405,-104.01311563146135,-36.24237060546875,4761.76025390625,True
1599386908.539297,0.0,10,0.5,0.5,-6.107572357177735,-0.1005,-0.03,-0.2505,0.06492085930078689,10,1,100,0.24220243286202026,-10,-1,-100,19010.16181675461,-0.01932542936760338,0.0020190836219010056,0.9998112077192802,73.58365148632657,4.55370416545574,437.6288991085705,-104.37660839615691,-39.639434814453125,4761.76025390625,True
1599386908.5876782,0.0,10,0.5,0.5,-4.916916732788087,-0.1005,-0.03,-0.2505,0.10617949006657579,10,1,100,0.24965463449226066,-10,-1,-100,19003.877412452828,-0.01967664156038424,0.0027929522071082503,0.9998024950933424,74.05225357008543,4.5844146102577055,442.89169877955,-104.92179095968797,-45.285064697265625,4761.76025390625,True
1599386908.629567,0.0,10,0.5,0.5,-4.809465499877929,-0.1005,-0.03,-0.2505,0.09251432930605702,10,1,100,0.2319382729873607,-10,-1,-100,18999.669637632323,-0.019831641180091755,0.0033700608923991626,0.999797653876866,74.16946597068758,4.592266562074209,445.2471679332385,-105.28522308592486,-49.415496826171875,4761.76025390625,True
1599386908.666977,0.0,10,0.5,0.5,-4.998452590942383,-0.1005,-0.03,-0.2505,0.06793428826176907,10,1,100,0.22151582038232048,-10,-1,-100,18997.560298706172,-0.019874665668616433,0.003668518489079841,0.9997957489590842,74.15586109209787,4.591549121724635,445.99315176808625,-105.4669369302843,-51.59075927734375,4761.76025390625,True
1599386908.7028813,0.0,10,0.5,0.5,-3.0173775329589847,-0.1005,-0.03,-0.2505,0.14228149408581525,10,1,100,0.22012345532243532,-10,-1,-100,18991.210476245265,-0.019898625114908502,0.004612786517938618,0.999791361694567,73.76605546645756,4.567127273264477,446.1220091523976,-106.01209313490736,-58.556488037109375,4761.76025390625,True
1599386908.741135,0.0,10,0.5,0.5,-4.660387893676758,-0.1005,-0.03,-0.2505,0.048272600320471905,10,1,100,0.21800445133831253,-10,-1,-100,18991.210476245265,-0.019898625114908502,0.004612786517938618,0.999791361694567,73.76605546645756,4.567127273264477,446.1220091523976,-106.01209313490736,-58.556488037109375,4761.76025390625,True
1599386908.7790337,0.0,10,0.5,0.5,-1.8880790863037111,-0.1005,-0.03,-0.2505,0.15606489762027798,10,1,100,0.2009212915109107,-10,-1,-100,18984.827941912343,-0.01974123850233458,0.005589024210887514,0.9997895010004677,72.75355930775004,4.503385570747538,442.4447031636853,-106.55731773776883,-66.18222045898438,4761.76025390625,True
1599386908.8189273,0.0,10,0.5,0.5,-0.7786824188232422,-0.1005,-0.03,-0.2505,0.16761546037689207,10,1,100,0.17985949158430609,-10,-1,-100,18978.412688790937,-0.01940514379155077,0.006577135174288914,0.9997900688081115,70.99121664664922,4.393024312323149,434.1224983322025,-107.10267635963622,-74.46768188476562,4761.76025390625,True
1599386908.8543425,0.0,10,0.5,0.5,-0.6540785064697263,-0.1005,-0.03,-0.2505,0.1352492105761276,10,1,100,0.17776844794858382,-10,-1,-100,18974.117671536165,-0.019079552192908692,0.007176007494857091,0.9997922162152254,69.34411919746704,4.290519254175486,425.6150467597454,-107.46635582024666,-80.35855102539062,4761.76025390625,True
1599386908.8922412,0.0,10,0.5,0.5,-1.9880819549560549,-0.1005,-0.03,-0.2505,0.07595980651623069,10,1,100,0.21036964196899857,-10,-1,-100,18974.117671536165,-0.019079552192908692,0.007176007494857091,0.9997922162152254,69.34411919746704,4.290519254175486,425.6150467597454,-107.46635582024666,-80.35855102539062,4761.76025390625,True
1599386908.927132,0.0,10,0.5,0.5,1.4115937042236326,-0.1005,-0.03,-0.2505,0.16928419310701737,10,1,100,0.14385922768784226,-10,-1,-100,18967.647862433572,-0.01847484850463718,0.008019322784823644,0.9997971646463114,66.1057396874876,4.090363521588746,407.98237146521103,-108.01207856041,-89.66717529296875,4761.76025390625,True
1599386908.961042,0.0,10,0.5,0.5,0.35569519042968756,-0.1005,-0.03,-0.2505,0.11384179545425716,10,1,100,0.17855865681575678,-10,-1,-100,18965.483981454745,-0.01824134048997409,0.008276496488710943,0.999799356422578,65.13692966027237,4.030897843595938,402.7411163473319,-108.19403886880878,-92.87466430664062,4761.76025390625,True
1599386908.9989736,0.0,10,0.5,0.5,0.8432067031860351,-0.1005,-0.03,-0.2505,0.11659237908148948,10,1,100,0.17357492804404206,-10,-1,-100,18963.31646206684,-0.01798505867060152,0.008530311030418233,0.9998018661006486,66.32531840328204,4.10515746223791,410.8404498849219,-108.37596481536835,-96.14594268798828,4761.76025390625,True
1599386909.0388346,0.0,10,0.5,0.5,2.5034839897155763,-0.1005,-0.03,-0.2505,0.14001061348549182,10,1,100,0.14034685385089596,-10,-1,-100,18958.970510536106,-0.017451680508061028,0.008969253426426682,0.9998074771376823,68.51505289368774,4.2427682747723034,425.9566530967177,-108.73971403396055,-102.8113021850586,4761.76025390625,True
1599386909.0767317,0.0,10,0.5,0.5,4.429665515899658,-0.1005,-0.03,-0.2505,0.15774463309783485,10,1,100,0.09537953046441917,-10,-1,-100,18952.424311371404,-0.016560200134202206,0.009524691478421712,0.9998175033593661,71.47269866507956,4.43009674500667,446.7695295431801,-109.2850801781345,-112.61811828613281,4761.76025390625,True
1599386909.112636,0.0,10,0.5,0.5,3.2486942825317384,-0.1005,-0.03,-0.2505,0.11921083504327853,10,1,100,0.14967131395868707,-10,-1,-100,18950.234975098516,-0.016246360030624536,0.009674862538866243,0.999821210427449,72.35989372111464,4.4865616933997305,453.13242176836815,-109.46680513431224,-115.79034423828125,4761.76025390625,True
1599386909.155186,0.0,10,0.5,0.5,5.8196572265625,-0.1005,-0.03,-0.2505,0.14239589151039242,10,1,100,0.07717293783146523,-10,-1,-100,18943.64516478288,-0.015305294939928531,0.01001755303804328,0.9998326842916927,74.38661158472038,4.616378248904404,468.3403861018238,-110.01182150292658,-124.88978576660156,4761.76025390625,True
1599386909.1910903,0.0,10,0.5,0.5,6.678435768127442,-0.1005,-0.03,-0.2505,0.1283810730302519,10,1,100,0.06477834194807178,-10,-1,-100,18937.02266055881,-0.01434113575268532,0.010197656479450987,0.9998451578257757,75.47295765305836,4.686843411884808,477.7297222426715,-110.55667418381822,-133.32872009277344,4761.76025390625,True
1599386909.2220104,0.0,10,0.5,0.5,5.676403495788573,-0.1005,-0.03,-0.2505,0.11404207422514687,10,1,100,0.12744773140105334,-10,-1,-100,18934.80789480207,-0.014038952766617565,0.010227740963134163,0.9998491391805103,75.65224930006853,4.698674263041356,479.71645114385694,-110.7382712436916,-135.99349975585938,4761.76025390625,True
1599386909.2579122,0.0,10,0.5,0.5,5.175781036376953,-0.1005,-0.03,-0.2505,0.11133879920365693,10,1,100,0.15716197006519972,-10,-1,-100,18934.80789480207,-0.014038952766617565,0.010227740963134163,0.9998491391805103,75.65224930006853,4.698674263041356,479.71645114385694,-110.7382712436916,-135.99349975585938,4761.76025390625,True
1599386909.2918203,0.0,10,0.5,0.5,7.992694107055664,-0.1005,-0.03,-0.2505,0.110215560435268,10,1,100,0.05772099316585187,-10,-1,-100,18928.14180771436,-0.013139526248829213,0.010214755398450376,0.9998614962194045,75.73235428441802,4.704799069421635,482.784464054199,-111.28304196328226,-143.5433807373047,4761.76025390625,True
1599386909.322738,0.0,10,0.5,0.5,7.094426307678223,-0.1005,-0.03,-0.2505,0.10717495287582236,10,1,100,0.11500950089979438,-10,-1,-100,18925.912514908938,-0.012847520686835468,0.010173312604912312,0.9998657134449827,75.62704749364637,4.69835952570078,482.9663286484476,-111.46463368016934,-145.91189575195312,4761.76025390625,True
1599386909.3566463,0.0,10,0.5,0.5,7.465603317260742,-0.1005,-0.03,-0.2505,0.10480304764844783,10,1,100,0.1121220867264058,-10,-1,-100,18923.679590130458,-0.012560715337813203,0.010112350184977756,0.9998699759488425,75.46535074412957,4.688300402125595,482.7857344403928,-111.64622963926307,-148.2064208984375,4761.76025390625,True
1599386909.3935485,0.0,10,0.5,0.5,8.57970156097412,-0.1005,-0.03,-0.2505,0.09453789386726816,10,1,100,0.08072989434582423,-10,-1,-100,18919.202844554675,-0.012019530856453846,0.009962172005976927,0.9998781355779883,74.99549152286059,4.658805630447311,481.47554258858804,-112.00944075621854,-152.5730743408203,4761.76025390625,True
1599386909.4254632,0.0,10,0.5,0.5,9.063953773498536,-0.1005,-0.03,-0.2505,0.08532007794525069,10,1,100,0.0773514994259652,-10,-1,-100,18914.711569544626,-0.011501770601084446,0.009740945408885515,0.9998864051758986,74.36928034732027,4.6193535632496765,479.1400598990655,-112.37268621170747,-156.64376831054688,4761.76025390625,True
1599386909.460369,0.0,10,0.5,0.5,9.50123226928711,-0.1005,-0.03,-0.2505,0.07704488994485392,10,1,100,0.07564370800945974,-10,-1,-100,18910.205763382837,-0.011020152655628685,0.009464404744316566,0.999894485072441,73.62866059456275,4.5726960214953225,476.0398809476517,-112.73597309895096,-160.41844177246094,4761.76025390625,True
1599386909.4942784,0.0,10,0.5,0.5,9.910519844055177,-0.1005,-0.03,-0.2505,0.07000644072743858,10,1,100,0.07433856711753094,-10,-1,-100,18905.685424424475,-0.010575204340174092,0.009149209563454245,0.9999022237286642,72.81224202016855,4.521357913631297,472.41754999466514,-113.09930551616475,-163.89695739746094,4761.76025390625,True
1599386909.5301824,0.0,10,0.5,0.5,9.727715766906739,-0.1005,-0.03,-0.2505,0.08196095280255375,10,1,100,0.09543179857831166,-10,-1,-100,18903.419804595876,-0.01036676260358588,0.008972135275602809,0.9999060110939014,72.38688048898284,4.494666200977083,470.4821325565919,-113.28098927693158,-165.52528381347656,4761.76025390625,True
1599386909.561102,0.0,10,0.5,0.5,10.975252235412599,-0.1005,-0.03,-0.2505,0.03464355133451261,10,1,100,0.05318998500176401,-10,-1,-100,18896.601140480372,-0.009796866695218074,0.008382114565304627,0.9999168773244955,71.0894462349856,4.413546888922739,464.4823752482716,-113.826109846823,-169.9664306640625,4761.76025390625,True
1599386909.6009927,0.0,10,0.5,0.5,10.874138076782227,-0.1005,-0.03,-0.2505,0.0446698667777565,10,1,100,0.07353453247384117,-10,-1,-100,18892.037192110787,-0.009467586379240223,0.007938558265788343,0.9999236691372059,70.24119085429663,4.360796735013967,460.5456855398664,-114.18957871160879,-172.55752563476562,4761.76025390625,True
1599386909.6359,0.0,10,0.5,0.5,10.334760864257813,-0.1005,-0.03,-0.2505,0.08879657845965037,10,1,100,0.10600542743288854,-10,-1,-100,18892.037192110787,-0.009467586379240223,0.007938558265788343,0.9999236691372059,70.24119085429663,4.360796735013967,460.5456855398664,-114.18957871160879,-172.55752563476562,4761.76025390625,True
1599386909.6747952,0.0,10,0.5,0.5,11.591351623535155,-0.1005,-0.03,-0.2505,0.010625401414364757,10,1,100,0.05680991779921527,-10,-1,-100,18885.164006386418,-0.009023692600633728,0.007229980471860894,0.9999331479425142,69.05238451910385,4.287346598446935,455.12240953827666,-114.73485576252426,-175.8895721435547,4761.76025390625,True
1599386909.7097025,0.0,10,0.5,0.5,11.184608390808105,-0.1005,-0.03,-0.2505,0.05314120211196267,10,1,100,0.08665887141975114,-10,-1,-100,18882.865673572873,-0.008894983133074697,0.006975001876571422,0.9999361122711212,68.68820039637873,4.264983511135368,453.5091647469333,-114.91663214486012,-176.8525390625,4761.76025390625,True
1599386909.7426145,0.0,10,0.5,0.5,11.627634567260744,-0.1005,-0.03,-0.2505,0.01846327199146451,10,1,100,0.07558460677861412,-10,-1,-100,18878.258100948646,-0.008680631876924095,0.0064308013782204704,0.9999416440092148,68.02032208307462,4.224193286904076,450.65944505856396,-115.28020681115407,-178.55712890625,4761.76025390625,True
1599386909.7800293,0.0,10,0.5,0.5,11.538810928344729,-0.1005,-0.03,-0.2505,0.04269582347728336,10,1,100,0.08431666286727305,-10,-1,-100,18875.94886091887,-0.008568184789392747,0.006159579911979555,0.9999443213423049,67.72032868719891,4.205989635577542,449.4488661155575,-115.46200379846792,-179.2985076904297,4761.76025390625,True
1599386909.8169298,0.0,10,0.5,0.5,-114.31354474639892,-0.1005,-0.03,-0.2505,-0.027226048990659155,10,1,100,0.06610975034356346,-10,-1,-100,18868.999326206977,-0.008303109673977517,0.005280617343412797,0.9999515855531279,68.4685919242261,4.254056147600006,456.773425456629,-116.00734404998214,178.91973876953125,4761.76025390625,True
1599386909.8583353,0.0,10,0.5,0.5,-25.4411982421875,-0.1005,-0.03,-0.2505,0.026467082023110867,10,1,100,0.08403270491693053,-10,-1,-100,18866.675544159836,-0.00822753828606851,0.004973483278841747,0.9999537849709987,68.74457347800504,4.271815082393041,459.4044483952747,-116.18910284018426,178.47332763671875,4761.76025390625,True
1599386909.895237,0.0,10,0.5,0.5,-26.344360519409182,-0.1005,-0.03,-0.2505,-0.013591522640500432,10,1,100,0.07834826316036178,-10,-1,-100,18862.01707522804,-0.008109294522958884,0.004333897474366702,0.9999577274440261,69.2228725567298,4.302851041369013,464.19235857090405,-116.55259259583269,177.80160522460938,4761.76025390625,True
1599386909.9281487,0.0,10,0.5,0.5,-27.15408467102051,-0.1005,-0.03,-0.2505,-0.06086974500636488,10,1,100,0.07220589277467399,-10,-1,-100,18855.00211197592,-0.007948012705789905,0.0033268703922462893,0.9999628798247572,69.8629027713221,4.344775554022197,470.8957072355179,-117.09776400351379,176.6947021484375,4761.76025390625,True
1599386909.9630554,0.0,10,0.5,0.5,-28.296200775146485,-0.1005,-0.03,-0.2505,0.000541531786538263,10,1,100,0.08439603704341306,-10,-1,-100,18852.656522477977,-0.007913893141706122,0.0029742712376841776,0.999964261364348,70.10834296468099,4.360801941636522,473.3572227397759,-117.27946962476231,176.19570922851562,4761.76025390625,True
1599386909.9979613,0.0,10,0.5,0.5,-29.266903610229495,-0.1005,-0.03,-0.2505,-0.004084096112255964,10,1,100,0.08327095798524545,-10,-1,-100,18850.30729908496,-0.007874059813135282,0.0026161883772096777,0.999965576777738,70.37465917091639,4.378161191630048,475.96583020715616,-117.46116502287633,175.62432861328125,4761.76025390625,True
1599386910.0328698,0.0,10,0.5,0.5,-29.976143280029298,-0.1005,-0.03,-0.2505,-0.04996307399361414,10,1,100,0.07791611165016403,-10,-1,-100,18845.597951468546,-0.007790615935539328,0.0018784154050283115,0.9999678884138785,70.96580956435311,4.416639050466061,481.59927753476217,-117.82452280419639,174.26126098632812,4761.76025390625,True
1599386910.0637927,0.0,10,0.5,0.5,-30.78602563476563,-0.1005,-0.03,-0.2505,-0.06146091140721658,10,1,100,0.08187255999431106,-10,-1,-100,18840.874071077793,-0.00775184655600352,0.001108051967527804,0.9999693400778894,71.62470543159888,4.459511934930475,487.72207738600156,-118.1878320701202,172.60308837890625,4761.76025390625,True
1599386910.0986996,0.0,10,0.5,0.5,-31.919898880004887,-0.1005,-0.03,-0.2505,-0.028544251735207707,10,1,100,0.08356809158896913,-10,-1,-100,18838.506681585102,-0.007733054804174287,0.0007122975212810995,0.9999698457931804,71.97622842276444,4.482395447542131,490.94568091939885,-118.36946707282993,171.66329956054688,4761.76025390625,True
1599386910.1336064,0.0,10,0.5,0.5,-32.46851092529297,-0.1005,-0.03,-0.2505,-0.0791998476671533,10,1,100,0.08161742612308182,-10,-1,-100,18833.761005792418,-0.007699099504705781,-0.00010278602572728323,0.9999703562115476,72.71350673608909,4.5304444250350615,497.6518191338555,-118.73269497069701,169.562255859375,4761.76025390625,True
1599386910.1665182,0.0,10,0.5,0.5,-32.740975799560545,-0.1005,-0.03,-0.2505,-0.13963058560254565,10,1,100,0.08180524939755225,-10,-1,-100,18826.615254187724,-0.007670728612488404,-0.00138744835338601,0.9999696169932466,74.0101532929365,4.614763986622533,509.08699977137263,-119.27741855273543,165.85733032226562,4761.76025390625,True
1599386910.2024217,0.0,10,0.5,0.5,-33.62987242126465,-0.1005,-0.03,-0.2505,-0.011831159406352848,10,1,100,0.08457910051314103,-10,-1,-100,18826.615254187724,-0.007670728612488404,-0.00138744835338601,0.9999696169932466,74.0101532929365,4.614763986622533,509.08699977137263,-119.27741855273543,165.85733032226562,4761.76025390625,True
1599386910.2374682,0.0,10,0.5,0.5,-31.495814895629888,-0.1005,-0.03,-0.2505,-0.21499020688650566,10,1,100,0.08025620751327232,-10,-1,-100,18817.03675658966,-0.007631935775829215,-0.003228566119903556,0.9999656643690938,76.01439943642262,4.744849466899034,526.379112291622,-120.00345836922165,159.88522338867188,4761.76025390625,True
1599386910.2743697,0.0,10,0.5,0.5,-32.938078536987305,-0.1005,-0.03,-0.2505,-0.03163467659417811,10,1,100,0.08408775530447818,-10,-1,-100,18817.03675658966,-0.007631935775829215,-0.003228566119903556,0.9999656643690938,76.01439943642262,4.744849466899034,526.379112291622,-120.00345836922165,159.88522338867188,4761.76025390625,True
1599386910.3072813,0.0,10,0.5,0.5,-31.684493911743164,-0.1005,-0.03,-0.2505,-0.13802760758796398,10,1,100,0.08727628798632983,-10,-1,-100,18812.225730557926,-0.007661209779236922,-0.004189815095745109,0.9999618749303305,76.98398017695862,4.807896518945378,534.8670737700301,-120.36636171223095,156.45742797851562,4761.76025390625,True
1599386910.3431857,0.0,10,0.5,0.5,-31.843501785278317,-0.1005,-0.03,-0.2505,-0.09915840334955969,10,1,100,0.08083101324721753,-10,-1,-100,18809.81477493397,-0.007629458815036061,-0.004703808593130638,0.999959831964719,77.44349191098324,4.837800006098951,538.9514596508043,-120.54778522293518,154.6328125,4761.76025390625,True
1599386910.3800862,0.0,10,0.5,0.5,-30.87933224487305,-0.1005,-0.03,-0.2505,-0.16293833819876832,10,1,100,0.08299924732802201,-10,-1,-100,18804.981979387114,-0.007620527885586318,-0.005744238455773615,0.9999544646029178,78.28236696843588,4.892427315129254,546.5914658103546,-120.91057938870047,150.76312255859375,4761.76025390625,True
1599386910.4209778,0.0,10,0.5,0.5,-30.31661993408203,-0.1005,-0.03,-0.2505,-0.18005525412697201,10,1,100,0.08144776462013056,-10,-1,-100,18800.134673848283,-0.007598459096060223,-0.00683876242674108,0.9999477460086782,78.98136858766448,4.937951907031612,553.2891464459565,-121.27331032517961,146.59909057617188,4761.76025390625,True
1599386910.458394,0.0,10,0.5,0.5,-28.048915969848633,-0.1005,-0.03,-0.2505,-0.32823082025011513,10,1,100,0.08059643335745154,-10,-1,-100,18790.396541548776,-0.007570796628157549,-0.009173610442927105,0.9999292614529572,79.77626949886344,4.9896188377468835,562.5270050034203,-121.99863571734633,137.38888549804688,4761.76025390625,True
1599386910.5082598,0.0,10,0.5,0.5,-28.482085189819337,-0.1005,-0.03,-0.2505,-0.2344894809137784,10,1,100,0.08171292881493213,-10,-1,-100,18785.505717059714,-0.00755594639620132,-0.010435018365525696,0.9999170055888483,79.77134594994072,4.989243363763042,564.3279568557633,-122.36126730254955,132.34283447265625,4761.76025390625,True
1599386910.5431666,0.0,10,0.5,0.5,-27.759909759521488,-0.1005,-0.03,-0.2505,-0.26119489780367294,10,1,100,0.07762675962268017,-10,-1,-100,18780.60038710374,-0.007505429331864735,-0.011815136419305457,0.999902030741981,79.42621337304287,4.966872421937755,563.7164780839431,-122.7239096949366,127.00222778320312,4761.76025390625,True
1599386910.576588,0.0,10,0.5,0.5,-28.00531723022461,-0.1005,-0.03,-0.2505,-0.20147843718868766,10,1,100,0.08177314984762998,-10,-1,-100,18778.14228208561,-0.007497349456586131,-0.012517432564363629,0.9998935461503502,79.10756308890508,4.94631287396784,562.3676032824101,-122.90524381580107,124.22203063964844,4761.76025390625,True
1599386910.6104965,0.0,10,0.5,0.5,-26.547739082336427,-0.1005,-0.03,-0.2505,-0.2959476028536312,10,1,100,0.07947633656262398,-10,-1,-100,18773.215190862422,-0.0074692816120654395,-0.01400457603481511,0.9998740329072883,78.1478508182313,4.884685036939947,557.3518011755652,-123.26795711849583,118.44108581542969,4761.76025390625,True
1599386910.6454394,0.0,10,0.5,0.5,-26.818345893859863,-0.1005,-0.03,-0.2505,-0.23336048495386727,10,1,100,0.08151189032924927,-10,-1,-100,18770.746203926974,-0.007462418291437553,-0.014777754472577774,0.999862955752433,77.49486489954862,4.842948311893465,553.5924829324751,-123.44934430089552,115.4405517578125,4761.76025390625,True
1599386910.6827433,0.0,10,0.5,0.5,-24.122363937377933,-0.1005,-0.03,-0.2505,-0.4321042369141669,10,1,100,0.08157351473785956,-10,-1,-100,18763.317471044138,-0.007456893237749015,-0.017276906080771398,0.9998229359539204,74.78176978771856,4.670791040317575,536.8188617487282,-123.99367571081159,105.99815368652344,4761.76025390625,True
1599386910.7146938,0.0,10,0.5,0.5,-25.180126670837403,-0.1005,-0.03,-0.2505,-0.2792776292443738,10,1,100,0.08415445597656965,-10,-1,-100,18760.83396724332,-0.007475519306149061,-0.018147631935781096,0.99980737148024,73.6101517787162,4.596952193604647,529.2668034944691,-124.17518911666323,102.70419311523438,4761.76025390625,True
1599386910.750563,0.0,10,0.5,0.5,-24.66754692077637,-0.1005,-0.03,-0.2505,-0.2921876091972079,10,1,100,0.0852964561124681,-10,-1,-100,18758.346832198906,-0.007502973860028986,-0.019044342691413266,0.9997904872495577,72.29934837697866,4.514632864279311,520.6862043980138,-124.3567431353124,99.33686828613281,4761.76025390625,True
1599386910.7854965,0.0,10,0.5,0.5,-24.148892280578615,-0.1005,-0.03,-0.2505,-0.31044015556660465,10,1,100,0.08608733212541494,-10,-1,-100,18755.856066031032,-0.007535229194606214,-0.02001337552331372,0.9997713164124823,71.68634309026835,4.476141223497372,517.1094788094222,-124.53831567407093,95.89558410644531,4761.76025390625,True
1599386910.8174405,0.0,10,0.5,0.5,-22.366292839050296,-0.1005,-0.03,-0.2505,-0.42823765413183235,10,1,100,0.09637064763910641,-10,-1,-100,18750.863642494893,-0.007658094394256756,-0.021953223891001135,0.9997296682358887,74.47860435196009,4.650767616008491,538.994162635641,-124.9013255561315,88.79435729980469,4761.76025390625,True
1599386910.8533428,0.0,10,0.5,0.5,-20.06769097137451,-0.1005,-0.03,-0.2505,-0.5801676894792449,10,1,100,0.1190074232668874,-10,-1,-100,18743.34779424162,-0.007975499538040623,-0.025086286716195196,0.9996534747730894,78.40232238748818,4.897420538520291,570.1393553630306,-125.44549366186794,77.59300231933594,4761.76025390625,True
1599386910.8882492,0.0,10,0.5,0.5,-19.959647026062015,-0.1005,-0.03,-0.2505,-0.5174613235966099,10,1,100,0.12579559623942224,-10,-1,-100,18738.31909701589,-0.008325378920192783,-0.027351148441665234,0.9995912178209435,80.7231889809247,5.0435560848047585,588.8993681706947,-125.80804978937007,69.75900268554688,4761.76025390625,True
