Timestamp,Input Throttle,horizon,dT,dt,Input Roll,Roll P,Roll I,Roll D,Input Pitch,Pitch P,Pitch I,Pitch D,Input Yaw,Yaw P,Yaw I,Yaw D,Altitude,Direction X,Direction Y,Direction Z,Drag X,Drag Y,Drag Z,Vertical Velocity,Roll,Mass,Has Fuel
1599387006.4250417,0.0,10,0.5,0.5,-8.425607727050782,-0.15025,-0.001,-0.001,-0.00014889073342113745,10,1,100,0.49813798143173404,-10,-1,-100,19349.722303796792,-0.04884583270285122,-0.00017427093342522323,0.9988063146862894,61.076496979480495,3.686295860420107,233.73140388719335,-68.66499521422041,-33.9227294921875,4761.76025390625,True
1599387006.4539957,0.0,10,0.5,0.5,-8.431042221069337,-0.15025,-0.001,-0.001,-0.000829054050237953,10,1,100,0.49894931900022954,-10,-1,-100,19348.345354523626,-0.04889680005468242,-0.00016580654817652504,0.9988038223057624,61.16627760538909,3.6923877537544274,234.72057024721366,-68.84745196363025,-33.92388916015625,4761.76025390625,True
1599387006.48588,0.0,10,0.5,0.5,-8.436466360473634,-0.15025,-0.001,-0.001,-0.00072328503479757,10,1,100,0.5045741055220531,-10,-1,-100,19346.964756431873,-0.04894981679740493,-0.0001569993827662718,0.9988012268648323,61.25628940849926,3.6984973127573246,235.71269659718547,-69.0299052128998,-33.92510986328125,4761.76025390625,True
1599387006.5189958,0.0,10,0.5,0.5,-8.419074620056152,-0.15025,-0.001,-0.001,0.0226661046673421,10,1,100,0.5085825031220915,-10,-1,-100,19342.80106788117,-0.04898995398097355,6.378067342865204e-05,0.9987992692933689,61.53076069890795,3.717114659844022,238.71874901168826,-69.57724418963305,-34.077178955078125,4761.76025390625,True
1599387006.5542133,0.0,10,0.5,0.5,-8.398273599243163,-0.15025,-0.001,-0.001,0.013142711189643094,10,1,100,0.508338975173129,-10,-1,-100,19341.40587408247,-0.048979692117426296,0.0001778555286509294,0.9987997587742464,61.627626956067125,3.7236477718766157,239.74588853816985,-69.7596833131402,-34.252685546875,4761.76025390625,True
1599387006.5861285,0.0,10,0.5,0.5,-8.404023837280272,-0.15025,-0.001,-0.001,0.0017530112202804504,10,1,100,0.5142631307395968,-10,-1,-100,19341.40587408247,-0.048979692117426296,0.0001778555286509294,0.9987997587742464,61.627626956067125,3.7236477718766157,239.74588853816985,-69.7596833131402,-34.252685546875,4761.76025390625,True
1599387006.6188602,0.0,10,0.5,0.5,-8.193893765258787,-0.15025,-0.001,-0.001,0.08743406065373871,10,1,100,0.4904121688992324,-10,-1,-100,19335.788612556877,-0.04871833819877078,0.0009566124730199583,0.9988120986530583,62.04589746453219,3.7515896088680214,243.99760758900203,-70.48939859045863,-35.6788330078125,4761.76025390625,True
1599387006.6519353,0.0,10,0.5,0.5,-8.200752029418945,-0.15025,-0.001,-0.001,0.009654027464137828,10,1,100,0.5214193945846614,-10,-1,-100,19335.788612556877,-0.04871833819877078,0.0009566124730199583,0.9988120986530583,62.04589746453219,3.7515896088680214,243.99760758900203,-70.48939859045863,-35.6788330078125,4761.76025390625,True
1599387006.6888385,0.0,10,0.5,0.5,-8.124581706237793,-0.15025,-0.001,-0.001,0.04160588849761367,10,1,100,0.5122645488712196,-10,-1,-100,19334.37517606432,-0.04859082293028606,0.0012462142892579024,0.9988179908656547,62.154864408735406,3.758813263313548,245.08376425745942,-70.6718163863956,-36.218353271484375,4761.76025390625,True
1599387006.7207131,0.0,10,0.5,0.5,-7.693126191711426,-0.15025,-0.001,-0.001,0.17865818294970018,10,1,100,0.44161257484683636,-10,-1,-100,19328.68494864425,-0.04778843581059621,0.0027542856951393124,0.9988536826347921,62.57599817022385,3.786605019982605,249.39397563194063,-71.40144088949408,-39.110076904296875,4761.76025390625,True
1599387006.7526684,0.0,10,0.5,0.5,-7.701106907653808,-0.15025,-0.001,-0.001,0.028126470931073087,10,1,100,0.526630130396881,-10,-1,-100,19328.68494864425,-0.04778843581059621,0.0027542856951393124,0.9988536826347921,62.57599817022385,3.786605019982605,249.39397563194063,-71.40144088949408,-39.110076904296875,4761.76025390625,True
1599387006.7853427,0.0,10,0.5,0.5,-7.415314277648926,-0.15025,-0.001,-0.001,0.13372157574385019,10,1,100,0.46209036898433264,-10,-1,-100,19325.81794733426,-0.04720267197674782,0.0037115788692295,0.9988784370185159,62.756200614990114,3.7984834234717435,251.44150488566834,-71.76622556014068,-40.996185302734375,4761.76025390625,True
1599387006.8212106,0.0,10,0.5,0.5,-7.257147071838379,-0.15025,-0.001,-0.001,0.09292477023953569,10,1,100,0.4817140936625687,-10,-1,-100,19324.378975069383,-0.046850097014031374,0.004207440445256443,0.998893070280636,62.83215568084757,3.8035073848358065,252.4114831633746,-71.94861154063003,-42.049713134765625,4761.76025390625,True
1599387006.8541565,0.0,10,0.5,0.5,-6.509095750427246,-0.15025,-0.001,-0.001,0.29869833287229225,10,1,100,0.32554295769108876,-10,-1,-100,19318.58660983492,-0.04511174555707876,0.006524924774825975,0.9989606377477925,62.9851729432169,3.813984995675701,255.69660730412693,-72.67812110566535,-46.997100830078125,4761.76025390625,True
1599387006.8859532,0.0,10,0.5,0.5,-6.512751145935058,-0.15025,-0.001,-0.001,0.06759601432547876,10,1,100,0.49899028254396066,-10,-1,-100,19318.58660983492,-0.04511174555707876,0.006524924774825975,0.9989606377477925,62.9851729432169,3.813984995675701,255.69660730412693,-72.67812110566535,-46.997100830078125,4761.76025390625,True
1599387006.9198596,0.0,10,0.5,0.5,-5.83351501159668,-0.15025,-0.001,-0.001,0.27911745998698834,10,1,100,0.3113672494034784,-10,-1,-100,19314.204037801595,-0.04340959793449287,0.008442076945161357,0.9990216905272966,62.86718585580619,3.807144207496107,257.21838015781447,-73.22523196788804,-51.4794921875,4761.76025390625,True
1599387006.9557683,0.0,10,0.5,0.5,-5.836274722290039,-0.15025,-0.001,-0.001,0.08822866509510115,10,1,100,0.4810250022437737,-10,-1,-100,19314.204037801595,-0.04340959793449287,0.008442076945161357,0.9990216905272966,62.86718585580619,3.807144207496107,257.21838015781447,-73.22523196788804,-51.4794921875,4761.76025390625,True
1599387006.986044,0.0,10,0.5,0.5,-5.056732009887695,-0.15025,-0.001,-0.001,0.31683192594042386,10,1,100,0.2546398586069857,-10,-1,-100,19309.78863903694,-0.04135637730167142,0.010513483439689617,0.9990891435314694,62.458351604106696,3.7821285367002817,257.53539872381464,-73.7723484252646,-56.623046875,4761.76025390625,True
1599387007.0199616,0.0,10,0.5,0.5,-5.059781143188476,-0.15025,-0.001,-0.001,0.11064696358426485,10,1,100,0.4592257257994214,-10,-1,-100,19309.78863903694,-0.04135637730167142,0.010513483439689617,0.9990891435314694,62.458351604106696,3.7821285367002817,257.53539872381464,-73.7723484252646,-56.623046875,4761.76025390625,True
1599387007.0528657,0.0,10,0.5,0.5,-4.483435635375977,-0.15025,-0.001,-0.001,0.2655965513997333,10,1,100,0.28585834591146186,-10,-1,-100,19306.82680208364,-0.03978688698053416,0.01191369126605712,0.9991371615473098,61.979656477131094,3.7526837667131465,256.8793571082295,-74.13710991087846,-60.42010498046875,4761.76025390625,True
1599387007.0887725,0.0,10,0.5,0.5,-3.866069708251953,-0.15025,-0.001,-0.001,0.27034857607563595,10,1,100,0.255060177283162,-10,-1,-100,19303.850373929017,-0.038087368381815805,0.013221480963834948,0.9991869418736771,61.302659104218435,3.711060090774387,255.37826812391995,-74.5018966510894,-64.51287841796875,4761.76025390625,True
1599387007.1216905,0.0,10,0.5,0.5,-3.5415216995239254,-0.15025,-0.001,-0.001,0.2189856170813335,10,1,100,0.32175603445866385,-10,-1,-100,19302.356687779306,-0.03715749660042075,0.013933929066167774,0.9992122727764949,60.880778152482144,3.6851602415305873,254.26926034428521,-74.68430283420847,-66.66891479492188,4761.76025390625,True
1599387007.1545959,0.0,10,0.5,0.5,-2.855325016784668,-0.15025,-0.001,-0.001,0.2945678476015175,10,1,100,0.19931019914917075,-10,-1,-100,19299.358370218193,-0.03520814663759016,0.015259427300111162,0.9992634969260203,59.852357862564034,3.622169039455915,251.25039062132748,-75.04914764496914,-71.20303344726562,4761.76025390625,True
1599387007.185518,0.0,10,0.5,0.5,-2.1264729553222654,-0.15025,-0.001,-0.001,0.2993224874178262,10,1,100,0.16636153280134341,-10,-1,-100,19296.34545739845,-0.03314706056856068,0.01649760243215809,0.9993143156633226,58.55600028899511,3.5430529191709366,247.0589280913975,-75.41404446937204,-76.0325927734375,4761.76025390625,True
1599387007.222379,0.0,10,0.5,0.5,-1.7464659439086911,-0.15025,-0.001,-0.001,0.24403596642869918,10,1,100,0.25065005309931393,-10,-1,-100,19294.833527040435,-0.03205048222214135,0.017111545381702023,0.9993397628454389,57.79928351681053,3.4970062039466243,244.48397867026338,-75.59651532637523,-78.55776977539062,4761.76025390625,True
1599387007.256324,0.0,10,0.5,0.5,-0.9484076477050782,-0.15025,-0.001,-0.001,0.3082304272555406,10,1,100,0.11076920913193361,-10,-1,-100,19291.79871666094,-0.029793822655997542,0.018243637142797905,0.9993895626007632,56.05476876794056,3.391182272472435,238.30433093919964,-75.96150690834799,-83.83001708984375,4761.76025390625,True
1599387007.2871778,0.0,10,0.5,0.5,-0.10829510803222657,-0.15025,-0.001,-0.001,0.3076937792507528,10,1,100,0.07893797656846274,-10,-1,-100,19288.749304324156,-0.027465317095542976,0.019259022343570967,0.9994372148440397,53.98691613997684,3.266245405167458,230.6697351192849,-76.32656972856478,-89.39794921875,4761.76025390625,True
1599387007.3210478,0.0,10,0.5,0.5,1.2366137001037598,-0.15025,-0.001,-0.001,0.352314296422915,10,1,100,-0.09333046949763274,-10,-1,-100,19284.147803286673,-0.02379691187710973,0.020577907277294853,0.9995050058489953,53.601630784178845,3.244285525256771,230.7468330561769,-76.8742226603705,-98.30165100097656,4761.76025390625,True
1599387007.3559878,0.0,10,0.5,0.5,1.2318778587341308,-0.15025,-0.001,-0.001,0.221432245434287,10,1,100,0.2717541058032357,-10,-1,-100,19284.147803286673,-0.02379691187710973,0.020577907277294853,0.9995050058489953,53.601630784178845,3.244285525256771,230.7468330561769,-76.8742226603705,-98.30165100097656,4761.76025390625,True
1599387007.3873425,0.0,10,0.5,0.5,2.6307878456115725,-0.15025,-0.001,-0.001,0.3340041398328662,10,1,100,-0.13302729062476093,-10,-1,-100,19279.513450018945,-0.020133044150877542,0.02159213865924775,0.9995641250471821,56.24622178467501,3.406974982561799,243.93880478228422,-77.42168591750941,-107.52308654785156,4761.76025390625,True
1599387007.4212494,0.0,10,0.5,0.5,3.522414956665039,-0.15025,-0.001,-0.001,0.29007796599538643,10,1,100,-0.04226569858884449,-10,-1,-100,19276.40563648916,-0.01764522782083812,0.022106039746688576,0.9995999044327027,57.728682742882484,3.4988928431154758,251.6034914751621,-77.7865413411141,-113.44796752929688,4761.76025390625,True
1599387007.4551609,0.0,10,0.5,0.5,3.5213835845947266,-0.15025,-0.001,-0.001,0.23957631312958916,10,1,100,0.20447172035900005,-10,-1,-100,19276.40563648916,-0.01764522782083812,0.022106039746688576,0.9995999044327027,57.728682742882484,3.4988928431154758,251.6034914751621,-77.7865413411141,-113.44796752929688,4761.76025390625,True
1599387007.489264,0.0,10,0.5,0.5,4.379335263061523,-0.15025,-0.001,-0.001,0.2847862996815378,10,1,100,-0.053698383406813655,-10,-1,-100,19273.283231298323,-0.015315965303675797,0.022509610432905818,0.9996293006134702,59.03223136574908,3.5800673618078718,258.54673753433826,-78.15130964170831,-119.08944702148438,4761.76025390625,True
1599387007.5231729,0.0,10,0.5,0.5,4.7885290309906,-0.15025,-0.001,-0.001,0.26254064496525953,10,1,100,0.04785910331137974,-10,-1,-100,19271.716557744658,-0.014139787604906275,0.022667668574652786,0.9996430579001077,59.55399577818662,3.6127433261463353,261.46802748492865,-78.33366554251413,-121.80049896240234,4761.76025390625,True
1599387007.5580804,0.0,10,0.5,0.5,5.5771516380310056,-0.15025,-0.001,-0.001,0.2705076951815189,10,1,100,-0.09399559976258576,-10,-1,-100,19268.572270805016,-0.011798226280773982,0.022878176372622846,0.9996686405517033,60.3380539501734,3.6621936594307267,266.19865685653457,-78.69833263267995,-127.002197265625,4761.76025390625,True
1599387007.5885088,0.0,10,0.5,0.5,6.318890081787109,-0.15025,-0.001,-0.001,0.2659022225501455,10,1,100,-0.10338787548001113,-10,-1,-100,19265.413398553967,-0.009602560984987456,0.02302243677322776,0.9996888307006099,60.80892146850597,3.6923282222926774,269.5738194707784,-79.06295549630423,-131.9086151123047,4761.76025390625,True
1599387007.6244128,0.0,10,0.5,0.5,7.016349526214599,-0.15025,-0.001,-0.001,0.25441400577729734,10,1,100,-0.12546401637924032,-10,-1,-100,19262.23994203424,-0.007424165127616721,0.02304479989436049,0.9997068665213753,61.01410927430895,3.7059660543735236,271.7855284431563,-79.42755089616199,-136.52056884765625,4761.76025390625,True
1599387007.6593184,0.0,10,0.5,0.5,7.348444692230225,-0.15025,-0.001,-0.001,0.2528635644358703,10,1,100,-0.023301918860239135,-10,-1,-100,19260.647745146416,-0.006390770827423269,0.02304759346724019,0.999713942327304,61.03026247486942,3.707395057461479,272.50879456381335,-79.60984308138504,-138.715576171875,4761.76025390625,True
1599387007.6947336,0.0,10,0.5,0.5,7.980809437561035,-0.15025,-0.001,-0.001,0.2473467826887546,10,1,100,-0.1429044637368597,-10,-1,-100,19257.45241361414,-0.004379849365686932,0.022997735348348005,0.9997259229850856,60.919244732280106,3.701283334532041,273.3137582647785,-79.97442389244412,-142.88429260253906,4761.76025390625,True
1599387007.726649,0.0,10,0.5,0.5,8.566931943511962,-0.15025,-0.001,-0.001,0.24207717146778998,10,1,100,-0.15431173153910957,-10,-1,-100,19254.24249899364,-0.002465688386371102,0.022902304385463566,0.9997346672165656,60.65287846138968,3.685425529595446,273.4144955435321,-80.33900840788313,-146.757568359375,4761.76025390625,True
1599387007.7635493,0.0,10,0.5,0.5,8.843179072570802,-0.15025,-0.001,-0.001,0.2428393041792195,10,1,100,-0.0668621355869741,-10,-1,-100,19252.632072831388,-0.001536599600889312,0.02282128638410324,0.9997383796521174,60.47395822365863,3.6746221111650774,273.2542987548364,-80.52130455965907,-148.5836639404297,4761.76025390625,True
1599387007.7979677,0.0,10,0.5,0.5,9.60627237701416,-0.15025,-0.001,-0.001,0.2256445400018659,10,1,100,-0.2611246495494925,-10,-1,-100,19247.77891779004,0.001059405214462529,0.022590667393402077,0.9997442369962991,59.80488047393258,3.6338932425868253,272.1502978416261,-81.0682161549118,-153.6177520751953,4761.76025390625,True
1599387007.829882,0.0,10,0.5,0.5,10.056978938293456,-0.15025,-0.001,-0.001,0.22830674274119472,10,1,100,-0.17990056918493808,-10,-1,-100,19244.525250208215,0.00266400464961798,0.022404775037988815,0.9997454321649707,59.291459799727775,3.6024962715205144,271.08387795061736,-81.43284699901776,-156.60435485839844,4761.76025390625,True
1599387007.8647888,0.0,10,0.5,0.5,10.266845751190184,-0.15025,-0.001,-0.001,0.23562186465760604,10,1,100,-0.10520923022279709,-10,-1,-100,19242.892946655513,0.0034273738092368412,0.022302378400848605,0.9997453961016459,59.025407708113455,3.5862067490098974,270.5000456685875,-81.61516976714935,-157.98684692382812,4761.76025390625,True
1599387007.900693,0.0,10,0.5,0.5,10.466886688232423,-0.15025,-0.001,-0.001,0.23951169300327535,10,1,100,-0.11016358297960399,-10,-1,-100,19241.25699658529,0.004150415196303011,0.022244984706748867,0.9997439345697952,58.757062271285946,3.569770247878374,269.9002615907113,-81.79749742603599,-159.29464721679688,4761.76025390625,True
1599387007.9355996,0.0,10,0.5,0.5,10.830955597686767,-0.15025,-0.001,-0.001,0.22825264847729834,10,1,100,-0.19148570743301335,-10,-1,-100,19237.974156423123,0.005532518823687727,0.022091029299754653,0.9997406552001089,58.228317318593874,3.5373764548929674,268.72092674673553,-82.16216696978788,-161.6890106201172,4761.76025390625,True
1599387007.9675157,0.0,10,0.5,0.5,11.148973641967773,-0.15025,-0.001,-0.001,0.22579010602256522,10,1,100,-0.19544898943278743,-10,-1,-100,19234.676729135448,0.006811247339663891,0.021929529823329134,0.9997363165512222,57.7268486098705,3.5066602118274695,267.64639781444083,-82.52685370022944,-163.78775024414062,4761.76025390625,True
1599387008.002422,0.0,10,0.5,0.5,11.291513890075683,-0.15025,-0.001,-0.001,0.2344066291530451,10,1,100,-0.13467238638423917,-10,-1,-100,19233.022544777486,0.007408271951503347,0.021862058027829416,0.9997335484645299,57.49138116147464,3.4922438049431035,267.1723664262863,-82.7092027026785,-164.72601318359375,4761.76025390625,True
1599387008.0393226,0.0,10,0.5,0.5,11.543393688964843,-0.15025,-0.001,-0.001,0.229610442660115,10,1,100,-0.19889525888456355,-10,-1,-100,19229.703235361492,0.00852232130974314,0.02175819609602068,0.9997269381896942,57.06083561000504,3.465900483200182,266.3983607829398,-83.07391025654476,-166.38034057617188,4761.76025390625,True
1599387008.0707462,0.0,10,0.5,0.5,11.835455696105956,-0.15025,-0.001,-0.001,0.22881432283769038,10,1,100,-0.2511739395746284,-10,-1,-100,19224.696917401976,0.009998624941074969,0.02165766555894736,0.9997154460254302,56.542594960256,3.434232077549291,265.80389391960153,-83.62098847388943,-168.30673217773438,4761.76025390625,True
1599387008.1056542,0.0,10,0.5,0.5,11.835684220886229,-0.15025,-0.001,-0.001,0.23874291266237088,10,1,100,-0.10479000777419009,-10,-1,-100,19224.696917401976,0.009998624941074969,0.02165766555894736,0.9997154460254302,56.542594960256,3.434232077549291,265.80389391960153,-83.62098847388943,-168.30673217773438,4761.76025390625,True
1599387008.1415572,0.0,10,0.5,0.5,11.975915404510499,-0.15025,-0.001,-0.001,0.2366820599108253,10,1,100,-0.19968498572423152,-10,-1,-100,19221.34113589651,0.010850819991037196,0.021639988371047088,0.9997069423630223,56.29678963226785,3.419236439981496,265.8606878020475,-83.98571283240514,-169.22084045410156,4761.76025390625,True
1599387008.1794553,0.0,10,0.5,0.5,12.099934579467774,-0.15025,-0.001,-0.001,0.24654583964621207,10,1,100,-0.23418516708283985,-10,-1,-100,19216.2801093834,0.011930279489920592,0.021714453178752497,0.9996930283614267,56.09683200927278,3.4070650073394146,266.72962633922424,-84.53279746134854,-170.03652954101562,4761.76025390625,True
1599387008.215359,0.0,10,0.5,0.5,12.119241423797607,-0.15025,-0.001,-0.001,0.24247549456698914,10,1,100,-0.16117172659370718,-10,-1,-100,19214.58580630261,0.012239423870967653,0.02174577288672742,0.999688610450707,56.07751177570821,3.4058966228849537,267.2422686327383,-84.7151564344451,-170.1606903076172,4761.76025390625,True
1599387008.2462776,0.0,10,0.5,0.5,12.124191134643553,-0.15025,-0.001,-0.001,0.25550119028554563,10,1,100,-0.18972703001871993,-10,-1,-100,19211.186258348287,0.012772046930272615,0.021893166769158885,0.9996787304259448,56.10962612052483,3.407868819394078,268.6054373804883,-85.07986708487796,-170.18618774414062,4761.76025390625,True
1599387008.2811847,0.0,10,0.5,0.5,12.110396583557128,-0.15025,-0.001,-0.001,0.2510527905983285,10,1,100,-0.16195775809970978,-10,-1,-100,19209.481013764394,0.012995963937891606,0.02198704104506514,0.999673784265351,56.16205269275979,3.41106642940573,269.4622396523573,-85.26221770140967,-170.08795166015625,4761.76025390625,True
1599387008.3160903,0.0,10,0.5,0.5,12.048086937713622,-0.15025,-0.001,-0.001,0.2646086215778948,10,1,100,-0.18116033715561417,-10,-1,-100,19206.059584146133,0.01336730880431327,0.022195710657752967,0.9996642763866914,56.33977307869129,3.4218848484803233,271.53079938553105,-85.6269067603995,-169.66978454589844,4761.76025390625,True
1599387008.3480053,0.0,10,0.5,0.5,11.870317082214354,-0.15025,-0.001,-0.001,0.28921357901010797,10,1,100,-0.1824884135488125,-10,-1,-100,19200.900089464034,0.013711008412394178,0.02260884975427618,0.9996503629575212,56.78096918227086,3.4486916867446324,275.4961060590898,-86.17390183147687,-168.48779296875,4761.76025390625,True
1599387008.382911,0.0,10,0.5,0.5,11.87187525177002,-0.15025,-0.001,-0.001,0.24797434853043138,10,1,100,-0.14874872638681078,-10,-1,-100,19200.900089464034,0.013711008412394178,0.02260884975427618,0.9996503629575212,56.78096918227086,3.4486916867446324,275.4961060590898,-86.17390183147687,-168.48779296875,4761.76025390625,True
1599387008.416821,0.0,10,0.5,0.5,11.697009321594237,-0.15025,-0.001,-0.001,0.28470318904644315,10,1,100,-0.1588069097198636,-10,-1,-100,19197.44219421572,0.013797729454419521,0.022941974982914237,0.9996415799904413,57.18327907666453,3.473103734136854,278.683243889285,-86.53853334544486,-167.33026123046875,4761.76025390625,True
1599387008.4477386,0.0,10,0.5,0.5,11.351686950683593,-0.15025,-0.001,-0.001,0.31435611603579405,10,1,100,-0.13975870492736653,-10,-1,-100,19192.22800605488,0.013699947535862273,0.02351322060937569,0.99962965136799,57.9298821103277,3.5183622529896312,284.1993890846999,-87.08542255632432,-165.04013061523438,4761.76025390625,True
1599387008.482645,0.0,10,0.5,0.5,11.215869277954102,-0.15025,-0.001,-0.001,0.28006295570175976,10,1,100,-0.14039398624207924,-10,-1,-100,19190.482651901548,0.013613465328585084,0.0237190919439854,0.9996259691700192,58.211760247355095,3.5354404848760526,286.2112978790097,-87.26770157128755,-164.12918090820312,4761.76025390625,True
1599387008.5155566,0.0,10,0.5,0.5,11.067333569335938,-0.15025,-0.001,-0.001,0.28324122628243636,10,1,100,-0.13535225358514513,-10,-1,-100,19188.73365232034,0.013486499711145013,0.023933250977479528,0.9996225856908149,58.50712863092389,3.5533334796498703,288.2958256614724,-87.44997114157154,-163.14447021484375,4761.76025390625,True
1599387008.5454757,0.0,10,0.5,0.5,10.736331199645994,-0.15025,-0.001,-0.001,0.3097326983635944,10,1,100,-0.10944590522417674,-10,-1,-100,19185.224717797595,0.013134149419080487,0.024366755483394963,0.9996168042536347,59.1319039194515,3.591180973963808,292.6526195383469,-87.81448068126538,-160.95407104492188,4761.76025390625,True
1599387008.580384,0.0,10,0.5,0.5,10.361719207763672,-0.15025,-0.001,-0.001,0.31670331124895446,10,1,100,-0.09383762059682482,-10,-1,-100,19181.70120427676,0.012671124088274888,0.024821836985369845,0.9996115840780414,59.78862001738832,3.6309801865444196,297.1953067679262,-88.17894875596514,-158.46890258789062,4761.76025390625,True
1599387008.6142936,0.0,10,0.5,0.5,9.71578899536133,-0.15025,-0.001,-0.001,0.3454003276640315,10,1,100,-0.03587023325156716,-10,-1,-100,19176.388601688435,0.011723307468805635,0.025493766981651154,0.9996062384294513,60.78962759073643,3.6917429076842985,304.14239785267455,-88.72557016016455,-154.18960571289062,4761.76025390625,True
1599387008.6508787,0.0,10,0.5,0.5,9.718478457641602,-0.15025,-0.001,-0.001,0.27855800062955915,10,1,100,-0.1305246295515838,-10,-1,-100,19176.388601688435,0.011723307468805635,0.025493766981651154,0.9996062384294513,60.78962759073643,3.6917429076842985,304.14239785267455,-88.72557016016455,-154.18960571289062,4761.76025390625,True
1599387008.6848273,0.0,10,0.5,0.5,9.478956787872313,-0.15025,-0.001,-0.001,0.30262607439359124,10,1,100,-0.08857493469791108,-10,-1,-100,19174.610446686274,0.011343441153168163,0.02570956941921154,0.9996050942162527,61.116279875862496,3.7116190704952725,306.4373539430767,-88.90775564777664,-152.61622619628906,4761.76025390625,True
1599387008.7196922,0.0,10,0.5,0.5,8.969715906524659,-0.15025,-0.001,-0.001,0.3255869437251744,10,1,100,-0.03227928223162971,-10,-1,-100,19171.043205692316,0.010488481814039927,0.026111669793039975,0.9996040078200246,61.74012245195878,3.7496950551048767,310.90013399776115,-89.27209515619252,-149.2494354248047,4761.76025390625,True
1599387008.7536454,0.0,10,0.5,0.5,8.41745637359619,-0.15025,-0.001,-0.001,0.3305713808375036,10,1,100,-0.009885760238560123,-10,-1,-100,19167.461392738274,0.009510598148166674,0.02651934427023358,0.9996030576695637,62.300648114490656,3.78412701800227,315.0698063983549,-89.63639530789044,-145.58859252929688,4761.76025390625,True
1599387008.7845464,0.0,10,0.5,0.5,7.820968272399902,-0.15025,-0.001,-0.001,0.3274401734472699,10,1,100,0.013876865868644339,-10,-1,-100,19163.865008367226,0.008409486515767542,0.026858239755691713,0.9996038792910754,62.76727738432162,3.81311999693684,318.7871194822277,-90.00066124382465,-141.63504028320312,4761.76025390625,True
1599387008.819464,0.0,10,0.5,0.5,7.507002492523193,-0.15025,-0.001,-0.001,0.30943808669660655,10,1,100,-0.030692402199589186,-10,-1,-100,19162.061352555407,0.007818460615134177,0.026999630300060064,0.9996048677538889,62.95471748249863,3.8249475176137686,320.42004242723203,-90.18278365575569,-139.54856872558594,4761.76025390625,True
1599387008.854335,0.0,10,0.5,0.5,6.842267308807373,-0.15025,-0.001,-0.001,0.32187071789879795,10,1,100,0.049695411686374924,-10,-1,-100,19158.443114231457,0.006555634219880036,0.027238208771000236,0.9996074747834384,63.214837798171125,3.841894376750405,323.11205708937604,-90.54701334426812,-135.1560821533203,4761.76025390625,True
1599387008.8869443,0.0,10,0.5,0.5,5.764448400878906,-0.15025,-0.001,-0.001,0.3205202244966099,10,1,100,0.152207883070261,-10,-1,-100,19152.98844003305,0.0044819794529693665,0.027439816570204573,0.9996134094372569,63.24609504929812,3.8461971083831985,325.3272204721007,-91.09334273566368,-128.01947021484375,4761.76025390625,True
1599387008.9218476,0.0,10,0.5,0.5,5.768291552734375,-0.15025,-0.001,-0.001,0.3006667506848571,10,1,100,-0.05429237662419487,-10,-1,-100,19152.98844003305,0.0044819794529693665,0.027439816570204573,0.9996134094372569,63.24609504929812,3.8461971083831985,325.3272204721007,-91.09334273566368,-128.01947021484375,4761.76025390625,True
1599387008.9570775,0.0,10,0.5,0.5,4.990468853759765,-0.15025,-0.001,-0.001,0.3017374378608882,10,1,100,0.10967484316423026,-10,-1,-100,19149.33377935097,0.00299881304092487,0.027447170108545915,0.9996187573136961,62.97048069721641,3.831471979555949,325.27602597273705,-91.45757380639962,-122.89697265625,4761.76025390625,True
1599387008.9959362,0.0,10,0.5,0.5,4.173653217697144,-0.15025,-0.001,-0.001,0.2866034948951449,10,1,100,0.12735253028709317,-10,-1,-100,19145.664548353874,0.001497705051065557,0.027314498022688656,0.9996257675136975,62.40956689239867,3.7996406460913374,323.7353254101701,-91.82183378694612,-117.48336029052734,4761.76025390625,True
1599387009.0298445,0.0,10,0.5,0.5,3.749397451019287,-0.15025,-0.001,-0.001,0.2909456562778809,10,1,100,0.06746891029021698,-10,-1,-100,19143.824468679493,0.0006867539715448195,0.027231706019896895,0.9996289124251202,62.00873965128003,3.776447375115334,322.3311553808385,-92.00398042513093,-114.66683959960938,4761.76025390625,True
1599387009.064752,0.0,10,0.5,0.5,2.8634694442749025,-0.15025,-0.001,-0.001,0.26736723183385425,10,1,100,0.1636430992319583,-10,-1,-100,19140.133379325503,-0.0009150971936883869,0.026940707489139883,0.9996366144140134,61.0447839744952,3.7201562825095102,318.65165981492623,-92.36831655991422,-108.81593322753906,4761.76025390625,True
1599387009.0986967,0.0,10,0.5,0.5,1.936295143127441,-0.15025,-0.001,-0.001,0.25062120655126824,10,1,100,0.17947421642648825,-10,-1,-100,19136.42771455669,-0.0025048778829345484,0.026523173106159,0.9996450604465428,59.847127432006566,3.6494175129482036,313.7081041014344,-92.73271756023443,-102.67390441894531,4761.76025390625,True
1599387009.13257,0.0,10,0.5,0.5,0.9651327312469482,-0.15025,-0.001,-0.001,0.23313645082846013,10,1,100,0.2004247894431163,-10,-1,-100,19132.70747152355,-0.004129669649644859,0.025984640588845462,0.9996538122180365,58.41692634927746,3.5640580747591626,307.49085203697933,-93.09719401697083,-96.24076080322266,4761.76025390625,True
1599387009.1634874,0.0,10,0.5,0.5,-0.04999802246093749,-0.15025,-0.001,-0.001,0.2146110256813838,10,1,100,0.21047091459770167,-10,-1,-100,19128.972647443064,-0.0056866822515455415,0.02532744679828414,0.9996630342688732,57.303443672393726,3.4973745603560413,302.88701716559774,-93.46173766370728,-89.51663208007812,4761.76025390625,True
1599387009.196959,0.0,10,0.5,0.5,-1.6561345626831054,-0.15025,-0.001,-0.001,0.15019762645120516,10,1,100,0.3033212787557045,-10,-1,-100,19123.343076410354,-0.00793396507028557,0.024145941707955657,0.999676960671446,61.47771891897619,3.7528990212649873,326.9755428883421,-94.00836302344753,-78.88616943359375,4761.76025390625,True
1599387009.2278752,0.0,10,0.5,0.5,-2.2018263961791993,-0.15025,-0.001,-0.001,0.2200307222584197,10,1,100,0.15815121249411324,-10,-1,-100,19121.459266245598,-0.008644049212861889,0.023709503648689026,0.9996815192099623,62.733487715822385,3.8295717376194767,334.34293946874516,-94.19050383424523,-75.24520874023438,4761.76025390625,True
1599387009.260787,0.0,10,0.5,0.5,-2.2034628616333007,-0.15025,-0.001,-0.001,0.2633014968929312,10,1,100,0.0884554011030645,-10,-1,-100,19121.459266245598,-0.008644049212861889,0.023709503648689026,0.9996815192099623,62.733487715822385,3.8295717376194767,334.34293946874516,-94.19050383424523,-75.24520874023438,4761.76025390625,True
1599387009.294209,0.0,10,0.5,0.5,-3.3060967025756836,-0.15025,-0.001,-0.001,0.1625395751587287,10,1,100,0.23718820721990302,-10,-1,-100,19117.680720128003,-0.009984232878773302,0.02279687737194311,0.9996902607687598,64.93701753354853,3.9639657207392633,347.51115237396334,-94.55468923647143,-67.98995971679688,4761.76025390625,True
1599387009.3251257,0.0,10,0.5,0.5,-4.366151651000976,-0.15025,-0.001,-0.001,0.14243420606778445,10,1,100,0.24492038371416835,-10,-1,-100,19113.887609807425,-0.011261071410531818,0.02178866857656242,0.9996991758485887,66.65199673683972,4.068600090686963,358.1494271768708,-94.91876250986213,-60.96966552734375,4761.76025390625,True
1599387009.3610299,0.0,10,0.5,0.5,-5.875265628814697,-0.15025,-0.001,-0.001,0.06676653430613103,10,1,100,0.3075992999611937,-10,-1,-100,19108.170644841855,-0.01298004315395652,0.02018925068242506,0.9997119148217668,68.2970370333087,4.169657795028335,369.2322802577672,-95.46471931061353,-50.983001708984375,4761.76025390625,True
1599387009.396234,0.0,10,0.5,0.5,-5.8716473487854,-0.15025,-0.001,-0.001,0.22600407818611987,10,1,100,0.13706880533127364,-10,-1,-100,19108.170644841855,-0.01298004315395652,0.02018925068242506,0.9997119148217668,68.2970370333087,4.169657795028335,369.2322802577672,-95.46471931061353,-50.983001708984375,4761.76025390625,True
1599387009.4281487,0.0,10,0.5,0.5,-7.286897118377685,-0.15025,-0.001,-0.001,0.05146657992116338,10,1,100,0.3035592906598563,-10,-1,-100,19102.42092679511,-0.014482624887888845,0.01860868384074974,0.999721946574182,68.94781893543652,4.2113202023962755,375.0163629922098,-96.01057785115546,-41.664215087890625,4761.76025390625,True
1599387009.4630554,0.0,10,0.5,0.5,-7.2836793006896965,-0.15025,-0.001,-0.001,0.20873181516215428,10,1,100,0.15449889196711913,-10,-1,-100,19102.42092679511,-0.014482624887888845,0.01860868384074974,0.999721946574182,68.94781893543652,4.2113202023962755,375.0163629922098,-96.01057785115546,-41.664215087890625,4761.76025390625,True
1599387009.4989605,0.0,10,0.5,0.5,-9.010999671936036,-0.15025,-0.001,-0.001,-0.015582231821801629,10,1,100,0.3419348974847843,-10,-1,-100,19094.70369029336,-0.01617717679692376,0.01657617064703023,0.9997317287740554,68.55255172952397,4.191642818571415,375.87758028011416,-96.73838791257737,-30.279998779296875,4761.76025390625,True
1599387009.530912,0.0,10,0.5,0.5,-9.00553911895752,-0.15025,-0.001,-0.001,0.1867939599350242,10,1,100,0.1735287560358305,-10,-1,-100,19094.70369029336,-0.01617717679692376,0.01657617064703023,0.9997317287740554,68.55255172952397,4.191642818571415,375.87758028011416,-96.73838791257737,-30.279998779296875,4761.76025390625,True
1599387009.5657806,0.0,10,0.5,0.5,-9.41271605834961,-0.15025,-0.001,-0.001,0.12939529549992357,10,1,100,0.21410131724374487,-10,-1,-100,19092.76528310997,-0.016538524433607857,0.01606124621676652,0.9997342214706484,68.27122169130654,4.17579399430371,375.0866597799814,-96.92035760659574,-27.62005615234375,4761.76025390625,True
1599387009.6006882,0.0,10,0.5,0.5,-10.185959149169921,-0.15025,-0.001,-0.001,0.07962807371032957,10,1,100,0.25489519023465723,-10,-1,-100,19088.877549333032,-0.017230698880310105,0.015147656770650404,0.9997367911157691,67.53421250264677,4.133531975115389,372.5271505567925,-97.284331055101,-22.5216064453125,4761.76025390625,True
1599387009.637121,0.0,10,0.5,0.5,-11.593647059631348,-0.15025,-0.001,-0.001,-0.021309127002740846,10,1,100,0.3121646979083216,-10,-1,-100,19081.058398549794,-0.018372774220102327,0.01340729349213333,0.9997413093639138,65.70632803961499,4.027064958911147,365.35327753213323,-98.01243907652572,-13.215728759765625,4761.76025390625,True
1599387009.6690695,0.0,10,0.5,0.5,-11.589818605041504,-0.15025,-0.001,-0.001,0.15178824246098557,10,1,100,0.19879601806323233,-10,-1,-100,19081.058398549794,-0.018372774220102327,0.01340729349213333,0.9997413093639138,65.70632803961499,4.027064958911147,365.35327753213323,-98.01243907652572,-13.215728759765625,4761.76025390625,True
1599387009.7039728,0.0,10,0.5,0.5,-11.918488156127928,-0.15025,-0.001,-0.001,0.10903163361131564,10,1,100,0.22806642158229018,-10,-1,-100,19079.094508437673,-0.01863240361317597,0.013026216479940357,0.999741542209692,65.21762104674215,3.998327303997638,363.3596636480314,-98.19449986504148,-11.07427978515625,4761.76025390625,True
1599387009.7398798,0.0,10,0.5,0.5,-13.103884523010253,-0.15025,-0.001,-0.001,-0.003919226560168049,10,1,100,0.3031152262751171,-10,-1,-100,19071.202531110146,-0.01954555368548751,0.011659468680208243,0.9997409805150647,63.39601823927511,3.890462053584509,356.03097631341996,-98.92286241774009,-3.249176025390625,4761.76025390625,True
1599387009.776782,0.0,10,0.5,0.5,-13.625476623535155,-0.15025,-0.001,-0.001,0.07043597554164327,10,1,100,0.2575306701022186,-10,-1,-100,19067.234689075034,-0.019955316412806623,0.011100681410470258,0.9997392461132494,62.443218580945434,3.8332207772828073,352.0718070756591,-99.2871102399177,0.21954345703125,4761.76025390625,True
1599387009.8096578,0.0,10,0.5,0.5,-13.626196279907226,-0.15025,-0.001,-0.001,0.12556390227241385,10,1,100,0.21710166652279914,-10,-1,-100,19067.234689075034,-0.019955316412806623,0.011100681410470258,0.9997392461132494,62.443218580945434,3.8332207772828073,352.0718070756591,-99.2871102399177,0.21954345703125,4761.76025390625,True
1599387009.8435676,0.0,10,0.5,0.5,-13.875962811279297,-0.15025,-0.001,-0.001,0.09903635634829278,10,1,100,0.24168296318639465,-10,-1,-100,19065.24530414364,-0.020173807571998475,0.010866347358823957,0.9997374355215101,62.04928987354714,3.809473233794676,350.5426843593602,-99.46924757923965,1.84320068359375,4761.76025390625,True
1599387009.8794692,0.0,10,0.5,0.5,-14.747968267822266,-0.15025,-0.001,-0.001,0.03756293843600804,10,1,100,0.3038934520042179,-10,-1,-100,19057.251344086486,-0.020934352496175757,0.010099657897477646,0.999729838404316,64.82268906623939,3.980492901683581,369.1044718209311,-100.19760531888164,7.5980224609375,4761.76025390625,True
1599387009.9163725,0.0,10,0.5,0.5,-14.746001248168945,-0.15025,-0.001,-0.001,0.11358423329568389,10,1,100,0.22831467715641493,-10,-1,-100,19057.251344086486,-0.020934352496175757,0.010099657897477646,0.999729838404316,64.82268906623939,3.980492901683581,369.1044718209311,-100.19760531888164,7.5980224609375,4761.76025390625,True
1599387009.9472888,0.0,10,0.5,0.5,-15.285078590393065,-0.15025,-0.001,-0.001,0.07800557691206142,10,1,100,0.29184460985408917,-10,-1,-100,19051.217643191805,-0.02150790113155228,0.00978163519246225,0.9997208259318583,66.47435474939378,4.081641115293798,380.7361959580454,-100.74369156986366,11.138885498046875,4761.76025390625,True
1599387009.9811974,0.0,10,0.5,0.5,-15.586102125549317,-0.15025,-0.001,-0.001,0.09816411320280032,10,1,100,0.27588771120652605,-10,-1,-100,19047.176975963754,-0.021880357901233778,0.009680661264707869,0.9997137263915065,67.4038719815152,4.138260924373089,387.5660212035824,-101.1076730095467,13.130279541015625,4761.76025390625,True
1599387010.2739956,0.0,10,0.5,0.5,-15.586745332336426,-0.15025,-0.001,-0.001,0.10788884275549586,10,1,100,0.23899279260648928,-10,-1,-100,19047.176975963754,-0.021880357901233778,0.009680661264707869,0.9997137263915065,67.4038719815152,4.138260924373089,387.5660212035824,-101.1076730095467,13.130279541015625,4761.76025390625,True
1599387010.3039134,0.0,10,0.5,0.5,-15.72326073913574,-0.15025,-0.001,-0.001,0.10684384520546447,10,1,100,0.26044537121886246,-10,-1,-100,19045.151183070964,-0.02207219263072705,0.009674549134459788,0.9997095685305394,67.82285039170495,4.16369749934056,390.73291935059393,-101.28964304991453,14.01544189453125,4761.76025390625,True
1599387010.3358283,0.0,10,0.5,0.5,-15.847611313629152,-0.15025,-0.001,-0.001,0.10924384460925507,10,1,100,0.2631522367003118,-10,-1,-100,19043.12175110646,-0.02226806862644543,0.009693857799128248,0.9997050376189061,68.21354841697426,4.187364167446938,393.74604872783243,-101.47160017768252,14.826858520507812,4761.76025390625,True
1599387010.3707347,0.0,10,0.5,0.5,-16.060575827026366,-0.15025,-0.001,-0.001,0.11821570164690581,10,1,100,0.2859388372455337,-10,-1,-100,19039.051970403525,-0.02265081361392692,0.009794760386333746,0.999695455282058,68.91708300891004,4.22983780080161,399.34770892999643,-101.8354785936148,16.228302001953125,4761.76025390625,True
1599387010.4016511,0.0,10,0.5,0.5,-16.15004451599121,-0.15025,-0.001,-0.001,0.11803243868367029,10,1,100,0.2693888111816877,-10,-1,-100,19037.011622162885,-0.022845858368146836,0.009886011185058545,0.9996901187559429,69.2322524623537,4.248797468541626,401.94807352329707,-102.0174012098206,16.818511962890625,4761.76025390625,True
1599387010.4335666,0.0,10,0.5,0.5,-16.352064653778076,-0.15025,-0.001,-0.001,0.15627935122704237,10,1,100,0.3156100617298436,-10,-1,-100,19030.868749299087,-0.023440737202461506,0.010317769907225756,0.9996719839345038,70.04574798225752,4.297497248679455,409.02165576638816,-102.56311014318685,18.147109985351562,4761.76025390625,True
1599387010.4634864,0.0,10,0.5,0.5,-16.39707492752075,-0.15025,-0.001,-0.001,0.1347892642599487,10,1,100,0.27852018007200363,-10,-1,-100,19028.813849241007,-0.023641385464375875,0.010515412116269275,0.9996651994549725,70.27665125952082,4.3112441950317235,411.1565144478387,-102.74499556589664,18.442703247070312,4761.76025390625,True
1599387010.496398,0.0,10,0.5,0.5,-16.453860182189942,-0.15025,-0.001,-0.001,0.16640562885787996,10,1,100,0.30305516428865065,-10,-1,-100,19024.693136667716,-0.024044377347205548,0.010982130389727495,0.999650569314142,70.68332732533483,4.335346874087208,415.11870811113226,-103.10874345323606,18.81292724609375,4761.76025390625,True
1599387010.5253212,0.0,10,0.5,0.5,-16.465943197631834,-0.15025,-0.001,-0.001,0.15140686059561625,10,1,100,0.28489898967665267,-10,-1,-100,19022.627324645175,-0.02424285017616797,0.011269265042766888,0.9996425800658613,70.86013959708202,4.3457704195573275,416.9509714444929,-103.29060706228093,18.887847900390625,4761.76025390625,True
1599387010.5582342,0.0,10,0.5,0.5,-16.43384341430664,-0.15025,-0.001,-0.001,0.23336816718465372,10,1,100,0.331322932666839,-10,-1,-100,19016.40806552116,-0.024842829548731304,0.012274046941930036,0.9996160170743964,71.28914396290682,4.37083816674591,421.8732036147953,-103.83616292986352,18.670989990234375,4761.76025390625,True
1599387010.5915968,0.0,10,0.5,0.5,-16.401443013763426,-0.15025,-0.001,-0.001,0.17627682206825301,10,1,100,0.29340666522916614,-10,-1,-100,19014.327705133357,-0.02504087884558504,0.012666115180404508,0.9996061844110796,71.3985189220248,4.377143357888261,423.3217066353202,-104.01800504085136,18.451675415039062,4761.76025390625,True
1599387010.6245403,0.0,10,0.5,0.5,-16.35791063919067,-0.15025,-0.001,-0.001,0.1836461989267268,10,1,100,0.2956130802078437,-10,-1,-100,19012.24370834732,-0.025238108778036093,0.013086821137807701,0.9995958048020285,71.49095442681346,4.3824183330215485,424.67243531537093,-104.199843150696,18.158889770507812,4761.76025390625,True
1599387010.6564598,0.0,10,0.5,0.5,-16.30325375213623,-0.15025,-0.001,-0.001,0.1931970262183748,10,1,100,0.29598990584192597,-10,-1,-100,19010.156074647908,-0.025417956298622063,0.013553004736277088,0.9995850356824174,71.56609243527744,4.386643002714875,425.92271210647243,-104.38167786428652,17.7928466796875,4761.76025390625,True
1599387010.7008862,0.0,10,0.5,0.5,-16.159818550872803,-0.15025,-0.001,-0.001,0.2564940759377605,10,1,100,0.31916046440386225,-10,-1,-100,19005.969897557865,-0.025789231951834024,0.014548727416937175,0.9995615288944859,71.6620131366989,4.391799093513778,428.1049587117697,-104.74533926544464,16.840133666992188,4761.76025390625,True
1599387010.7368305,0.0,10,0.5,0.5,-16.072133239746094,-0.15025,-0.001,-0.001,0.21742670119142715,10,1,100,0.3016903130878189,-10,-1,-100,19003.871353945695,-0.025965082607937316,0.015094450113451856,0.9995488842777703,71.68160370355793,4.392662678432493,429.0286173485435,-104.92716720779025,16.253692626953125,4761.76025390625,True
1599387010.7717369,0.0,10,0.5,0.5,-15.606953703308104,-0.15025,-0.001,-0.001,0.43930033628799064,10,1,100,0.3512979492769029,-10,-1,-100,18995.440814829315,-0.026573089693168534,0.01760285975758997,0.9994918760212677,71.54943422721294,4.383453555107964,431.4633733116445,-105.65447534303226,13.17462158203125,4761.76025390625,True
1599387010.80624,0.0,10,0.5,0.5,-15.310137332153321,-0.15025,-0.001,-0.001,0.3470240493029014,10,1,100,0.31860158062816335,-10,-1,-100,18991.203725752654,-0.026825736098853185,0.019037734016168928,0.999458825848411,71.33904691433555,4.370211397654114,431.8062578949605,-106.01813685999848,11.19512939453125,4761.76025390625,True
1599387010.8391452,0.0,10,0.5,0.5,-14.96775158691406,-0.15025,-0.001,-0.001,0.3806613868362111,10,1,100,0.3045833096927869,-10,-1,-100,18986.952089822036,-0.026925080958577194,0.020640211572543615,0.999424345151555,71.01595977364929,4.350261734580231,431.4573536320229,-106.38181109572136,8.923126220703125,4761.76025390625,True
1599387010.8710213,0.0,10,0.5,0.5,-14.96903460998535,-0.15025,-0.001,-0.001,0.22137943931702392,10,1,100,0.29493689408152324,-10,-1,-100,18986.952089822036,-0.026925080958577194,0.020640211572543615,0.999424345151555,71.01595977364929,4.350261734580231,431.4573536320229,-106.38181109572136,8.923126220703125,4761.76025390625,True
1599387010.9040105,0.0,10,0.5,0.5,-14.779584921264648,-0.15025,-0.001,-0.001,0.31431772279827164,10,1,100,0.3002169297766781,-10,-1,-100,18984.820816764724,-0.02697064289145823,0.02147658601643698,0.9994054936186314,70.80626064853087,4.337428854888037,430.9852291089132,-106.56365519571366,7.677154541015625,4761.76025390625,True
1599387010.933934,0.0,10,0.5,0.5,-14.369614512634277,-0.15025,-0.001,-0.001,0.4268729664429305,10,1,100,0.2951858139762746,-10,-1,-100,18980.547359222313,-0.02696439103830757,0.02325178996304193,0.9993659369217305,70.28199860195991,4.305564340800065,429.38787442494737,-106.92736128011049,4.96563720703125,4761.76025390625,True
1599387010.9678426,0.0,10,0.5,0.5,-14.149309030151366,-0.15025,-0.001,-0.001,0.3528101877841514,10,1,100,0.29429646887258687,-10,-1,-100,18978.405174615444,-0.026948873932507333,0.024182690404164223,0.9993442628436839,69.96357874095486,4.286313924103984,428.2366229152433,-107.10922488420148,3.50006103515625,4761.76025390625,True
1599387011.0027432,0.0,10,0.5,0.5,-13.672793678283691,-0.15025,-0.001,-0.001,0.47600984272549046,10,1,100,0.2804720701413056,-10,-1,-100,18974.10989296157,-0.02680753587953686,0.026138873241681793,0.9992988118304367,69.2075952238166,4.240820862234059,425.1821072792533,-107.47297799109876,0.34954833984375,4761.76025390625,True
1599387011.0326655,0.0,10,0.5,0.5,-13.15340098724365,-0.15025,-0.001,-0.001,0.508259479269233,10,1,100,0.2602579476654574,-10,-1,-100,18969.800059875008,-0.02649401873652789,0.02819895809118142,0.9992511624880707,68.2777083194507,4.1851443634154535,421.0228053751854,-107.83677099577342,-3.09375,4761.76025390625,True
1599387011.065579,0.0,10,0.5,0.5,-12.877853102111818,-0.15025,-0.001,-0.001,0.42102715646415245,10,1,100,0.27193074777576953,-10,-1,-100,18967.639686094015,-0.026314478801354665,0.029266332082794673,0.9992252148599097,67.74072942543096,4.153090332126103,418.48284931798804,-108.01868462389177,-4.925140380859375,4761.76025390625,True
1599387011.099487,0.0,10,0.5,0.5,-12.290360455322265,-0.15025,-0.001,-0.001,0.5572932320813815,10,1,100,0.23460893669926192,-10,-1,-100,18963.30802288337,-0.025811653853962196,0.03146257105171849,0.9991715894420432,67.38003998183103,4.133171765496566,417.78963510571117,-108.3825278674766,-8.8074951171875,4761.76025390625,True
1599387011.1313658,0.0,10,0.5,0.5,-11.660531536865234,-0.15025,-0.001,-0.001,0.5869884568012087,10,1,100,0.2082574791587026,-10,-1,-100,18958.9618082745,-0.02511567377490869,0.033716508783380277,0.9991158090863603,68.70384875497336,4.217281126194614,427.5635226570321,-108.74629771509119,-12.9827880859375,4761.76025390625,True
1599387011.164313,0.0,10,0.5,0.5,-11.329943380737305,-0.15025,-0.001,-0.001,0.49031407505992025,10,1,100,0.234349952729392,-10,-1,-100,18956.783245261875,-0.02472172351943354,0.03487334072836363,0.9990859254802221,69.3513733239513,4.258733089116431,432.38335838783917,-108.92814970030082,-15.18011474609375,4761.76025390625,True
1599387011.1939204,0.0,10,0.5,0.5,-10.63177311553955,-0.15025,-0.001,-0.001,0.6319254974393826,10,1,100,0.16720586239287683,-10,-1,-100,18952.41520960303,-0.023755189154523394,0.0371994434916565,0.9990254713430203,70.59855803937097,4.339224159865645,441.76711308871114,-109.29178635689786,-19.794708251953125,4761.76025390625,True
1599387011.2287939,0.0,10,0.5,0.5,-10.267881236267089,-0.15025,-0.001,-0.001,0.5280471161590707,10,1,100,0.2006273319888791,-10,-1,-100,18950.225738251,-0.02318323481166333,0.03835467959944799,0.9989952233001372,71.22531831984425,4.379906395742698,446.49962011640946,-109.47357009080446,-22.212127685546875,4761.76025390625,True
1599387011.2657335,0.0,10,0.5,0.5,-9.103882984924315,-0.15025,-0.001,-0.001,0.7951742699288774,10,1,100,0.036705515897751534,-10,-1,-100,18943.635514729423,-0.021176521088307382,0.0418179791920903,0.9989008016669556,73.10929839342944,4.502950782123754,460.80280229188514,-110.01877402194268,-29.904205322265625,4761.76025390625,True
1599387011.3016052,0.0,10,0.5,0.5,-7.84473423461914,-0.15025,-0.001,-0.001,0.8197040270340872,10,1,100,-0.03719004508482071,-10,-1,-100,18937.0125875721,-0.018685719758096773,0.04517255280524063,0.9988044274782625,74.89781140940283,4.620760365897348,474.6233270399057,-110.5637591878573,-38.2569580078125,4761.76025390625,True
1599387011.333556,0.0,10,0.5,0.5,-7.405422172546386,-0.15025,-0.001,-0.001,0.5976604021579701,10,1,100,0.10564258943227814,-10,-1,-100,18934.797680087853,-0.017727345366401127,0.04618450507977525,0.9987756168012898,75.39040459966509,4.6536448071454615,478.5982431594033,-110.74537647624331,-41.189117431640625,4761.76025390625,True
1599387011.3684618,0.0,10,0.5,0.5,-6.9495919296264645,-0.15025,-0.001,-0.001,0.6069895838374643,10,1,100,0.09026315519826743,-10,-1,-100,18932.579140435322,-0.016724537599562384,0.0471710491338584,0.9987468057349129,75.81756874173696,4.682435889719925,482.16757029668906,-110.92697490285684,-44.194793701171875,4761.76025390625,True
1599387011.4053264,0.0,10,0.5,0.5,-6.482713385009765,-0.15025,-0.001,-0.001,0.6134888271925489,10,1,100,0.07503630882354424,-10,-1,-100,18930.356969040586,-0.01568334964551783,0.048109744039850515,0.9987189219556803,76.17213933287528,4.706655836321068,485.28352053721375,-111.10855686059817,-47.2742919921875,4761.76025390625,True
1599387011.441231,0.0,10,0.5,0.5,-5.51678532409668,-0.15025,-0.001,-0.001,0.724775079513704,10,1,100,-0.06568863665827887,-10,-1,-100,18925.90173280798,-0.013467162118511513,0.04995766587371107,0.9986605365012299,76.63665784464878,4.739598818921094,489.9743026916958,-111.47168318582479,-53.6529541015625,4761.76025390625,True
1599387011.4731479,0.0,10,0.5,0.5,-4.509170620727539,-0.15025,-0.001,-0.001,0.7187743429195556,10,1,100,-0.1086841420857054,-10,-1,-100,18921.431972348015,-0.01107280021892503,0.05156622894016295,0.9986081899965584,76.73145418920726,4.749032412387759,492.31343118143536,-111.83478168162395,-60.327392578125,4761.76025390625,True
1599387011.5080855,0.0,10,0.5,0.5,-3.989614741516113,-0.15025,-0.001,-0.001,0.6394004314012837,10,1,100,-0.008011483892675447,-10,-1,-100,18919.19164558174,-0.009824079815197576,0.05229075096844694,0.9985835792856502,76.62393608417263,4.743896909396597,492.4891893326506,-112.01632999139962,-63.775299072265625,4761.76025390625,True
1599387011.5459802,0.0,10,0.5,0.5,-2.9116408203125,-0.15025,-0.001,-0.001,0.7066742326436534,10,1,100,-0.16694600888080188,-10,-1,-100,18914.70009878755,-0.007257563442557137,0.05354515335978112,0.9985390549821047,76.06887952628558,4.712069025962534,490.64184892341524,-112.37944477555769,-70.89306640625,4761.76025390625,True
1599387011.5799026,0.0,10,0.5,0.5,-1.7923502670288085,-0.15025,-0.001,-0.001,0.6920587333045408,10,1,100,-0.1991808174543338,-10,-1,-100,18910.19402587798,-0.004646320867408235,0.05453779125803106,0.9985008968584317,75.02446391981299,4.649396694629818,485.60512208227686,-112.74261156744465,-78.30661010742188,4761.76025390625,True
1599387011.6108136,0.0,10,0.5,0.5,-0.6282120178222657,-0.15025,-0.001,-0.001,0.6785890224237482,10,1,100,-0.2353584275308396,-10,-1,-100,18905.673424073728,-0.0019604283565266855,0.055303025510561446,0.9984676920612089,73.45361432484599,4.553841438926309,477.10566362349783,-113.10586282343077,-86.01531982421875,4761.76025390625,True
1599387011.645686,0.0,10,0.5,0.5,-0.030497756958007816,-0.15025,-0.001,-0.001,0.6315759252255431,10,1,100,-0.1119280445062293,-10,-1,-100,18903.407673337148,-0.0006582714584324439,0.05555904208713405,0.9984551865362046,72.46131915543333,4.4932493973776655,471.4846283006117,-113.28752954411108,-89.98101806640625,4761.76025390625,True
1599387011.6815886,0.0,10,0.5,0.5,1.2038317192077637,-0.15025,-0.001,-0.001,0.6428962146141712,10,1,100,-0.2662856044062409,-10,-1,-100,18898.865269278875,0.0019123694950172769,0.05588525388820405,0.9984353665815155,70.05433910191883,4.3461057675416805,457.41920529201565,-113.65096069067523,-98.13389587402344,4761.76025390625,True
1599387011.7135398,0.0,10,0.5,0.5,2.4706930633544926,-0.15025,-0.001,-0.001,0.6199896029545997,10,1,100,-0.2818060587949597,-10,-1,-100,18894.30832374771,0.004372556569994995,0.05596474928426391,0.998423170597814,67.08778078376945,4.164777051160607,439.57906804405604,-114.01453901683118,-106.52609252929688,4761.76025390625,True
1599387011.7484498,0.0,10,0.5,0.5,3.753600486755371,-0.15025,-0.001,-0.001,0.5947617229190925,10,1,100,-0.29856996050105494,-10,-1,-100,18889.736831884715,0.006742310204421463,0.055799679189313355,0.9984192190936014,66.58314906665733,4.137040424400666,437.7898274669024,-114.37819597221565,-115.02239990234375,4761.76025390625,True
1599387011.7833161,0.0,10,0.5,0.5,4.389033693313599,-0.15025,-0.001,-0.001,0.5952259040894603,10,1,100,-0.1828784444378401,-10,-1,-100,18887.445632551447,0.007824503671643626,0.05564684444531668,0.9984198544928737,67.73790467194176,4.210886383855181,446.15301878119936,-114.55996322990333,-119.23499298095703,4761.76025390625,True
1599387011.8152664,0.0,10,0.5,0.5,5.636946225357056,-0.15025,-0.001,-0.001,0.5639473024233131,10,1,100,-0.3004661993825934,-10,-1,-100,18882.852331075002,0.009857939445170482,0.055218380864198724,0.998425636411962,69.86517017506536,4.347674988484543,461.7506374876386,-114.92337837073363,-127.47014617919922,4761.76025390625,True
1599387011.8521678,0.0,10,0.5,0.5,6.242122801971434,-0.15025,-0.001,-0.001,0.577770222508859,10,1,100,-0.20253751999057482,-10,-1,-100,18880.550230272696,0.010797228754209185,0.054951211289483694,0.9984306607016072,70.69087321643127,4.401347695536199,468.00893947395406,-115.10503537155209,-131.4813690185547,4761.76025390625,True
1599387011.8860743,0.0,10,0.5,0.5,7.424962676239014,-0.15025,-0.001,-0.001,0.5342682406218292,10,1,100,-0.29931640976818275,-10,-1,-100,18875.93513139675,0.012512189570795891,0.05431043869502336,0.9984457027604948,72.1240389247525,4.494977785640295,479.1294244298481,-115.46826490562673,-139.28355407714844,4761.76025390625,True
1599387011.920948,0.0,10,0.5,0.5,8.559138452148439,-0.15025,-0.001,-0.001,0.5225845504619963,10,1,100,-0.28994361092062326,-10,-1,-100,18871.30550630181,0.013968065093612035,0.05362100707557436,0.998463660208894,73.04551493760442,4.556272321389328,486.9020962449841,-115.83141163134822,-146.78860473632812,4761.76025390625,True
1599387011.9538598,0.0,10,0.5,0.5,10.176851523590088,-0.15025,-0.001,-0.001,0.4646808552499491,10,1,100,-0.3383750904858849,-10,-1,-100,18864.33383502392,0.015714952304982707,0.052468687268858887,0.9984989119324741,73.4545844275788,4.586324919142194,492.12017765249976,-116.376064444226,-157.4885711669922,4761.76025390625,True
1599387011.9887686,0.0,10,0.5,0.5,10.690167416381836,-0.15025,-0.001,-0.001,0.5385137729458319,10,1,100,-0.21607663787468123,-10,-1,-100,18862.002682646504,0.01617515894552555,0.05209490882202712,0.9985111339929623,73.36270258331443,4.581787837730657,492.3350590422566,-116.55761529095716,-160.9058837890625,4761.76025390625,True
1599387012.0237188,0.0,10,0.5,0.5,11.199423225402832,-0.15025,-0.001,-0.001,0.5344520356701611,10,1,100,-0.21621587119072067,-10,-1,-100,18859.667898971937,0.016579491257615802,0.051721334561733154,0.9985239226081625,73.17108240884909,4.57089667672387,491.878185501126,-116.73917221101675,-164.24856567382812,4761.76025390625,True
1599387012.0556235,0.0,10,0.5,0.5,12.179881112670898,-0.15025,-0.001,-0.001,0.49579888832775343,10,1,100,-0.24933223791258946,-10,-1,-100,18854.987437887583,0.017234790219021568,0.05103411473046809,0.9985481866889468,72.52183788327278,4.532225513425425,489.15999222159985,-117.10231641672588,-170.70932006835938,4761.76025390625,True
1599387012.0905302,0.0,10,0.5,0.5,13.560913471984863,-0.15025,-0.001,-0.001,0.4576730119724768,10,1,100,-0.24413530276073742,-10,-1,-100,18847.939506105846,0.017771578742874494,0.05006725294840987,0.9985877233228866,71.00701696675644,4.440156901001638,481.3674933354163,-117.64714145983694,-179.84039306640625,4761.76025390625,True
1599387012.1264315,0.0,10,0.5,0.5,13.558264198303222,-0.15025,-0.001,-0.001,0.5537859475542081,10,1,100,-0.19155937722929006,-10,-1,-100,18847.939506105846,0.017771578742874494,0.05006725294840987,0.9985877233228866,71.00701696675644,4.440156901001638,481.3674933354163,-117.64714145983694,-179.84039306640625,4761.76025390625,True
1599387012.1632986,0.0,10,0.5,0.5,-39.606604674530026,-0.15025,-0.001,-0.001,0.4731932236500382,10,1,100,-0.20519397350989652,-10,-1,-100,18840.858878430096,0.017886486822633434,0.049339664177914605,0.9986218859648303,69.02792346486474,4.319348446072812,470.3157470574945,-118.19212995524911,171.70294189453125,4761.76025390625,True
1599387012.1952493,0.0,10,0.5,0.5,-38.88127297515869,-0.15025,-0.001,-0.001,0.5243940194496031,10,1,100,-0.18874968706250717,-10,-1,-100,18838.491401684354,0.017834156520731236,0.04914902590899339,0.9986322226492551,68.2980725898955,4.274837714955236,466.12412908228663,-118.373832264959,169.0338134765625,4761.76025390625,True
1599387012.2301486,0.0,10,0.5,0.5,-37.75745824432373,-0.15025,-0.001,-0.001,0.49949641383109666,10,1,100,-0.14389639276874294,-10,-1,-100,18831.3671632302,0.01737242909108909,0.04875465123651541,0.9986596931338927,65.98731284289005,4.134278088910586,452.6195897971525,-118.91905857455977,161.38729858398438,4761.76025390625,True
1599387012.2640662,0.0,10,0.5,0.5,-37.795171844482425,-0.15025,-0.001,-0.001,0.5383783023330445,10,1,100,-0.19055515968498693,-10,-1,-100,18831.3671632302,0.01737242909108909,0.04875465123651541,0.9986596931338927,65.98731284289005,4.134278088910586,452.6195897971525,-118.91905857455977,161.38729858398438,4761.76025390625,True
1599387012.2939775,0.0,10,0.5,0.5,-37.03538415679931,-0.15025,-0.001,-0.001,0.5281589243154083,10,1,100,-0.13440104405360032,-10,-1,-100,18826.59949690511,0.016858842254442414,0.04866617175984513,0.9986728108665425,67.48627242812398,4.231612240994092,464.4466571951471,-119.2825091786023,156.16015625,4761.76025390625,True
1599387012.3289237,0.0,10,0.5,0.5,-36.6614622177124,-0.15025,-0.001,-0.001,0.5367170806018071,10,1,100,-0.1513320830571933,-10,-1,-100,18824.210212927195,0.01654482376666041,0.04866699412502943,0.9986780224323375,68.30913424491189,4.285106016255504,470.89163271779177,-119.46419200495241,153.44601440429688,4761.76025390625,True
1599387012.3638303,0.0,10,0.5,0.5,-34.94521636581421,-0.15025,-0.001,-0.001,0.5831422250830817,10,1,100,-0.004078587244922549,-10,-1,-100,18814.61675211857,0.014920348211455093,0.04909290478384219,0.9986827674037105,71.63202584407998,4.502234155259426,497.07536614539265,-120.19063174383976,141.87315368652344,4761.76025390625,True
1599387012.3937502,0.0,10,0.5,0.5,-34.987401398468016,-0.15025,-0.001,-0.001,0.5402883162240163,10,1,100,-0.16636022846083806,-10,-1,-100,18814.61675211857,0.014920348211455093,0.04909290478384219,0.9986827674037105,71.63202584407998,4.502234155259426,497.07536614539265,-120.19063174383976,141.87315368652344,4761.76025390625,True
1599387012.4276595,0.0,10,0.5,0.5,-34.55374175720215,-0.15025,-0.001,-0.001,0.5638478035525543,10,1,100,-0.11260455483100884,-10,-1,-100,18812.209308795398,0.014433764307554433,0.04930884667768947,0.9986792798928142,72.42798937062078,4.554519418682436,503.42633602053473,-120.3721692093059,138.79931640625,4761.76025390625,True
1599387012.4635742,0.0,10,0.5,0.5,-33.12831022644043,-0.15025,-0.001,-0.001,0.6431902021884202,10,1,100,0.020451661169811203,-10,-1,-100,18804.96519930556,0.012784847717123942,0.05022714148357734,0.9986559877791946,74.69231203021612,4.7036171946901435,521.7235510866897,-120.91661697102191,129.14398193359375,4761.76025390625,True
1599387012.4952443,0.0,10,0.5,0.5,-32.14070972061157,-0.15025,-0.001,-0.001,0.646825216179482,10,1,100,-0.01158896598347181,-10,-1,-100,18800.117648777785,0.011581644455422205,0.05109485517199854,0.998626647594916,75.8613217253781,4.7812970146842355,531.6211317614926,-121.27946918673224,122.34626770019531,4761.76025390625,True
1599387012.5311477,0.0,10,0.5,0.5,-31.07080987319946,-0.15025,-0.001,-0.001,0.6791646739683843,10,1,100,0.013773972324734665,-10,-1,-100,18795.255585988634,0.010262982816861669,0.05217608524046776,0.9985851627741523,76.68454153900633,4.836743674686128,539.1423799415849,-121.64226045795114,115.26023864746094,4761.76025390625,True
1599387012.5650575,0.0,10,0.5,0.5,-29.95725058135986,-0.15025,-0.001,-0.001,0.7169191639008102,10,1,100,0.03425271060491464,-10,-1,-100,18790.37901261775,0.008884912046263063,0.05349949242997867,0.9985283484446824,77.10562026977622,4.86631366115392,543.8680086533722,-122.00502171600938,107.88656616210938,4761.76025390625,True
1599387012.616959,0.0,10,0.5,0.5,-29.959274180603025,-0.15025,-0.001,-0.001,0.5850529290690653,10,1,100,-0.10270561475046337,-10,-1,-100,18790.37901261775,0.008884912046263063,0.05349949242997867,0.9985283484446824,77.10562026977622,4.86631366115392,543.8680086533722,-122.00502171600938,107.88656616210938,4761.76025390625,True
1599387012.6568494,0.0,10,0.5,0.5,-28.79519161682129,-0.15025,-0.001,-0.001,0.7586252515203937,10,1,100,0.056038414154948604,-10,-1,-100,18785.487928746617,0.007449500435345523,0.0550731091420876,0.9984545345646378,77.06508478908678,4.866309919924874,545.3515096601585,-122.36778735764025,100.22552490234375,4761.76025390625,True
1599387012.690759,0.0,10,0.5,0.5,-27.59514295349121,-0.15025,-0.001,-0.001,0.8049456299348904,10,1,100,0.07510146525226684,-10,-1,-100,18780.582333120867,0.005979834271644046,0.05691893965015274,0.998360894612357,76.50503522621383,4.833290364254891,543.1515122867554,-122.7305931164608,92.27764892578125,4761.76025390625,True
1599387012.7226741,0.0,10,0.5,0.5,-25.712372590637205,-0.15025,-0.001,-0.001,0.9752639988884764,10,1,100,0.16316162150037183,-10,-1,-100,18773.196723687113,0.0038528317837463084,0.06013781442476717,0.9981826480977609,74.56931165238827,4.714935493180161,531.9996707016741,-123.27495321453057,79.81747436523438,4761.76025390625,True
1599387012.7566166,0.0,10,0.5,0.5,-25.718627197265622,-0.15025,-0.001,-0.001,0.6544810123911257,10,1,100,-0.04843187564663101,-10,-1,-100,18773.196723687113,0.0038528317837463084,0.06013781442476717,0.9981826480977609,74.56931165238827,4.714935493180161,531.9996707016741,-123.27495321453057,79.81747436523438,4761.76025390625,True
