Timestamp,Input Throttle,horizon,dT,dt,Input Roll,Roll P,Roll I,Roll D,Input Pitch,Pitch P,Pitch I,Pitch D,Input Yaw,Yaw P,Yaw I,Yaw D,Altitude,Direction X,Direction Y,Direction Z,Drag X,Drag Y,Drag Z,Vertical Velocity,Roll,Mass,Has Fuel
1599384655.2067156,0.0,10,0.5,0.5,-0.05527671813964844,-0.001,-0.001,-0.37525,-0.00017695368064863564,10,1,100,0.4980924021898896,-10,-1,-100,19349.72229999979,-0.04884398871673598,-0.00017545720687223905,0.9988064046555809,61.076221425671434,3.686279474858663,233.73034261166373,-68.66499497946326,-33.921661376953125,4761.76025390625,True
1599384655.2376666,0.0,10,0.5,0.5,-0.06082500457763672,-0.001,-0.001,-0.37525,0.00012222001225321941,10,1,100,0.5047459696635163,-10,-1,-100,19346.96475252416,-0.04894782220423128,-0.00015823595412984965,0.9988013244198496,61.25600977949145,3.6984807351618096,235.71161372483954,-69.02990489169221,-33.9239501953125,4761.76025390625,True
1599384655.2745373,0.0,10,0.5,0.5,-0.0663614273071289,-0.001,-0.001,-0.37525,0.00042396845073351176,10,1,100,0.5114777440567465,-10,-1,-100,19344.19260922377,-0.04905891621261616,-0.00013969325132864768,0.9987958766564061,61.4368558927016,3.7107608364666445,237.70527646872472,-69.39480114052662,-33.926422119140625,4761.76025390625,True
1599384655.3044937,0.0,10,0.5,0.5,-0.07195483093261719,-0.001,-0.001,-0.37525,0.010268366105139605,10,1,100,0.504552149819146,-10,-1,-100,19342.80106420198,-0.049052351803340034,-3.321473078629172e-05,0.9987962082824218,61.52770668765406,3.7169323954304083,238.7068992372404,-69.57724411303461,-33.928924560546875,4761.76025390625,True
1599384655.340371,0.0,10,0.5,0.5,-0.07247280426025392,-0.001,-0.001,-0.37525,0.02385728581900011,10,1,100,0.5087779271781085,-10,-1,-100,19340.007027889485,-0.04904020726925836,0.00018714975322438763,0.9987967876630152,61.703923207912176,3.728955762764477,240.6950443912549,-69.94211972119965,-33.9449462890625,4761.76025390625,True
1599384655.373315,0.0,10,0.5,0.5,-0.07172409210205079,-0.001,-0.001,-0.37525,0.037351912382745656,10,1,100,0.5068815961440494,-10,-1,-100,19337.198396929307,-0.04896734540408425,0.000509989389492488,0.9988002497971753,61.86879775210836,3.7403118516992007,242.64686839076677,-70.30698167206849,-33.977813720703125,4761.76025390625,True
1599384655.4084847,0.0,10,0.5,0.5,-0.0808759017944336,-0.001,-0.001,-0.37525,0.028696237262810335,10,1,100,0.5111550348512217,-10,-1,-100,19335.78860858828,-0.04889544101907836,0.0007243283855645378,0.9988036399592964,61.94658567162322,3.7457164308932076,243.60737759455353,-70.48940763887741,-34.00115966796875,4761.76025390625,True
1599384655.4394119,0.0,10,0.5,0.5,-0.07226039276123047,-0.001,-0.001,-0.37525,0.06715596451595077,10,1,100,0.49915373666500207,-10,-1,-100,19332.958086637664,-0.04867652028463549,0.0012681574221262554,0.9988137905284109,62.0924043246728,3.755952436930138,245.4952834558681,-70.85424950917619,-34.062225341796875,4761.76025390625,True
1599384655.4724913,0.0,10,0.5,0.5,-0.05241735687255861,-0.001,-0.001,-0.37525,0.13347215594468895,10,1,100,0.46816801846589073,-10,-1,-100,19328.684941781685,-0.04815156170580038,0.002364269052514413,0.9988372426662613,62.28557652646613,3.769807307123368,248.23816446335033,-71.4014875316046,-34.19073486328125,4761.76025390625,True
1599384655.5055072,0.0,10,0.5,0.5,-0.10622148132324219,-0.001,-0.001,-0.37525,0.024097419811124635,10,1,100,0.5254790325199818,-10,-1,-100,19328.684941781685,-0.04815156170580038,0.002364269052514413,0.9988372426662613,62.28557652646613,3.769807307123368,248.23816446335033,-71.4014875316046,-34.19073486328125,4761.76025390625,True
1599384655.5403252,0.0,10,0.5,0.5,-0.06967407379150391,-0.001,-0.001,-0.37525,0.12469451588696284,10,1,100,0.47685826149042615,-10,-1,-100,19325.81793760776,-0.04766578054943551,0.00327663877224702,0.9988579663810913,62.39673301334284,3.778011882287334,250.00380601265942,-71.76629668500517,-34.302703857421875,4761.76025390625,True
1599384655.571206,0.0,10,0.5,0.5,-0.03577770080566406,-0.001,-0.001,-0.37525,0.2114176032627988,10,1,100,0.4204020855912841,-10,-1,-100,19321.490071880165,-0.04671199445199097,0.004891319224530517,0.9988964233445633,62.53469474970702,3.788634062232632,252.54615780862386,-72.31348665469005,-34.504364013671875,4761.76025390625,True
1599384655.6046357,0.0,10,0.5,0.5,-0.08163067016601563,-0.001,-0.001,-0.37525,0.11871560143999874,10,1,100,0.4749751469373823,-10,-1,-100,19320.040154311573,-0.04634306749178069,0.005511874568964005,0.9989103760268927,62.572752729255164,3.791710750742007,253.36377810849376,-72.49587706117433,-34.583465576171875,4761.76025390625,True
1599384655.6386373,0.0,10,0.5,0.5,-0.07925830993652344,-0.001,-0.001,-0.37525,0.12638767903349887,10,1,100,0.46618819948172513,-10,-1,-100,19318.586588931736,-0.045930266959011576,0.006140624162189638,0.998925774675963,62.6071931067602,3.7945765662426854,254.167680007404,-72.67826445252888,-34.668487548828125,4761.76025390625,True
1599384655.6755378,0.0,10,0.5,0.5,-0.0071745880126953265,-0.001,-0.001,-0.37525,0.2900057539847595,10,1,100,0.34981145820010373,-10,-1,-100,19314.20400692697,-0.044499861631065216,0.008194039165685332,0.9989757855108238,62.68490624730911,3.801675490776728,256.4799387043568,-73.22540857573048,-34.944671630859375,4761.76025390625,True
1599384655.7054577,0.0,10,0.5,0.5,-0.1107126922607422,-0.001,-0.001,-0.37525,0.08546494257643618,10,1,100,0.4923979564309205,-10,-1,-100,19314.20400692697,-0.044499861631065216,0.008194039165685332,0.9989757855108238,62.68490624730911,3.801675490776728,256.4799387043568,-73.22540857573048,-34.944671630859375,4761.76025390625,True
1599384655.7403643,0.0,10,0.5,0.5,0.05021571197509764,-0.001,-0.001,-0.37525,0.4247321223549367,10,1,100,0.23041191559335836,-10,-1,-100,19308.309498992632,-0.042122231699608305,0.011271300754784252,0.9990488853784582,62.72682633881935,3.8075268714453125,259.317705320099,-73.95489329586779,-35.37213134765625,4761.76025390625,True
1599384655.7742736,0.0,10,0.5,0.5,-0.11005144958496094,-0.001,-0.001,-0.37525,0.11806066068196665,10,1,100,0.46749758780710243,-10,-1,-100,19308.309498992632,-0.042122231699608305,0.011271300754784252,0.9990488853784582,62.72682633881935,3.8075268714453125,259.317705320099,-73.95489329586779,-35.37213134765625,4761.76025390625,True
1599384655.8091815,0.0,10,0.5,0.5,-0.02093310852050781,-0.001,-0.001,-0.37525,0.3116399794348907,10,1,100,0.31632482870021406,-10,-1,-100,19305.340361292707,-0.04075389233371389,0.013022018976781145,0.9990843544373119,62.719875954559114,3.8088156681841,260.6228097411407,-74.31961899839256,-35.608642578125,4761.76025390625,True
1599384655.840098,0.0,10,0.5,0.5,-0.015341870117187503,-0.001,-0.001,-0.37525,0.3268171722826989,10,1,100,0.2827323047193244,-10,-1,-100,19302.356634772965,-0.03921128602795823,0.014741866613645425,0.9991221909340113,62.69499645229194,3.809053730764391,261.85328440192086,-74.68433395029162,-35.8590087890625,4761.76025390625,True
1599384655.8740075,0.0,10,0.5,0.5,-0.05886720428466798,-0.001,-0.001,-0.37525,0.25945318046756777,10,1,100,0.34713438243949535,-10,-1,-100,19300.859300848446,-0.03840251761625268,0.015681712178328915,0.9991392948652803,62.67559018810952,3.808763852371283,262.4391525060957,-74.86668753225334,-35.992584228515625,4761.76025390625,True
1599384655.9079165,0.0,10,0.5,0.5,-0.05695712738037109,-0.001,-0.001,-0.37525,0.26524417638203307,10,1,100,0.33230458175194244,-10,-1,-100,19299.358320017927,-0.0375408783838455,0.016577485315076242,0.9991575798795691,62.65187120808927,3.808221225107102,263.0066312810887,-75.04903863822642,-36.13043212890625,4761.76025390625,True
1599384655.9478104,0.0,10,0.5,0.5,0.10726376800537107,-0.001,-0.001,-0.37525,0.5930461385444987,10,1,100,0.0014327343254615932,-10,-1,-100,19293.31792707916,-0.03375798148329655,0.02036121858078664,0.9992226075625386,62.50757765297662,3.8031403277408815,265.0631618690935,-75.77841831696792,-36.703948974609375,4761.76025390625,True
1599384655.9727426,0.0,10,0.5,0.5,-0.05054334869384766,-0.001,-0.001,-0.37525,0.3232579232551068,10,1,100,0.26455702270849013,-10,-1,-100,19291.798712045886,-0.03272246427356002,0.02133485655242724,0.9992367408315973,62.45922368328494,3.8011454086595995,265.523456369052,-75.96075736639808,-36.85595703125,4761.76025390625,True
1599384656.0056548,0.0,10,0.5,0.5,-0.048656938171386735,-0.001,-0.001,-0.37525,0.3354721445213202,10,1,100,0.24883319296029363,-10,-1,-100,19290.275849929312,-0.031650148178529985,0.022317207417802232,0.9992498238045118,62.40605702977609,3.798866150221654,265.96232034860685,-76.14309414917064,-37.011993408203125,4761.76025390625,True
1599384656.039701,0.0,10,0.5,0.5,0.07217747955322265,-0.001,-0.001,-0.37525,0.5554339686592225,10,1,100,-0.02448213413383432,-10,-1,-100,19285.685383975157,-0.02820231213078564,0.02519706736189487,0.9992846128039988,62.21680696261157,3.790266444184588,267.1449935993782,-76.69009177814415,-37.48822021484375,4761.76025390625,True
1599384656.0746436,0.0,10,0.5,0.5,-0.10627227478027344,-0.001,-0.001,-0.37525,0.26914827706957983,10,1,100,0.3186717156905723,-10,-1,-100,19285.685383975157,-0.02820231213078564,0.02519706736189487,0.9992846128039988,62.21680696261157,3.790266444184588,267.1449935993782,-76.69009177814415,-37.48822021484375,4761.76025390625,True
1599384656.1055732,0.0,10,0.5,0.5,-0.04568705444335937,-0.001,-0.001,-0.37525,0.37918044840066517,10,1,100,0.18320492893106996,-10,-1,-100,19284.147935479763,-0.02698345035985273,0.026184700040716453,0.9992928774340659,62.14330032920077,3.786780199192914,267.49185815741805,-76.87242016781354,-37.648681640625,4761.76025390625,True
1599384656.1385343,0.0,10,0.5,0.5,0.017325192260742167,-0.001,-0.001,-0.37525,0.4862681557940053,10,1,100,0.022672682497920205,-10,-1,-100,19281.062098898226,-0.024429772674466683,0.0280425149075065,0.9993081624627791,61.981241112518006,3.7789110438665787,268.1160723232072,-77.23707125439317,-37.9755859375,4761.76025390625,True
1599384656.1726706,0.0,10,0.5,0.5,0.02182719879150391,-0.001,-0.001,-0.37525,0.5183476939743552,10,1,100,-0.020129179658431084,-10,-1,-100,19277.961676454055,-0.021733979776930035,0.03000941468265452,0.9993132987974594,61.7987940712826,3.7698226079582415,268.64508711413356,-77.60171500478393,-38.312957763671875,4761.76025390625,True
1599384656.2085881,0.0,10,0.5,0.5,-0.03786030578613282,-0.001,-0.001,-0.37525,0.4245586049803298,10,1,100,0.09335765100406174,-10,-1,-100,19276.405995604582,-0.02033084588178395,0.030930997716417028,0.9993147302456811,61.70044249426716,3.7648510176436,268.87573153343027,-77.78403420468763,-38.490142822265625,4761.76025390625,True
1599384656.2388525,0.0,10,0.5,0.5,0.03258532714843748,-0.001,-0.001,-0.37525,0.5315814476437095,10,1,100,-0.08814473590952904,-10,-1,-100,19273.28369512572,-0.01742167670674075,0.03272787242083359,0.9993124494108594,61.489042105234944,3.7540238784749085,269.2665787808943,-78.14866776947255,-38.853424072265625,4761.76025390625,True
1599384656.2718594,0.0,10,0.5,0.5,0.10134503021240233,-0.001,-0.001,-0.37525,0.6359193708259692,10,1,100,-0.3074052289844248,-10,-1,-100,19268.572897007107,-0.012801990430272518,0.03529523928368213,0.9992949289999079,61.13452097312373,3.735520230646865,269.6713461582065,-78.69560698361755,-39.39776611328125,4761.76025390625,True
1599384656.3057485,0.0,10,0.5,0.5,-0.10264993896484376,-0.001,-0.001,-0.37525,0.3806760866114043,10,1,100,0.152467799557096,-10,-1,-100,19268.572897007107,-0.012801990430272518,0.03529523928368213,0.9992949289999079,61.13452097312373,3.735520230646865,269.6713461582065,-78.69560698361755,-39.39776611328125,4761.76025390625,True
1599384656.3424716,0.0,10,0.5,0.5,0.17045668182373047,-0.001,-0.001,-0.37525,0.7025044894513619,10,1,100,-0.5730989836403281,-10,-1,-100,19262.240786094684,-0.006224038286517106,0.03820826077974424,0.9992504141383155,60.59300030396693,3.7066517023510746,269.86992556824435,-79.42484127534756,-40.122955322265625,4761.76025390625,True
1599384656.3753846,0.0,10,0.5,0.5,0.03317791900634763,-0.001,-0.001,-0.37525,0.5690932303556503,10,1,100,-0.3032273521496695,-10,-1,-100,19259.052853848087,-0.0027205749056472763,0.03962918609951065,0.9992107515841055,60.29465773781877,3.6905186745079166,269.82869219229553,-79.78945201227796,-40.48052978515625,4761.76025390625,True
1599384656.4072983,0.0,10,0.5,0.5,-0.033014869689941426,-0.001,-0.001,-0.37525,0.47881477368313363,10,1,100,-0.14636807043661015,-10,-1,-100,19257.45341864752,-0.0009847668815435506,0.04008710303978668,0.9991957037558091,60.13835134971319,3.68200891424508,269.7713395568415,-79.97175604816088,-40.660430908203125,4761.76025390625,True
1599384656.439317,0.0,10,0.5,0.5,-0.10020554504394531,-0.001,-0.001,-0.37525,0.4345120832233202,10,1,100,0.02449097744883822,-10,-1,-100,19257.45341864752,-0.0009847668815435506,0.04008710303978668,0.9991957037558091,60.13835134971319,3.68200891424508,269.7713395568415,-79.97175604816088,-40.660430908203125,4761.76025390625,True
1599384656.4752674,0.0,10,0.5,0.5,0.026159129333496095,-0.001,-0.001,-0.37525,0.5358113674251296,10,1,100,-0.37179169415729835,-10,-1,-100,19254.243610054487,0.002594167693531955,0.04099536707525852,0.9991559688919156,59.81403847894013,3.6642568005347336,269.5939743348347,-80.33636185267758,-40.9954833984375,4761.76025390625,True
1599384656.5052454,0.0,10,0.5,0.5,-0.03749288330078125,-0.001,-0.001,-0.37525,0.4959099246083358,10,1,100,-0.2189051084192088,-10,-1,-100,19252.633236600668,0.00443329930928342,0.04144654594356411,0.9991308871647309,59.646824450855206,3.6550598862862294,269.4772854395856,-80.51866369390316,-41.15966796875,4761.76025390625,True
1599384656.5382516,0.0,10,0.5,0.5,0.028462144470214834,-0.001,-0.001,-0.37525,0.5326472956494058,10,1,100,-0.4492599252153597,-10,-1,-100,19249.401551758987,0.008175583404398657,0.04218028725943264,0.9990765652354726,59.3009122840247,3.635934561348922,269.1811274082881,-80.88326559892735,-41.497955322265625,4761.76025390625,True
1599384656.572161,0.0,10,0.5,0.5,0.09934954986572264,-0.001,-0.001,-0.37525,0.5263510651398753,10,1,100,-0.702689323014245,-10,-1,-100,19244.526679511764,0.01385564853514221,0.04277985973327828,0.9989884406763032,58.75408950155384,3.605449516288148,268.58149921588347,-81.43016515076597,-42.02294921875,4761.76025390625,True
1599384656.609064,0.0,10,0.5,0.5,-0.09733745727539063,-0.001,-0.001,-0.37525,0.4673990164865554,10,1,100,-0.13781054246407806,-10,-1,-100,19244.526679511764,0.01385564853514221,0.04277985973327828,0.9989884406763032,58.75408950155384,3.605449516288148,268.58149921588347,-81.43016515076597,-42.02294921875,4761.76025390625,True
1599384656.6389818,0.0,10,0.5,0.5,0.03802508239746094,-0.001,-0.001,-0.37525,0.4868075355487338,10,1,100,-0.5660658596393214,-10,-1,-100,19241.25853466068,0.0177246444740395,0.042949496615253,0.9989200056655014,58.373278392588524,3.5840615321383544,268.0876291080211,-81.79476334633176,-42.38201904296875,4761.76025390625,True
1599384656.672892,0.0,10,0.5,0.5,0.09996328582763672,-0.001,-0.001,-0.37525,0.44632983113042335,10,1,100,-0.8219646714891836,-10,-1,-100,19236.328972574323,0.023540514858122773,0.04272877441567122,0.9988093391619589,57.784729588732326,3.5507962137284768,267.23616480954826,-82.34165986929959,-42.903961181640625,4761.76025390625,True
1599384656.7058036,0.0,10,0.5,0.5,-0.09561740112304687,-0.001,-0.001,-0.37525,0.46885410245219417,10,1,100,-0.24335408839532038,-10,-1,-100,19236.328972574323,0.023540514858122773,0.04272877441567122,0.9988093391619589,57.784729588732326,3.5507962137284768,267.23616480954826,-82.34165986929959,-42.903961181640625,4761.76025390625,True
1599384656.743701,0.0,10,0.5,0.5,0.1737915832519531,-0.001,-0.001,-0.37525,0.33703930264256743,10,1,100,-1.093713490341746,-10,-1,-100,19229.705179484678,0.03124718115785049,0.04152764024620537,0.9986486212703997,56.97151111362623,3.504428427684778,265.9091905933541,-83.07085598777374,-43.619354248046875,4761.76025390625,True
1599384656.773621,0.0,10,0.5,0.5,0.04019658355712888,-0.001,-0.001,-0.37525,0.364081717072262,10,1,100,-0.7631883953967463,-10,-1,-100,19226.3714071227,0.03521916606897624,0.040680230644045995,0.9985513152443158,56.561790456282104,3.480925550670486,265.2050084637701,-83.43545535351247,-43.97698974609375,4761.76025390625,True
1599384656.8075323,0.0,10,0.5,0.5,-0.02609002380371095,-0.001,-0.001,-0.37525,0.37840245838714115,10,1,100,-0.5690769805469507,-10,-1,-100,19224.699051856063,0.03703249955050103,0.04003950762894159,0.9985116082479332,56.35313861207521,3.468905867792237,264.82852247956527,-83.61775561671345,-44.1566162109375,4761.76025390625,True
1599384656.841441,0.0,10,0.5,0.5,0.03332108306884765,-0.001,-0.001,-0.37525,0.2871258167261906,10,1,100,-0.7955008951278348,-10,-1,-100,19221.343403440784,0.040708076182752545,0.038628113472334684,0.9984241189910565,55.94063896149954,3.4450898136375954,264.08482224513784,-83.98235705223203,-44.492828369140625,4761.76025390625,True
1599384656.8773448,0.0,10,0.5,0.5,-0.0303214080810547,-0.001,-0.001,-0.37525,0.3440944879985048,10,1,100,-0.6366123189191647,-10,-1,-100,19219.660110232537,0.0425720908130174,0.03786548709832329,0.9983755916340378,55.738415671149774,3.4333922941834665,263.7254037281864,-84.16465843345232,-44.658111572265625,4761.76025390625,True
1599384656.9132485,0.0,10,0.5,0.5,0.03439153442382811,-0.001,-0.001,-0.37525,0.22354109840995337,10,1,100,-0.8460672193369504,-10,-1,-100,19216.282585627516,0.04613951547395749,0.03608017303492711,0.9982832094278649,55.33585051107915,3.410035152626792,263.00252991686347,-84.52926253636136,-44.994110107421875,4761.76025390625,True
1599384656.9760804,0.0,10,0.5,0.5,-0.09139479980468751,-0.001,-0.001,-0.37525,0.40140253607973625,10,1,100,-0.49255313993682315,-10,-1,-100,19216.282585627516,0.04613951547395749,0.03608017303492711,0.9982832094278649,55.33585051107915,3.410035152626792,263.00252991686347,-84.52926253636136,-44.994110107421875,4761.76025390625,True
1599384657.0119846,0.0,10,0.5,0.5,0.10372146148681638,-0.001,-0.001,-0.37525,0.05163121661585501,10,1,100,-1.062724381811218,-10,-1,-100,19211.188953312463,0.051293541430143974,0.03290652439134487,0.9981413393202568,54.74327300428154,3.375492176960881,261.9398669579481,-85.07617251418051,-45.51190185546875,4761.76025390625,True
1599384657.042902,0.0,10,0.5,0.5,0.040125399780273435,-0.001,-0.001,-0.37525,0.09763530747452498,10,1,100,-0.9066151568260813,-10,-1,-100,19207.77496776078,0.05452932762048853,0.030448738243370663,0.9980478078572408,54.3602464044109,3.3530656249257516,261.2681118749555,-85.44078184835013,-45.85845947265625,4761.76025390625,True
1599384657.0758126,0.0,10,0.5,0.5,0.046072201538085916,-0.001,-0.001,-0.37525,0.048350723122029426,10,1,100,-0.9453431982027667,-10,-1,-100,19204.346397859044,0.0577948528853513,0.027777509193073514,0.9979419647269019,53.98995382062676,3.3313095445098377,260.64148519561945,-85.80539368561895,-46.2191162109375,4761.76025390625,True
1599384657.1087255,0.0,10,0.5,0.5,-0.02000484466552735,-0.001,-0.001,-0.37525,0.1536682353892421,10,1,100,-0.7796745682543439,-10,-1,-100,19202.626643662923,0.059226293455670674,0.026320143136344037,0.9978975379410379,53.8049351491937,3.3203954767929695,260.32286692837357,-85.9877005021763,-46.402313232421875,4761.76025390625,True
1599384657.1456268,0.0,10,0.5,0.5,0.04517054595947265,-0.001,-0.001,-0.37525,-0.04173836874965858,10,1,100,-0.9502325594833744,-10,-1,-100,19199.17619715433,0.06205269470140873,0.0232326662263362,0.9978024385119076,53.44922865192925,3.2993629408846665,259.7434481267793,-86.35231599721351,-46.75750732421875,4761.76025390625,True
1599384657.1755464,0.0,10,0.5,0.5,0.04230170898437499,-0.001,-0.001,-0.37525,-0.1007759164214137,10,1,100,-0.9601282648665457,-10,-1,-100,19195.71116579778,0.06468771722044267,0.019905025478783762,0.9977070157122767,53.11828602046303,3.2797404884925836,259.2697775080145,-86.71693395051572,-47.1033935546875,4761.76025390625,True
1599384657.208458,0.0,10,0.5,0.5,0.04358527832031249,-0.001,-0.001,-0.37525,-0.16223894994024157,10,1,100,-0.9724559897984134,-10,-1,-100,19192.23154970631,0.06717012135742692,0.016339446750974165,0.9976077371776447,52.81241421256018,3.2615471932957454,258.9049836210655,-87.08155381263195,-47.45098876953125,4761.76025390625,True
1599384657.2413707,0.0,10,0.5,0.5,-0.020933015441894534,-0.001,-0.001,-0.37525,-0.01337609210285945,10,1,100,-0.84685639080994,-10,-1,-100,19190.486272285692,0.06826098145008587,0.014471572675779242,0.9975625353809958,52.6667106637523,3.2528523267417615,258.7532707586418,-87.263864441179,-47.625396728515625,4761.76025390625,True
1599384657.276278,0.0,10,0.5,0.5,0.04350567321777343,-0.001,-0.001,-0.37525,-0.2582888257443334,10,1,100,-0.9625384300536279,-10,-1,-100,19186.984778884915,0.07028097380868474,0.010568293132881861,0.9974712506637775,52.39623431220027,3.2366656340443702,258.54391581454246,-87.62848706036519,-47.969818115234375,4761.76025390625,True
1599384657.3071938,0.0,10,0.5,0.5,0.1046935104370117,-0.001,-0.001,-0.37525,-0.5568316471601671,10,1,100,-1.043085455728888,-10,-1,-100,19181.705191834597,0.07282762940597269,0.0043290241536512505,0.9973351472524086,52.05466386333421,3.216123725211234,258.5271925887078,-88.1754230115705,-48.47515869140625,4761.76025390625,True
1599384657.3411825,0.0,10,0.5,0.5,-0.08458743591308593,-0.001,-0.001,-0.37525,0.06392013587476647,10,1,100,-0.7910887073932945,-10,-1,-100,19181.705191834597,0.07282762940597269,0.0043290241536512505,0.9973351472524086,52.05466386333421,3.216123725211234,258.5271925887078,-88.1754230115705,-48.47515869140625,4761.76025390625,True
1599384657.3730457,0.0,10,0.5,0.5,0.040842327880859355,-0.001,-0.001,-0.37525,-0.4197457154834687,10,1,100,-0.9328919956520338,-10,-1,-100,19178.167235942907,0.07409717376471048,-4.195858575298401e-05,0.9972510251083021,51.871007862839264,3.205001740360748,258.7239877207077,-88.54004747721991,-48.8077392578125,4761.76025390625,True
1599384657.4107666,0.0,10,0.5,0.5,-0.02350815277099609,-0.001,-0.001,-0.37525,-0.22889880289219794,10,1,100,-0.860151286890366,-10,-1,-100,19176.39278858248,0.07457223687832583,-0.0022528885099915323,0.9972130694993546,51.794455856778335,3.2003401491087278,258.89592635335237,-88.72235964605454,-48.967620849609375,4761.76025390625,True
1599384657.4406908,0.0,10,0.5,0.5,0.03392441253662108,-0.001,-0.001,-0.37525,-0.5192819229733884,10,1,100,-0.9066370586822654,-10,-1,-100,19172.832955484744,0.07541145819427253,-0.006875370989398249,0.997128798725005,51.681594132983115,3.1934141137068774,259.43720323692156,-89.08698303366275,-49.27899169921875,4761.76025390625,True
1599384657.4736638,0.0,10,0.5,0.5,0.03360487213134765,-0.001,-0.001,-0.37525,-0.5764570487251037,10,1,100,-0.8677220760266802,-10,-1,-100,19169.258537278278,0.07580590030759275,-0.011567223919214728,0.997055497356771,51.61193176614512,3.1890379757725573,260.1918959749923,-89.45160450151202,-49.587921142578125,4761.76025390625,True
1599384657.5085764,0.0,10,0.5,0.5,0.09378966217041014,-0.001,-0.001,-0.37525,-0.9152196497873153,10,1,100,-0.8348396537994629,-10,-1,-100,19163.869563644403,0.07585305002163081,-0.018880568510390223,0.9969402383970368,51.592738890375465,3.187516178854601,261.7521279624268,-89.99853109591584,-50.05523681640625,4761.76025390625,True
1599384657.543448,0.0,10,0.5,0.5,-0.08127536010742188,-0.001,-0.001,-0.37525,-0.1877637500686832,10,1,100,-0.8312412156757756,-10,-1,-100,19163.869563644403,0.07585305002163081,-0.018880568510390223,0.9969402383970368,51.592738890375465,3.187516178854601,261.7521279624268,-89.99853109591584,-50.05523681640625,4761.76025390625,True
1599384657.5744004,0.0,10,0.5,0.5,0.0342093307495117,-0.001,-0.001,-0.37525,-0.7348441834681009,10,1,100,-0.7822361599416878,-10,-1,-100,19160.258683825843,0.07539965594344437,-0.023822008800147326,0.9968687996824536,51.63836948246325,3.1899565691496634,263.09005965391634,-90.36314347486288,-50.361480712890625,4761.76025390625,True
1599384657.609272,0.0,10,0.5,0.5,0.027452032470703117,-0.001,-0.001,-0.37525,-0.7833207802361455,10,1,100,-0.729369819331585,-10,-1,-100,19156.633219762356,0.07450038670818908,-0.02872011123283971,0.9968073272157985,51.74171520492531,3.1958348637203655,264.72596581524914,-90.72775015416956,-50.648223876953125,4761.76025390625,True
1599384657.6412258,0.0,10,0.5,0.5,0.08498148498535156,-0.001,-0.001,-0.37525,-1.139057486579792,10,1,100,-0.6149802870937627,-10,-1,-100,19151.167678567348,0.07263912855315906,-0.03637118495262437,0.9966948850617121,52.00939254820403,3.2113621034594644,267.7697341137642,-91.27464589326547,-51.086395263671875,4761.76025390625,True
1599384657.6781242,0.0,10,0.5,0.5,-0.07918120422363281,-0.001,-0.001,-0.37525,-0.3780201355119535,10,1,100,-0.8010872525114834,-10,-1,-100,19151.167678567348,0.07263912855315906,-0.03637118495262437,0.9966948850617121,52.00939254820403,3.2113621034594644,267.7697341137642,-91.27464589326547,-51.086395263671875,4761.76025390625,True
1599384657.7090075,0.0,10,0.5,0.5,0.08130307922363281,-0.001,-0.001,-0.37525,-1.2002877867112351,10,1,100,-0.4897674204784196,-10,-1,-100,19145.66932442144,0.06980911962636104,-0.04380934522797577,0.9965979269934734,52.39460355301327,3.233829821171212,271.4418358258219,-91.82152084277834,-51.512237548828125,4761.76025390625,True
1599384657.7758272,0.0,10,0.5,0.5,-0.024796931457519537,-0.001,-0.001,-0.37525,-0.7450881914570225,10,1,100,-0.6536609270419296,-10,-1,-100,19143.82924811414,0.06873022343815688,-0.04639334244267309,0.9965559764324019,52.55483939978498,3.2432094182768507,272.8371884456618,-92.00380685363214,-51.65423583984375,4761.76025390625,True
1599384657.8156323,0.0,10,0.5,0.5,0.12962499694824217,-0.001,-0.001,-0.37525,-1.5642249541410784,10,1,100,-0.16993126754436405,-10,-1,-100,19136.432487222017,0.06335717728384811,-0.05614900097685963,0.996410135323765,53.32814220433818,3.2884925644681595,279.1490131451834,-92.73291803578242,-52.20556640625,4761.76025390625,True
1599384657.853533,0.0,10,0.5,0.5,0.01574993743896483,-0.001,-0.001,-0.37525,-1.1196852569996527,10,1,100,-0.3502615708161676,-10,-1,-100,19132.71223420743,0.06012291470141147,-0.06093171727939129,0.9963295443562793,53.809746527889814,3.3167290893464023,282.83105224016856,-93.09745074271565,-52.451995849609375,4761.76025390625,True
1599384657.9412968,0.0,10,0.5,0.5,-0.03382571563720704,-0.001,-0.001,-0.37525,-0.8935174394148714,10,1,100,-0.4847527785239393,-10,-1,-100,19130.846639941796,0.05841958059254534,-0.06317869330968554,0.9962909240352799,54.07455848515206,3.332257113321584,284.806884770422,-93.27971047445509,-52.56524658203125,4761.76025390625,True
1599384658.0116298,0.0,10,0.5,0.5,0.10597884368896485,-0.001,-0.001,-0.37525,-1.8517582090212201,10,1,100,0.43919192206502555,-10,-1,-100,19121.463993952144,0.04848744636952107,-0.07389240749292048,0.9960867831968573,55.6288074463626,3.423307539538567,296.00291078134416,-94.1909324405852,-53.049102783203125,4761.76025390625,True
1599384658.0495281,0.0,10,0.5,0.5,0.05904190216064453,-0.001,-0.001,-0.37525,-1.6444133622815233,10,1,100,0.4880378481164257,-10,-1,-100,19113.89227498579,0.03903905738780638,-0.08169718374460724,0.9958923245845764,57.148115231702846,3.512088637889451,306.56933261140745,-94.91980078229089,-53.4061279296875,4761.76025390625,True
1599384658.077453,0.0,10,0.5,0.5,-0.043372665405273444,-0.001,-0.001,-0.37525,-1.0559090215520874,10,1,100,-0.1868075988066708,-10,-1,-100,19111.990234861034,0.036617626556962664,-0.08338978162592356,0.9958440107495328,57.56540953446948,3.5364229481901215,309.4342549784933,-95.10200060358325,-53.48919677734375,4761.76025390625,True
1599384658.109403,0.0,10,0.5,0.5,-0.019443945312500002,-0.001,-0.001,-0.37525,-1.250650706841043,10,1,100,0.1342805593305384,-10,-1,-100,19108.1752232766,0.031531781418722135,-0.08664918622938973,0.9957397578114205,58.43414381546954,3.5869739675052306,315.3773039948985,-95.46637781665281,-53.6348876953125,4761.76025390625,True
1599384658.143312,0.0,10,0.5,0.5,-0.07385961303710939,-0.001,-0.001,-0.37525,-0.9297380466221024,10,1,100,-0.3701932197800708,-10,-1,-100,19108.1752232766,0.031531781418722135,-0.08664918622938973,0.9957397578114205,58.43414381546954,3.5869739675052306,315.3773039948985,-95.46637781665281,-53.6348876953125,4761.76025390625,True
1599384658.1786833,0.0,10,0.5,0.5,-0.025941990661621103,-0.001,-0.001,-0.37525,-1.2701370246084056,10,1,100,0.2273433539186973,-10,-1,-100,19104.34563731961,0.026137001064310095,-0.08969801511901361,0.9956259956726087,59.34123178115111,3.63958228675438,321.5683403258178,-95.83072330715147,-53.761566162109375,4761.76025390625,True
1599384658.2095983,0.0,10,0.5,0.5,-0.0028210998535156268,-0.001,-0.001,-0.37525,-1.4071378915528547,10,1,100,0.618653370959678,-10,-1,-100,19098.57393503515,0.017714993422255736,-0.09367342320008391,0.9954453620335107,60.78185492362332,3.722813570034011,331.36975660992294,-96.37717777106022,-53.948760986328125,4761.76025390625,True
1599384658.2464712,0.0,10,0.5,0.5,-0.02161423797607423,-0.001,-0.001,-0.37525,-1.2648927851000435,10,1,100,0.4280580029495077,-10,-1,-100,19094.707919997163,0.011837685484131413,-0.09595131132352462,0.9953156358953046,61.80103990435889,3.781483299178726,338.2814394331753,-96.74143524795392,-54.08489990234375,4761.76025390625,True
1599384658.2793827,0.0,10,0.5,0.5,-0.021772419738769533,-0.001,-0.001,-0.37525,-1.2426540311934045,10,1,100,0.4947705419760752,-10,-1,-100,19090.82733565697,0.005935036541776612,-0.0977837642999134,0.9951899872791058,62.8621673102723,3.842360710523522,345.4710586198499,-97.10565445056586,-54.219757080078125,4761.76025390625,True
1599384658.3163197,0.0,10,0.5,0.5,-0.04679060516357422,-0.001,-0.001,-0.37525,-1.1551343074829614,10,1,100,0.2475433272880042,-10,-1,-100,19088.881580519374,0.00286577388967256,-0.09862049492924414,0.9951209902920971,63.4031241101289,3.873296085707146,349.14163524461725,-97.28774911284489,-54.28729248046875,4761.76025390625,True
1599384658.3452034,0.0,10,0.5,0.5,-0.0719610595703125,-0.001,-0.001,-0.37525,-1.0750054247118424,10,1,100,-0.05382755725211368,-10,-1,-100,19088.881580519374,0.00286577388967256,-0.09862049492924414,0.9951209902920971,63.4031241101289,3.873296085707146,349.14163524461725,-97.28774911284489,-54.28729248046875,4761.76025390625,True
1599384658.3771188,0.0,10,0.5,0.5,0.0046229873657226556,-0.001,-0.001,-0.37525,-1.2897017672883033,10,1,100,0.9798428382852569,-10,-1,-100,19083.02246601775,-0.006489755458412764,-0.10054979978226986,0.9949108607497636,65.06855179188216,3.9681314504806577,360.46490803189647,-97.83397013621664,-54.490509033203125,4761.76025390625,True
1599384658.4110622,0.0,10,0.5,0.5,-0.04503606109619141,-0.001,-0.001,-0.37525,-1.1499706551298248,10,1,100,0.399895179732794,-10,-1,-100,19081.062145441305,-0.009681140867244106,-0.10101629170536373,0.9948376673214607,65.63850060333229,4.000452584450169,364.3474958150343,-98.01602237198597,-54.5609130859375,4761.76025390625,True
1599384658.4459715,0.0,10,0.5,0.5,-0.043515063476562504,-0.001,-0.001,-0.37525,-1.1504847401443965,10,1,100,0.4455104242297012,-10,-1,-100,19079.098183875205,-0.012954994582131568,-0.10142902467187297,0.9947584234724979,66.21657385722773,4.033169601822866,368.2886265007439,-98.1980634593368,-54.6348876953125,4761.76025390625,True
1599384658.4758928,0.0,10,0.5,0.5,-0.013303552246093767,-0.001,-0.001,-0.37525,-1.1565274906907295,10,1,100,0.8336459367837983,-10,-1,-100,19075.159339721315,-0.01941928736797482,-0.10184573433871849,0.9946106462707542,67.40329964208784,4.100161223878189,376.3823924123038,-98.56211137218381,-54.7886962890625,4761.76025390625,True
1599384658.510858,0.0,10,0.5,0.5,-0.010691986083984382,-0.001,-0.001,-0.37525,-1.1298000696737631,10,1,100,0.9278004854443094,-10,-1,-100,19071.20593498822,-0.0261055484622127,-0.10196776971014261,0.9944451087314102,68.61807161473854,4.1684423639848855,384.68929632042546,-98.92611198332993,-54.94873046875,4761.76025390625,True
1599384658.5437653,0.0,10,0.5,0.5,0.02414830322265625,-0.001,-0.001,-0.37525,-1.050060882388688,10,1,100,1.3758549063605396,-10,-1,-100,19065.248531072633,-0.036209696420279665,-0.10134265493194465,0.9941923979675644,70.49114880657436,4.273167297778216,397.5444673217815,-99.4720209102307,-55.20062255859375,4761.76025390625,True
1599384658.623525,0.0,10,0.5,0.5,-0.006706307983398441,-0.001,-0.001,-0.37525,-1.0031894745498025,10,1,100,1.1098778920297667,-10,-1,-100,19061.25873364741,-0.042928290170203935,-0.10034129303347313,0.9940265523694191,71.76620323165243,4.344051041180086,406.33771161066306,-99.83589651253763,-55.3695068359375,4761.76025390625,True
1599384658.664412,0.0,10,0.5,0.5,0.019850917053222658,-0.001,-0.001,-0.37525,-0.8412231369612884,10,1,100,1.5477914278417597,-10,-1,-100,19055.24675052287,-0.05296734756328563,-0.09795455189159438,0.9937803408479295,73.70271186785202,4.45105110216348,419.7775832813933,-100.38161038603127,-55.608184814453125,4761.76025390625,True
1599384658.6970246,0.0,10,0.5,0.5,-0.013437486267089849,-0.001,-0.001,-0.37525,-0.8364640945840204,10,1,100,1.2778878293259759,-10,-1,-100,19051.22057351703,-0.05958654667584817,-0.09574136793410065,0.993621172238874,75.00902203808083,4.522815980030573,428.90197811971944,-100.74535078301194,-55.75738525390625,4761.76025390625,True
1599384658.7289383,0.0,10,0.5,0.5,-0.04172056884765625,-0.001,-0.001,-0.37525,-0.9148848122787887,10,1,100,0.9832482381718974,-10,-1,-100,19049.202029470936,-0.0628686838398993,-0.09444491552178165,0.9935429968171093,75.66591788387986,4.558784179968683,433.50901979232646,-100.92719973161664,-55.83062744140625,4761.76025390625,True
1599384658.7755969,0.0,10,0.5,0.5,0.009855578613281249,-0.001,-0.001,-0.37525,-0.542782604094912,10,1,100,1.7247853104250745,-10,-1,-100,19043.124578093528,-0.07253393241158414,-0.08988737105382683,0.9933071474493393,77.64924275941611,4.666929442753701,447.4974037637359,-101.47265928962219,-56.04034423828125,4761.76025390625,True
1599384658.812497,0.0,10,0.5,0.5,-0.042976933288574215,-0.001,-0.001,-0.37525,-0.8036399749217766,10,1,100,1.1141553504640689,-10,-1,-100,19041.091488845414,-0.07570930040714924,-0.08812527257113797,0.9932280896984955,78.31300905005932,4.702977647907603,452.207287690633,-101.65444955590479,-56.108673095703125,4761.76025390625,True
1599384658.842443,0.0,10,0.5,0.5,-0.015529440307617194,-0.001,-0.001,-0.37525,-0.5499624867143882,10,1,100,1.4954904087493222,-10,-1,-100,19037.01440468605,-0.08200265533340172,-0.08422892498420297,0.9930664895737228,79.64273474512252,4.774993450896846,461.68768578265957,-102.01798454237347,-56.249359130859375,4761.76025390625,True
1599384658.8755927,0.0,10,0.5,0.5,-0.013723133850097664,-0.001,-0.001,-0.37525,-0.4678738869634129,10,1,100,1.545435658662587,-10,-1,-100,19032.92278080352,-0.08811516421034159,-0.07995616727078743,0.9928961321062492,80.97402219877439,4.846855716852364,471.24133163950665,-102.38145817993049,-56.39404296875,4761.76025390625,True
1599384658.9085066,0.0,10,0.5,0.5,-0.06785520935058595,-0.001,-0.001,-0.37525,-0.8929607015981735,10,1,100,0.9410543586528365,-10,-1,-100,19032.92278080352,-0.08811516421034159,-0.07995616727078743,0.9928961321062492,80.97402219877439,4.846855716852364,471.24133163950665,-102.38145817993049,-56.39404296875,4761.76025390625,True
1599384658.9454062,0.0,10,0.5,0.5,0.018452041625976565,-0.001,-0.001,-0.37525,-0.0981401615568619,10,1,100,1.9274460215375977,-10,-1,-100,19026.758088672766,-0.09702598876770475,-0.07275053654535674,0.9926194220022151,82.964511135647,4.953906368112238,485.65491784113095,-102.92655129789534,-56.623046875,4761.76025390625,True
1599384658.9753506,0.0,10,0.5,0.5,-0.03794490051269532,-0.001,-0.001,-0.37525,-0.5310482400080588,10,1,100,1.3594717914869205,-10,-1,-100,19024.695924148546,-0.09990804873544018,-0.07016148397941843,0.9925198980190183,83.62405394761566,4.989285812443116,490.4684697652849,-103.10821729506131,-56.701171875,4761.76025390625,True
1599384659.0082622,0.0,10,0.5,0.5,0.02751995391845702,-0.001,-0.001,-0.37525,0.13774112311101738,10,1,100,2.007743383716992,-10,-1,-100,19018.487633935874,-0.10836968158223191,-0.06175533271753206,0.9921906525435081,85.59213905042945,5.0946940022609635,504.943346774517,-103.65311942564091,-56.952728271484375,4761.76025390625,True
1599384659.0422971,0.0,10,0.5,0.5,-0.06674212951660156,-0.001,-0.001,-0.37525,-0.6992540811602139,10,1,100,1.1671203324397132,-10,-1,-100,19018.487633935874,-0.10836968158223191,-0.06175533271753206,0.9921906525435081,85.59213905042945,5.0946940022609635,504.943346774517,-103.65311942564091,-56.952728271484375,4761.76025390625,True
1599384659.0782948,0.0,10,0.5,0.5,0.030505662536621084,-0.001,-0.001,-0.37525,0.29727885415429567,10,1,100,2.0412078953418797,-10,-1,-100,19012.246655576047,-0.11627158384960944,-0.05272683879214249,0.991816918216306,87.5340983453204,5.198576159384014,519.4075876780387,-104.19787604963591,-57.21087646484375,4761.76025390625,True
1599384659.108307,0.0,10,0.5,0.5,-0.06622642211914062,-0.001,-0.001,-0.37525,-0.6013987307116972,10,1,100,1.256357958605098,-10,-1,-100,19012.246655576047,-0.11627158384960944,-0.05272683879214249,0.991816918216306,87.5340983453204,5.198576159384014,519.4075876780387,-104.19787604963591,-57.21087646484375,4761.76025390625,True
1599384659.146205,0.0,10,0.5,0.5,0.06320360412597656,-0.001,-0.001,-0.37525,0.8193910302180112,10,1,100,2.316700475177113,-10,-1,-100,19003.87451768492,-0.1258712997716841,-0.039844350540292124,0.991246106486078,90.03907039793857,5.332532831824564,538.4117514972878,-104.92399112689388,-57.5545654296875,4761.76025390625,True
1599384659.176117,0.0,10,0.5,0.5,-0.06562109069824218,-0.001,-0.001,-0.37525,-0.4640297027639406,10,1,100,1.3617450829061006,-10,-1,-100,19003.87451768492,-0.1258712997716841,-0.039844350540292124,0.991246106486078,90.03907039793857,5.332532831824564,538.4117514972878,-104.92399112689388,-57.5545654296875,4761.76025390625,True
1599384659.2111604,0.0,10,0.5,0.5,0.001175308227539043,-0.001,-0.001,-0.37525,0.3144596648232169,10,1,100,1.8656733648059802,-10,-1,-100,18999.66666893859,-0.13041258538492093,-0.03280752408444879,0.9909168602545164,91.24598666442353,5.397172977869355,547.7330575149967,-105.286951949752,-57.73175048828125,4761.76025390625,True
1599384659.2420776,0.0,10,0.5,0.5,-0.030675486755371108,-0.001,-0.001,-0.37525,-0.02113045255911572,10,1,100,1.6328189650819667,-10,-1,-100,18997.557300503016,-0.13238571647112285,-0.029504090776418187,0.9907590679382572,91.84333811731753,5.429256350395346,552.3794281622846,-105.46840804373738,-57.823455810546875,4761.76025390625,True
1599384659.275058,0.0,10,0.5,0.5,0.03519163665771484,-0.001,-0.001,-0.37525,0.8252935998463867,10,1,100,2.0728796090402213,-10,-1,-100,18991.207424326334,-0.13813977735614438,-0.01885207099860795,0.9902333065147114,93.56563770185493,5.522009779456611,565.9856540138452,-106.01268076640298,-58.089599609375,4761.76025390625,True
1599384659.3080604,0.0,10,0.5,0.5,-0.06453216857910157,-0.001,-0.001,-0.37525,-0.23451853137996215,10,1,100,1.5015848993969116,-10,-1,-100,18991.207424326334,-0.13813977735614438,-0.01885207099860795,0.9902333065147114,93.56563770185493,5.522009779456611,565.9856540138452,-106.01268076640298,-58.089599609375,4761.76025390625,True
1599384659.3440785,0.0,10,0.5,0.5,0.004121192932128898,-0.001,-0.001,-0.37525,0.5698357800119704,10,1,100,1.8802601026310413,-10,-1,-100,18986.95603362599,-0.14154752308679946,-0.011586403997754752,0.9898636542223341,94.66320372610117,5.581471137481232,574.8205653248713,-106.37545031142612,-58.271697998046875,4761.76025390625,True
1599384659.3758154,0.0,10,0.5,0.5,0.004446670532226554,-0.001,-0.001,-0.37525,0.6340967537402173,10,1,100,1.8630702074179069,-10,-1,-100,18982.690133990487,-0.14445904030227144,-0.004442669625558492,0.9895008076608856,95.71636173516018,5.638900962116814,583.4397036143015,-106.73815776184536,-58.453826904296875,4761.76025390625,True
1599384659.4085178,0.0,10,0.5,0.5,0.04296883544921874,-0.001,-0.001,-0.37525,1.1712730250084602,10,1,100,2.009977902493209,-10,-1,-100,18976.264085747534,-0.14840859012727595,0.006882952576065795,0.9889021768305851,97.19925463814238,5.720598445988278,595.8737434745732,-107.28210491392028,-58.737457275390625,4761.76025390625,True
1599384659.4424696,0.0,10,0.5,0.5,-0.06331080322265625,-0.001,-0.001,-0.37525,0.04467178398285225,10,1,100,1.6182366206205252,-10,-1,-100,18976.264085747534,-0.14840859012727595,0.006882952576065795,0.9889021768305851,97.19925463814238,5.720598445988278,595.8737434745732,-107.28210491392028,-58.737457275390625,4761.76025390625,True
1599384659.4785523,0.0,10,0.5,0.5,0.010672650146484372,-0.001,-0.001,-0.37525,0.8701285616883901,10,1,100,1.8467941821805591,-10,-1,-100,18971.961924521718,-0.15045717068120565,0.014332914381235951,0.9885126237716677,98.13249989464774,5.772760094283022,603.8847109175857,-107.64466163891353,-58.933685302734375,4761.76025390625,True
1599384659.5084395,0.0,10,0.5,0.5,0.04487939453124999,-0.001,-0.001,-0.37525,1.370214172264204,10,1,100,1.90259964024259,-10,-1,-100,18965.481494866544,-0.1528044881936061,0.025602587695787556,0.9879247420179178,99.41338878710322,5.845608790502379,615.2530615285457,-108.1883885419487,-59.219940185546875,4761.76025390625,True
1599384659.541469,0.0,10,0.5,0.5,-0.06237121276855469,-0.001,-0.001,-0.37525,0.24979153463265144,10,1,100,1.6705612078447378,-10,-1,-100,18965.481494866544,-0.1528044881936061,0.025602587695787556,0.9879247420179178,99.41338878710322,5.845608790502379,615.2530615285457,-108.1883885419487,-59.219940185546875,4761.76025390625,True
1599384659.5754538,0.0,10,0.5,0.5,0.01058648223876952,-0.001,-0.001,-0.37525,1.0655496217325757,10,1,100,1.778130221927079,-10,-1,-100,18961.143086597673,-0.15376203204634675,0.03296547020416847,0.9875578541408074,100.18838380635425,5.890684296068075,622.3955755255216,-108.55080338396296,-59.4134521484375,4761.76025390625,True
1599384659.6115232,0.0,10,0.5,0.5,0.043525587463378895,-0.001,-0.001,-0.37525,1.5547664776707553,10,1,100,1.759779391090488,-10,-1,-100,18954.608296621474,-0.15444626770889178,0.04404963521033404,0.9870187333726903,101.21607273055669,5.952237509606652,632.3407280564383,-109.09432598047738,-59.693572998046875,4761.76025390625,True
1599384659.6424718,0.0,10,0.5,0.5,0.009657176208496085,-0.001,-0.001,-0.37525,1.241256974099464,10,1,100,1.6727968905156196,-10,-1,-100,18950.23365465051,-0.15426272604202232,0.05121887908691923,0.986701392407634,101.81430953768064,5.989464329333598,638.469361912848,-109.45661118694882,-59.88250732421875,4761.76025390625,True
1599384659.6751373,0.0,10,0.5,0.5,-0.061061138916015625,-0.001,-0.001,-0.37525,0.5313396814494975,10,1,100,1.6927633520711534,-10,-1,-100,18950.23365465051,-0.15426272604202232,0.05121887908691923,0.986701392407634,101.81430953768064,5.989464329333598,638.469361912848,-109.45661118694882,-59.88250732421875,4761.76025390625,True
1599384659.7091525,0.0,10,0.5,0.5,-0.026143321228027344,-0.001,-0.001,-0.37525,0.930569269455023,10,1,100,1.6662664927782287,-10,-1,-100,18948.04089993122,-0.1540102862275819,0.054791143265983396,0.9865489153385677,102.08452970282235,6.006783483080791,641.3635288894475,-109.63773570678227,-59.974884033203125,4761.76025390625,True
1599384659.7451196,0.0,10,0.5,0.5,0.040284785461425776,-0.001,-0.001,-0.37525,1.7508499990271362,10,1,100,1.5375047807303002,-10,-1,-100,18941.44090286852,-0.15260155151772278,0.0654419047767959,0.9861187167747951,102.77397867053179,6.053267446937856,649.3212782878853,-110.18104034786163,-60.2431640625,4761.76025390625,True
1599384659.7751186,0.0,10,0.5,0.5,-0.024940322875976563,-0.001,-0.001,-0.37525,1.0815710678703103,10,1,100,1.6042770703542115,-10,-1,-100,18939.233660428436,-0.15192409263134965,0.06898682591047182,0.9859816874206841,102.96544714892053,6.0670647235382695,651.7427821150902,-110.36212008173752,-60.33697509765625,4761.76025390625,True
1599384659.8077023,0.0,10,0.5,0.5,-0.02346944274902344,-0.001,-0.001,-0.37525,1.111258226674068,10,1,100,1.5800750313036773,-10,-1,-100,18937.02279649675,-0.1510850064682746,0.07242290668172555,0.9858642114450911,103.14028027752326,6.08016620936217,654.0636590239579,-110.54318937289337,-60.43402099609375,4761.76025390625,True
1599384659.8411348,0.0,10,0.5,0.5,0.014588648986816402,-0.001,-0.001,-0.37525,1.5252742096027236,10,1,100,1.4437917180470592,-10,-1,-100,18932.590205378598,-0.1490826908942489,0.07925758905285263,0.985643234569821,103.43171217047588,6.103798665592187,658.3480178745872,-110.90529802436498,-60.631561279296875,4761.76025390625,True
1599384659.877566,0.0,10,0.5,0.5,0.01573110809326171,-0.001,-0.001,-0.37525,1.588541186693731,10,1,100,1.3730922185512737,-10,-1,-100,18928.143130963785,-0.14662306473817233,0.08599731372619816,0.9854471771326272,103.64128566147906,6.123748616914775,662.1240619286119,-111.26736921767565,-60.83123779296875,4761.76025390625,True
1599384659.908479,0.0,10,0.5,0.5,0.05766910095214843,-0.001,-0.001,-0.37525,2.004299641927515,10,1,100,1.1139693120309735,-10,-1,-100,18921.44536654884,-0.1420369976492413,0.09584905418042813,0.9852098507990603,103.79521712421634,6.146322122902115,666.7769559066442,-111.81041238565166,-61.14141845703125,4761.76025390625,True
1599384659.9415658,0.0,10,0.5,0.5,-0.05855339660644531,-0.001,-0.001,-0.37525,1.0254139549021442,10,1,100,1.5714035174843657,-10,-1,-100,18921.44536654884,-0.1420369976492413,0.09584905418042813,0.9852098507990603,103.79521712421634,6.146322122902115,666.7769559066442,-111.81041238565166,-61.14141845703125,4761.76025390625,True
1599384659.9755712,0.0,10,0.5,0.5,0.019016123962402334,-0.001,-0.001,-0.37525,1.7327159835966093,10,1,100,1.1676523086844415,-10,-1,-100,18916.962089992594,-0.1383778132692962,0.10223198224222318,0.9850889313161697,103.789471998001,6.156346088612082,669.1862700662072,-112.17240360500644,-61.347198486328125,4761.76025390625,True
1599384660.0122836,0.0,10,0.5,0.5,0.015372554016113274,-0.001,-0.001,-0.37525,1.7850387849682852,10,1,100,1.0765555311692112,-10,-1,-100,18912.464334724587,-0.13423757032172834,0.10846393039891092,0.9849953555812023,103.69573494652269,6.162232468570196,671.0254768854624,-112.53436860658617,-61.5423583984375,4761.76025390625,True
1599384660.0423918,0.0,10,0.5,0.5,-0.02127355651855469,-0.001,-0.001,-0.37525,1.504021098223332,10,1,100,1.241032454213041,-10,-1,-100,18910.21002764441,-0.131987162538629,0.11152259061520747,0.9849579182419289,103.61533107835007,6.16357857964627,671.72573013629,-112.71534238499673,-61.63916015625,4761.76025390625,True
1599384660.0753038,0.0,10,0.5,0.5,0.05011065979003905,-0.001,-0.001,-0.37525,2.1874868491240367,10,1,100,0.6419960854553091,-10,-1,-100,18903.42539101187,-0.12451557313227653,0.12046494177698418,0.9848776928381557,103.23851332987427,6.161064365238642,672.9294781374185,-113.25823454060176,-61.92498779296875,4761.76025390625,True
1599384660.1102104,0.0,10,0.5,0.5,0.013155535888671875,-0.001,-0.001,-0.37525,1.9327700655787543,10,1,100,0.772463219400799,-10,-1,-100,18898.88420418813,-0.1189348166881746,0.12622872385818754,0.9848455811204534,102.87224531675616,6.15372491245679,672.9625851409988,-113.62014319569118,-62.11138916015625,4761.76025390625,True
1599384660.149106,0.0,10,0.5,0.5,-0.022132972717285156,-0.001,-0.001,-0.37525,1.6684556654823441,10,1,100,1.00878708790133,-10,-1,-100,18896.608182098484,-0.11603979079439874,0.12901362947845257,0.9848300616660668,102.6542453203524,6.148308317584987,672.7434618338546,-113.80109324060497,-62.203033447265625,4761.76025390625,True
1599384660.1780293,0.0,10,0.5,0.5,0.04162087097167968,-0.001,-0.001,-0.37525,2.289190902182671,10,1,100,0.25780545232499463,-10,-1,-100,18889.758402673528,-0.1066127025817939,0.13713696335524492,0.9847980427122651,101.87607779304011,6.12586146069638,671.2338672266997,-114.34393224964293,-62.463409423828125,4761.76025390625,True
1599384660.211937,0.0,10,0.5,0.5,-0.055902029418945315,-0.001,-0.001,-0.37525,1.4826454519336758,10,1,100,1.1962672747542342,-10,-1,-100,18889.758402673528,-0.1066127025817939,0.13713696335524492,0.9847980427122651,101.87607779304011,6.12586146069638,671.2338672266997,-114.34393224964293,-62.463409423828125,4761.76025390625,True
1599384660.2458477,0.0,10,0.5,0.5,0.04145833892822264,-0.001,-0.001,-0.37525,2.331336019817043,10,1,100,0.05560176007119666,-10,-1,-100,18882.876053182525,-0.09627938914118117,0.14480584156361276,0.9847647168109014,100.9024605063662,6.093318315667533,668.3690884103584,-114.88676557162452,-62.72174072265625,4761.76025390625,True
1599384660.2817514,0.0,10,0.5,0.5,-0.02251769256591797,-0.001,-0.001,-0.37525,1.842929199922667,10,1,100,0.6758358518582435,-10,-1,-100,18880.57469900616,-0.09256555740096827,0.1472929808563772,0.9847519461130761,100.53566347450428,6.08023864603348,667.1170946187738,-115.06771138383039,-62.808929443359375,4761.76025390625,True
1599384660.3097768,0.0,10,0.5,0.5,-0.02106959991455079,-0.001,-0.001,-0.37525,1.8674293116658842,10,1,100,0.6221856036489561,-10,-1,-100,18878.269725810736,-0.08874659123546144,0.14972997765957782,0.9847359932155157,100.14699990139754,6.065973684320297,665.7104018564776,-115.24865883234331,-62.8992919921875,4761.76025390625,True
1599384660.3428032,0.0,10,0.5,0.5,-0.0205943832397461,-0.001,-0.001,-0.37525,1.8797369265567965,10,1,100,0.5915554883432041,-10,-1,-100,18875.961133578676,-0.0850414675113428,0.15201413671111635,0.9847129790164701,99.73486533875727,6.05041116986604,664.1375268180113,-115.42960855233252,-62.990264892578125,4761.76025390625,True
1599384660.3767116,0.0,10,0.5,0.5,0.04986675262451172,-0.001,-0.001,-0.37525,2.394520404501112,10,1,100,-0.3729264854197385,-10,-1,-100,18869.013642137405,-0.07294987900321763,0.15873090364263406,0.9846231844630761,98.38802969945138,5.997629481172383,658.6169322652854,-115.97247649820045,-63.26788330078125,4761.76025390625,True
1599384660.4118214,0.0,10,0.5,0.5,0.018570335388183583,-0.001,-0.001,-0.37525,2.18554394510219,10,1,100,-0.09966891426455926,-10,-1,-100,18864.363884916645,-0.06449535580954675,0.16289435275581685,0.98453327974186,97.3895479641092,5.9566823289147885,654.2041873909955,-116.33441010986844,-63.461151123046875,4761.76025390625,True
1599384660.4425697,0.0,10,0.5,0.5,-0.05379979858398438,-0.001,-0.001,-0.37525,1.7734419748817951,10,1,100,0.7397813833702555,-10,-1,-100,18864.363884916645,-0.06449535580954675,0.16289435275581685,0.98453327974186,97.3895479641092,5.9566823289147885,654.2041873909955,-116.33441010986844,-63.461151123046875,4761.76025390625,True
1599384660.4775171,0.0,10,0.5,0.5,0.018489566040039054,-0.001,-0.001,-0.37525,2.1887561682304155,10,1,100,-0.18847946430160079,-10,-1,-100,18859.699649548624,-0.05610611124969227,0.16663660394180646,0.9844208177944931,96.31761218448985,5.9114025466578335,649.2462850889101,-116.69636689733692,-63.652923583984375,4761.76025390625,True
1599384660.5097826,0.0,10,0.5,0.5,0.0509306671142578,-0.001,-0.001,-0.37525,2.391933837238079,10,1,100,-0.8231789573149391,-10,-1,-100,18852.676148307626,-0.0427640150583803,0.1718515174887182,0.9841942363948852,94.6241975931442,5.838276374428394,641.1301660750958,-117.23935421611685,-63.930023193359375,4761.76025390625,True
1599384660.5464988,0.0,10,0.5,0.5,-0.05290429992675781,-0.001,-0.001,-0.37525,1.873913937960254,10,1,100,0.5046457930639161,-10,-1,-100,18852.676148307626,-0.0427640150583803,0.1718515174887182,0.9841942363948852,94.6241975931442,5.838276374428394,641.1301660750958,-117.23935421611685,-63.930023193359375,4761.76025390625,True
1599384660.5773818,0.0,10,0.5,0.5,0.018443724060058585,-0.001,-0.001,-0.37525,2.2037573205312184,10,1,100,-0.47504001760603676,-10,-1,-100,18847.975713039632,-0.03391582467731111,0.1748185350083329,0.9840163599524138,93.42134240127986,5.784827543259683,635.1473132017569,-117.60138680443167,-64.1192626953125,4761.76025390625,True
1599384660.6103687,0.0,10,0.5,0.5,0.016832217407226555,-0.001,-0.001,-0.37525,2.1903436091632873,10,1,100,-0.5613390093591482,-10,-1,-100,18843.260795416893,-0.025144173100823435,0.1773665965651426,0.9838235924097235,92.17402237848889,5.728381344473738,628.8022380403539,-117.96345668982865,-64.3033447265625,4761.76025390625,True
1599384660.6443064,0.0,10,0.5,0.5,-0.017912498474121095,-0.001,-0.001,-0.37525,2.0772481440223896,10,1,100,-0.20791767389211024,-10,-1,-100,18840.897905179067,-0.020444157793989663,0.178627535919408,0.9837043457378111,91.54205599052548,5.699516110688962,625.5501825383417,-118.14450682929214,-64.39419555664062,4761.76025390625,True
1599384660.6793141,0.0,10,0.5,0.5,0.057387237548828116,-0.001,-0.001,-0.37525,2.2836427879511794,10,1,100,-1.2420078718021648,-10,-1,-100,18833.78750625369,-0.006832689746268895,0.1816238888605839,0.9833443330522577,89.55789350208946,5.606750513837629,615.0959897552569,-118.68772475738614,-64.68453979492188,4761.76025390625,True
1599384660.7102249,0.0,10,0.5,0.5,-0.05139501037597656,-0.001,-0.001,-0.37525,1.9869684690485367,10,1,100,0.11131805519340467,-10,-1,-100,18833.78750625369,-0.006832689746268895,0.1816238888605839,0.9833443330522577,89.55789350208946,5.606750513837629,615.0959897552569,-118.68772475738614,-64.68453979492188,4761.76025390625,True
1599384660.7440257,0.0,10,0.5,0.5,0.09645417480468749,-0.001,-0.001,-0.37525,2.2754685782070414,10,1,100,-1.8781666312361855,-10,-1,-100,18824.256265814765,0.011193428140130154,0.18422580532091762,0.9828202072710609,86.77911210536499,5.4726809090105455,600.0132750719604,-119.41219232896677,-65.07711791992188,4761.76025390625,True
1599384660.7769814,0.0,10,0.5,0.5,-0.050699169921875,-0.001,-0.001,-0.37525,2.017410077430179,10,1,100,-0.0831237209912484,-10,-1,-100,18824.256265814765,0.011193428140130154,0.18422580532091762,0.9828202072710609,86.77911210536499,5.4726809090105455,600.0132750719604,-119.41219232896677,-65.07711791992188,4761.76025390625,True
1599384660.8120716,0.0,10,0.5,0.5,-0.013863302612304687,-0.001,-0.001,-0.37525,2.0716803670051,10,1,100,-0.6038861525894108,-10,-1,-100,18821.864398989594,0.015858824078341015,0.1846997793601759,0.9826670286537319,86.07055709538133,5.4378491778644475,596.1052199336112,-119.59334343413013,-65.17459106445312,4761.76025390625,True
1599384660.842962,0.0,10,0.5,0.5,0.02643638610839843,-0.001,-0.001,-0.37525,2.0835322889962007,10,1,100,-1.132363074641575,-10,-1,-100,18817.069794738083,0.024839006099617804,0.1852219885272222,0.9823827353643818,84.71157249895258,5.371271947715227,588.6426486241113,-119.9556873751917,-65.37850952148438,4761.76025390625,True
1599384660.8769798,0.0,10,0.5,0.5,0.07102621917724608,-0.001,-0.001,-0.37525,2.0460548898115025,10,1,100,-1.7377191657163835,-10,-1,-100,18809.850709314924,0.03844458783676951,0.18534386553100474,0.9819214149696939,82.79845764058457,5.277837718888794,578.2037281823578,-120.49929789809394,-65.70001220703125,4761.76025390625,True
1599384660.910666,0.0,10,0.5,0.5,-0.04944066467285156,-0.001,-0.001,-0.37525,2.0352164242374764,10,1,100,-0.38528185229072776,-10,-1,-100,18809.850709314924,0.03844458783676951,0.18534386553100474,0.9819214149696939,82.79845764058457,5.277837718888794,578.2037281823578,-120.49929789809394,-65.70001220703125,4761.76025390625,True
1599384660.9465578,0.0,10,0.5,0.5,0.12268690032958984,-0.001,-0.001,-0.37525,1.8846305666068321,10,1,100,-2.325165988082043,-10,-1,-100,18800.174516274594,0.056014115968950486,0.18396533470661464,0.9813354036406209,80.12216962432369,5.142148594949029,563.1927888421684,-121.22430595971933,-66.15707397460938,4761.76025390625,True
1599384660.9784477,0.0,10,0.5,0.5,-0.048640155029296875,-0.001,-0.001,-0.37525,2.0231435228599897,10,1,100,-0.576329003770923,-10,-1,-100,18800.174516274594,0.056014115968950486,0.18396533470661464,0.9813354036406209,80.12216962432369,5.142148594949029,563.1927888421684,-121.22430595971933,-66.15707397460938,4761.76025390625,True
1599384661.012356,0.0,10,0.5,0.5,0.03890448760986327,-0.001,-0.001,-0.37525,1.8867123295635913,10,1,100,-1.553889223070175,-10,-1,-100,18795.314666084945,0.06483151953188647,0.18272019858684083,0.9810250777139043,78.74414347846997,5.070281549654656,555.3120229508104,-121.58690007426817,-66.3892822265625,4761.76025390625,True
1599384661.0592637,0.0,10,0.5,0.5,0.08118289489746092,-0.001,-0.001,-0.37525,1.7050452845140978,10,1,100,-2.069827998437162,-10,-1,-100,18787.99769190408,0.07747254417491165,0.179935741423209,0.9806228295616752,76.61308822805675,4.956387172246076,542.9168032465273,-122.13091332557774,-66.7327880859375,4761.76025390625,True
1599384661.0841856,0.0,10,0.5,0.5,-0.047512854003906244,-0.001,-0.001,-0.37525,1.9833221861335422,10,1,100,-0.8141560575267622,-10,-1,-100,18787.99769190408,0.07747254417491165,0.179935741423209,0.9806228295616752,76.61308822805675,4.956387172246076,542.9168032465273,-122.13091332557774,-66.7327880859375,4761.76025390625,True
1599384661.1110919,0.0,10,0.5,0.5,0.08154084320068358,-0.001,-0.001,-0.37525,1.567719258428672,10,1,100,-2.1659243512486226,-10,-1,-100,18780.6480736027,0.08970109310326058,0.1761614330476172,0.980265710612531,76.37245961561241,4.962880685769378,543.8344620577169,-122.67498436794723,-67.07534790039062,4761.76025390625,True
1599384661.1450799,0.0,10,0.5,0.5,-0.04680490417480469,-0.001,-0.001,-0.37525,1.9443436587605232,10,1,100,-0.9509202249100427,-10,-1,-100,18780.6480736027,0.08970109310326058,0.1761614330476172,0.980265710612531,76.37245961561241,4.962880685769378,543.8344620577169,-122.67498436794723,-67.07534790039062,4761.76025390625,True
1599384661.177992,0.0,10,0.5,0.5,0.07974720916748045,-0.001,-0.001,-0.37525,1.4202659742578598,10,1,100,-2.2590958688647365,-10,-1,-100,18773.265814642073,0.10152646962191696,0.17140485259424076,0.979955484944728,76.92706782769312,5.019815246690671,550.422835802724,-123.21896670258485,-67.41119384765625,4761.76025390625,True
1599384661.2138948,0.0,10,0.5,0.5,0.04339389038085937,-0.001,-0.001,-0.37525,1.4836707229093475,10,1,100,-1.9204832124822264,-10,-1,-100,18768.326177528943,0.10912879915947057,0.1676696563843057,0.9797845638312438,77.17461808016478,5.049151764944909,553.9570277670517,-123.58157477430991,-67.64898681640625,4761.76025390625,True
1599384661.243814,0.0,10,0.5,0.5,-0.045643023681640624,-0.001,-0.001,-0.37525,1.8554229229881842,10,1,100,-1.1673186798591346,-10,-1,-100,18768.326177528943,0.10912879915947057,0.1676696563843057,0.9797845638312438,77.17461808016478,5.049151764944909,553.9570277670517,-123.58157477430991,-67.64898681640625,4761.76025390625,True
1599384661.2788846,0.0,10,0.5,0.5,0.0913627487182617,-0.001,-0.001,-0.37525,1.1441221922643279,10,1,100,-2.380662432875592,-10,-1,-100,18760.88952840143,0.12009493854023591,0.16121935356785855,0.979584363785059,77.34963056349818,5.079158870430048,557.8597094700823,-124.12542911988835,-68.01260375976562,4761.76025390625,True
1599384661.3118932,0.0,10,0.5,0.5,-0.044898956298828126,-0.001,-0.001,-0.37525,1.7868778757951673,10,1,100,-1.2904565770561867,-10,-1,-100,18760.88952840143,0.12009493854023591,0.16121935356785855,0.979584363785059,77.34963056349818,5.079158870430048,557.8597094700823,-124.12542911988835,-68.01260375976562,4761.76025390625,True
1599384661.349792,0.0,10,0.5,0.5,0.09415279235839841,-0.001,-0.001,-0.37525,0.9635655034113086,10,1,100,-2.4460811597088568,-10,-1,-100,18753.420250187046,0.13054236127110447,0.1537553738017678,0.9794477918403017,77.28910491851649,5.092132215216824,560.0621094569469,-124.66923104749067,-68.38168334960938,4761.76025390625,True
1599384661.3787148,0.0,10,0.5,0.5,-0.04414508361816406,-0.001,-0.001,-0.37525,1.707066997541877,10,1,100,-1.4079099707959226,-10,-1,-100,18753.420250187046,0.13054236127110447,0.1537553738017678,0.9794477918403017,77.28910491851649,5.092132215216824,560.0621094569469,-124.66923104749067,-68.38168334960938,4761.76025390625,True
1599384661.411627,0.0,10,0.5,0.5,0.14226171875,-0.001,-0.001,-0.37525,0.43744538249522447,10,1,100,-2.85306870091342,-10,-1,-100,18743.410459945677,0.143631922620267,0.1422371594537268,0.9793561462894593,76.82429030825513,5.081376916086127,560.1818340026535,-125.39425530066703,-68.87667846679688,4761.76025390625,True
