Timestamp,Input Throttle,horizon,dT,dt,Input Roll,Roll P,Roll I,Roll D,Input Pitch,Pitch P,Pitch I,Pitch D,Input Yaw,Yaw P,Yaw I,Yaw D,Altitude,Direction X,Direction Y,Direction Z,Drag X,Drag Y,Drag Z,Vertical Velocity,Roll,Mass,Has Fuel
1599387703.5858066,0.0,10,0.5,0.5,-8.425621452331542,-0.15025,-0.03,-0.001,-0.00016340619571686595,10,1,100,0.49808565604906196,-10,-1,-100,19351.094166379306,-0.048844236514591854,-0.00017512517690958435,0.9988063925959221,60.98680644404382,3.680698364358719,232.75512984423733,-68.4818737491254,-33.922637939453125,4761.76025390625,True
1599387703.6177144,0.0,10,0.5,0.5,-8.593684951782226,-0.15025,-0.03,-0.001,-0.0008130931492840417,10,1,100,0.4988955763417059,-10,-1,-100,19349.720879666973,-0.04889486185590393,-0.00016643725747774108,0.9988039170841949,61.07653006922945,3.686784085968198,233.7420624229007,-68.66433384113894,-33.92376708984375,4761.76025390625,True
1599387703.652629,0.0,10,0.5,0.5,-8.76173014831543,-0.15025,-0.03,-0.001,-0.000734665724159917,10,1,100,0.504543068021817,-10,-1,-100,19348.343943786225,-0.04894777585250146,-0.00015767486571359357,0.998801326780121,61.166408473590636,3.692882858844438,234.73165762361856,-68.84679053472293,-33.92498779296875,4761.76025390625,True
1599387703.6895297,0.0,10,0.5,0.5,-8.90696057128906,-0.15025,-0.03,-0.001,0.022649328137704327,10,1,100,0.5084794742800599,-10,-1,-100,19344.19124189776,-0.04898716701916278,6.301604814868238e-05,0.9987994060352731,61.44067393211457,3.711479477807173,237.73079785774692,-69.39413978017807,-34.0770263671875,4761.76025390625,True
1599387703.7254357,0.0,10,0.5,0.5,-9.074881530761717,-0.15025,-0.03,-0.001,0.0005865383562916001,10,1,100,0.5094390743158438,-10,-1,-100,19344.19124189776,-0.04898716701916278,6.301604814868238e-05,0.9987994060352731,61.44067393211457,3.711479477807173,237.73079785774692,-69.39413978017807,-34.0770263671875,4761.76025390625,True
1599387703.7633338,0.0,10,0.5,0.5,-9.178721847534181,-0.15025,-0.03,-0.001,0.028681649250805408,10,1,100,0.5101674231624451,-10,-1,-100,19341.404529661057,-0.04894925458411446,0.0003183688598732182,0.9988012160169453,61.63777786020181,3.7247414113762662,239.79620133144283,-69.75902082478267,-34.49969482421875,4761.76025390625,True
1599387703.8014817,0.0,10,0.5,0.5,-9.237834571838379,-0.15025,-0.03,-0.001,0.045621824464028946,10,1,100,0.5040543412083298,-10,-1,-100,19338.60322259285,-0.0488147159394112,0.0007042199462340346,0.9988076028855717,61.847483298929426,3.738744130980784,241.9198407306129,-70.12388540809397,-35.212493896484375,4761.76025390625,True
1599387703.8373907,0.0,10,0.5,0.5,-9.250801353454587,-0.15025,-0.03,-0.001,0.06663541784560134,10,1,100,0.49743869505598926,-10,-1,-100,19335.787321509677,-0.04858788882835113,0.0012453861282615856,0.9988181346334253,62.06431685117489,3.753133674711074,244.08094248312912,-70.48873243014751,-36.218170166015625,4761.76025390625,True
1599387703.8732946,0.0,10,0.5,0.5,-9.101757904052734,-0.15025,-0.03,-0.001,0.13041718235522565,10,1,100,0.46304627254083397,-10,-1,-100,19331.53610748984,-0.048024853169223884,0.0023160574382575243,0.9988434558808588,62.38517461311714,3.774311673283854,247.3233356172544,-71.03596822033687,-38.2769775390625,4761.76025390625,True
1599387703.9101856,0.0,10,0.5,0.5,-9.258985778808594,-0.15025,-0.03,-0.001,0.023581657099457524,10,1,100,0.5241523237704813,-10,-1,-100,19331.53610748984,-0.048024853169223884,0.0023160574382575243,0.9988434558808588,62.38517461311714,3.774311673283854,247.3233356172544,-71.03596822033687,-38.2769775390625,4761.76025390625,True
1599387703.9470963,0.0,10,0.5,0.5,-9.151059791564942,-0.15025,-0.03,-0.001,0.12092639537746322,10,1,100,0.4712718078740867,-10,-1,-100,19328.683724523173,-0.04750046224910282,0.00319890409765916,0.9988660936775738,62.579411157216015,3.787103802338096,249.418451210692,-71.40076887847897,-40.016448974609375,4761.76025390625,True
1599387703.9849572,0.0,10,0.5,0.5,-8.47509774017334,-0.15025,-0.03,-0.001,0.26627621790222494,10,1,100,0.3639538940013077,-10,-1,-100,19322.935184592963,-0.04604934744493613,0.005319786693454328,0.9989250009232084,62.85203137619549,3.8052030536541763,253.1681444758857,-72.13031986300035,-44.376251220703125,4761.76025390625,True
1599387704.0218606,0.0,10,0.5,0.5,-8.051719665527344,-0.15025,-0.03,-0.001,0.186004542283625,10,1,100,0.40455493546324706,-10,-1,-100,19320.039028965053,-0.04510183937663037,0.006513131798598179,0.9989611620073219,62.89381337993046,3.8082297433670362,254.66969736045095,-72.49507556139542,-46.9969482421875,4761.76025390625,True
1599387704.0588021,0.0,10,0.5,0.5,-7.57416943359375,-0.15025,-0.03,-0.001,0.20076190782528908,10,1,100,0.3778037213865604,-10,-1,-100,19317.128283156082,-0.04400077185608787,0.007726084483958342,0.9990016214674605,62.843444747189594,3.8054419874727374,255.79859109412124,-72.8598237564406,-49.912353515625,4761.76025390625,True
1599387704.0936947,0.0,10,0.5,0.5,-7.292475280761718,-0.15025,-0.03,-0.001,0.15203791468731015,10,1,100,0.42100052593219806,-10,-1,-100,19315.667439175304,-0.04339703269252146,0.008378856925362492,0.9990227686645127,62.77591365312469,3.801390437193137,256.1897084277977,-73.04219694373562,-51.47998046875,4761.76025390625,True
1599387704.131604,0.0,10,0.5,0.5,-7.2418340454101555,-0.15025,-0.03,-0.001,0.08759225463461656,10,1,100,0.4808154288561749,-10,-1,-100,19315.667439175304,-0.04339703269252146,0.008378856925362492,0.9990227686645127,62.77591365312469,3.801390437193137,256.1897084277977,-73.04219694373562,-51.47998046875,4761.76025390625,True
1599387704.1694958,0.0,10,0.5,0.5,-6.683249298095702,-0.15025,-0.03,-0.001,0.23245231645428305,10,1,100,0.334069677951218,-10,-1,-100,19312.734808700276,-0.04206802788601421,0.009688438861845379,0.999067773067574,62.53994117926189,3.7869869423124203,256.55437312986135,-73.40694600624438,-54.8363037109375,4761.76025390625,True
1599387704.2101772,0.0,10,0.5,0.5,-6.075594146728516,-0.15025,-0.03,-0.001,0.2501697726469286,10,1,100,0.30214242440164996,-10,-1,-100,19309.787587713217,-0.04057572729151463,0.01103186820683968,0.9991155630049168,62.147277947347355,3.7628548553690853,256.26398552795195,-73.77170584836833,-58.48681640625,4761.76025390625,True
1599387704.249109,0.0,10,0.5,0.5,-5.415839447021484,-0.15025,-0.03,-0.001,0.26977305118802697,10,1,100,0.26753472443095627,-10,-1,-100,19306.825776064303,-0.03891175871636038,0.01242248243259123,0.9991654302285542,61.569992606591626,3.727341664308792,255.19299547493654,-74.13648599320354,-62.4312744140625,4761.76025390625,True
1599387704.287968,0.0,10,0.5,0.5,-4.368691787719726,-0.15025,-0.03,-0.001,0.34844932237947734,10,1,100,0.13019686874851483,-10,-1,-100,19302.35569775547,-0.03615881868224601,0.014392728353201887,0.9992424076279265,60.296360055887824,3.6491694829907666,251.84046636922275,-74.68371723867556,-68.90155029296875,4761.76025390625,True
1599387704.3258667,0.0,10,0.5,0.5,-3.9348059082031246,-0.15025,-0.03,-0.001,0.22403576209339932,10,1,100,0.2950725402478306,-10,-1,-100,19300.858374582604,-0.035165802968942166,0.015041849850324552,0.9992682868252298,59.74904775116176,3.6156739160180758,250.1916377323091,-74.86614922478591,-71.20556640625,4761.76025390625,True
1599387704.3628035,0.0,10,0.5,0.5,-3.113067108154297,-0.15025,-0.03,-0.001,0.29654260558220014,10,1,100,0.16446588850615798,-10,-1,-100,19297.852781418478,-0.033086941540359974,0.016280347110559104,0.9993198710110114,58.44986866279234,3.536389507855256,245.99936019806427,-75.23105343862301,-76.03515625,4761.76025390625,True
1599387704.4007037,0.0,10,0.5,0.5,-2.2476852645874024,-0.15025,-0.03,-0.001,0.29586362538188005,10,1,100,0.13455854648927076,-10,-1,-100,19294.83259026939,-0.030936966592317712,0.017390117017662965,0.9993700455427799,56.85763621780149,3.4396099922060603,240.5136417210753,-75.59601890180964,-81.16067504882812,4761.76025390625,True
1599387704.4366083,0.0,10,0.5,0.5,-1.330514877319336,-0.15025,-0.03,-0.001,0.3034281114748304,10,1,100,0.09313362570213607,-10,-1,-100,19291.79779849795,-0.028618730880381988,0.018457878638403237,0.9994199692616546,54.95033277751168,3.3241516898258054,233.62175147429687,-75.96105306583499,-86.58087158203125,4761.76025390625,True
1599387704.4755085,0.0,10,0.5,0.5,-0.36129399490356445,-0.15025,-0.03,-0.001,0.2965635893174494,10,1,100,0.06632399287892177,-10,-1,-100,19288.74840314861,-0.026281503608389115,0.01935641009750507,0.9994671640210195,52.710834660206444,3.1891036988334696,225.22973945142567,-76.32616002834423,-92.29747009277344,4761.76025390625,True
1599387704.5143962,0.0,10,0.5,0.5,1.1362374114990235,-0.15025,-0.03,-0.001,0.3318103444579155,10,1,100,-0.09819548046224164,-10,-1,-100,19284.146927764872,-0.022676679539006955,0.02048370233144539,0.9995329840199783,54.47488584276686,3.2976506082546573,234.51832623062265,-76.87377304631534,-101.42669677734375,4761.76025390625,True
1599387704.5532596,0.0,10,0.5,0.5,1.2769483337402343,-0.15025,-0.03,-0.001,0.22029160560449176,10,1,100,0.26021489116062285,-10,-1,-100,19284.146927764872,-0.022676679539006955,0.02048370233144539,0.9995329840199783,54.47488584276686,3.2976506082546573,234.51832623062265,-76.87377304631534,-101.42669677734375,4761.76025390625,True
1599387704.5921557,0.0,10,0.5,0.5,3.3279632186889647,-0.15025,-0.03,-0.001,0.33733216393268645,10,1,100,-0.26604444579276926,-10,-1,-100,19277.96053240716,-0.017910132247018852,0.021537893531274797,0.9996075961621789,57.81625780275711,3.503940009599063,251.37799436216807,-77.60358281872784,-114.06301879882812,4761.76025390625,True
1599387704.6290555,0.0,10,0.5,0.5,3.482055503845215,-0.15025,-0.03,-0.001,0.23296364648218934,10,1,100,0.20834372390159153,-10,-1,-100,19277.96053240716,-0.017910132247018852,0.021537893531274797,0.9996075961621789,57.81625780275711,3.503940009599063,251.37799436216807,-77.60358281872784,-114.06301879882812,4761.76025390625,True
1599387704.667951,0.0,10,0.5,0.5,4.546884408950805,-0.15025,-0.03,-0.001,0.26821148277417184,10,1,100,-0.06597034120914672,-10,-1,-100,19274.845445893006,-0.015435460406438815,0.021850041669294017,0.9996420970732932,59.194512188921614,3.5896113014864386,258.63536034871066,-77.96834666268225,-120.07910919189453,4761.76025390625,True
1599387705.0327327,0.0,10,0.5,0.5,5.560393560409547,-0.15025,-0.03,-0.001,0.2675876323153304,10,1,100,-0.060715982023414855,-10,-1,-100,19271.71577099536,-0.013252365051487077,0.022121361960307392,0.9996674547896233,60.16278604328153,3.6502751704119762,264.15040984802283,-78.33303699954293,-125.80467987060547,4761.76025390625,True
1599387705.0676017,0.0,10,0.5,0.5,7.317145473480225,-0.15025,-0.03,-0.001,0.25509155302861297,10,1,100,-0.33920581778201325,-10,-1,-100,19265.41266436316,-0.008755928438195925,0.022247980129431227,0.9997141396906146,61.03005245004678,3.7056967490624433,270.562471445147,-79.06228144299085,-136.3744659423828,4761.76025390625,True
1599387705.104492,0.0,10,0.5,0.5,7.487593616485595,-0.15025,-0.03,-0.001,0.24302649941811671,10,1,100,0.10800474223688548,-10,-1,-100,19265.41266436316,-0.008755928438195925,0.022247980129431227,0.9997141396906146,61.03005245004678,3.7056967490624433,270.562471445147,-79.06228144299085,-136.3744659423828,4761.76025390625,True
1599387705.1483424,0.0,10,0.5,0.5,8.38559369277954,-0.15025,-0.03,-0.001,0.23868795423321132,10,1,100,-0.1249195164695269,-10,-1,-100,19262.23923515936,-0.006658599757368651,0.022204122570375934,0.9997312838909018,61.02332135384095,3.7060579580625195,271.8348140159537,-79.42687386378134,-141.2165069580078,4761.76025390625,True
1599387705.1942196,0.0,10,0.5,0.5,8.893967220306397,-0.15025,-0.03,-0.001,0.2441450679331353,10,1,100,-0.024926860347711285,-10,-1,-100,19260.647051627166,-0.0056809252223812825,0.02221045651038682,0.9997371768170963,60.93222029677507,3.700765012876801,272.07936695836975,-79.60916968096632,-143.52598571777344,4761.76025390625,True
1599387705.2311535,0.0,10,0.5,0.5,9.71062773132324,-0.15025,-0.03,-0.001,0.23209061222170452,10,1,100,-0.14323301148997852,-10,-1,-100,19257.451746638166,-0.0037353475241776166,0.02210403408900836,0.9997486978515479,60.6091521331568,3.6813744990984145,271.9313484551031,-79.97376819941474,-147.924560546875,4761.76025390625,True
1599387705.2671006,0.0,10,0.5,0.5,11.042004638671875,-0.15025,-0.03,-0.001,0.21421818066555937,10,1,100,-0.33935367292610397,-10,-1,-100,19251.017382517573,-0.00020094481458662455,0.02184333675382884,0.9997613856619191,59.53990222092894,3.6162008772943777,269.68110343673186,-80.70302202779986,-155.8338623046875,4761.76025390625,True
1599387705.307953,0.0,10,0.5,0.5,11.197316833496092,-0.15025,-0.03,-0.001,0.24042387762574974,10,1,100,0.011839024560553206,-10,-1,-100,19251.017382517573,-0.00020094481458662455,0.02184333675382884,0.9997613856619191,59.53990222092894,3.6162008772943777,269.68110343673186,-80.70302202779986,-155.8338623046875,4761.76025390625,True
1599387705.3468506,0.0,10,0.5,0.5,11.853582962036132,-0.15025,-0.03,-0.001,0.2263758329862099,10,1,100,-0.16635776990080503,-10,-1,-100,19247.778321525664,0.001402926782850785,0.021715349581448884,0.9997632096596661,58.871128557321704,3.5752926048974207,267.91319160437195,-81.06768771484568,-159.34429931640625,4761.76025390625,True
1599387705.3837495,0.0,10,0.5,0.5,12.471923770904539,-0.15025,-0.03,-0.001,0.23313482485648696,10,1,100,-0.17129167222486288,-10,-1,-100,19244.524672855856,0.0028882882025308924,0.02166028166351492,0.9997612164859748,58.162257449528354,3.531933101173552,265.93461115955574,-81.43238184858797,-162.5575714111328,4761.76025390625,True
1599387705.4246411,0.0,10,0.5,0.5,13.037703292846679,-0.15025,-0.03,-0.001,0.21829162054152285,10,1,100,-0.1797566030234788,-10,-1,-100,19241.256435879273,0.004298912728946617,0.021475454207989624,0.9997601333399475,57.44689684567386,3.488220177803978,263.8970532808229,-81.79710389238075,-165.47695922851562,4761.76025390625,True
1599387705.4640453,0.0,10,0.5,0.5,13.550278099060058,-0.15025,-0.03,-0.001,0.2309860290859487,10,1,100,-0.18158844166608956,-10,-1,-100,19237.973609066918,0.005581996033547888,0.02142342015132715,0.9997549091598906,56.74478292048285,3.4453911457657074,261.891041635934,-82.16185187433899,-168.09829711914062,4761.76025390625,True
1599387705.5049362,0.0,10,0.5,0.5,14.15360626220703,-0.15025,-0.03,-0.001,0.22984865745474603,10,1,100,-0.24624406964236106,-10,-1,-100,19233.02201132395,0.007323179360722654,0.021366526321330428,0.9997448887576323,55.77090460240495,3.386157496165231,259.19579967807135,-82.70901642582858,-171.475341796875,4761.76025390625,True
1599387705.5533905,0.0,10,0.5,0.5,14.403375396728515,-0.15025,-0.03,-0.001,0.23567578113241744,10,1,100,-0.13221616329372587,-10,-1,-100,19231.3641828408,0.007854838593349468,0.021368579830955966,0.9997408090633694,55.47686891614618,3.3683268051143007,258.4263543991363,-82.89141415639384,-172.45281982421875,4761.76025390625,True
1599387705.5922859,0.0,10,0.5,0.5,14.758163360595702,-0.15025,-0.03,-0.001,0.23983142105645236,10,1,100,-0.1885095341821465,-10,-1,-100,19228.03758190514,0.008836729050767924,0.02140898478696079,0.9997317478154202,54.94629322095653,3.336240128617479,257.1381199851933,-83.25622077354339,-174.1854248046875,4761.76025390625,True
1599387705.632179,0.0,10,0.5,0.5,15.0655493850708,-0.15025,-0.03,-0.001,0.24940298647716255,10,1,100,-0.18880771800899576,-10,-1,-100,19224.69638853753,0.009718869633871379,0.02153345940690202,0.9997208878977227,54.503432475636856,3.3095838287187815,256.24011017374187,-83.62103893438206,-175.62106323242188,4761.76025390625,True
1599387705.6720731,0.0,10,0.5,0.5,15.447109184265136,-0.15025,-0.03,-0.001,0.2771628123851676,10,1,100,-0.26324547876773935,-10,-1,-100,19217.97022225568,0.011185291427992143,0.021899498910268735,0.9996976048801708,53.919994355421494,3.274885054660576,255.82286372851576,-84.35069176675835,-177.60391235351562,4761.76025390625,True
1599387705.7129984,0.0,10,0.5,0.5,15.510436485290526,-0.15025,-0.03,-0.001,0.2405644782641401,10,1,100,-0.11774192297992074,-10,-1,-100,19217.97022225568,0.011185291427992143,0.021899498910268735,0.9996976048801708,53.919994355421494,3.274885054660576,255.82286372851576,-84.35069176675835,-177.60391235351562,4761.76025390625,True
1599387705.7498648,0.0,10,0.5,0.5,15.658429168701172,-0.15025,-0.03,-0.001,0.2718298850580376,10,1,100,-0.18261580102861447,-10,-1,-100,19214.58524945646,0.011764702831850651,0.022183678824616495,0.9996846883698302,53.791341285452376,3.267533214113335,256.37341390473705,-84.71551746841408,-178.15057373046875,4761.76025390625,True
1599387705.788761,0.0,10,0.5,0.5,15.745190155029295,-0.15025,-0.03,-0.001,0.3282740344588996,10,1,100,-0.21845022864065974,-10,-1,-100,19207.77152607788,0.012607788199059706,0.022954727078355778,0.9996570032673636,53.88225548576923,3.2740747800639367,259.1341951736233,-85.44514448414381,-178.35479736328125,4761.76025390625,True
1599387705.827657,0.0,10,0.5,0.5,15.792377609252929,-0.15025,-0.03,-0.001,0.25129865362645537,10,1,100,-0.1351136419194071,-10,-1,-100,19207.77152607788,0.012607788199059706,0.022954727078355778,0.9996570032673636,53.88225548576923,3.2740747800639367,259.1341951736233,-85.44514448414381,-178.35479736328125,4761.76025390625,True
1599387705.8655908,0.0,10,0.5,0.5,15.682645988464357,-0.15025,-0.03,-0.001,0.36762422981297466,10,1,100,-0.17730865748653873,-10,-1,-100,19200.899435321684,0.012983825726515345,0.02401088752289653,0.9996273793518595,54.43256210401528,3.3085246261062826,264.13424584454043,-86.17470800184586,-177.37387084960938,4761.76025390625,True
1599387705.9004622,0.0,10,0.5,0.5,15.646426475524903,-0.15025,-0.03,-0.001,0.293583280489933,10,1,100,-0.14455130557591137,-10,-1,-100,19199.172293533687,0.013021154979839343,0.0242955815992045,0.999620014924545,54.6409071690556,3.3214200854579654,265.736206477401,-86.35708449645247,-176.94393920898438,4761.76025390625,True
1599387705.9453433,0.0,10,0.5,0.5,15.587039455413818,-0.15025,-0.03,-0.001,0.2987655825190496,10,1,100,-0.14191844555325506,-10,-1,-100,19197.44150428858,0.013025975595728724,0.0245988434549511,0.9996125353658077,54.8758565140928,3.3359213812893977,267.4724840618714,-86.53945418746397,-176.4399871826172,4761.76025390625,True
1599387705.9862325,0.0,10,0.5,0.5,15.512075042724609,-0.15025,-0.03,-0.001,0.30473364862960056,10,1,100,-0.13590740984541227,-10,-1,-100,19195.70706795284,0.012971011161009245,0.024925854594249387,0.9996051493675927,55.13597651449364,3.351939583656468,269.3369336965432,-86.72181629642263,-175.8619384765625,4761.76025390625,True
1599387706.0291188,0.0,10,0.5,0.5,15.056288894653319,-0.15025,-0.03,-0.001,0.426258551819324,10,1,100,-0.09207503509663806,-10,-1,-100,19188.73285322287,0.012518808920720643,0.02632471214096596,0.9995750541874792,56.41530619098779,3.4303720808992706,278.0293788457908,-87.45117851293921,-172.8114013671875,4761.76025390625,True
1599387706.073998,0.0,10,0.5,0.5,14.753233940124511,-0.15025,-0.03,-0.001,0.3700522530369249,10,1,100,-0.09116240655855679,-10,-1,-100,19185.22386693454,0.012096873952578585,0.02708107878292825,0.9995600436254584,57.178013600567645,3.476960765401209,283.02685145581074,-87.81580007682969,-170.84329223632812,4761.76025390625,True
1599387706.1178806,0.0,10,0.5,0.5,14.569384338378905,-0.15025,-0.03,-0.001,0.3362621514890138,10,1,100,-0.10208786991740632,-10,-1,-100,19183.463905021083,0.011811790391598449,0.02745679155257418,0.9995532032890414,57.584444748144534,3.501752600130007,285.6625086078923,-87.99809396899245,-169.74884033203125,4761.76025390625,True
1599387706.1587708,0.0,10,0.5,0.5,14.370232913970945,-0.15025,-0.03,-0.001,0.3412271395043437,10,1,100,-0.09575208219478248,-10,-1,-100,19181.70029731549,0.011494455903262103,0.027838432786353198,0.9995463466710724,58.00532244638276,3.527405931057861,288.37886421014264,-88.18037601432592,-168.58070373535156,4761.76025390625,True
1599387706.2016568,0.0,10,0.5,0.5,13.955904922485352,-0.15025,-0.03,-0.001,0.3892089180092553,10,1,100,-0.04845944360393896,-10,-1,-100,19178.16214621521,0.010776282605701928,0.02861643666350447,0.9995323763069837,58.88245279538373,3.5808208833304,294.01573338888,-88.54490303467001,-166.0234375,4761.76025390625,True
1599387706.24155,0.0,10,0.5,0.5,13.490164665222169,-0.15025,-0.03,-0.001,0.3981780640922563,10,1,100,-0.024687014714590963,-10,-1,-100,19174.60941551416,0.00990894980491984,0.029400103598410044,0.9995186074416855,59.78918933299054,3.63600022446282,299.83922841913926,-88.90937801847058,-163.17184448242188,4761.76025390625,True
1599387706.2834387,0.0,10,0.5,0.5,12.97171626663208,-0.15025,-0.03,-0.001,0.4051810388540199,10,1,100,0.0010367779134356908,-10,-1,-100,19171.042107526795,0.008889066269766916,0.030170332058412914,0.999505245391107,60.70224494005294,3.691565820198569,305.73389099421667,-89.273799120527,-160.02638244628906,4761.76025390625,True
1599387706.325326,0.0,10,0.5,0.5,12.12601268005371,-0.15025,-0.03,-0.001,0.44701892561532813,10,1,100,0.09921396333640113,-10,-1,-100,19165.663817368797,0.007073102060743436,0.03124528467939513,0.9994867199780805,62.02558421781588,3.772227378413182,314.41559457489643,-89.82032864528364,-154.75823974609375,4761.76025390625,True
1599387706.3662162,0.0,10,0.5,0.5,11.168232368469237,-0.15025,-0.03,-0.001,0.44479298479440554,10,1,100,0.15324186995144712,-10,-1,-100,19160.252740532975,0.004936470040511759,0.03219596059729767,0.9994693849161945,63.20148290755429,3.8442918146876917,322.4310774932634,-90.36674167777984,-148.83102416992188,4761.76025390625,True
1599387706.4071069,0.0,10,0.5,0.5,11.091332695007324,-0.15025,-0.03,-0.001,0.35048510471838584,10,1,100,-0.05961238151619888,-10,-1,-100,19160.252740532975,0.004936470040511759,0.03219596059729767,0.9994693849161945,63.20148290755429,3.8442918146876917,322.4310774932634,-90.36674167777984,-148.83102416992188,4761.76025390625,True
1599387706.4479978,0.0,10,0.5,0.5,10.35741120147705,-0.15025,-0.03,-0.001,0.40481775484361526,10,1,100,0.11624653009258712,-10,-1,-100,19156.62714405032,0.0033450567905414295,0.032683284592978805,0.999460161038589,63.84504185732171,3.884141598249111,327.0981980474553,-90.73096083006277,-144.51480102539062,4761.76025390625,True
1599387706.4878128,0.0,10,0.5,0.5,9.579909675598143,-0.15025,-0.03,-0.001,0.3966141029672362,10,1,100,0.1452387346973078,-10,-1,-100,19152.986979800393,0.0016430917506438322,0.03304594723340183,0.9994524829229984,64.32979156866479,3.9146998052037953,330.97660397439614,-91.09514499297016,-139.90701293945312,4761.76025390625,True
1599387706.530698,0.0,10,0.5,0.5,8.750496849060058,-0.15025,-0.03,-0.001,0.3963258273496243,10,1,100,0.1791787841470273,-10,-1,-100,19149.33224896656,-0.00020319166044058376,0.033367597247762226,0.9994431260292205,64.61435240997324,3.93350416253222,333.8426118708023,-91.45930634375931,-135.00643920898438,4761.76025390625,True
1599387706.5726054,0.0,10,0.5,0.5,7.866117729187012,-0.15025,-0.03,-0.001,0.37577306068747474,10,1,100,0.20544338879435392,-10,-1,-100,19145.662951827748,-0.002109477547263896,0.033467789558711054,0.9994375704197492,64.65715428061708,3.938042305793601,335.46808601316235,-91.82346043788283,-129.81600952148438,4761.76025390625,True
1599387706.616489,0.0,10,0.5,0.5,6.0528192138671875,-0.15025,-0.03,-0.001,0.34294455822434045,10,1,100,0.4570701139777547,-10,-1,-100,19138.280657212017,-0.006117613188360981,0.033255314949206624,0.9994281659211464,63.82775739273087,3.89252279803259,333.9443783375035,-92.55182245165327,-118.56182861328125,4761.76025390625,True
1599387706.6563816,0.0,10,0.5,0.5,5.9216885681152345,-0.15025,-0.03,-0.001,0.36465590700335365,10,1,100,0.05794593944745246,-10,-1,-100,19138.280657212017,-0.006117613188360981,0.033255314949206624,0.9994281659211464,63.82775739273087,3.89252279803259,333.9443783375035,-92.55182245165327,-118.56182861328125,4761.76025390625,True
1599387706.7032561,0.0,10,0.5,0.5,4.870843082427979,-0.15025,-0.03,-0.001,0.32606854523392487,10,1,100,0.2837494598867315,-10,-1,-100,19134.56765667838,-0.008155802862360536,0.03290101601371109,0.9994253378942001,62.875538701191765,3.837266422910015,330.3360645868158,-92.91607295597638,-112.49891662597656,4761.76025390625,True
1599387706.7461424,0.0,10,0.5,0.5,3.7734374427795405,-0.15025,-0.03,-0.001,0.3011609556053759,10,1,100,0.2930933252941258,-10,-1,-100,19130.840084199794,-0.010078151461398144,0.03235001099940535,0.9994257889665742,61.749586581772306,3.771281089760309,325.7731116464609,-93.28039036514541,-106.14595031738281,4761.76025390625,True
1599387706.787629,0.0,10,0.5,0.5,1.5803186779022216,-0.15025,-0.03,-0.001,0.18610666887023372,10,1,100,0.5323768522414712,-10,-1,-100,19123.341210574843,-0.0139854538386608,0.03080214499215337,0.999427653682251,58.49706888120398,3.5766684037548524,311.1856451339016,-94.00927675766447,-92.56819915771484,4761.76025390625,True
1599387706.8284836,0.0,10,0.5,0.5,0.33237309265136716,-0.15025,-0.03,-0.001,0.23175525668332403,10,1,100,0.34170204644311186,-10,-1,-100,19119.56990570319,-0.015786937834478883,0.029811248343502524,0.9994308690780029,60.91612617693636,3.7255846452215087,325.39637184799795,-94.3737136856754,-85.343505859375,4761.76025390625,True
1599387706.8674262,0.0,10,0.5,0.5,-0.9877138290405274,-0.15025,-0.03,-0.001,0.21514887305577157,10,1,100,0.3390344580593804,-10,-1,-100,19115.784027865622,-0.01738156029275686,0.028761634004709272,0.9994351653665026,63.78463750526028,3.901396060092881,342.1245209718748,-94.73800467328871,-77.8271484375,4761.76025390625,True
1599387706.9133034,0.0,10,0.5,0.5,-1.7606721496582032,-0.15025,-0.03,-0.001,0.2561289120045194,10,1,100,0.26871144944888203,-10,-1,-100,19113.88562577206,-0.018173074615565676,0.02818355009678427,0.9994375552594363,65.08501120237918,3.9809593372340553,349.81601702595054,-94.92009567299235,-73.98971557617188,4761.76025390625,True
1599387706.9571867,0.0,10,0.5,0.5,-3.120150459289551,-0.15025,-0.03,-0.001,0.1820027366573314,10,1,100,0.3496971147724076,-10,-1,-100,19110.07789917267,-0.019610851715272822,0.02698856531109312,0.9994433609952343,67.33088334066275,4.118286566909594,363.3684166493949,-95.28417600316286,-66.28350830078125,4761.76025390625,True
1599387707.0020657,0.0,10,0.5,0.5,-3.8903886337280276,-0.15025,-0.03,-0.001,0.23383777945606618,10,1,100,0.27981676020620044,-10,-1,-100,19108.168575518066,-0.020265002527991224,0.026379242287668452,0.9994465794873025,68.24381280933902,4.174158407679754,369.0453285125366,-95.46617099158824,-62.503173828125,4761.76025390625,True
1599387707.0509381,0.0,10,0.5,0.5,-5.2007475814819335,-0.15025,-0.03,-0.001,0.1541430109506835,10,1,100,0.3494284248147136,-10,-1,-100,19104.33901074156,-0.02147601337692105,0.025107258504752587,0.9994540541814866,69.61986761051806,4.2587244532648505,378.0160572791265,-95.83009029607963,-55.1497802734375,4761.76025390625,True
1599387707.0968122,0.0,10,0.5,0.5,-7.474626502990723,-0.15025,-0.03,-0.001,0.003648736552804732,10,1,100,0.4473022921337494,-10,-1,-100,19096.636218233733,-0.02345273257867707,0.02259018716797968,0.9994696857725646,70.69367557927505,4.327251167898501,386.9528296173366,-96.55777060846899,-41.32501220703125,4761.76025390625,True
1599387707.1387002,0.0,10,0.5,0.5,-8.670615211486815,-0.15025,-0.03,-0.001,0.12221653467919957,10,1,100,0.33869697823932077,-10,-1,-100,19092.76299262035,-0.024246669799969266,0.02138952514277265,0.9994771569264492,70.49741480003341,4.317713492979686,387.43035607691985,-96.92160060393027,-34.85821533203125,4761.76025390625,True
1599387707.1855755,0.0,10,0.5,0.5,-8.897070518493653,-0.15025,-0.03,-0.001,0.24113158811280863,10,1,100,0.26091234280386183,-10,-1,-100,19092.76299262035,-0.024246669799969266,0.02138952514277265,0.9994771569264492,70.49741480003341,4.317713492979686,387.43035607691985,-96.92160060393027,-34.85821533203125,4761.76025390625,True
1599387707.2344434,0.0,10,0.5,0.5,-10.044222106933592,-0.15025,-0.03,-0.001,0.1206595625159078,10,1,100,0.3403564140268678,-10,-1,-100,19088.875212300336,-0.024956008158052437,0.020304288988125037,0.9994823327630669,69.89348990457256,4.283702194387354,385.65334981855216,-97.2854632325439,-28.687713623046875,4761.76025390625,True
1599387707.278329,0.0,10,0.5,0.5,-11.961387397766114,-0.15025,-0.03,-0.001,0.001456280432740542,10,1,100,0.38621658474026305,-10,-1,-100,19081.055981510086,-0.02600779862250492,0.018243587970420257,0.999495255570919,67.76870100226559,4.159841141833836,376.9317125201556,-98.01336878865825,-17.238494873046875,4761.76025390625,True
1599387707.320215,0.0,10,0.5,0.5,-12.154253211975098,-0.15025,-0.03,-0.001,0.20636961616591035,10,1,100,0.28205962437381726,-10,-1,-100,19081.055981510086,-0.02600779862250492,0.018243587970420257,0.999495255570919,67.76870100226559,4.159841141833836,376.9317125201556,-98.01336878865825,-17.238494873046875,4761.76025390625,True
1599387707.3650951,0.0,10,0.5,0.5,-13.888676490783691,-0.15025,-0.03,-0.001,0.03181594399325008,10,1,100,0.3735536928743438,-10,-1,-100,19073.178503891802,-0.02683172084675539,0.016666298265245426,0.9995010221398152,65.26674357391094,4.0115592993521485,365.92218823625717,-98.74155896733153,-6.972991943359375,4761.76025390625,True
1599387707.4099746,0.0,10,0.5,0.5,-14.07946115875244,-0.15025,-0.03,-0.001,0.18839318932757929,10,1,100,0.29202733507241574,-10,-1,-100,19073.178503891802,-0.02683172084675539,0.016666298265245426,0.9995010221398152,65.26674357391094,4.0115592993521485,365.92218823625717,-98.74155896733153,-6.972991943359375,4761.76025390625,True
1599387707.4568493,0.0,10,0.5,0.5,-14.966464782714842,-0.15025,-0.03,-0.001,0.11314969906049024,10,1,100,0.3217658308849445,-10,-1,-100,19069.21791548934,-0.027095506382204305,0.015991650414677205,0.9995049277772006,63.942749892552165,3.9320019753000137,359.92693165191315,-99.10575566878012,-2.284912109375,4761.76025390625,True
1599387707.503998,0.0,10,0.5,0.5,-15.806882781982422,-0.15025,-0.03,-0.001,0.1244002921881964,10,1,100,0.33117251436695516,-10,-1,-100,19065.242757725762,-0.02741461716985413,0.01549005557156978,0.9995041255261631,63.37881894862152,3.8984704213305523,358.16943783812087,-99.46999654237969,2.108154296875,4761.76025390625,True
1599387707.5519075,0.0,10,0.5,0.5,-17.168892959594725,-0.15025,-0.03,-0.001,0.09540689391532126,10,1,100,0.3489257011350272,-10,-1,-100,19057.24874402862,-0.02786071176216105,0.01477922682347615,0.9995025538709774,66.95916311721237,4.119283226609387,381.398382258646,-100.19821882849016,10.00653076171875,4761.76025390625,True
1599387707.5927603,0.0,10,0.5,0.5,-17.31498921203613,-0.15025,-0.03,-0.001,0.16570867269023398,10,1,100,0.3047570398226836,-10,-1,-100,19057.24874402862,-0.02786071176216105,0.01477922682347615,0.9995025538709774,66.95916311721237,4.119283226609387,381.398382258646,-100.19821882849016,10.00653076171875,4761.76025390625,True
1599387707.6346483,0.0,10,0.5,0.5,-17.979876991271972,-0.15025,-0.03,-0.001,0.14682432072690524,10,1,100,0.3280634867211882,-10,-1,-100,19053.22989581339,-0.028069303059454553,0.014613560258645249,0.9994991536176124,68.40014873637993,4.207590332759283,391.1360547694211,-100.56219113085679,13.512603759765625,4761.76025390625,True
1599387707.6815238,0.0,10,0.5,0.5,-19.04807425689697,-0.15025,-0.03,-0.001,0.1669386871845479,10,1,100,0.35261401945250476,-10,-1,-100,19045.148532941006,-0.028478643051588357,0.014651972135581297,0.9994870117227528,70.70185029687322,4.347839909551465,407.4591878592575,-101.28989620653763,19.638824462890625,4761.76025390625,True
1599387707.724408,0.0,10,0.5,0.5,-19.18692765045166,-0.15025,-0.03,-0.001,0.1625322678056887,10,1,100,0.312032283728478,-10,-1,-100,19045.148532941006,-0.028478643051588357,0.014651972135581297,0.9994870117227528,70.70185029687322,4.347839909551465,407.4591878592575,-101.28989620653763,19.638824462890625,4761.76025390625,True
1599387707.767295,0.0,10,0.5,0.5,-19.693907722473146,-0.15025,-0.03,-0.001,0.18563482738805762,10,1,100,0.33591453406761906,-10,-1,-100,19041.086024275166,-0.028693508196099563,0.014865260509816323,0.9994777169188793,71.60686633191231,4.402714237421453,414.2749752636284,-101.65364482012691,22.259307861328125,4761.76025390625,True
1599387707.8131776,0.0,10,0.5,0.5,-20.468656074523924,-0.15025,-0.03,-0.001,0.2540813555140249,10,1,100,0.3629857685889319,-10,-1,-100,19032.917364525725,-0.029132500723509328,0.015684471403412052,0.9994524974997011,73.03534545905715,4.489127334596554,425.80266496316847,-102.38097180982524,26.615509033203125,4761.76025390625,True
1599387707.8590493,0.0,10,0.5,0.5,-20.701932594299315,-0.15025,-0.03,-0.001,0.20424378733524826,10,1,100,0.3319734344616423,-10,-1,-100,19030.866108949762,-0.029247562911018522,0.01597703234765732,0.9994445029620843,73.32760139366005,4.506807353094091,428.32564146455246,-102.56277295947676,27.520416259765625,4761.76025390625,True
1599387707.903963,0.0,10,0.5,0.5,-20.93022801208496,-0.15025,-0.03,-0.001,0.21063093546230144,10,1,100,0.3337797046307198,-10,-1,-100,19028.81121770153,-0.02936638931750553,0.016301688430778585,0.9994357758919573,73.59834163732043,4.523199223026251,430.7292795517354,-102.74456321672915,28.35162353515625,4761.76025390625,True
1599387707.9538257,0.0,10,0.5,0.5,-21.239388343811033,-0.15025,-0.03,-0.001,0.263490327924276,10,1,100,0.3471288971371543,-10,-1,-100,19024.690528236097,-0.029593705179883755,0.017077088403255773,0.9994161223761572,74.08405583697274,4.552668888118578,435.227347310244,-103.10811376968954,29.793487548828125,4761.76025390625,True
1599387707.9969034,0.0,10,0.5,0.5,-21.49451671218872,-0.15025,-0.03,-0.001,0.28459436479828676,10,1,100,0.352288761589612,-10,-1,-100,19020.555297938874,-0.02984528283342264,0.017972409592697237,0.9993929415330215,74.50694972941088,4.578438869622119,439.3771778441951,-103.47162809390565,30.940689086914062,4761.76025390625,True
1599387708.0417843,0.0,10,0.5,0.5,-21.685203910827635,-0.15025,-0.03,-0.001,0.3108670048121406,10,1,100,0.35539987062455325,-10,-1,-100,19016.405527952244,-0.030100468445074493,0.01902227723525249,0.9993658563149795,74.88101314675086,4.601371921053814,443.2575675254322,-103.83510990790846,31.793792724609375,4761.76025390625,True
1599387708.0869308,0.0,10,0.5,0.5,-21.874444915771484,-0.15025,-0.03,-0.001,0.49005946556138313,10,1,100,0.38511797735983244,-10,-1,-100,19008.062374342,-0.03060058382900334,0.021601867416739678,0.9992982355600523,75.52501797559928,4.64130188360332,450.45031723343635,-104.56198755812285,32.61846923828125,4761.76025390625,True
1599387708.1467726,0.0,10,0.5,0.5,-21.93093783569336,-0.15025,-0.03,-0.001,0.23279927812847398,10,1,100,0.33535956704390274,-10,-1,-100,19008.062374342,-0.03060058382900334,0.021601867416739678,0.9992982355600523,75.52501797559928,4.64130188360332,450.45031723343635,-104.56198755812285,32.61846923828125,4761.76025390625,True
1599387708.1899312,0.0,10,0.5,0.5,-21.965621017456055,-0.15025,-0.03,-0.001,0.4021566301281226,10,1,100,0.36199616313252103,-10,-1,-100,19003.86899262783,-0.030840805665465855,0.02313516162102634,0.9992565281261234,75.8092469346516,4.659150452944893,453.84385583796285,-104.9253878881551,32.59033203125,4761.76025390625,True
1599387708.231814,0.0,10,0.5,0.5,-21.914994400024412,-0.15025,-0.03,-0.001,0.5417551457828331,10,1,100,0.369886715005285,-10,-1,-100,18997.551666608197,-0.03112877402235338,0.025790430867706632,0.99918259247423,76.19721689058807,4.683774570603594,458.72947882706274,-105.47044508107086,31.99853515625,4761.76025390625,True
1599387708.2740645,0.0,10,0.5,0.5,-21.89275630187988,-0.15025,-0.03,-0.001,0.38202943448608817,10,1,100,0.35305110138191725,-10,-1,-100,18995.438624187605,-0.031235298526742103,0.026742328107120225,0.999154244355373,76.31671918893973,4.691426689836226,460.30529195180856,-105.65212010933489,31.6544189453125,4761.76025390625,True
1599387708.3199093,0.0,10,0.5,0.5,-21.771008361816403,-0.15025,-0.03,-0.001,0.5184907099679632,10,1,100,0.35588801721031393,-10,-1,-100,18991.201638917206,-0.031356017494805245,0.028838193686691712,0.9990921672957678,76.54439045423413,4.706091092428156,463.3975071249591,-106.01545510743543,30.74725341796875,4761.76025390625,True
1599387708.3638277,0.0,10,0.5,0.5,-21.600131118774414,-0.15025,-0.03,-0.001,0.5627736242745682,10,1,100,0.34858567938427576,-10,-1,-100,18986.95012110856,-0.03139746034500431,0.031134406015144896,0.9990219458280023,76.75086987996454,4.719514399012971,466.37283804904297,-106.37877153607961,29.5474853515625,4761.76025390625,True
1599387708.407713,0.0,10,0.5,0.5,-21.109174072265624,-0.15025,-0.03,-0.001,0.8975138806945598,10,1,100,0.33707604529160573,-10,-1,-100,18978.40348946082,-0.03132865619795419,0.036251480719752836,0.9988515132122773,77.07417753731255,4.740981506384066,471.80809933167853,-107.10535753876344,26.26983642578125,4761.76025390625,True
1599387708.4515545,0.0,10,0.5,0.5,-20.950330741882322,-0.15025,-0.03,-0.001,0.5425560350658869,10,1,100,0.33399174164193085,-10,-1,-100,18976.257749469136,-0.031236490621076973,0.037659046043393485,0.9988023217357781,77.13160846298425,4.744930946010457,473.0292609002833,-107.28699616161542,25.267852783203125,4761.76025390625,True
1599387708.495471,0.0,10,0.5,0.5,-20.771714004516603,-0.15025,-0.03,-0.001,0.5637964334848895,10,1,100,0.33031373369070177,-10,-1,-100,18974.108376813354,-0.031118002562734098,0.03911384847192074,0.998750107271194,77.17649621550105,4.748116609286805,474.1752078726659,-107.4686324485196,24.19281005859375,4761.76025390625,True
1599387708.538362,0.0,10,0.5,0.5,-19.989328025817866,-0.15025,-0.03,-0.001,1.1192112316202634,10,1,100,0.2347996166133266,-10,-1,-100,18965.47455903073,-0.030141050959793837,0.04546735650705194,0.9985110097236283,77.18719963573905,4.750576290791707,477.730147396076,-108.19516483959823,19.163665771484375,4761.76025390625,True
1599387708.5882297,0.0,10,0.5,0.5,-19.507468769073487,-0.15025,-0.03,-0.001,0.8663039086485168,10,1,100,0.251495243665076,-10,-1,-100,18961.135854230262,-0.029405109323836057,0.04892241952189142,0.9983696391686686,77.07173365842213,4.744473059184007,478.7614285568258,-108.55843220575449,16.211441040039062,4761.76025390625,True
1599387708.6344526,0.0,10,0.5,0.5,-18.97056287384033,-0.15025,-0.03,-0.001,0.9225259839051347,10,1,100,0.20165433804517985,-10,-1,-100,18956.78261854092,-0.02828405912597099,0.05254965880852824,0.9982176843547033,76.85770072475917,4.732418033893178,479.1758647681421,-108.92170784870294,12.967559814453125,4761.76025390625,True
1599387708.6743755,0.0,10,0.5,0.5,-18.914938438415525,-0.15025,-0.03,-0.001,0.5627435049602026,10,1,100,0.313503683177737,-10,-1,-100,18956.78261854092,-0.02828405912597099,0.05254965880852824,0.9982176843547033,76.85770072475917,4.732418033893178,479.1758647681421,-108.92170784870294,12.967559814453125,4761.76025390625,True
1599387708.7172685,0.0,10,0.5,0.5,-17.744116912841797,-0.15025,-0.03,-0.001,1.4065617770243328,10,1,100,-0.008662024133659407,-10,-1,-100,18948.03255179897,-0.025357866073045916,0.06019640743825595,0.9978644051972936,76.02499505107382,4.68397667193825,477.4435450402594,-109.6483125071339,5.60406494140625,4761.76025390625,True
1599387708.7618408,0.0,10,0.5,0.5,-17.673329345703124,-0.15025,-0.03,-0.001,0.6452323219846754,10,1,100,0.2833695379134784,-10,-1,-100,18948.03255179897,-0.025357866073045916,0.06019640743825595,0.9978644051972936,76.02499505107382,4.68397667193825,477.4435450402594,-109.6483125071339,5.60406494140625,4761.76025390625,True
1599387708.8046937,0.0,10,0.5,0.5,-16.307414360046387,-0.15025,-0.03,-0.001,1.5256674489209785,10,1,100,-0.1692621067544137,-10,-1,-100,18939.2243509026,-0.021248485804630315,0.06817185567063001,0.9974472918131732,74.55887146112325,4.597819346814009,471.6403233098213,-110.37503888287955,-2.928070068359375,4761.76025390625,True
1599387708.8525653,0.0,10,0.5,0.5,-15.507149093627929,-0.15025,-0.03,-0.001,1.1867045453100051,10,1,100,-0.027039425240152848,-10,-1,-100,18934.798446221277,-0.018814845369418843,0.07230711180391078,0.9972049353950778,73.54081765627697,4.537884751214064,466.88290207246155,-110.73846693682142,-7.63134765625,4761.76025390625,True
1599387708.8911092,0.0,10,0.5,0.5,-15.037585838317868,-0.15025,-0.03,-0.001,0.9900632569330515,10,1,100,0.05941770954424508,-10,-1,-100,18932.58004215907,-0.01739979511801979,0.07424600963884448,0.997088149153604,72.95751968440797,4.503550945463579,464.0150232253291,-110.92020042605505,-10.094573974609375,4761.76025390625,True
1599387708.9320312,0.0,10,0.5,0.5,-13.749879409790038,-0.15025,-0.03,-0.001,1.4365224832802408,10,1,100,-0.3140699388134539,-10,-1,-100,18925.90301893244,-0.012730622354862532,0.08003410339776279,0.9967108274458415,70.84808678048492,4.379301745009391,453.03348249596627,-111.4654893820358,-17.9232177734375,4761.76025390625,True
1599387708.9743063,0.0,10,0.5,0.5,-12.78647769165039,-0.15025,-0.03,-0.001,1.2729533185651511,10,1,100,-0.23948636603239445,-10,-1,-100,18921.43349104433,-0.009180668122918175,0.08377181417670967,0.9964426719497512,69.12189124000997,4.277502258040847,443.57844306255083,-111.8290975537195,-23.50921630859375,4761.76025390625,True
1599387709.0161936,0.0,10,0.5,0.5,-11.774191184997559,-0.15025,-0.03,-0.001,1.2748939475413543,10,1,100,-0.3060425239022327,-10,-1,-100,18916.94941836549,-0.005367435915821935,0.08715255291401809,0.9961805173522814,69.30769203752824,4.294767560830499,446.35589342985435,-112.19270717259555,-29.392547607421875,4761.76025390625,True
1599387709.0615847,0.0,10,0.5,0.5,-11.643262550354002,-0.15025,-0.03,-0.001,0.9406430871497253,10,1,100,0.07287692946658988,-10,-1,-100,18916.94941836549,-0.005367435915821935,0.08715255291401809,0.9961805173522814,69.30769203752824,4.294767560830499,446.35589342985435,-112.19270717259555,-29.392547607421875,4761.76025390625,True
1599387709.1044776,0.0,10,0.5,0.5,-10.58174913024902,-0.15025,-0.03,-0.001,1.2940096194639763,10,1,100,-0.3842405141388925,-10,-1,-100,18912.450804668013,-0.0012326560859631395,0.0903335187585972,0.9959108072250565,70.65348581131579,4.38475821237841,456.6355005933294,-112.55620518603915,-35.57061767578125,4761.76025390625,True
1599387709.143375,0.0,10,0.5,0.5,-8.438956382751465,-0.15025,-0.03,-0.001,1.577142501906228,10,1,100,-0.9692510349014491,-10,-1,-100,18903.409972095746,0.00781991994534991,0.09576489222137134,0.9953732637909647,73.12177758490645,4.552764800361754,475.911688000351,-113.28286746817817,-48.815948486328125,4761.76025390625,True
1599387709.1857357,0.0,10,0.5,0.5,-8.288941673278808,-0.15025,-0.03,-0.001,1.0375620041071252,10,1,100,-0.06731121037198383,-10,-1,-100,18903.409972095746,0.00781991994534991,0.09576489222137134,0.9953732637909647,73.12177758490645,4.552764800361754,475.911688000351,-113.28286746817817,-48.815948486328125,4761.76025390625,True
1599387709.2276585,0.0,10,0.5,0.5,-7.056347640991211,-0.15025,-0.03,-0.001,1.2701886000429397,10,1,100,-0.5906228981759707,-10,-1,-100,18898.867761704954,0.012547137301733067,0.097847344470985,0.9951223374668605,74.14069760014189,4.623706466209262,484.22085821541907,-113.64604486850017,-55.88592529296875,4761.76025390625,True
1599387709.2665534,0.0,10,0.5,0.5,-4.630661300659179,-0.15025,-0.03,-0.001,1.3896146196247685,10,1,100,-1.1834339889634358,-10,-1,-100,18889.739770059125,0.022203076066416198,0.100799196249741,0.9946590096352594,75.43782901539623,4.718440364673696,496.0953510841021,-114.37216931074272,-70.91986083984375,4761.76025390625,True
1599387709.3054502,0.0,10,0.5,0.5,-4.4558296966552735,-0.15025,-0.03,-0.001,1.097278650193752,10,1,100,-0.22194190463870614,-10,-1,-100,18889.739770059125,0.022203076066416198,0.100799196249741,0.9946590096352594,75.43782901539623,4.718440364673696,496.0953510841021,-114.37216931074272,-70.91986083984375,4761.76025390625,True
1599387709.3473098,0.0,10,0.5,0.5,-1.8185462112426758,-0.15025,-0.03,-0.001,1.2247162935494293,10,1,100,-1.2273921853418748,-10,-1,-100,18880.55369527801,0.03130753055355006,0.1019335810196918,0.9942984378903251,75.07010314296848,4.706442157981008,497.0599346775685,-115.09819026312394,-87.14999389648438,4761.76025390625,True
1599387709.386233,0.0,10,0.5,0.5,-0.33198788833618165,-0.15025,-0.03,-0.001,1.1073945654949047,10,1,100,-0.8223862500835157,-10,-1,-100,18875.938876011525,0.03586240053686084,0.10187837012131327,0.9941502330780587,74.15794669371805,4.653826673830971,492.69429967424935,-115.4612491629792,-95.71269226074219,4761.76025390625,True
1599387709.425129,0.0,10,0.5,0.5,-0.12394015884399401,-0.15025,-0.03,-0.001,1.1147263109272174,10,1,100,-0.37140355861841534,-10,-1,-100,18875.938876011525,0.03586240053686084,0.10187837012131327,0.9941502330780587,74.15794669371805,4.653826673830971,492.69429967424935,-115.4612491629792,-95.71269226074219,4761.76025390625,True
1599387709.465017,0.0,10,0.5,0.5,1.4151172924041746,-0.15025,-0.03,-0.001,1.073163488984883,10,1,100,-0.8013397062579573,-10,-1,-100,18871.309531939798,0.03973342930044515,0.10148713917892178,0.9940430650516631,72.6929654141831,4.566140906234004,484.6055130923446,-115.82438610430918,-104.57283782958984,4761.76025390625,True
1599387709.5068777,0.0,10,0.5,0.5,3.001598756790161,-0.15025,-0.03,-0.001,1.035158767972837,10,1,100,-0.8222986610191036,-10,-1,-100,18866.66565920564,0.04340208152406288,0.10077294578003373,0.9939623095058449,70.67710129623816,4.443749825486374,472.76854952104696,-116.18763009571244,-113.6293716430664,4761.76025390625,True
1599387709.5487661,0.0,10,0.5,0.5,5.972577812194824,-0.15025,-0.03,-0.001,0.8645224850115398,10,1,100,-1.1381234601466517,-10,-1,-100,18857.33430751157,0.04956777741250214,0.09856294972955877,0.9938955580859556,65.13484707256283,4.104338291794099,438.6495586661996,-116.91451754422222,-131.7838134765625,4761.76025390625,True
1599387709.5936804,0.0,10,0.5,0.5,7.525864387512207,-0.15025,-0.03,-0.001,0.9452195935410778,10,1,100,-0.7875944222345024,-10,-1,-100,18852.646819847054,0.051948375277820875,0.09728492879984262,0.9938998988501831,65.29193478540856,4.1194951813445995,441.1838160797311,-117.27806217917583,-140.52786254882812,4761.76025390625,True
1599387709.6355662,0.0,10,0.5,0.5,7.792256080627442,-0.15025,-0.03,-0.001,1.0731736901705404,10,1,100,-0.5539474812358757,-10,-1,-100,18852.646819847054,0.051948375277820875,0.09728492879984262,0.9938998988501831,65.29193478540856,4.1194951813445995,441.1838160797311,-117.27806217917583,-140.52786254882812,4761.76025390625,True
1599387709.677457,0.0,10,0.5,0.5,9.323966983795167,-0.15025,-0.03,-0.001,0.940935695624997,10,1,100,-0.7684166933068296,-10,-1,-100,18847.94479513087,0.05386227608030583,0.09608327650003871,0.9939149154693605,67.24336921672145,4.248147782314656,455.8861900940698,-117.64145646451507,-148.9760284423828,4761.76025390625,True
1599387709.723299,0.0,10,0.5,0.5,10.782452365875244,-0.15025,-0.03,-0.001,0.9258858603686996,10,1,100,-0.7402408826705797,-10,-1,-100,18843.228238231502,0.05531726107676817,0.0948583358340231,0.9939526632339009,68.71378256789792,4.346460290890641,467.40144139398126,-118.00473050625077,-157.1265411376953,4761.76025390625,True
1599387709.7652254,0.0,10,0.5,0.5,12.220325325012206,-0.15025,-0.03,-0.001,0.9206794812241246,10,1,100,-0.7083598389116337,-10,-1,-100,18838.497153011383,0.05632004323482501,0.09370282347307252,0.9940059524988779,69.91244063901921,4.427347837014815,477.12672024803925,-118.36791333377907,-164.97714233398438,4761.76025390625,True
1599387709.807108,0.0,10,0.5,0.5,13.587384086608886,-0.15025,-0.03,-0.001,0.9391519798971408,10,1,100,-0.6749054253424667,-10,-1,-100,18833.751542529208,0.056904793698174,0.09282777200336906,0.9940547516103218,70.71637052448642,4.482858508852802,484.2034997446069,-118.73103385740856,-172.52377319335938,4761.76025390625,True
1599387709.8503237,0.0,10,0.5,0.5,14.906016204833985,-0.15025,-0.03,-0.001,0.9491433166418646,10,1,100,-0.641751907182529,-10,-1,-100,18828.99140814354,0.057115859960527,0.09213132881778881,0.9941074372477242,71.11815546386651,4.512477422159063,488.5559123117296,-119.09412413134746,-179.76837158203125,4761.76025390625,True
1599387709.891214,0.0,10,0.5,0.5,-38.249233665466306,-0.15025,-0.03,-0.001,0.970267184818072,10,1,100,-0.6075231317805582,-10,-1,-100,18824.21675043262,0.056977246368626666,0.0916990947609573,0.9941553547691981,71.17063130097316,4.51962362687939,490.522210188743,-119.45721090725489,173.29061889648438,4761.76025390625,True
1599387709.9324882,0.0,10,0.5,0.5,-37.72595671844482,-0.15025,-0.03,-0.001,0.9985111579176471,10,1,100,-0.5727216849949313,-10,-1,-100,18819.42756875069,0.05651918102605868,0.09157181632330477,0.9941932330444594,70.92727951176053,4.507825974555126,490.4492441166175,-119.82031463380014,166.65386962890625,4761.76025390625,True
1599387709.9744117,0.0,10,0.5,0.5,-37.61570961761474,-0.15025,-0.03,-0.001,1.0327613633727268,10,1,100,-0.5387480237870612,-10,-1,-100,18814.623862170964,0.05578198188592351,0.09177583881999113,0.9942160559484872,70.4407114903642,4.480582126747237,488.6820079107091,-120.1834502811925,160.32174682617188,4761.76025390625,True
1599387710.0182598,0.0,10,0.5,0.5,-36.5479405593872,-0.15025,-0.03,-0.001,1.1763577506362222,10,1,100,-0.3715902041316747,-10,-1,-100,18804.972866541124,0.05358653503032128,0.09327290562020102,0.9941974896068734,68.78270910817508,4.383154651260697,480.3092044635866,-120.90985927763593,147.42642211914062,4761.76025390625,True
1599387710.0631762,0.0,10,0.5,0.5,-36.912425216674805,-0.15025,-0.03,-0.001,1.0936046292425268,10,1,100,-0.5173005262233381,-10,-1,-100,18802.551036305027,0.052913824308104825,0.09388522162879427,0.9941758860266141,68.18287091417322,4.347215672327958,476.89761313970223,-121.0914987726328,144.03948974609375,4761.76025390625,True
1599387710.1060538,0.0,10,0.5,0.5,-36.7128690032959,-0.15025,-0.03,-0.001,1.1975542050693146,10,1,100,-0.42202599210286035,-10,-1,-100,18797.696476295474,0.05143525929678527,0.09538995933245989,0.9941102402448251,66.71873477601459,4.258798360077717,468.17816735843536,-121.45483298441353,137.05340576171875,4761.76025390625,True
1599387710.1459472,0.0,10,0.5,0.5,-35.912587097167965,-0.15025,-0.03,-0.001,1.3823111212280244,10,1,100,-0.3049602808635521,-10,-1,-100,18790.387388137053,0.0490290819268497,0.09843814131647834,0.9939346464730804,68.96863411759328,4.411267108912421,486.32298969662736,-121.99974317442631,126.04278564453125,4761.76025390625,True
1599387710.208785,0.0,10,0.5,0.5,-36.773105697631834,-0.15025,-0.03,-0.001,1.077850903374425,10,1,100,-0.5449491999421167,-10,-1,-100,18790.387388137053,0.0490290819268497,0.09843814131647834,0.9939346464730804,68.96863411759328,4.411267108912421,486.32298969662736,-121.99974317442631,126.04278564453125,4761.76025390625,True
1599387710.251637,0.0,10,0.5,0.5,-36.48222177124023,-0.15025,-0.03,-0.001,1.3571081790506698,10,1,100,-0.3574815929958419,-10,-1,-100,18785.49650609959,0.047331459101254456,0.10097253898822292,0.9937626876420839,71.54227409526419,4.582535760566834,506.09798521682166,-122.36279851208054,118.3472900390625,4761.76025390625,True
1599387710.2911446,0.0,10,0.5,0.5,-36.15566688156128,-0.15025,-0.03,-0.001,1.4285162592928744,10,1,100,-0.3360314130517025,-10,-1,-100,18780.591106791282,0.04560186701903653,0.10391829690384272,0.9935398619547093,73.89457671896834,4.74019204801442,524.4174583087279,-122.7256889239551,110.36802673339844,4761.76025390625,True
1599387710.3300118,0.0,10,0.5,0.5,-34.491829387664794,-0.15025,-0.03,-0.001,1.9235245100622056,10,1,100,-0.16643657772293902,-10,-1,-100,18770.736781025073,0.04249820661670555,0.1110856182267764,0.9929017513619053,78.09953755853874,5.023996773237823,557.8092751979805,-123.45103649652438,93.55992126464844,4761.76025390625,True
1599387710.369902,0.0,10,0.5,0.5,-34.269445400238034,-0.15025,-0.03,-0.001,1.208731030115419,10,1,100,-0.47535471398084445,-10,-1,-100,18770.736781025073,0.04249820661670555,0.1110856182267764,0.9929017513619053,78.09953755853874,5.023996773237823,557.8092751979805,-123.45103649652438,93.55992126464844,4761.76025390625,True
1599387710.4088316,0.0,10,0.5,0.5,-32.714727325439455,-0.15025,-0.03,-0.001,1.6698596187715156,10,1,100,-0.32652315322100683,-10,-1,-100,18765.787863335223,0.041157938768351894,0.11525995648555594,0.9924823255389933,79.49219252989415,5.1201808146540015,569.5684115871452,-123.81356307972325,84.7305908203125,4761.76025390625,True
1599387710.449726,0.0,10,0.5,0.5,-31.118475559234618,-0.15025,-0.03,-0.001,1.7556644505963668,10,1,100,-0.3289437183056859,-10,-1,-100,18760.824446036364,0.039974813173452535,0.11981350417588547,0.9919912996235617,80.27219784917574,5.176906986563226,576.9952450891218,-124.17605113199485,75.61781311035156,4761.76025390625,True
1599387710.4905825,0.0,10,0.5,0.5,-29.490787311553955,-0.15025,-0.03,-0.001,1.835322980803859,10,1,100,-0.3598660956612645,-10,-1,-100,18755.84652897762,0.03919273126482826,0.1246531336248389,0.9914260063633146,80.33316878792814,5.187587484998495,579.2826909022846,-124.53854865190786,66.22029113769531,4761.76025390625,True
1599387710.5294745,0.0,10,0.5,0.5,-27.802388324737546,-0.15025,-0.03,-0.001,1.9208434654577329,10,1,100,-0.37750157041926125,-10,-1,-100,18750.854110441753,0.038654543930281865,0.12980228488256265,0.9907861490113837,79.56259466723434,5.145346864833611,575.5669687204883,-124.901101750464,56.53871154785156,4761.76025390625,True
1599387710.5713632,0.0,10,0.5,0.5,-24.512287563323973,-0.15025,-0.03,-0.001,2.6072101938112633,10,1,100,-0.44807468247884064,-10,-1,-100,18740.825753901852,0.038818475295205414,0.1406917450786617,0.9892921503997069,75.20166779372245,4.881968920575944,547.5109158363363,-125.62652734699415,36.31895446777344,4761.76025390625,True
1599387710.613251,0.0,10,0.5,0.5,-24.263335826873778,-0.15025,-0.03,-0.001,1.522489534577577,10,1,100,-0.4306604853233213,-10,-1,-100,18740.825753901852,0.038818475295205414,0.1406917450786617,0.9892921503997069,75.20166779372245,4.881968920575944,547.5109158363363,-125.62652734699415,36.31895446777344,4761.76025390625,True
1599387710.660127,0.0,10,0.5,0.5,-22.400018043518067,-0.15025,-0.03,-0.001,2.14321008029374,10,1,100,-0.5115209959205784,-10,-1,-100,18735.789812128874,0.0395628532157547,0.14629624676357028,0.9884493860731167,78.18222743833425,5.087699443532527,571.018087140749,-125.9891842796555,25.779144287109375,4761.76025390625,True
1599387710.6978133,0.0,10,0.5,0.5,-20.495094894409178,-0.15025,-0.03,-0.001,2.201421357630257,10,1,100,-0.5701592758020593,-10,-1,-100,18730.73937396542,0.0407796980568907,0.15187923835493247,0.9875574480419428,82.55336444316595,5.385856529435802,604.8414783609907,-126.35151468882626,14.95098876953125,4761.76025390625,True
1599387711.099794,0.0,10,0.5,0.5,-18.538215789794922,-0.15025,-0.03,-0.001,2.253932466764483,10,1,100,-0.6324243918868894,-10,-1,-100,18725.67445132311,0.04245635093956928,0.15738845811970825,0.9866237030983986,86.36960791970786,5.64893781836584,634.7805878123334,-126.71356338367305,3.83392333984375,4761.76025390625,True
1599387711.1376867,0.0,10,0.5,0.5,-16.554687217712402,-0.15025,-0.03,-0.001,2.290425549774148,10,1,100,-0.6979757640822654,-10,-1,-100,18720.59505310736,0.044576540448941535,0.16268650153332598,0.985670347662164,89.48577519929258,5.8664656765531555,659.7338515561387,-127.07539290150572,-7.574127197265625,4761.76025390625,True
1599387711.176582,0.0,10,0.5,0.5,-12.67915098571777,-0.15025,-0.03,-0.001,2.829899452479896,10,1,100,-1.0740621077835668,-10,-1,-100,18710.39285059215,0.04992106282398975,0.17236030294911567,0.9837681705838079,91.83148920525251,6.046783192875028,681.2745356620662,-127.79880799840299,-31.2669677734375,4761.76025390625,True
1599387711.2259588,0.0,10,0.5,0.5,-11.431195907592773,-0.15025,-0.03,-0.001,2.1065939854049205,10,1,100,-0.7062091160425652,-10,-1,-100,18707.83325660834,0.05142763494542844,0.17452725422054874,0.9833084134177618,91.45024310010403,6.028751028997996,679.5145702209325,-127.97968626544318,-37.373779296875,4761.76025390625,True
1599387711.2638574,0.0,10,0.5,0.5,-10.16355327606201,-0.15025,-0.03,-0.001,2.121966361996685,10,1,100,-0.727699940490247,-10,-1,-100,18705.270044614328,0.052982205440104374,0.1765872190271906,0.98285799583813,90.63819446379215,5.982760581796076,674.5431127003366,-128.16059644245425,-43.554107666015625,4761.76025390625,True
1599387711.301756,0.0,10,0.5,0.5,-5.989568237304687,-0.15025,-0.03,-0.001,2.6907362200121447,10,1,100,-1.2670615468936628,-10,-1,-100,18694.980996488477,0.05928620278968148,0.18358333657391251,0.9812147087621397,82.83698779062638,5.501924413590953,620.3659049656338,-128.8847083993981,-69.01422119140625,4761.76025390625,True
1599387711.33766,0.0,10,0.5,0.5,-5.638369552612304,-0.15025,-0.03,-0.001,1.996502570509088,10,1,100,-0.638724977821892,-10,-1,-100,18694.980996488477,0.05928620278968148,0.18358333657391251,0.9812147087621397,82.83698779062638,5.501924413590953,620.3659049656338,-128.8847083993981,-69.01422119140625,4761.76025390625,True
1599387711.3795469,0.0,10,0.5,0.5,-4.331772071838379,-0.15025,-0.03,-0.001,2.1609821900822337,10,1,100,-0.8122858592701101,-10,-1,-100,18692.399681763723,0.060845421959670305,0.18503961348685452,0.9808456433441427,84.85315264490438,5.645919868929203,636.4465732380205,-129.06572712104034,-75.56362915039062,4761.76025390625,True
1599387711.4184432,0.0,10,0.5,0.5,0.0708626956939698,-0.15025,-0.03,-0.001,2.5493647443292966,10,1,100,-1.2918774211699173,-10,-1,-100,18682.03826108575,0.06660279272541797,0.18985393583867674,0.979550688350398,94.40867386944217,6.324274749824616,712.435397533875,-129.78880173008142,-102.49610137939453,4761.76025390625,True
1599387711.4583368,0.0,10,0.5,0.5,2.5317924022674556,-0.15025,-0.03,-0.001,2.2857768481114227,10,1,100,-0.9852223619158513,-10,-1,-100,18676.835872837808,0.06902441111968828,0.19179474102101163,0.9790048048841554,96.79139094156918,6.502310320965163,732.6318201320522,-130.15000291741262,-116.40047454833984,4761.76025390625,True
1599387711.5012224,0.0,10,0.5,0.5,2.911942419052124,-0.15025,-0.03,-0.001,2.095687880144542,10,1,100,-0.7458849937951001,-10,-1,-100,18676.835872837808,0.06902441111968828,0.19179474102101163,0.9790048048841554,96.79139094156918,6.502310320965163,732.6318201320522,-130.15000291741262,-116.40047454833984,4761.76025390625,True
1599387711.5391562,0.0,10,0.5,0.5,5.39494718170166,-0.15025,-0.03,-0.001,2.297966010881633,10,1,100,-0.9701416702255592,-10,-1,-100,18671.61903590383,0.07103895539616507,0.19360235467962036,0.9785047751946477,96.72948799856478,6.515705238845542,734.403145113128,-130.51123050554224,-130.43222045898438,4761.76025390625,True
1599387711.5790138,0.0,10,0.5,0.5,7.850049789428709,-0.15025,-0.03,-0.001,2.312498416280971,10,1,100,-0.9494729503721797,-10,-1,-100,18666.387744783657,0.0726584050897976,0.19534964727912565,0.9780384815935046,94.0965348337961,6.3570148008129514,716.6157243041891,-130.87263944115006,-144.32022094726562,4761.76025390625,True
1599387711.6189075,0.0,10,0.5,0.5,10.23382721710205,-0.15025,-0.03,-0.001,2.330669585569449,10,1,100,-0.9245062655972833,-10,-1,-100,18661.141989236814,0.07388299191126828,0.19708238814099843,0.9775990158499958,89.07210567791952,6.038229543680822,680.4399170363077,-131.23432191492296,-157.93017578125,4761.76025390625,True
1599387711.6583328,0.0,10,0.5,0.5,13.583015926361083,-0.15025,-0.03,-0.001,2.501127931675273,10,1,100,-0.9214160667709193,-10,-1,-100,18653.246221797308,0.07494774598057846,0.20018672376737168,0.976886948935094,90.45377516438054,6.167072400113019,694.1291987797596,-131.7769143268482,-177.77235412597656,4761.76025390625,True
1599387711.698227,0.0,10,0.5,0.5,-39.5071185760498,-0.15025,-0.03,-0.001,2.322053030754268,10,1,100,-0.8391418179575698,-10,-1,-100,18650.607070673024,0.07514778783570229,0.20135943932411987,0.9766305269540145,93.47365593625693,6.384758094850025,718.369825811821,-131.9575466285822,175.76779174804688,4761.76025390625,True
1599387711.7371225,0.0,10,0.5,0.5,-36.09746598052978,-0.15025,-0.03,-0.001,2.833146369437463,10,1,100,-0.8496028112304177,-10,-1,-100,18640.014371505007,0.07541032438370801,0.207055687361238,0.9754184872698022,101.59818158822172,6.985153231771129,785.45710834541,-132.6793466100641,150.7069091796875,4761.76025390625,True
