Timestamp,Input Throttle,horizon,dT,dt,Input Roll,Roll P,Roll I,Roll D,Input Pitch,Pitch P,Pitch I,Pitch D,Input Yaw,Yaw P,Yaw I,Yaw D,Altitude,Direction X,Direction Y,Direction Z,Drag X,Drag Y,Drag Z,Vertical Velocity,Roll,Mass,Has Fuel
1599387352.8992157,0.0,10,0.5,0.5,-8.42562148284912,-0.15025,-0.0155,-0.001,-0.0001445626079241832,10,1,100,0.49813902713977987,-10,-1,-100,19349.722303433693,-0.048846471231146035,-0.0001743602297554413,0.9988062834437792,61.07656545290843,3.6863001427019304,233.73167289363474,-68.66499558234003,-33.922637939453125,4761.76025390625,True
1599387352.935121,0.0,10,0.5,0.5,-8.512368161010741,-0.15025,-0.0155,-0.001,-0.0008381444489675784,10,1,100,0.49897624280656383,-10,-1,-100,19348.345354220364,-0.048897624716345935,-0.00016597028546851058,0.9988037819066182,61.16633766132667,3.692391537132881,234.72080787223874,-68.84745233186989,-33.923797607421875,4761.76025390625,True
1599387352.9690704,0.0,10,0.5,0.5,-8.598918171691894,-0.15025,-0.0155,-0.001,0.00029378041734278706,10,1,100,0.5105725913054208,-10,-1,-100,19345.58050899324,-0.04900509684859332,-0.00014790195525441705,0.9987985175238657,61.346661271804365,3.704632527764683,236.70829670939239,-69.21235540525487,-33.926239013671875,4761.76025390625,True
1599387352.99895,0.0,10,0.5,0.5,-8.663023739624025,-0.15025,-0.0155,-0.001,0.021714652076503003,10,1,100,0.5031303648943337,-10,-1,-100,19342.801067895372,-0.0489905920952187,6.339345271008305e-05,0.9987992380190476,61.530822043221,3.7171185438661096,238.71899476941357,-69.57724457661148,-34.077056884765625,4761.76025390625,True
1599387353.0334077,0.0,10,0.5,0.5,-8.685921899414062,-0.15025,-0.0155,-0.001,0.02847451584142138,10,1,100,0.5055005989804131,-10,-1,-100,19340.007031533867,-0.04895441663648321,0.00031687586376551375,0.9988009634964659,61.728076598455274,3.730395135440484,240.78922124520415,-69.94211870037265,-34.499755859375,4761.76025390625,True
1599387353.067279,0.0,10,0.5,0.5,-8.664563732910155,-0.15025,-0.0155,-0.001,0.04582404084505103,10,1,100,0.4999159453351275,-10,-1,-100,19337.198400705354,-0.048826256262096995,0.0007047493048818426,0.9988070384352751,61.93819830445338,3.7444285718761443,242.91886706605993,-70.30697650315697,-35.2125244140625,4761.76025390625,True
1599387353.1031847,0.0,10,0.5,0.5,-8.59807008972168,-0.15025,-0.0155,-0.001,0.06560941060619994,10,1,100,0.49208886594952417,-10,-1,-100,19334.375176291564,-0.04859420405800214,0.0012365878407208754,0.9988178383381432,62.15557358919324,3.7588563301987983,245.0865662079394,-70.67181663686937,-36.21832275390625,4761.76025390625,True
1599387353.1386738,0.0,10,0.5,0.5,-8.485915881347655,-0.15025,-0.0155,-0.001,0.08620293781151611,10,1,100,0.48212616631015215,-10,-1,-100,19331.537358519738,-0.048248500962959795,0.0019061671316767605,0.9988335440310829,62.37203413683484,3.7731582408404756,247.26035368497412,-71.03663827123448,-37.51763916015625,4761.76025390625,True
1599387353.1785746,0.0,10,0.5,0.5,-8.568562857055664,-0.15025,-0.0155,-0.001,0.019435625429095275,10,1,100,0.5215213259106826,-10,-1,-100,19331.537358519738,-0.048248500962959795,0.0019061671316767605,0.9988335440310829,62.37203413683484,3.7731582408404756,247.26035368497412,-71.03663827123448,-37.51763916015625,4761.76025390625,True
1599387353.216459,0.0,10,0.5,0.5,-8.408985070800782,-0.15025,-0.0155,-0.001,0.10763031591395791,10,1,100,0.47500116864727204,-10,-1,-100,19328.684948667767,-0.047781728168780645,0.0027062041659648966,0.9988541349527552,62.57669435964603,3.7866466454635774,249.3967578195204,-71.40144118850712,-39.11053466796875,4761.76025390625,True
1599387353.25164,0.0,10,0.5,0.5,-8.204108889770508,-0.15025,-0.0155,-0.001,0.12897185992087432,10,1,100,0.46096280081712115,-10,-1,-100,19325.81794716313,-0.04718632980455388,0.003625064411593383,0.9988795268637694,62.75613917431113,3.7984778139086415,251.44126878051654,-71.76622600464175,-40.99713134765625,4761.76025390625,True
1599387353.2825544,0.0,10,0.5,0.5,-7.865338439941406,-0.15025,-0.0155,-0.001,0.15514720330428225,10,1,100,0.44140569051352047,-10,-1,-100,19322.93635498127,-0.04646877587197554,0.004694895552339944,0.9989087099553757,62.89431477935655,3.8076464343449348,253.3276355401455,-72.13099414335103,-43.176910400390625,4761.76025390625,True
1599387353.3174593,0.0,10,0.5,0.5,-7.2752382339477535,-0.15025,-0.0155,-0.001,0.24061846109593588,10,1,100,0.36325715731827424,-10,-1,-100,19318.586609774386,-0.04510822094862423,0.006440061782181115,0.9989613476041462,62.98410361335179,3.8139099730306554,255.6922700430258,-72.6781213873468,-46.99798583984375,4761.76025390625,True
1599387353.3553672,0.0,10,0.5,0.5,-7.25879810180664,-0.15025,-0.0155,-0.001,0.06676063448556227,10,1,100,0.4989229620634078,-10,-1,-100,19318.586609774386,-0.04510822094862423,0.006440061782181115,0.9989613476041462,62.98410361335179,3.8139099730306554,255.6922700430258,-72.6781213873468,-46.99798583984375,4761.76025390625,True
1599387353.3922677,0.0,10,0.5,0.5,-6.79792177734375,-0.15025,-0.0155,-0.001,0.20664240424686098,10,1,100,0.37840278690988227,-10,-1,-100,19315.668542362982,-0.04401611242099818,0.007705917263347948,0.9990011014440737,62.93355142486915,3.8111102125550893,256.82209955080003,-73.04286263957066,-49.912689208984375,4761.76025390625,True
1599387353.4237692,0.0,10,0.5,0.5,-6.29153677368164,-0.15025,-0.0155,-0.001,0.22145931005797653,10,1,100,0.35011794159087717,-10,-1,-100,19312.735885141767,-0.042770640896815794,0.008984676806873771,0.9990445174565304,62.766386418886604,3.8009982492868235,257.47223485601216,-73.40760260979935,-53.12200927734375,4761.76025390625,True
1599387353.4606295,0.0,10,0.5,0.5,-6.007694743347168,-0.15025,-0.0155,-0.001,0.1721152081825561,10,1,100,0.39881094861827554,-10,-1,-100,19311.26408556092,-0.042086562861776596,0.009691075531664341,0.9990669668653455,62.6307565485082,3.7926960054388217,257.58094376970746,-73.58997451204561,-54.836334228515625,4761.76025390625,True
1599387353.499524,0.0,10,0.5,0.5,-5.428475726318359,-0.15025,-0.0155,-0.001,0.25357894083650456,10,1,100,0.30278397752300323,-10,-1,-100,19308.309543783078,-0.04059761731196233,0.01106614968042717,0.999114294662949,62.239033596909444,3.768619057431736,257.29257390476863,-73.95472732471606,-58.486419677734375,4761.76025390625,True
1599387353.535878,0.0,10,0.5,0.5,-4.161814105224609,-0.15025,-0.0155,-0.001,0.4184752473862549,10,1,100,0.07204439989735512,-10,-1,-100,19302.356686907588,-0.037153353273398915,0.013806947163801335,0.9992141895262286,60.87488800766074,3.6847685759569506,254.2446870547732,-74.68430411932964,-66.6702880859375,4761.76025390625,True
1599387353.5727787,0.0,10,0.5,0.5,-4.124811367797851,-0.15025,-0.0155,-0.001,0.14558557705205086,10,1,100,0.4153612889847402,-10,-1,-100,19302.356686907588,-0.037153353273398915,0.013806947163801335,0.9992141895262286,60.87488800766074,3.6847685759569506,254.2446870547732,-74.68430411932964,-66.6702880859375,4761.76025390625,True
1599387353.6076858,0.0,10,0.5,0.5,-3.036526428222656,-0.15025,-0.0155,-0.001,0.3547845700523541,10,1,100,0.09310030948504872,-10,-1,-100,19297.853737494792,-0.0342333701642157,0.01569866460653333,0.9992905624976008,59.231877450050796,3.584228183847272,249.27795854988793,-75.23159074838827,-73.5831298828125,4761.76025390625,True
1599387353.645584,0.0,10,0.5,0.5,-2.992930972290039,-0.15025,-0.0155,-0.001,0.16682018579864843,10,1,100,0.38380332443933607,-10,-1,-100,19297.853737494792,-0.0342333701642157,0.01569866460653333,0.9992905624976008,59.231877450050796,3.584228183847272,249.27795854988793,-75.23159074838827,-73.5831298828125,4761.76025390625,True
1599387353.683483,0.0,10,0.5,0.5,-2.193017785644531,-0.15025,-0.0155,-0.001,0.30061524440138104,10,1,100,0.14879587422841092,-10,-1,-100,19294.833525805152,-0.0321080618947598,0.016904979894690725,0.999341430150938,57.79086094936427,3.496456188740956,244.44839037238867,-75.59651761588171,-78.56021118164062,4761.76025390625,True
1599387353.7233815,0.0,10,0.5,0.5,-0.9359393005371094,-0.15025,-0.0155,-0.001,0.351590108572006,10,1,100,-0.005741273390026114,-10,-1,-100,19290.2758343732,-0.028782898634226704,0.01845552445082812,0.9994152982436565,55.0506440229241,3.33041167470141,234.62505664133587,-76.1440325687003,-86.5809326171875,4761.76025390625,True
1599387353.763281,0.0,10,0.5,0.5,-0.45592802581787106,-0.15025,-0.0155,-0.001,0.2510735611722443,10,1,100,0.1939126424438698,-10,-1,-100,19288.749303007848,-0.02758989974342694,0.018940400468529146,0.9994398724596889,53.97291128003357,3.2653570801851792,230.6099766124156,-76.3265736543861,-89.40194702148438,4761.76025390625,True
1599387353.7991796,0.0,10,0.5,0.5,0.48950792579650876,-0.15025,-0.0155,-0.001,0.29325489254805837,10,1,100,0.05504834805423414,-10,-1,-100,19285.685286248336,-0.025257885541591894,0.019754450330578224,0.9994857682378997,52.68483224027076,3.1881617677689453,226.23563586023957,-76.69169113973913,-95.26673126220703,4761.76025390625,True
1599387353.836087,0.0,10,0.5,0.5,1.4792625083923339,-0.15025,-0.0155,-0.001,0.2897012203010414,10,1,100,0.028140345613650752,-10,-1,-100,19282.60666686145,-0.022909175113514025,0.020452398845173865,0.999528323299093,54.57152001500106,3.3036961605100394,235.50694222596746,-77.0567369794082,-101.41744232177734,4761.76025390625,True
1599387353.8719912,0.0,10,0.5,0.5,2.989592385864258,-0.15025,-0.0155,-0.001,0.31129524369986517,10,1,100,-0.14207537454775984,-10,-1,-100,19277.96136588091,-0.01924400216629247,0.021273423777237836,0.9995884702323342,57.19078789234967,3.4651867938132273,248.64757822159277,-77.60412117899524,-110.96640014648438,4761.76025390625,True
1599387353.9049013,0.0,10,0.5,0.5,3.5406153697967526,-0.15025,-0.0155,-0.001,0.2527144536585636,10,1,100,0.09075539611388084,-10,-1,-100,19276.40563504689,-0.01804808250678385,0.02147797810228706,0.999606404128378,57.92600231634961,3.5108087689182312,252.46360913382537,-77.78653350046287,-114.13484954833984,4761.76025390625,True
1599387353.9403243,0.0,10,0.5,0.5,4.082103874206543,-0.15025,-0.0155,-0.001,0.25245559550912644,10,1,100,0.07722390855873212,-10,-1,-100,19274.846256577875,-0.016855237721062497,0.021654609659211028,0.9996234185141291,58.6756891757227,3.5573276209122158,256.3582415052936,-77.96892199836019,-117.24947357177734,4761.76025390625,True
1599387353.9782226,0.0,10,0.5,0.5,5.0689765720367435,-0.15025,-0.0155,-0.001,0.2658707275079595,10,1,100,-0.06174799554999674,-10,-1,-100,19271.71655777865,-0.014525905256284036,0.021930005308680927,0.9996539766057286,59.87354280513401,3.6320200714802464,262.87079534307975,-78.33363728083661,-123.2765121459961,4761.76025390625,True
1599387354.019115,0.0,10,0.5,0.5,6.007959705734253,-0.15025,-0.0155,-0.001,0.2542313327438055,10,1,100,-0.08884382767654664,-10,-1,-100,19268.572272521676,-0.012179920418887647,0.0220688874551593,0.9996822563920404,60.658175858128054,3.681392177176013,267.6105016047362,-78.69828895150796,-129.0152587890625,4761.76025390625,True
1599387354.077959,0.0,10,0.5,0.5,7.6905008358001705,-0.15025,-0.0155,-0.001,0.24303684018204894,10,1,100,-0.3424540739142804,-10,-1,-100,19262.239948404604,-0.007761707827952739,0.022087584726079468,0.9997259096835301,61.1657599559402,3.7144900949633026,272.4603681048519,-79.42748883940077,-139.609375,4761.76025390625,True
1599387354.1298153,0.0,10,0.5,0.5,7.7745329235076905,-0.15025,-0.0155,-0.001,0.24168537357317119,10,1,100,0.09693254977252967,-10,-1,-100,19262.239948404604,-0.007761707827952739,0.022087584726079468,0.9997259096835301,61.1657599559402,3.7144900949633026,272.4603681048519,-79.42748883940077,-139.609375,4761.76025390625,True
1599387354.1766896,0.0,10,0.5,0.5,8.94113384284973,-0.15025,-0.0155,-0.001,0.22988908612810485,10,1,100,-0.24211948546240497,-10,-1,-100,19257.45242352353,-0.004698526772004491,0.021977043876328636,0.9997474347997253,60.82487684747677,3.69441338208173,272.89022222585174,-79.97437142295745,-146.7790069580078,4761.76025390625,True
1599387354.2175827,0.0,10,0.5,0.5,10.006831415939331,-0.15025,-0.0155,-0.001,0.21231441788727168,10,1,100,-0.2540493487148176,-10,-1,-100,19252.632084505633,-0.0018261737579127171,0.02171402189854049,0.9997625549811294,60.06359992457118,3.6481255261442738,271.401206592086,-80.52128892145163,-153.2843475341797,4761.76025390625,True
1599387354.263461,0.0,10,0.5,0.5,10.68999369506836,-0.15025,-0.0155,-0.001,0.22953347548425143,10,1,100,-0.15906008687044604,-10,-1,-100,19249.40029363043,-9.978404530873579e-05,0.021629666468189295,0.9997660464186706,59.39280564534378,3.607135425493949,269.6418476675331,-80.88593328930685,-157.24957275390625,4761.76025390625,True
1599387354.3077657,0.0,10,0.5,0.5,10.772568272018432,-0.15025,-0.0155,-0.001,0.2380867452816723,10,1,100,0.011297945283131551,-10,-1,-100,19249.40029363043,-9.978404530873579e-05,0.021629666468189295,0.9997660464186706,59.39280564534378,3.607135425493949,269.6418476675331,-80.88593328930685,-157.24957275390625,4761.76025390625,True
1599387354.35066,0.0,10,0.5,0.5,11.399309020614623,-0.15025,-0.0155,-0.001,0.22654813085236958,10,1,100,-0.171570940601834,-10,-1,-100,19246.153915942647,0.001545256537171875,0.021524446116385678,0.9997671280861444,58.64387745519858,3.561336229518973,267.498778943361,-81.25060864529843,-160.91900634765625,4761.76025390625,True
1599387354.4025223,0.0,10,0.5,0.5,12.44393401031494,-0.15025,-0.0155,-0.001,0.20868034478027964,10,1,100,-0.33647810213363816,-10,-1,-100,19239.61739530624,0.004522091863312508,0.0212663145886233,0.9997636193365896,57.0508379962298,3.4640578284444214,262.6820036852955,-81.98005485355304,-167.3704376220703,4761.76025390625,True
1599387354.4465501,0.0,10,0.5,0.5,12.515170073318481,-0.15025,-0.0155,-0.001,0.23445466804945858,10,1,100,-0.040932302478012335,-10,-1,-100,19239.61739530624,0.004522091863312508,0.0212663145886233,0.9997636193365896,57.0508379962298,3.4640578284444214,262.6820036852955,-81.98005485355304,-167.3704376220703,4761.76025390625,True
1599387354.4894357,0.0,10,0.5,0.5,13.004050478363036,-0.15025,-0.0155,-0.001,0.22977562370777835,10,1,100,-0.1885702560458739,-10,-1,-100,19236.32724987087,0.00584693871654798,0.021224381177080805,0.9997576401064885,56.26034854433191,3.415931457279484,260.2519395137531,-82.34482299467211,-170.1508331298828,4761.76025390625,True
1599387354.5373075,0.0,10,0.5,0.5,13.440625773620605,-0.15025,-0.0155,-0.001,0.23771289317055377,10,1,100,-0.19296826064451714,-10,-1,-100,19233.022512891563,0.007074938752990224,0.021259184621956567,0.999748964646051,55.50987087519885,3.3703663612071173,257.9748022354999,-82.7096173757743,-172.6341094970703,4761.76025390625,True
1599387354.5772016,0.0,10,0.5,0.5,13.968977690124511,-0.15025,-0.0155,-0.001,0.23391935535246877,10,1,100,-0.2540423800951177,-10,-1,-100,19228.03804664139,0.008733033829687776,0.02125709050086478,0.9997359002374415,54.50514658424801,3.3096263898773985,255.06626590711502,-83.25684950148688,-175.80532836914062,4761.76025390625,True
1599387354.6190877,0.0,10,0.5,0.5,14.159294384765625,-0.15025,-0.0155,-0.001,0.2398375771179309,10,1,100,-0.14520359719395112,-10,-1,-100,19226.369261054788,0.009235954289713454,0.02130974376521755,0.9997302596045692,54.2087996629343,3.291788679765835,254.26355043632964,-83.43926898523016,-176.71365356445312,4761.76025390625,True
1599387354.6639693,0.0,10,0.5,0.5,14.44596407546997,-0.15025,-0.0155,-0.001,0.248833812598015,10,1,100,-0.1989162119621699,-10,-1,-100,19223.02074468811,0.010168783495755406,0.02144000096454912,0.9997184214571904,53.68591833862678,3.2604449395169093,252.9683817883961,-83.80411784806383,-178.3082275390625,4761.76025390625,True
1599387354.7059932,0.0,10,0.5,0.5,14.679408098602295,-0.15025,-0.0155,-0.001,0.25987068238951583,10,1,100,-0.19883127983710136,-10,-1,-100,19219.65763414954,0.011005133429880496,0.021659000890167816,0.9997048438007242,53.26505350221303,3.2354061433936923,252.1341356364004,-84.16897587168116,-179.6057586669922,4761.76025390625,True
1599387354.7568572,0.0,10,0.5,0.5,-39.526849923706045,-0.15025,-0.0155,-0.001,0.28275374656267566,10,1,100,-0.23394402397138755,-10,-1,-100,19214.585603488027,0.012074562937146644,0.02206609292010265,0.9996835961808708,52.84398730098423,3.210781246717055,251.851654639148,-84.71627018503224,179.0032501220703,4761.76025390625,True
1599387354.801736,0.0,10,0.5,0.5,-39.580024869537354,-0.15025,-0.0155,-0.001,0.3071617462433682,10,1,100,-0.22111273101458523,-10,-1,-100,19209.480735180317,0.012919055874160888,0.022657670738547964,0.9996598061100707,52.68860635545917,3.202433414533853,252.81790052124362,-85.26355949378647,178.27989196777344,4761.76025390625,True
1599387354.8526008,0.0,10,0.5,0.5,-40.076238518524164,-0.15025,-0.0155,-0.001,0.3023176885862152,10,1,100,-0.18542600021316574,-10,-1,-100,19206.05924741854,0.013352012082945489,0.023150401663322166,0.9996428275520031,52.738392826638055,3.2062296258197196,254.19637482705267,-85.62840864143757,178.07977294921875,4761.76025390625,True
1599387354.906458,0.0,10,0.5,0.5,-40.61188646392822,-0.15025,-0.0155,-0.001,0.25323300481626493,10,1,100,-0.14301337135666897,-10,-1,-100,19206.05924741854,0.013352012082945489,0.023150401663322166,0.9996428275520031,52.738392826638055,3.2062296258197196,254.19637482705267,-85.62840864143757,178.07977294921875,4761.76025390625,True
1599387354.9573224,0.0,10,0.5,0.5,-40.991085396575926,-0.15025,-0.0155,-0.001,0.3868006460571679,10,1,100,-0.20149062367505932,-10,-1,-100,19199.17249051854,0.013875596267458462,0.02436294014089883,0.9996068802163747,52.81143516245177,3.2122951447730075,256.8324185790796,-86.35807632702722,177.04672241210938,4761.76025390625,True
1599387355.015166,0.0,10,0.5,0.5,-41.53027465820312,-0.15025,-0.0155,-0.001,0.2658606541958833,10,1,100,-0.14993507097885306,-10,-1,-100,19199.17249051854,0.013875596267458462,0.02436294014089883,0.9996068802163747,52.81143516245177,3.2122951447730075,256.8324185790796,-86.35807632702722,177.04672241210938,4761.76025390625,True
1599387355.0585752,0.0,10,0.5,0.5,-41.92921834793091,-0.15025,-0.0155,-0.001,0.3435664288028018,10,1,100,-0.16323750888693178,-10,-1,-100,19195.7072225383,0.013990345105246025,0.025066534677762688,0.999587884622,52.80059897053898,3.2125328920787104,257.92235741422894,-86.72289919314628,176.10086059570312,4761.76025390625,True
1599387355.1004632,0.0,10,0.5,0.5,-42.288222600555414,-0.15025,-0.0155,-0.001,0.36263076396126426,10,1,100,-0.1463211197279431,-10,-1,-100,19192.22736229992,0.013936097500629768,0.025876015081645946,0.9995680152095441,53.184726028209134,3.236897638260697,260.9503157602941,-87.08770269685044,174.86187744140625,4761.76025390625,True
1599387355.1403565,0.0,10,0.5,0.5,-42.32612278823852,-0.15025,-0.0155,-0.001,0.4797547797042614,10,1,100,-0.11072602589235213,-10,-1,-100,19185.223868795787,0.013558916876826966,0.027672518981643038,0.9995250809591214,54.23023439737621,3.3029209226468357,268.4303437694848,-87.81722649619758,171.5013427734375,4761.76025390625,True
1599387355.1792517,0.0,10,0.5,0.5,-42.5508842666626,-0.15025,-0.0155,-0.001,0.4125079429399789,10,1,100,-0.10662953395316875,-10,-1,-100,19181.700237882324,0.013175702625394504,0.028688703540131377,0.9995015553512229,54.87252313198119,3.343473862875863,272.79948542566353,-88.18193840029522,169.3803253173828,4761.76025390625,True
1599387355.214192,0.0,10,0.5,0.5,-42.91686994400025,-0.15025,-0.0155,-0.001,0.37063342567169766,10,1,100,-0.11616322235621976,-10,-1,-100,19179.932952159317,0.012912022683033172,0.029225439615727343,0.9994894463422314,55.22050689121086,3.3654611593226753,275.12842385613914,-88.3642801799258,168.20965576171875,4761.76025390625,True
1599387355.2540522,0.0,10,0.5,0.5,-42.90131054229736,-0.15025,-0.0155,-0.001,0.3176757527816635,10,1,100,-0.14261496256694164,-10,-1,-100,19179.932952159317,0.012912022683033172,0.029225439615727343,0.9994894463422314,55.22050689121086,3.3654611593226753,275.12842385613914,-88.3642801799258,168.20965576171875,4761.76025390625,True
1599387355.2939487,0.0,10,0.5,0.5,-42.498268948364256,-0.15025,-0.0155,-0.001,0.4433104315162975,10,1,100,-0.07614181390669703,-10,-1,-100,19176.387440930004,0.01230772772538652,0.030361602359790216,0.9994632023943572,55.96699447242384,3.412677918648864,280.0621043146389,-88.72893269996439,165.6481170654297,4761.76025390625,True
1599387355.3319213,0.0,10,0.5,0.5,-41.57354676055908,-0.15025,-0.0155,-0.001,0.6088552770303474,10,1,100,0.033308425981786155,-10,-1,-100,19169.25266655616,0.01076431584159204,0.032892875085705583,0.999400914684922,57.6573939439573,3.519842886760215,291.02423421739616,-89.45809955387682,159.64471435546875,4761.76025390625,True
1599387355.3687897,0.0,10,0.5,0.5,-41.55097582244873,-0.15025,-0.0155,-0.001,0.356702251781049,10,1,100,-0.12077399277352632,-10,-1,-100,19169.25266655616,0.01076431584159204,0.032892875085705583,0.999400914684922,57.6573939439573,3.519842886760215,291.02423421739616,-89.45809955387682,159.64471435546875,4761.76025390625,True
1599387355.404727,0.0,10,0.5,0.5,-41.00345539627075,-0.15025,-0.0155,-0.001,0.5117472322360566,10,1,100,-0.010179652555011381,-10,-1,-100,19165.66340690083,0.009761741185447238,0.03429462042171037,0.9993640915197819,58.64199334612506,3.582280082598419,297.2672814714802,-89.82260294764058,156.2030792236328,4761.76025390625,True
1599387355.4416337,0.0,10,0.5,0.5,-40.40971208419799,-0.15025,-0.0155,-0.001,0.5373019729012507,10,1,100,0.02153206995342559,-10,-1,-100,19162.059569048695,0.008565761161677092,0.035792221387506665,0.9993225428378311,59.689081097393235,3.6487435840259326,303.87123102108546,-90.18704713343645,152.46835327148438,4761.76025390625,True
1599387355.7707534,0.0,10,0.5,0.5,-39.767673757934574,-0.15025,-0.0155,-0.001,0.5662306078217461,10,1,100,0.034667279723248234,-10,-1,-100,19158.4411553737,0.007364027036654543,0.037406913776862574,0.9992729826766527,60.81762443395152,3.7203577700973884,310.9370326661443,-90.55142685926394,148.4409637451172,4761.76025390625,True
1599387355.8017292,0.0,10,0.5,0.5,-39.40956634674072,-0.15025,-0.0155,-0.001,0.49894138369786467,10,1,100,-0.006835584913136447,-10,-1,-100,19156.626483453438,0.006654814847386609,0.03825261309451883,0.999245941213067,61.375787107060674,3.755837514355675,314.45696652825376,-90.7335922586374,146.31744384765625,4761.76025390625,True
1599387355.836631,0.0,10,0.5,0.5,-38.34279501342773,-0.15025,-0.0155,-0.001,0.7164437333105553,10,1,100,0.17701607006597958,-10,-1,-100,19151.160610794905,0.004344974268268742,0.04098910647603727,0.9991501460485827,62.99021169433172,3.858664705168955,324.7796400298204,-91.27999374980836,139.50845336914062,4761.76025390625,True
1599387355.8754928,0.0,10,0.5,0.5,-38.30330260238647,-0.15025,-0.0155,-0.001,0.44402443545230186,10,1,100,-0.05308491501009454,-10,-1,-100,19151.160610794905,0.004344974268268742,0.04098910647603727,0.9991501460485827,62.99021169433172,3.858664705168955,324.7796400298204,-91.27999374980836,139.50845336914062,4761.76025390625,True
1599387355.9184277,0.0,10,0.5,0.5,-37.12957118225098,-0.15025,-0.0155,-0.001,0.7812526948470944,10,1,100,0.2368041974843614,-10,-1,-100,19145.661959672114,0.0017174069259689282,0.044044123682480556,0.9990281105567015,64.43036086276152,3.950664570881345,334.3034293425327,-91.82626515973925,132.04237365722656,4761.76025390625,True
1599387355.9583175,0.0,10,0.5,0.5,-37.08097797470093,-0.15025,-0.0155,-0.001,0.47723284260944104,10,1,100,-0.02483307516991353,-10,-1,-100,19145.661959672114,0.0017174069259689282,0.044044123682480556,0.9990281105567015,64.43036086276152,3.950664570881345,334.3034293425327,-91.82626515973925,132.04237365722656,4761.76025390625,True
1599387356.0077083,0.0,10,0.5,0.5,-35.368917091369624,-0.15025,-0.0155,-0.001,0.9921126807654266,10,1,100,0.41413377703358245,-10,-1,-100,19138.27944672096,-0.0022635732569724733,0.048712410828150705,0.9988102809179629,65.85191391979825,4.041968353106123,344.54140418023786,-92.55447732757824,121.06735229492188,4761.76025390625,True
1599387356.0535865,0.0,10,0.5,0.5,-35.32009720153808,-0.15025,-0.0155,-0.001,0.5268659197726561,10,1,100,0.017338547649298694,-10,-1,-100,19138.27944672096,-0.0022635732569724733,0.048712410828150705,0.9988102809179629,65.85191391979825,4.041968353106123,344.54140418023786,-92.55447732757824,121.06735229492188,4761.76025390625,True
1599387356.1039631,0.0,10,0.5,0.5,-33.89980927886963,-0.15025,-0.0155,-0.001,0.9707604081002483,10,1,100,0.38265576074522684,-10,-1,-100,19132.70433309325,-0.005572795295027671,0.05273343387136296,0.9985930747330136,66.35243205808993,4.074899693717208,349.3278434767227,-93.10058627801388,112.07235717773438,4761.76025390625,True
1599387356.142859,0.0,10,0.5,0.5,-32.381098561859126,-0.15025,-0.0155,-0.001,1.0699833385024506,10,1,100,0.4456540846465233,-10,-1,-100,19127.096452342463,-0.00913995051374375,0.057274173447530795,0.998316648343855,66.19244620850837,4.066684420877916,350.65513042833896,-93.64672174887598,102.424072265625,4761.76025390625,True
1599387356.1812708,0.0,10,0.5,0.5,-31.28563090896606,-0.15025,-0.0155,-0.001,0.9927351640648053,10,1,100,0.3723873585365933,-10,-1,-100,19123.33965906652,-0.011700661646417712,0.06068033333819567,0.9980886692388615,65.6194605819841,4.032484645950083,349.05866690608326,-94.01086136829886,95.63037109375,4761.76025390625,True
1599387356.2181683,0.0,10,0.5,0.5,-30.13943173599243,-0.15025,-0.0155,-0.001,1.069651318018773,10,1,100,0.4121377148271484,-10,-1,-100,19119.568298457074,-0.014372616198141749,0.06445492243878041,0.9978171129405587,64.61991122210094,3.972290829448584,345.16297567713787,-94.37506372879751,88.54847717285156,4761.76025390625,True
1599387356.2580917,0.0,10,0.5,0.5,-30.056971731567383,-0.15025,-0.0155,-0.001,0.6948126388947249,10,1,100,0.14704500275929755,-10,-1,-100,19119.568298457074,-0.014372616198141749,0.06445492243878041,0.9978171129405587,64.61991122210094,3.972290829448584,345.16297567713787,-94.37506372879751,88.54847717285156,4761.76025390625,True
1599387356.296584,0.0,10,0.5,0.5,-27.70487877655029,-0.15025,-0.0155,-0.001,1.6460765590001223,10,1,100,0.74356151204546,-10,-1,-100,19111.98186258739,-0.01977847756395558,0.07308144369795426,0.9971298382920223,61.18479117927936,3.7653817159678904,329.516526820554,-95.10371694462549,73.51968383789062,4761.76025390625,True
1599387356.3324866,0.0,10,0.5,0.5,-27.617624977111817,-0.15025,-0.0155,-0.001,0.7866336668049293,10,1,100,0.20538772064729932,-10,-1,-100,19111.98186258739,-0.01977847756395558,0.07308144369795426,0.9971298382920223,61.18479117927936,3.7653817159678904,329.516526820554,-95.10371694462549,73.51968383789062,4761.76025390625,True
1599387356.369351,0.0,10,0.5,0.5,-26.32475010070801,-0.15025,-0.0155,-0.001,1.313154818016364,10,1,100,0.49834645496030905,-10,-1,-100,19108.16678226739,-0.02242219707181028,0.07784160205440778,0.9967135647055659,62.381123671108874,3.842727994801109,337.3393475901197,-95.46808385724027,65.57148742675781,4761.76025390625,True
1599387356.4042838,0.0,10,0.5,0.5,-23.69523852996826,-0.15025,-0.0155,-0.001,2.043008560756781,10,1,100,0.8060981714048782,-10,-1,-100,19100.492920024786,-0.02760137622481266,0.08877332778666756,0.995669352899936,68.64166464657143,4.239308526619972,374.2277802494468,-96.1962973291073,48.81492614746094,4761.76025390625,True
1599387356.4401624,0.0,10,0.5,0.5,-23.600003830718993,-0.15025,-0.0155,-0.001,0.9538420792266542,10,1,100,0.2907140364014245,-10,-1,-100,19100.492920024786,-0.02760137622481266,0.08877332778666756,0.995669352899936,68.64166464657143,4.239308526619972,374.2277802494468,-96.1962973291073,48.81492614746094,4761.76025390625,True
1599387356.4860423,0.0,10,0.5,0.5,-21.473114517974853,-0.15025,-0.0155,-0.001,1.9812081560681543,10,1,100,0.6718952563743361,-10,-1,-100,19094.69931194128,-0.03104362567641382,0.09807660037890073,0.9946945630508794,72.91415180158391,4.512477513259641,399.93228320396264,-96.74201026618127,35.4932861328125,4761.76025390625,True
1599387356.5369027,0.0,10,0.5,0.5,-21.36773859786987,-0.15025,-0.0155,-0.001,1.0554152134955914,10,1,100,0.33021739425235874,-10,-1,-100,19094.69931194128,-0.03104362567641382,0.09807660037890073,0.9946945630508794,72.91415180158391,4.512477513259641,399.93228320396264,-96.74201026618127,35.4932861328125,4761.76025390625,True
1599387356.5807855,0.0,10,0.5,0.5,-18.42472347564697,-0.15025,-0.0155,-0.001,2.543348303068292,10,1,100,0.7166768803914315,-10,-1,-100,19086.923588071717,-0.03453698130025751,0.1115661717141695,0.9931566775950861,76.60958478029143,4.752023210342584,423.58246283875394,-97.46923089392673,16.721237182617188,4761.76025390625,True
1599387356.6236722,0.0,10,0.5,0.5,-18.32118636703491,-0.15025,-0.0155,-0.001,1.1994797533790134,10,1,100,0.3696249499724466,-10,-1,-100,19086.923588071717,-0.03453698130025751,0.1115661717141695,0.9931566775950861,76.60958478029143,4.752023210342584,423.58246283875394,-97.46923089392673,16.721237182617188,4761.76025390625,True
1599387356.674534,0.0,10,0.5,0.5,-16.724801902770995,-0.15025,-0.0155,-0.001,1.9945341631980236,10,1,100,0.5009128842871224,-10,-1,-100,19083.013911495917,-0.035712176734843545,0.11875111066772832,0.9922816203820568,77.24986402054292,4.7960557420041745,428.8354581128503,-97.8327976142731,6.9027099609375,4761.76025390625,True
1599387356.714428,0.0,10,0.5,0.5,-13.50708445968628,-0.15025,-0.0155,-0.001,2.9424631856669805,10,1,100,0.4965530848038817,-10,-1,-100,19075.150922688073,-0.03672150207958621,0.1338510497495642,0.990320871114993,75.49148791584577,4.695576339741801,422.4498020439402,-98.56013802753779,-13.59967041015625,4761.76025390625,True
1599387356.7533238,0.0,10,0.5,0.5,-13.3925518409729,-0.15025,-0.0155,-0.001,1.438546238088555,10,1,100,0.39731485278117845,-10,-1,-100,19075.150922688073,-0.03672150207958621,0.1338510497495642,0.990320871114993,75.49148791584577,4.695576339741801,422.4498020439402,-98.56013802753779,-13.59967041015625,4761.76025390625,True
1599387356.7962132,0.0,10,0.5,0.5,-10.816635036468506,-0.15025,-0.0155,-0.001,2.7141526299339036,10,1,100,0.3370612540024109,-10,-1,-100,19069.215482207597,-0.03615833934112866,0.14539222639720226,0.9887131409055695,71.12974456503383,4.433990035824262,400.44474142648664,-99.10597920495542,-29.73773193359375,4761.76025390625,True
1599387356.8355925,0.0,10,0.5,0.5,-9.84940232849121,-0.15025,-0.0155,-0.001,1.9878169557204248,10,1,100,0.34535647548230375,-10,-1,-100,19067.229722051416,-0.0357092969175578,0.14921974392552997,0.9881590530559606,69.18336394548065,4.316971718976106,390.2659585227662,-99.28799643329621,-35.26263427734375,4761.76025390625,True
1599387356.8764567,0.0,10,0.5,0.5,-6.271460764312744,-0.15025,-0.0155,-0.001,3.2481197345416875,10,1,100,0.06648379607557331,-10,-1,-100,19059.250307162176,-0.03275849951907516,0.16410165201680404,0.9858993500934132,77.85467642418833,4.881989699105964,442.66549524675395,-100.01534203305482,-58.093353271484375,4761.76025390625,True
1599387356.9223604,0.0,10,0.5,0.5,-6.128583650207519,-0.15025,-0.0155,-0.001,1.7674617578372938,10,1,100,0.36207924825326365,-10,-1,-100,19059.250307162176,-0.03275849951907516,0.16410165201680404,0.9858993500934132,77.85467642418833,4.881989699105964,442.66549524675395,-100.01534203305482,-58.093353271484375,4761.76025390625,True
1599387356.9652188,0.0,10,0.5,0.5,-4.190477026367188,-0.15025,-0.0155,-0.001,2.5529996810942364,10,1,100,0.1282380600870134,-10,-1,-100,19055.238794701407,-0.030631111559525012,0.17118288309037816,0.9847629946040285,81.49737906123087,5.1229703830597915,465.18801986389593,-100.37861418670488,-69.94821166992188,4761.76025390625,True
1599387357.0151167,0.0,10,0.5,0.5,-2.2013356124877927,-0.15025,-0.0155,-0.001,2.591658871303787,10,1,100,0.08254097721259882,-10,-1,-100,19051.212755976012,-0.028282069492091007,0.1779053528112492,0.9836410981584438,83.83203534304623,5.281040715134708,480.3761316315589,-100.74173583020624,-82.09738159179688,4761.76025390625,True
1599387357.070934,0.0,10,0.5,0.5,0.779459600830078,-0.15025,-0.0155,-0.001,2.95798592206059,10,1,100,-0.13399971664500915,-10,-1,-100,19045.146464851336,-0.024183711224634717,0.187286626490651,0.9820075700569497,84.14460250251629,5.314904804149799,484.98731349946814,-101.2864201198395,-100.87275695800781,4761.76025390625,True
1599387357.1108303,0.0,10,0.5,0.5,2.891788410568237,-0.15025,-0.0155,-0.001,2.6617226096904547,10,1,100,-0.034365090318437874,-10,-1,-100,19041.084109589225,-0.021373112375439304,0.19305291749149098,0.9809555347289757,81.9400336801911,5.184785297912264,474.12901416509334,-101.64971108585782,-113.75760650634766,4761.76025390625,True
1599387357.2075694,0.0,10,0.5,0.5,4.057026971817016,-0.15025,-0.0155,-0.001,2.3938215085682124,10,1,100,0.08936885262560534,-10,-1,-100,19039.04748088878,-0.019955912052352417,0.19579198856675806,0.9804423791265009,80.06993211452395,5.071552826833215,464.21516123200774,-101.83143508777891,-120.31033325195312,4761.76025390625,True
1599387357.2486765,0.0,10,0.5,0.5,10.135856069564818,-0.15025,-0.0155,-0.001,3.7654321431322413,10,1,100,-0.6292047199254243,-10,-1,-100,19026.75136092375,-0.012150302544561554,0.21069493082320367,0.9774763507489483,81.70878849532438,5.220263065295021,479.2315991767073,-102.92184391032885,-159.45069885253906,4761.76025390625,True
1599387357.2875724,0.0,10,0.5,0.5,11.27482480278015,-0.15025,-0.0155,-0.001,2.534183213678199,10,1,100,0.025460280975484112,-10,-1,-100,19024.689294321928,-0.01102813136342814,0.212980029987596,0.9769943127496258,84.06278296688515,5.378737962727902,493.972406805786,-103.10332100370371,-165.74517822265625,4761.76025390625,True
1599387357.326463,0.0,10,0.5,0.5,-40.18295326652526,-0.15025,-0.0155,-0.001,3.087800782920505,10,1,100,-0.1935315455581401,-10,-1,-100,19018.48132623278,-0.008039986601162726,0.2200288363996187,0.9754602348471633,88.63175768184485,5.693380166319283,523.7808248653678,-103.64750567295665,175.82371520996094,4761.76025390625,True
1599387357.3683212,0.0,10,0.5,0.5,-40.16856821479797,-0.15025,-0.0155,-0.001,2.390001050965642,10,1,100,0.10251599963676179,-10,-1,-100,19018.48132623278,-0.008039986601162726,0.2200288363996187,0.9754602348471633,88.63175768184485,5.693380166319283,523.7808248653678,-103.64750567295665,175.82371520996094,4761.76025390625,True
1599387357.4102845,0.0,10,0.5,0.5,-36.92758118782043,-0.15025,-0.0155,-0.001,3.429321556477536,10,1,100,-0.24155490829943443,-10,-1,-100,19010.153244498186,-0.004934540631668136,0.22942636173665154,0.9733135131338913,87.95952489136346,5.676214848797245,523.7802482202096,-104.37319202136709,151.99853515625,4761.76025390625,True
1599387357.4641397,0.0,10,0.5,0.5,-35.438928334426876,-0.15025,-0.0155,-0.001,3.0386177562052277,10,1,100,-0.0643953209158537,-10,-1,-100,19005.967424344504,-0.003747244143694157,0.234358327759006,0.9721430616793652,84.71425431379178,5.4817380644294005,506.39077241794575,-104.7362842390924,139.84567260742188,4761.76025390625,True
1599387357.5020823,0.0,10,0.5,0.5,-33.89632456474304,-0.15025,-0.0155,-0.001,3.133563647164565,10,1,100,-0.07599332937448891,-10,-1,-100,19001.767074461444,-0.0025868871390173393,0.23964764547471437,0.9708564847768982,79.41260263041332,5.1560352590651615,476.5123247816531,-105.09957889896714,127.41633605957031,4761.76025390625,True
1599387357.543934,0.0,10,0.5,0.5,-32.310472362136835,-0.15025,-0.0155,-0.001,3.216158942925689,10,1,100,-0.07485062723699039,-10,-1,-100,18997.552195230848,-0.0015657645927002856,0.2451508530934927,0.9694836809398975,82.63291084210597,5.386289627497972,497.70240398576965,-105.46272861426303,114.70210266113281,4761.76025390625,True
1599387357.5878193,0.0,10,0.5,0.5,-32.657327627944944,-0.15025,-0.0155,-0.001,2.6716246037081417,10,1,100,0.024999832731521537,-10,-1,-100,18997.552195230848,-0.0015657645927002856,0.2451508530934927,0.9694836809398975,82.63291084210597,5.386289627497972,497.70240398576965,-105.46272861426303,114.70210266113281,4761.76025390625,True
1599387357.6446688,0.0,10,0.5,0.5,-30.046426902008058,-0.15025,-0.0155,-0.001,3.6534360126380334,10,1,100,-0.15654881554555888,-10,-1,-100,18991.202671437874,6.667098456159187e-05,0.2540290495968535,0.9671965867991361,91.55743763894463,6.003031937958478,554.5199239049097,-106.00662943722473,95.09870910644531,4761.76025390625,True
1599387357.6905663,0.0,10,0.5,0.5,-27.338387306976315,-0.15025,-0.0155,-0.001,3.8267412316685387,10,1,100,-0.2082264576974337,-10,-1,-100,18984.820536682382,0.0020022977261467843,0.2636226965356133,0.9646237943753553,96.31795079789941,6.345940934233224,586.5818190397122,-106.55003827536558,74.85720825195312,4761.76025390625,True
1599387357.740417,0.0,10,0.5,0.5,-26.679841361236573,-0.15025,-0.0155,-0.001,3.2391795776881778,10,1,100,-0.10479478831346209,-10,-1,-100,18982.685912926332,0.0028088044965783915,0.2669546080203804,0.963705010817099,96.54742455911968,6.370392799565127,589.0709652369897,-106.73119021404993,67.96818542480469,4761.76025390625,True
1599387357.7882888,0.0,10,0.5,0.5,-25.996285082244874,-0.15025,-0.0155,-0.001,3.2842349150190278,10,1,100,-0.1222630670212023,-10,-1,-100,18980.547665024875,0.0036882159708047577,0.2703441446386011,0.9627566881214463,96.02818185836227,6.345532369263648,586.9965625206676,-106.91238751767395,61.0081787109375,4761.76025390625,True
1599387357.8336866,0.0,10,0.5,0.5,-23.68764465103149,-0.15025,-0.0155,-0.001,3.711363636448011,10,1,100,-0.2608165829402668,-10,-1,-100,18976.260292354622,0.00573659636248207,0.2772627887515753,0.9607769967249804,92.64003553012898,6.141813331506044,568.4140343227665,-107.27497096967586,46.87504577636719,4761.76025390625,True
1599387357.875594,0.0,10,0.5,0.5,-21.321314199066162,-0.15025,-0.0155,-0.001,3.8044394892048983,10,1,100,-0.32896512620901364,-10,-1,-100,18971.95840821066,0.008205768400119466,0.2843465784681126,0.9586864391856398,86.05764262247786,5.728596623298272,530.0057991168222,-107.63783314811829,32.45790100097656,4761.76025390625,True
1599387357.9154606,0.0,10,0.5,0.5,-18.926639554595948,-0.15025,-0.0155,-0.001,3.884193858686299,10,1,100,-0.41144116891129107,-10,-1,-100,18967.642009506584,0.011188306723417996,0.2914614995541307,0.9565171279544974,88.18691975297156,5.898283497508472,545.1169357389459,-108.0006108285635,17.75506591796875,4761.76025390625,True
1599387357.9563522,0.0,10,0.5,0.5,-14.173839963531494,-0.15025,-0.0155,-0.001,4.698328012403101,10,1,100,-0.9387505354267283,-10,-1,-100,18958.965754383942,0.018679848939405077,0.3052789172372134,0.9520797476756218,102.65021124575932,6.926611992842185,639.0972677072094,-108.72454387170087,-12.514434814453125,4761.76025390625,True
1599387357.9982414,0.0,10,0.5,0.5,-12.815283137512207,-0.15025,-0.0155,-0.001,3.684996484964353,10,1,100,-0.42975716743873316,-10,-1,-100,18956.787646188634,0.020843796030340266,0.3085684364526068,0.9509737410634634,104.33286164849687,7.053417541431873,650.7472065543142,-108.90539729557096,-20.26275634765625,4761.76025390625,True
1599387358.040127,0.0,10,0.5,0.5,-11.43092134628296,-0.15025,-0.0155,-0.001,3.7148765010093117,10,1,100,-0.46500198103683443,-10,-1,-100,18954.605920480215,0.023111055726970413,0.3117728926275921,0.9498755405450805,104.98500174691078,7.1106238783455336,656.0074949791157,-109.08627702837752,-28.08367919921875,4761.76025390625,True
1599387358.079023,0.0,10,0.5,0.5,-6.374904089355468,-0.15025,-0.0155,-0.001,4.672891036824563,10,1,100,-1.3039173840881353,-10,-1,-100,18945.842816249817,0.032776271096809945,0.3233346921672319,0.9457168671934056,96.43840117759606,6.5894738202073615,607.0612973825571,-109.81047158325677,-60.100341796875,4761.76025390625,True
1599387358.1189532,0.0,10,0.5,0.5,-3.678630213165283,-0.15025,-0.0155,-0.001,4.0791863507229165,10,1,100,-0.9008394597487894,-10,-1,-100,18941.439525153255,0.03786874975711342,0.3283850985636436,0.9437845012677307,92.95298248507079,6.387668559256657,587.2360590495009,-110.17282936553288,-76.54815673828125,4761.76025390625,True
1599387358.156818,0.0,10,0.5,0.5,-2.199856880950928,-0.15025,-0.0155,-0.001,3.8382543520545003,10,1,100,-0.6627450738844133,-10,-1,-100,18939.23245020851,0.04030117552950319,0.33072721129791594,0.9428654872027313,98.12366439891814,6.762455419336505,620.9945351606733,-110.35373928255534,-84.88232421875,4761.76025390625,True
1599387358.1967118,0.0,10,0.5,0.5,-0.6997258987426759,-0.15025,-0.0155,-0.001,3.8591723927137633,10,1,100,-0.6901392934631353,-10,-1,-100,18937.02176045149,0.042727426072361435,0.3329885936048136,0.9419622941446855,102.51301015810658,7.084190264288674,649.9052212048967,-110.534490768123,-93.28924560546875,4761.76025390625,True
1599387358.233638,0.0,10,0.5,0.5,2.1072251537322995,-0.15025,-0.0155,-0.001,4.105980052934096,10,1,100,-0.9783202671145237,-10,-1,-100,18932.589543051203,0.04751744522624377,0.3372311522049361,0.9402219112431395,109.04242372669562,7.571488417606125,693.7112467877647,-110.89572349832174,-110.32195281982422,4761.76025390625,True
1599387358.2755408,0.0,10,0.5,0.5,4.954132418441771,-0.15025,-0.0155,-0.001,4.116327500520583,10,1,100,-1.0065796592631013,-10,-1,-100,18928.142876287457,0.052090929068520454,0.3411275746708761,0.9385725933074883,110.21366832334817,7.685447056558909,703.6491175688319,-111.25699351994211,-127.64614868164062,4761.76025390625,True
1599387358.3114293,0.0,10,0.5,0.5,10.491020563125609,-0.15025,-0.0155,-0.001,4.560294206103259,10,1,100,-1.446063420622008,-10,-1,-100,18919.206142937997,0.06020405297324532,0.3486542187850252,0.9353158331435422,94.84823186218347,6.682257794549069,609.9182791606289,-111.98067557775566,-162.72747802734375,4761.76025390625,True
1599387358.343316,0.0,10,0.5,0.5,10.73568717689514,-0.15025,-0.0155,-0.001,3.813349066611438,10,1,100,-0.6396526047745045,-10,-1,-100,18919.206142937997,0.06020405297324532,0.3486542187850252,0.9353158331435422,94.84823186218347,6.682257794549069,609.9182791606289,-111.98067557775566,-162.72747802734375,4761.76025390625,True
1599387358.3782253,0.0,10,0.5,0.5,12.278509115982054,-0.15025,-0.0155,-0.001,4.0290608280674265,10,1,100,-0.8482318966837312,-10,-1,-100,18916.96290982468,0.06206247907784389,0.3505758027059453,0.9344757114274262,95.04294730288181,6.716388623518722,612.2370614761518,-112.16165406994749,-171.38858032226562,4761.76025390625,True
1599387358.4141622,0.0,10,0.5,0.5,-36.81931064186096,-0.15025,-0.0155,-0.001,4.735103812950278,10,1,100,-1.4265597530059542,-10,-1,-100,18907.953857771936,0.06897201179127416,0.35870308125457734,0.9309000811515362,113.79552354893757,8.127652650091203,738.0540048273891,-112.8838135855542,154.71656799316406,4761.76025390625,True
1599387358.4490328,0.0,10,0.5,0.5,-35.524145287704464,-0.15025,-0.0155,-0.001,4.173505254191739,10,1,100,-0.9248329447129948,-10,-1,-100,18905.69257313281,0.07065056058621631,0.3609434110476861,0.9299077117166598,115.42978487291734,8.26333941203908,749.9514141182716,-113.06423071476667,146.4362335205078,4761.76025390625,True
1599387358.4869318,0.0,10,0.5,0.5,-33.36961879539489,-0.15025,-0.0155,-0.001,4.470986966947329,10,1,100,-1.1385996047983538,-10,-1,-100,18901.159173632856,0.0740854161374039,0.36565026395839906,0.9277991353643853,114.33149503088504,8.224669790453602,745.4411786446067,-113.42525967720545,130.02011108398438,4761.76025390625,True
1599387358.52506,0.0,10,0.5,0.5,-33.706215732955926,-0.15025,-0.0155,-0.001,4.004028192415511,10,1,100,-0.7987357163176247,-10,-1,-100,18901.159173632856,0.0740854161374039,0.36565026395839906,0.9277991353643853,114.33149503088504,8.224669790453602,745.4411786446067,-113.42525967720545,130.02011108398438,4761.76025390625,True
1599387358.5629585,0.0,10,0.5,0.5,-28.985107526016233,-0.15025,-0.0155,-0.001,5.1380703401370065,10,1,100,-1.6376494723945747,-10,-1,-100,18892.049007174675,0.08168119188300535,0.37592798979890313,0.9230418892868989,100.35320741376567,7.31120105133595,658.9110923900818,-114.1482553872542,96.60386657714844,4761.76025390625,True
1599387358.6028526,0.0,10,0.5,0.5,-29.312858094406124,-0.15025,-0.0155,-0.001,4.114591695706009,10,1,100,-0.8819672744154938,-10,-1,-100,18892.049007174675,0.08168119188300535,0.37592798979890313,0.9230418892868989,100.35320741376567,7.31120105133595,658.9110923900818,-114.1482553872542,96.60386657714844,4761.76025390625,True
1599387358.6390803,0.0,10,0.5,0.5,-27.045243943786623,-0.15025,-0.0155,-0.001,4.721344633635214,10,1,100,-1.3658216931539713,-10,-1,-100,18887.47225059045,0.08604881046548536,0.3814087466549923,0.9203928347138209,112.28142532071584,8.233889704586911,739.6856268141973,-114.50905599198813,79.49081420898438,4761.76025390625,True
1599387358.67794,0.0,10,0.5,0.5,-22.079371475219723,-0.15025,-0.0155,-0.001,5.3869610116596895,10,1,100,-2.096824013096108,-10,-1,-100,18878.275499370066,0.0966339776477621,0.39240569162258304,0.9147019446498265,122.6808587617358,9.093314658222411,813.6287794562154,-115.22959822791175,44.4227294921875,4761.76025390625,True
1599387358.7148416,0.0,10,0.5,0.5,-19.71897674255371,-0.15025,-0.0155,-0.001,4.863452812213586,10,1,100,-1.7260786282718508,-10,-1,-100,18873.65549568634,0.10285332620172542,0.3976039748046668,0.9117742442670617,117.39623359845854,8.752656005366237,781.293813516179,-115.59029157875844,26.46209716796875,4761.76025390625,True
1599387358.747753,0.0,10,0.5,0.5,-20.030181216430663,-0.15025,-0.0155,-0.001,4.348519469607174,10,1,100,-1.108408700198367,-10,-1,-100,18873.65549568634,0.10285332620172542,0.3976039748046668,0.9117742442670617,117.39623359845854,8.752656005366237,781.293813516179,-115.59029157875844,26.46209716796875,4761.76025390625,True
1599387358.7846546,0.0,10,0.5,0.5,-17.57678190307617,-0.15025,-0.0155,-0.001,4.882915304983111,10,1,100,-1.8581094791264743,-10,-1,-100,18869.021049912437,0.10963170524005014,0.40241936587890376,0.9088671757588015,104.92632842747123,7.878142299865583,700.7063504088371,-115.9514590364451,8.213714599609375,4761.76025390625,True
1599387358.82056,0.0,10,0.5,0.5,-13.145118068695067,-0.15025,-0.0155,-0.001,5.088630949296509,10,1,100,-2.3983547280461806,-10,-1,-100,18862.042329262127,0.12066822508920742,0.40862739427230976,0.9046893566877211,120.55458612850754,9.144437335723476,808.992285099028,-116.49202613430067,-19.705841064453125,4761.76025390625,True
1599387358.8554933,0.0,10,0.5,0.5,-12.915517408752441,-0.15025,-0.0155,-0.001,4.472596508278371,10,1,100,-1.2997045095807518,-10,-1,-100,18862.042329262127,0.12066822508920742,0.40862739427230976,0.9046893566877211,120.55458612850754,9.144437335723476,808.992285099028,-116.49202613430067,-19.705841064453125,4761.76025390625,True
1599387358.893399,0.0,10,0.5,0.5,-6.8967495635986324,-0.15025,-0.0155,-0.001,5.139548163268264,10,1,100,-3.014106379221017,-10,-1,-100,18852.68699479918,0.13621134862325365,0.41465152101738706,0.899728061485359,128.55940079031515,9.864315997679734,868.4317142824018,-117.21156223688874,-57.9649658203125,4761.76025390625,True
1599387358.9263089,0.0,10,0.5,0.5,-6.643631819152832,-0.15025,-0.0155,-0.001,4.542035614466433,10,1,100,-1.4660066190649794,-10,-1,-100,18852.68699479918,0.13621134862325365,0.41465152101738706,0.899728061485359,128.55940079031515,9.864315997679734,868.4317142824018,-117.21156223688874,-57.9649658203125,4761.76025390625,True
1599387358.9622076,0.0,10,0.5,0.5,-4.9293764762878425,-0.15025,-0.0155,-0.001,4.667174610277725,10,1,100,-1.8994807008963344,-10,-1,-100,18850.339161279728,0.14010244922468393,0.41575394504183655,0.8986211442556838,125.04019749739744,9.627250483318374,846.1047736969538,-117.3916745328632,-67.71487426757812,4761.76025390625,True
1599387359.001076,0.0,10,0.5,0.5,-0.19343404922485358,-0.15025,-0.0155,-0.001,4.833292788508366,10,1,100,-2.7679670934104132,-10,-1,-100,18843.27403003932,0.15148203401489246,0.41823010854321196,0.8956208850170054,113.34565718522663,8.829772854118868,770.7658466004411,-117.9323848180361,-97.40742492675781,4761.76025390625,True
1599387359.0389738,0.0,10,0.5,0.5,4.641811043548584,-0.15025,-0.0155,-0.001,4.760216922829567,10,1,100,-2.807582177195882,-10,-1,-100,18836.176522214315,0.16212776347354138,0.4197833662547567,0.8930266030342501,131.93071763895566,10.37687915358988,901.3226706632788,-118.47136679575718,-127.75946044921875,4761.76025390625,True
1599387359.0748777,0.0,10,0.5,0.5,6.425065130615234,-0.15025,-0.0155,-0.001,4.651703943147071,10,1,100,-2.1179439826968065,-10,-1,-100,18833.803502819384,0.16547672140793446,0.4201840482912,0.8922235259360176,133.7164532332215,10.546780171334058,914.9815441894625,-118.65096035021489,-137.98573303222656,4761.76025390625,True
1599387359.1070776,0.0,10,0.5,0.5,9.764038986968993,-0.15025,-0.0155,-0.001,4.695727028955474,10,1,100,-2.493268663838878,-10,-1,-100,18829.046678632963,0.17187634081757772,0.4209279872194189,0.8906616377966262,129.66279916708316,10.290809830843529,890.1715815037801,-119.01053167924968,-158.44395446777344,4761.76025390625,True
1599387359.1429808,0.0,10,0.5,0.5,10.030185145568847,-0.15025,-0.0155,-0.001,4.623665537375061,10,1,100,-1.8602090243361373,-10,-1,-100,18829.046678632963,0.17187634081757772,0.4209279872194189,0.8906616377966262,129.66279916708316,10.290809830843529,890.1715815037801,-119.01053167924968,-158.44395446777344,4761.76025390625,True
1599387359.1788852,0.0,10,0.5,0.5,13.347878273773192,-0.15025,-0.0155,-0.001,4.712092877699137,10,1,100,-2.532216666206854,-10,-1,-100,18824.275452626403,0.1779289151658774,0.42171504611205546,0.8890993875999471,115.57892120058766,9.242625204707002,796.0896358811581,-119.37072767912181,-178.6712188720703,4761.76025390625,True
1599387359.2137952,0.0,10,0.5,0.5,-37.86169127578735,-0.15025,-0.0155,-0.001,4.738273062481083,10,1,100,-2.5719202834444017,-10,-1,-100,18819.48982398957,0.18374014228460328,0.42265665801079755,0.8874688217353766,120.94083621865619,9.742671322024407,835.582094713948,-119.7305852559706,161.3997802734375,4761.76025390625,True
1599387359.246707,0.0,10,0.5,0.5,-34.83510283050537,-0.15025,-0.0155,-0.001,4.773809943199506,10,1,100,-2.6247161431598727,-10,-1,-100,18814.689832044416,0.18944570028340801,0.4238229775036956,0.8857112454880715,133.9565484505308,10.855894250826482,928.3048342285193,-120.08949473832,141.78172302246094,4761.76025390625,True
1599387359.2826102,0.0,10,0.5,0.5,-33.6985261390686,-0.15025,-0.0155,-0.001,4.732455988732221,10,1,100,-2.3742922034604823,-10,-1,-100,18812.28445401555,0.19230759505627226,0.4244989852234582,0.8847702529063276,137.03862945038176,11.136898400603608,951.1418659215775,-120.26889638304291,132.09046936035156,4761.76025390625,True
1599387359.318515,0.0,10,0.5,0.5,-31.093564864349364,-0.15025,-0.0155,-0.001,4.8331277486006226,10,1,100,-2.7364166597609305,-10,-1,-100,18807.46292719769,0.19815036150121382,0.4260197832727678,0.8827477434109714,136.03609446855268,11.125444328354366,947.2281018003646,-120.62796323172006,112.8558349609375,4761.76025390625,True
1599387359.3544188,0.0,10,0.5,0.5,-25.487291985321043,-0.15025,-0.0155,-0.001,5.057813416043247,10,1,100,-3.551723120438093,-10,-1,-100,18797.776730060228,0.21082107344615622,0.4294355913504995,0.8781455163425121,121.83436028686977,10.123887010075718,853.6726361920887,-121.34713367031546,73.81192016601562,4761.76025390625,True
1599387359.3913195,0.0,10,0.5,0.5,-24.290015279388427,-0.15025,-0.0155,-0.001,4.809411693334505,10,1,100,-2.67051816738211,-10,-1,-100,18795.346200744738,0.21427500378702105,0.4302724871394423,0.8768989734073763,130.2006906736393,10.85666689043737,913.6124800504032,-121.52645592222059,63.88325500488281,4761.76025390625,True
1599387359.4232342,0.0,10,0.5,0.5,-23.084651705932615,-0.15025,-0.0155,-0.001,4.813676582947293,10,1,100,-2.724450089571599,-10,-1,-100,18792.912089002435,0.217857824080154,0.4310625376523386,0.8756272363967367,137.00770715519636,11.459317904154831,962.7679210640003,-121.70558961733313,53.88432312011719,4761.76025390625,True
1599387359.4740994,0.0,10,0.5,0.5,-21.868979080200194,-0.15025,-0.0155,-0.001,4.815185168196497,10,1,100,-2.779817205552074,-10,-1,-100,18790.474395498168,0.22157065167130444,0.4317845902669088,0.8743389010709698,141.5505890964056,11.873059451513592,996.1618859204785,-121.88467055501492,43.81443786621094,4761.76025390625,True
1599387359.5086281,0.0,10,0.5,0.5,-15.991052529144286,-0.15025,-0.0155,-0.001,4.942598016563878,10,1,100,-4.1772070496848555,-10,-1,-100,18780.687765403767,0.23760431687278127,0.43358943071708744,0.8692205670448963,131.80394051842575,11.207367275583508,933.3797122923435,-122.60208907292474,2.81280517578125,4761.76025390625,True
1599387359.5435355,0.0,10,0.5,0.5,-16.282002139282227,-0.15025,-0.0155,-0.001,4.763380115895779,10,1,100,-2.580413327142692,-10,-1,-100,18780.687765403767,0.23760431687278127,0.43358943071708744,0.8692205670448963,131.80394051842575,11.207367275583508,933.3797122923435,-122.60208907292474,2.81280517578125,4761.76025390625,True
1599387359.5754502,0.0,10,0.5,0.5,-11.794962418365479,-0.15025,-0.0155,-0.001,4.739291626626324,10,1,100,-4.004450034754899,-10,-1,-100,18773.310090222047,0.25049585475861325,0.433359649555906,0.8657085195870109,132.04930605914285,11.357284210618275,939.2076121916546,-123.14055000685337,-28.713409423828125,4761.76025390625,True
1599387359.608904,0.0,10,0.5,0.5,-8.295918032073974,-0.15025,-0.0155,-0.001,4.650348841792777,10,1,100,-3.679061310743431,-10,-1,-100,18768.373733650544,0.25919666833428895,0.4323324568276678,0.8636583432687704,145.99412792612165,12.629591787962617,1041.3397443133235,-123.49833791401655,-50.107757568359375,4761.76025390625,True
1599387359.6438441,0.0,10,0.5,0.5,-8.019883685302734,-0.15025,-0.0155,-0.001,4.753919062548994,10,1,100,-2.815955049980948,-10,-1,-100,18768.373733650544,0.25919666833428895,0.4323324568276678,0.8636583432687704,145.99412792612165,12.629591787962617,1041.3397443133235,-123.49833791401655,-50.107757568359375,4761.76025390625,True
1599387359.6767583,0.0,10,0.5,0.5,-2.7977708900451663,-0.15025,-0.0155,-0.001,4.4499457411172285,10,1,100,-4.224658594217698,-10,-1,-100,18760.942354798317,0.2719422559425521,0.4295619416586479,0.8611178477486854,143.3682711584998,12.528871552141647,1027.282508722356,-124.03543183511361,-82.7669677734375,4761.76025390625,True
1599387359.7121434,0.0,10,0.5,0.5,0.8227525711059569,-0.15025,-0.0155,-0.001,4.450633239442794,10,1,100,-3.8446800063759294,-10,-1,-100,18755.97017565719,0.28000771942928315,0.4270463213457842,0.8597831799268028,126.13097445598127,11.116833224591122,906.4557888870057,-124.39419930753452,-104.91551208496094,4761.76025390625,True
1599387359.7470868,0.0,10,0.5,0.5,4.472491986083984,-0.15025,-0.0155,-0.001,4.385239760954316,10,1,100,-3.8809258064953833,-10,-1,-100,18750.983665644075,0.28760656928559447,0.4241670796841989,0.8586994525536562,139.52600281743747,12.383114249623437,1005.4261467341931,-124.75214399055683,-127.36087036132812,4761.76025390625,True
1599387359.7849488,0.0,10,0.5,0.5,4.746475022125244,-0.15025,-0.0155,-0.001,4.672553386367318,10,1,100,-3.128373977414109,-10,-1,-100,18750.983665644075,0.28760656928559447,0.4241670796841989,0.8586994525536562,139.52600281743747,12.383114249623437,1005.4261467341931,-124.75214399055683,-127.36087036132812,4761.76025390625,True
1599387359.8223574,0.0,10,0.5,0.5,10.111346932220458,-0.15025,-0.0155,-0.001,4.163860444445996,10,1,100,-4.285079567858825,-10,-1,-100,18743.477099125274,0.29805866670308695,0.41954886699215793,0.8574029271053224,150.75196668515238,13.491576236357032,1090.8998259158575,-125.28815067735414,-160.9737091064453,4761.76025390625,True
1599387359.8562677,0.0,10,0.5,0.5,-40.71490935745239,-0.15025,-0.0155,-0.001,4.2890008639167645,10,1,100,-3.951377838644011,-10,-1,-100,18738.45483330579,0.3044573868033711,0.41649925537937743,0.8566411558460676,140.7437902095288,12.687937227578702,1021.5146080456284,-125.6461964765421,176.94407653808594,4761.76025390625,True
1599387359.895163,0.0,10,0.5,0.5,-37.35338798141479,-0.15025,-0.0155,-0.001,4.27406499081005,10,1,100,-3.9862447472221882,-10,-1,-100,18733.418227699935,0.3105306014544032,0.4136066370443684,0.8558623109783576,124.74322333369611,11.33287168467936,907.9176724218177,-126.00478540595677,155.1688232421875,4761.76025390625,True
1599387359.934368,0.0,10,0.5,0.5,-35.96894075698852,-0.15025,-0.0155,-0.001,4.4105764809711605,10,1,100,-3.711923851697124,-10,-1,-100,18730.89455471828,0.31349158273731215,0.4122361637355273,0.8554439624320639,135.58177344253116,12.35593750483014,988.0920596260352,-126.18364189737784,144.31015014648438,4761.76025390625,True
1599387359.9714355,0.0,10,0.5,0.5,-32.94084847717285,-0.15025,-0.0155,-0.001,4.261365454683541,10,1,100,-4.068143283658193,-10,-1,-100,18725.836494934163,0.31936447353234937,0.40965301820289374,0.8545119880508786,150.92186874471142,13.825059175806402,1102.8107387847906,-126.54074125655966,122.44477844238281,4761.76025390625,True
1599387360.0123582,0.0,10,0.5,0.5,-31.56245762939453,-0.15025,-0.0155,-0.001,4.3827665413391745,10,1,100,-3.81178451696386,-10,-1,-100,18723.302109254175,0.3223182329168001,0.4084289679961188,0.8539887205525709,153.65572554514105,14.113787616297543,1124.36404839679,-126.71928419255633,111.4185791015625,4761.76025390625,True
1599387360.0552106,0.0,10,0.5,0.5,-25.050699435424804,-0.15025,-0.0155,-0.001,3.9798010616557855,10,1,100,-4.881442868247802,-10,-1,-100,18713.128803577274,0.3346702523101707,0.40367460298268487,0.8514943553103677,129.81066318504327,12.104369815590776,955.2863761359152,-127.43484142901491,66.63742065429688,4761.76025390625,True
1599387360.0970976,0.0,10,0.5,0.5,-25.327057395935057,-0.15025,-0.0155,-0.001,4.452648829131579,10,1,100,-3.652513728547504,-10,-1,-100,18713.128803577274,0.3346702523101707,0.40367460298268487,0.8514943553103677,129.81066318504327,12.104369815590776,955.2863761359152,-127.43484142901491,66.63742065429688,4761.76025390625,True
1599387360.1400092,0.0,10,0.5,0.5,-18.64924717178345,-0.15025,-0.0155,-0.001,3.8437554183047737,10,1,100,-5.159234299296352,-10,-1,-100,18702.898312915117,0.34831801883254127,0.39816045535549854,0.848612284584471,156.98515445358652,14.79879412039356,1161.192122025641,-128.14857847488202,20.728546142578125,4761.76025390625,True
1599387360.1798756,0.0,10,0.5,0.5,-15.38607792739868,-0.15025,-0.0155,-0.001,4.012202529818022,10,1,100,-4.597051156258067,-10,-1,-100,18697.761660792283,0.35555913123476013,0.39470257363938477,0.8472234549149527,151.99340928405792,14.419142319171538,1127.4236805674811,-128.5055996027826,-2.667266845703125,4761.76025390625,True
1599387360.2297826,0.0,10,0.5,0.5,-15.602748825836182,-0.15025,-0.0155,-0.001,4.355044250824918,10,1,100,-3.879735172231098,-10,-1,-100,18697.761660792283,0.35555913123476013,0.39470257363938477,0.8472234549149527,151.99340928405792,14.419142319171538,1127.4236805674811,-128.5055996027826,-2.667266845703125,4761.76025390625,True
1599387360.27769,0.0,10,0.5,0.5,-8.63259227142334,-0.15025,-0.0155,-0.001,3.3794555758845863,10,1,100,-5.4952273275182,-10,-1,-100,18687.44545577292,0.3701931504059777,0.3858561732247934,0.8450278368058745,146.89292046123884,14.120490897813392,1095.2155231016125,-129.22039398170236,-50.373260498046875,4761.76025390625,True
1599387360.3185759,0.0,10,0.5,0.5,-6.49481174697876,-0.15025,-0.0155,-0.001,3.9729232399806764,10,1,100,-4.428785262299613,-10,-1,-100,18684.857485151733,0.3737421165472769,0.3832370089598153,0.8446574603247734,155.6180354002322,14.992077696497265,1161.7178305907264,-129.3985256689518,-62.49322509765625,4761.76025390625,True
1599387360.3584368,0.0,10,0.5,0.5,-4.324709879302978,-0.15025,-0.0155,-0.001,3.9278827434073262,10,1,100,-4.4604239984442575,-10,-1,-100,18682.265951810987,0.3771986092633249,0.3804741002301543,0.8443699830192141,160.01043910192558,15.452324108863426,1196.0745206843706,-129.5766596633444,-74.6905517578125,4761.76025390625,True
1599387360.4003253,0.0,10,0.5,0.5,3.4971191631317136,-0.15025,-0.0155,-0.001,2.868406194517005,10,1,100,-5.5016425580296575,-10,-1,-100,18671.864135749754,0.3897485831591212,0.3683596346346463,0.844042191775558,133.27063845622735,13.052023675582872,1001.4841245896595,-130.29067158448876,-124.24146270751953,4761.76025390625,True
1599387360.437259,0.0,10,0.5,0.5,7.644580582809448,-0.15025,-0.0155,-0.001,3.3734601342338078,10,1,100,-4.845036396527027,-10,-1,-100,18666.641814556788,0.3951245178601605,0.36197542298485386,0.8443046893987454,152.85097950924526,15.041544469258634,1151.3003207554698,-130.6470446323029,-149.4622802734375,4761.76025390625,True
