Timestamp,Input Throttle,horizon,dT,dt,Input Roll,Roll P,Roll I,Roll D,Input Pitch,Pitch P,Pitch I,Pitch D,Input Yaw,Yaw P,Yaw I,Yaw D,Altitude,Direction X,Direction Y,Direction Z,Drag X,Drag Y,Drag Z,Vertical Velocity,Roll,Mass,Has Fuel
1599387565.3103607,0.0,10,0.5,0.5,-8.42529306793213,-0.15025,-0.02275,-0.12575,-0.0001419292436995593,10,1,100,0.4981998496197608,-10,-1,-100,19348.34677113907,-0.04884935319135867,-0.00017431827807920386,0.9988061425051028,61.16654113233072,3.6919156075492254,234.71098541177903,-68.84811684463017,-33.9229736328125,4761.76025390625,True
1599387565.345267,0.0,10,0.5,0.5,-8.552828378295898,-0.15025,-0.02275,-0.12575,-0.0008287299828341248,10,1,100,0.49905519645498947,-10,-1,-100,19346.966159613105,-0.048900959820652005,-0.00016584659966315082,0.9988036186475919,61.256379834561066,3.6980137420615997,235.7023956593962,-69.03057013311998,-33.92413330078125,4761.76025390625,True
1599387565.3782125,0.0,10,0.5,0.5,-8.638230397033691,-0.15025,-0.02275,-0.12575,0.023540812981905395,10,1,100,0.5091427981601522,-10,-1,-100,19341.407224165974,-0.04899512499021956,6.354699548513225e-05,0.998799015662797,61.62122422070482,3.722773478016659,239.71013006460007,-69.76034873802637,-34.07745361328125,4761.76025390625,True
1599387565.4111168,0.0,10,0.5,0.5,-8.78473421936035,-0.15025,-0.02275,-0.12575,0.0006078081666256003,10,1,100,0.5046257937024187,-10,-1,-100,19341.407224165974,-0.04899512499021956,6.354699548513225e-05,0.998799015662797,61.62122422070482,3.722773478016659,239.71013006460007,-69.76034873802637,-34.07745361328125,4761.76025390625,True
1599387565.443031,0.0,10,0.5,0.5,-8.706996342468262,-0.15025,-0.02275,-0.12575,0.04762453312727482,10,1,100,0.4996085625589116,-10,-1,-100,19337.19971081568,-0.04890497277528748,0.000490913997858775,0.9988033152935042,61.922458001840596,3.7430137662184673,242.84618911179922,-70.3076437731653,-34.820068359375,4761.76025390625,True
1599387565.4789376,0.0,10,0.5,0.5,-8.925914491271973,-0.15025,-0.02275,-0.12575,0.004936924289696419,10,1,100,0.5135142813296485,-10,-1,-100,19337.19971081568,-0.04890497277528748,0.000490913997858775,0.9988033152935042,61.922458001840596,3.7430137662184673,242.84618911179922,-70.3076437731653,-34.820068359375,4761.76025390625,True
1599387565.5128608,0.0,10,0.5,0.5,-8.496197615051269,-0.15025,-0.02275,-0.12575,0.12129311733239564,10,1,100,0.4665737928614191,-10,-1,-100,19331.53861505899,-0.048433781995780585,0.0015482512855216238,0.9988251957572667,62.35488664898553,3.7717330279021497,247.18139980828064,-71.03730978179824,-36.83184814453125,4761.76025390625,True
1599387565.5427797,0.0,10,0.5,0.5,-8.680731805419923,-0.15025,-0.02275,-0.12575,0.05539732228243774,10,1,100,0.49852792496480924,-10,-1,-100,19330.11422066798,-0.048251888140808975,0.0019090068181377583,0.9988333749849448,62.462265325519276,3.7788244114891527,248.2683507024526,-71.2197147371112,-37.518096923828125,4761.76025390625,True
1599387565.57668,0.0,10,0.5,0.5,-8.886423918914794,-0.15025,-0.02275,-0.12575,0.019512669702638066,10,1,100,0.5215424992760511,-10,-1,-100,19330.11422066798,-0.048251888140808975,0.0019090068181377583,0.9988333749849448,62.462265325519276,3.7788244114891527,248.2683507024526,-71.2197147371112,-37.518096923828125,4761.76025390625,True
1599387565.6125522,0.0,10,0.5,0.5,-8.315963436889648,-0.15025,-0.02275,-0.12575,0.15740334015863014,10,1,100,0.44442647746479524,-10,-1,-100,19325.819149807794,-0.047506968044215,0.0031608229069939246,0.9988659055077396,62.76105833027675,3.798521025097466,251.45003740567597,-71.76690165957788,-40.017578125,4761.76025390625,True
1599387565.64646,0.0,10,0.5,0.5,-8.743983207702636,-0.15025,-0.02275,-0.12575,0.032537813563712895,10,1,100,0.5236691839286138,-10,-1,-100,19325.819149807794,-0.047506968044215,0.0031608229069939246,0.9988659055077396,62.76105833027675,3.798521025097466,251.45003740567597,-71.76690165957788,-40.017578125,4761.76025390625,True
1599387565.681408,0.0,10,0.5,0.5,-8.169004457092285,-0.15025,-0.02275,-0.12575,0.14415352438708523,10,1,100,0.45226144308853194,-10,-1,-100,19322.93753024575,-0.04685902711398439,0.004172479240674516,0.9988927980493789,62.92245206514618,3.809186189629826,253.43004872473117,-72.13167075505253,-42.05059814453125,4761.76025390625,True
1599387565.7153091,0.0,10,0.5,0.5,-7.763808665466308,-0.15025,-0.02275,-0.12575,0.1607089698483341,10,1,100,0.42846744364676415,-10,-1,-100,19320.041320774006,-0.046055537121310185,0.005238726933813372,0.9989251439625396,63.0340534411901,3.8166563582015747,255.21579907341896,-72.4964244841325,-44.37799072265625,4761.76025390625,True
1599387565.7471912,0.0,10,0.5,0.5,-6.917766361999512,-0.15025,-0.02275,-0.12575,0.2590848040985907,10,1,100,0.3481040440319861,-10,-1,-100,19315.669650438358,-0.0445971876658983,0.00709766407536164,0.9989798366418443,63.06314768334405,3.8190813433382353,257.33999131062194,-73.04353371839343,-48.418853759765625,4761.76025390625,True
1599387566.0598776,0.0,10,0.5,0.5,-7.3932782035827636,-0.15025,-0.02275,-0.12575,0.07389450165175161,10,1,100,0.4934991958407426,-10,-1,-100,19315.669650438358,-0.0445971876658983,0.00709766407536164,0.9989798366418443,63.06314768334405,3.8190813433382353,257.33999131062194,-73.04353371839343,-48.418853759765625,4761.76025390625,True
1599387566.089836,0.0,10,0.5,0.5,-6.949975,-0.15025,-0.02275,-0.12575,0.1453647164284625,10,1,100,0.43082840108238035,-10,-1,-100,19314.205132210394,-0.04403136933637627,0.007741387164170372,0.9990001548744315,63.02505679745907,3.8168759100464227,257.85329065458575,-73.2259001409601,-49.912933349609375,4761.76025390625,True
1599387566.1217356,0.0,10,0.5,0.5,-5.74471955795288,-0.15025,-0.02275,-0.12575,0.3044698412595663,10,1,100,0.2751482521941936,-10,-1,-100,19309.789693975123,-0.042106145504589916,0.009766408858673517,0.9990654081534159,62.723289372199474,3.798526644076608,258.61656936652406,-73.77300107955298,-54.83612060546875,4761.76025390625,True
1599387566.15564,0.0,10,0.5,0.5,-6.322850635528565,-0.15025,-0.02275,-0.12575,0.10278948756656701,10,1,100,0.4670378717237097,-10,-1,-100,19309.789693975123,-0.042106145504589916,0.009766408858673517,0.9990654081534159,62.723289372199474,3.798526644076608,258.61656936652406,-73.77300107955298,-54.83612060546875,4761.76025390625,True
1599387566.2100413,0.0,10,0.5,0.5,-4.741817610168457,-0.15025,-0.02275,-0.12575,0.33055648243637326,10,1,100,0.2159153947914281,-10,-1,-100,19305.341428762767,-0.03982880093487483,0.01182987481018036,0.9991364875121244,62.070410593943784,3.7583812419285256,257.9042058990139,-74.32012653492262,-60.4217529296875,4761.76025390625,True
1599387566.2619028,0.0,10,0.5,0.5,-5.392105057525635,-0.15025,-0.02275,-0.12575,0.12520197408489328,10,1,100,0.4428075430423435,-10,-1,-100,19305.341428762767,-0.03982880093487483,0.01182987481018036,0.9991364875121244,62.070410593943784,3.7583812419285256,257.9042058990139,-74.32012653492262,-60.4217529296875,4761.76025390625,True
1599387566.2988424,0.0,10,0.5,0.5,-3.0054130989074705,-0.15025,-0.02275,-0.12575,0.4201651100106736,10,1,100,0.051823713454004106,-10,-1,-100,19299.35933924874,-0.036281382635989325,0.014503476907775465,0.9992363636455625,60.48950053498761,3.6612976588946355,253.91262198841144,-75.04972221214952,-68.9010009765625,4761.76025390625,True
1599387566.3357365,0.0,10,0.5,0.5,-2.714038089752197,-0.15025,-0.02275,-0.12575,0.3025234649703574,10,1,100,0.181204205097057,-10,-1,-100,19296.34640429623,-0.034242848275037735,0.015854243265221977,0.9992877815286745,59.330150393334755,3.590404331257492,250.31248366591095,-75.41458497466014,-73.5819091796875,4761.76025390625,True
1599387566.3696783,0.0,10,0.5,0.5,-3.2309285636901857,-0.15025,-0.02275,-0.12575,0.16861500562816098,10,1,100,0.3837960233083213,-10,-1,-100,19296.34640429623,-0.034242848275037735,0.015854243265221977,0.9992877815286745,59.330150393334755,3.590404331257492,250.31248366591095,-75.41458497466014,-73.5819091796875,4761.76025390625,True
1599387566.406564,0.0,10,0.5,0.5,-1.7903856452941898,-0.15025,-0.02275,-0.12575,0.28997880221661,10,1,100,0.15899057111206352,-10,-1,-100,19293.318873303477,-0.03220990115402291,0.01694790003754296,0.9993374259738128,57.8896364153286,3.5026575586304247,245.47236775194912,-75.77950484017673,-78.560546875,4761.76025390625,True
1599387566.4415026,0.0,10,0.5,0.5,-0.8925682678222655,-0.15025,-0.02275,-0.12575,0.30158076479228213,10,1,100,0.11895188716653093,-10,-1,-100,19290.276743636583,-0.030009040541333572,0.018038651094011617,0.9993868442962901,56.14393606778596,3.3967551088259045,239.27164412098853,-76.14449018126338,-83.83340454101562,4761.76025390625,True
1599387566.4773703,0.0,10,0.5,0.5,-0.7168874557495118,-0.15025,-0.02275,-0.12575,0.25110506276278105,10,1,100,0.2089306164291319,-10,-1,-100,19288.75020326604,-0.028839508565934695,0.018561426593243432,0.9994117050487747,55.150332702828955,3.336659292794516,235.62785157589195,-76.32700940919752,-86.58041381835938,4761.76025390625,True
1599387566.5122795,0.0,10,0.5,0.5,0.5988358261108397,-0.15025,-0.02275,-0.12575,0.29970305524868796,10,1,100,0.06671917311128006,-10,-1,-100,19285.686169912224,-0.026497277158837464,0.019468640579299624,0.9994592869832976,52.91018170145726,3.2015595347494985,227.19097829375173,-76.69210340854777,-92.29686737060547,4761.76025390625,True
1599387566.5482163,0.0,10,0.5,0.5,3.3412497198104862,-0.15025,-0.02275,-0.12575,0.3687119585455706,10,1,100,-0.23413066406751315,-10,-1,-100,19279.514294928173,-0.02164716724016527,0.020911914022303617,0.9995469433710455,55.4939917434279,3.3606381458683168,240.66480798517748,-77.42218319600893,-104.52887725830078,4761.76025390625,True
1599387566.590318,0.0,10,0.5,0.5,1.9161254978179931,-0.15025,-0.02275,-0.12575,0.2254991647615343,10,1,100,0.24883442997326355,-10,-1,-100,19279.514294928173,-0.02164716724016527,0.020911914022303617,0.9995469433710455,55.4939917434279,3.3606381458683168,240.66480798517748,-77.42218319600893,-104.52887725830078,4761.76025390625,True
1599387566.62523,0.0,10,0.5,0.5,5.4121439188003535,-0.15025,-0.02275,-0.12575,0.331305219838666,10,1,100,-0.2751411224189413,-10,-1,-100,19273.284032915602,-0.016900281885413145,0.021865530850993794,0.9996180665798302,58.66213473928281,3.5567542607777947,256.9153783730883,-78.15187363061094,-116.83204650878906,4761.76025390625,True
1599387566.6571412,0.0,10,0.5,0.5,3.9933538034439082,-0.15025,-0.02275,-0.12575,0.23694710257372975,10,1,100,0.19725456115132517,-10,-1,-100,19273.284032915602,-0.016900281885413145,0.021865530850993794,0.9996180665798302,58.66213473928281,3.5567542607777947,256.9153783730883,-78.15187363061094,-116.83204650878906,4761.76025390625,True
1599387566.6945949,0.0,10,0.5,0.5,5.694576985740661,-0.15025,-0.02275,-0.12575,0.26616281150522664,10,1,100,-0.07822510186989992,-10,-1,-100,19270.147016207222,-0.014413540494993441,0.022124435428604476,0.9996513188143977,59.8331147861709,3.6298492390616333,263.32237370809816,-78.51658820145326,-122.60081481933594,4761.76025390625,True
1599387566.732499,0.0,10,0.5,0.5,7.317196367835998,-0.15025,-0.02275,-0.12575,0.26480107516146545,10,1,100,-0.20986605624474008,-10,-1,-100,19265.414141675807,-0.010974157198277022,0.022341723630431465,0.9996901596289767,60.87413245111321,3.6956235709187157,269.8534269628905,-79.06354794481857,-130.70416259765625,4761.76025390625,True
1599387566.768398,0.0,10,0.5,0.5,6.428153511238098,-0.15025,-0.02275,-0.12575,0.24372100301528749,10,1,100,0.1317454043192258,-10,-1,-100,19265.414141675807,-0.010974157198277022,0.022341723630431465,0.9996901596289767,60.87413245111321,3.6956235709187157,269.8534269628905,-79.06354794481857,-130.70416259765625,4761.76025390625,True
1599387566.8052704,0.0,10,0.5,0.5,7.935982202339172,-0.15025,-0.02275,-0.12575,0.2503796144570767,10,1,100,-0.11075978160781882,-10,-1,-100,19262.240661632735,-0.008788869820718203,0.022397352985726923,0.9997105152725498,61.15887591089417,3.714163182085885,272.42107685492556,-79.42814235193126,-135.7375030517578,4761.76025390625,True
1599387566.8371806,0.0,10,0.5,0.5,9.352224430656433,-0.15025,-0.02275,-0.12575,0.2372602695203318,10,1,100,-0.242811088107242,-10,-1,-100,19257.453098153463,-0.0056210695735978075,0.02232469589848719,0.9997349706446648,61.1029390105673,3.7118814974217993,274.1287867502598,-79.97500924597722,-142.7342529296875,4761.76025390625,True
1599387566.8731174,0.0,10,0.5,0.5,9.785704223442076,-0.15025,-0.02275,-0.12575,0.2297634898325907,10,1,100,-0.14871395507298674,-10,-1,-100,19254.24316003057,-0.0036177873210655295,0.022187070304466837,0.9997472908321403,60.81061283645624,3.6944258144376048,274.1166186956879,-80.33959059605647,-147.02980041503906,4761.76025390625,True
1599387566.9130132,0.0,10,0.5,0.5,9.370056549835205,-0.15025,-0.02275,-0.12575,0.2437978922071427,10,1,100,0.04932632119646388,-10,-1,-100,19254.24316003057,-0.0036177873210655295,0.022187070304466837,0.9997472908321403,60.81061283645624,3.6944258144376048,274.1166186956879,-80.33959059605647,-147.02980041503906,4761.76025390625,True
1599387566.9488826,0.0,10,0.5,0.5,10.570400813102722,-0.15025,-0.02275,-0.12575,0.2332243611936872,10,1,100,-0.15758275690787243,-10,-1,-100,19251.018638368696,-0.0017531860473161992,0.02208978806226982,0.99975445365452,60.365148120844545,3.667395699204746,273.3994710367739,-80.7041864494895,-151.02854919433594,4761.76025390625,True
1599387566.9848008,0.0,10,0.5,0.5,12.136378904342651,-0.15025,-0.02275,-0.12575,0.19854581032458057,10,1,100,-0.35736368089332904,-10,-1,-100,19244.52584076079,0.0017400108003302077,0.02168501931233523,0.9997633381455026,59.18809765421438,3.5954749139299715,270.6036750114872,-81.4334443083994,-158.1409912109375,4761.76025390625,True
1599387567.01674,0.0,10,0.5,0.5,11.335967169952392,-0.15025,-0.02275,-0.12575,0.2390046341641737,10,1,100,-0.00990802539726271,-10,-1,-100,19244.52584076079,0.0017400108003302077,0.02168501931233523,0.9997633381455026,59.18809765421438,3.5954749139299715,270.6036750114872,-81.4334443083994,-158.1409912109375,4761.76025390625,True
1599387567.0516398,0.0,10,0.5,0.5,11.869508373641969,-0.15025,-0.02275,-0.12575,0.2310340888926498,10,1,100,-0.09903314750037207,-10,-1,-100,19242.893525204738,0.0025332934624623443,0.021612723911265612,0.99976320825952,58.85744195948984,3.575240112224588,269.72300258407614,-81.61577479914236,-159.73361206054688,4761.76025390625,True
1599387567.0885088,0.0,10,0.5,0.5,12.57149649658203,-0.15025,-0.02275,-0.12575,0.2245692861491579,10,1,100,-0.18807513564976008,-10,-1,-100,19239.617953790003,0.0040485259257973995,0.021488695077640885,0.9997608941250345,58.181219994166064,3.5338660188115467,267.87266871679424,-81.98045557215275,-162.69659423828125,4761.76025390625,True
1599387567.1244113,0.0,10,0.5,0.5,13.008292118835447,-0.15025,-0.02275,-0.12575,0.21079906590605507,10,1,100,-0.19606020969594334,-10,-1,-100,19236.327794226003,0.005484944580954503,0.02125153325263819,0.9997591148458492,57.510468115528575,3.4928635548915885,266.0197779032865,-82.34516163244544,-165.36546325683594,4761.76025390625,True
1599387567.1583552,0.0,10,0.5,0.5,13.406143476486207,-0.15025,-0.02275,-0.12575,0.2171037946907724,10,1,100,-0.19919722442474028,-10,-1,-100,19233.023045725306,0.006804335217923449,0.021094238391931166,0.9997543368892713,56.86381786584807,3.4533959917744768,264.2511302722481,-82.70989075007631,-167.7372283935547,4761.76025390625,True
1599387567.1952586,0.0,10,0.5,0.5,13.477299892044067,-0.15025,-0.02275,-0.12575,0.22620867438045872,10,1,100,-0.13711865638756543,-10,-1,-100,19231.365200319095,0.007425254992067591,0.021035199347189015,0.9997511620281953,56.55637917927424,3.4346595508800495,263.4307396061312,-82.89226308936748,-168.8118896484375,4761.76025390625,True
1599387567.2341464,0.0,10,0.5,0.5,14.383600777816772,-0.15025,-0.02275,-0.12575,0.21297547714777015,10,1,100,-0.32301442928232,-10,-1,-100,19224.697342473897,0.009667828790727612,0.02086239796490016,0.9997356117682451,55.487308969720274,3.369707928594868,260.840498396451,-83.62179404456501,-172.37026977539062,4761.76025390625,True
1599387567.2720225,0.0,10,0.5,0.5,13.993784044647215,-0.15025,-0.02275,-0.12575,0.23012314814269882,10,1,100,-0.10008561102749727,-10,-1,-100,19224.697342473897,0.009667828790727612,0.02086239796490016,0.9997356117682451,55.487308969720274,3.369707928594868,260.840498396451,-83.62179404456501,-172.37026977539062,4761.76025390625,True
1599387567.3099492,0.0,10,0.5,0.5,14.70616713294983,-0.15025,-0.02275,-0.12575,0.23698761388611905,10,1,100,-0.3042484304979165,-10,-1,-100,19217.971120206756,0.011511776589447974,0.020926006446512678,0.9997147499431801,54.752568617649644,3.3254104628235224,259.7470780374077,-84.35136658636101,-174.74249267578125,4761.76025390625,True
1599387567.346819,0.0,10,0.5,0.5,14.461809324645994,-0.15025,-0.02275,-0.12575,0.23051038756329162,10,1,100,-0.12118014688955664,-10,-1,-100,19217.971120206756,0.011511776589447974,0.020926006446512678,0.9997147499431801,54.752568617649644,3.3254104628235224,259.7470780374077,-84.35136658636101,-174.74249267578125,4761.76025390625,True
1599387567.379755,0.0,10,0.5,0.5,14.70450571899414,-0.15025,-0.02275,-0.12575,0.23698658327820427,10,1,100,-0.2076039155330704,-10,-1,-100,19214.586121506058,0.012288563790035265,0.020985570964708086,0.999704254773012,54.53607061727853,3.3125266753151013,259.8965223603417,-84.71615752686003,-175.4849853515625,4761.76025390625,True
1599387567.4166665,0.0,10,0.5,0.5,14.773210513305663,-0.15025,-0.02275,-0.12575,0.2569094816788941,10,1,100,-0.204591731725272,-10,-1,-100,19211.18653134536,0.01295776088959854,0.021221473647026208,0.9996908249498825,54.42469542162257,3.3060743304309246,260.5404292273921,-85.08094574190623,-175.9292449951172,4761.76025390625,True
1599387567.4535327,0.0,10,0.5,0.5,14.785177598953247,-0.15025,-0.02275,-0.12575,0.27570843732378947,10,1,100,-0.22954960420069898,-10,-1,-100,19206.059787392733,0.013783534850408001,0.02160718590978195,0.9996715178917962,54.466825328388694,3.3091509733288054,262.50650011013244,-85.6281124645409,-176.04151916503906,4761.76025390625,True
1599387567.4894722,0.0,10,0.5,0.5,14.801418826293945,-0.15025,-0.02275,-0.12575,0.2371490601314295,10,1,100,-0.14794570901221388,-10,-1,-100,19206.059787392733,0.013783534850408001,0.02160718590978195,0.9996715178917962,54.466825328388694,3.3091509733288054,262.50650011013244,-85.6281124645409,-176.04151916503906,4761.76025390625,True
1599387567.5243785,0.0,10,0.5,0.5,14.744076787567137,-0.15025,-0.02275,-0.12575,0.2766923681381045,10,1,100,-0.1942134647386779,-10,-1,-100,19202.62371982739,0.014196606638585444,0.021966347207427045,0.9996579094621881,54.63274978715573,3.3195816958692217,264.4866787015979,-85.99287319282973,-175.74575805664062,4761.76025390625,True
1599387567.5612466,0.0,10,0.5,0.5,14.6360764087677,-0.15025,-0.02275,-0.12575,0.2889013635647474,10,1,100,-0.18662055143905307,-10,-1,-100,19199.173062282265,0.014496379714731382,0.022403055519332526,0.9996439156412469,54.907862744077825,3.3366309565510535,267.0054954929431,-86.35761502732188,-175.1536865234375,4761.76025390625,True
1599387567.5971844,0.0,10,0.5,0.5,14.326817221450804,-0.15025,-0.02275,-0.12575,0.3268199080711591,10,1,100,-0.18592464707239786,-10,-1,-100,19193.969722143258,0.01475614599451022,0.023143533610966577,0.9996232455317287,55.51587693159988,3.374012126194311,271.76319216807775,-86.90468214138892,-173.71115112304688,4761.76025390625,True
1599387567.6370447,0.0,10,0.5,0.5,14.511266553115844,-0.15025,-0.02275,-0.12575,0.25300021247236076,10,1,100,-0.16045685081489225,-10,-1,-100,19193.969722143258,0.01475614599451022,0.023143533610966577,0.9996232455317287,55.51587693159988,3.374012126194311,271.76319216807775,-86.90468214138892,-173.71115112304688,4761.76025390625,True
1599387567.6759698,0.0,10,0.5,0.5,14.146815410232545,-0.15025,-0.02275,-0.12575,0.3163987373183649,10,1,100,-0.16269866039725883,-10,-1,-100,19190.48259423359,0.014771900338710115,0.0237178100771611,0.9996095519979423,56.04035620840407,3.406112522182402,275.5432449986854,-87.26935641190371,-172.37962341308594,4761.76025390625,True
1599387567.7138774,0.0,10,0.5,0.5,13.329255529785154,-0.15025,-0.02275,-0.12575,0.4007791890337927,10,1,100,-0.1251322021841425,-10,-1,-100,19183.46458242403,0.014441745464455086,0.0250044366041776,0.999583020132919,57.33865185333492,3.4852898843849855,284.40931963459354,-87.99859609049882,-168.83026123046875,4761.76025390625,True
1599387567.7497818,0.0,10,0.5,0.5,13.15013310317993,-0.15025,-0.02275,-0.12575,0.3497588535426091,10,1,100,-0.11727299811768138,-10,-1,-100,19179.933701579343,0.014067493751914498,0.025706568187765785,0.9995705467707358,58.085872046574174,3.5307533740453176,289.3735127033653,-88.36315340211195,-166.61285400390625,4761.76025390625,True
1599387567.787958,0.0,10,0.5,0.5,13.408787963104247,-0.15025,-0.02275,-0.12575,0.2800177949060966,10,1,100,-0.1548760623679281,-10,-1,-100,19179.933701579343,0.014067493751914498,0.025706568187765785,0.9995705467707358,58.085872046574174,3.5307533740453176,289.3735127033653,-88.36315340211195,-166.61285400390625,4761.76025390625,True
1599387567.8208678,0.0,10,0.5,0.5,12.694308261489867,-0.15025,-0.02275,-0.12575,0.35822896163064777,10,1,100,-0.09644107573732041,-10,-1,-100,19176.388239666703,0.013535257752670504,0.026413501435679214,0.9995594648341221,58.87829040055067,3.578922858789678,294.59637614418955,-88.72766430037962,-164.1009521484375,4761.76025390625,True
1599387567.856774,0.0,10,0.5,0.5,12.605881951141358,-0.15025,-0.02275,-0.12575,0.32789239352765864,10,1,100,-0.11597140729634475,-10,-1,-100,19174.610041505075,0.013229181019437765,0.02677601166418616,0.9995539174896542,59.28613881633491,3.603707172394177,297.27907512033005,-88.90990157503471,-162.73452758789062,4761.76025390625,True
1599387567.8967044,0.0,10,0.5,0.5,11.0359382648468,-0.15025,-0.02275,-0.12575,0.45147017755626206,10,1,100,0.02998871245202142,-10,-1,-100,19167.46080644848,0.011624523222269192,0.02822430188513032,0.9995340210532867,60.927603827026324,3.7035159575704406,308.1491454699112,-89.63872436148336,-156.533447265625,4761.76025390625,True
1599387567.9336035,0.0,10,0.5,0.5,11.293446528244019,-0.15025,-0.02275,-0.12575,0.3466939191345954,10,1,100,-0.07636014406852427,-10,-1,-100,19165.664388481528,0.01113488945086301,0.028582728868811948,0.9995294101962829,61.3242697665023,3.7276831397358845,310.81941306200343,-89.82089837714184,-154.79949951171875,4761.76025390625,True
1599387567.9725013,0.0,10,0.5,0.5,10.96634972190857,-0.15025,-0.02275,-0.12575,0.350290034164001,10,1,100,-0.06714190532999141,-10,-1,-100,19163.864327190677,0.010609021570383336,0.028935645651199406,0.9995249757119965,61.70837599844482,3.7511220336839375,313.43446700683586,-90.0030601451148,-152.99212646484375,4761.76025390625,True
1599387568.0103974,0.0,10,0.5,0.5,8.949394482803346,-0.15025,-0.02275,-0.12575,0.4482354663177453,10,1,100,0.15279285472023713,-10,-1,-100,19156.62765400682,0.00813532306442167,0.03014162655291274,0.9995125306204932,63.03801596117706,3.832845362623051,322.9186980431401,-90.73159394349534,-145.03163146972656,4761.76025390625,True
1599387568.0472996,0.0,10,0.5,0.5,9.885180821228028,-0.15025,-0.02275,-0.12575,0.3283371854406064,10,1,100,-0.09391491358292066,-10,-1,-100,19156.62765400682,0.00813532306442167,0.03014162655291274,0.9995125306204932,63.03801596117706,3.832845362623051,322.9186980431401,-90.73159394349534,-145.03163146972656,4761.76025390625,True
1599387568.0800219,0.0,10,0.5,0.5,7.963345914459228,-0.15025,-0.02275,-0.12575,0.40519954298043437,10,1,100,0.14778357473677295,-10,-1,-100,19151.16190557205,0.005944097331764717,0.030834535424660494,0.9995068279566958,63.6944155015256,3.8742392758793947,328.35133293725926,-91.27789979048201,-138.29388427734375,4761.76025390625,True
1599387568.119876,0.0,10,0.5,0.5,8.741147366333008,-0.15025,-0.02275,-0.12575,0.3364916656877074,10,1,100,-0.07048923371565324,-10,-1,-100,19151.16190557205,0.005944097331764717,0.030834535424660494,0.9995068279566958,63.6944155015256,3.8742392758793947,328.35133293725926,-91.27789979048201,-138.29388427734375,4761.76025390625,True
1599387568.1567774,0.0,10,0.5,0.5,7.336208038330078,-0.15025,-0.02275,-0.12575,0.3759737939299282,10,1,100,0.10709832902711305,-10,-1,-100,19147.49986387801,0.004337049849030614,0.03118880207482896,0.9995041013541386,63.8939857614341,3.8878590105854838,330.7656816422073,-91.64207861164728,-133.43695068359375,4761.76025390625,True
1599387568.1927128,0.0,10,0.5,0.5,6.450809884643554,-0.15025,-0.02275,-0.12575,0.3603363917154684,10,1,100,0.1310527074970762,-10,-1,-100,19143.82325527782,0.002667176373093477,0.03136372061495333,0.9995044788290756,63.85495658545202,3.8873762921190025,331.9498325355841,-92.00625468260311,-128.28955078125,4761.76025390625,True
1599387568.2306123,0.0,10,0.5,0.5,5.515213290405273,-0.15025,-0.02275,-0.12575,0.35728313558905866,10,1,100,0.164562723490992,-10,-1,-100,19140.132079396397,0.0008543531417328244,0.03149048039648151,0.9995036866991077,63.53319504778495,3.8700514249174565,331.6584636876602,-92.37044565503243,-122.84965515136719,4761.76025390625,True
1599387568.267513,0.0,10,0.5,0.5,4.52711379737854,-0.15025,-0.02275,-0.12575,0.33622226866476146,10,1,100,0.18478179366838637,-10,-1,-100,19136.42633466143,-0.0009662278630461677,0.03140996825425688,0.9995061181893702,62.888556913364475,3.8333162973459864,329.6632605353977,-92.73467130465286,-117.11984252929688,4761.76025390625,True
1599387568.3006926,0.0,10,0.5,0.5,3.496185284805298,-0.15025,-0.02275,-0.12575,0.32225089021026254,10,1,100,0.20967373798378133,-10,-1,-100,19132.706019387115,-0.0028361457692712825,0.031206866805948936,0.9995089232924992,61.93330803467395,3.777721317526555,326.00809551689565,-93.09895132372917,-111.098876953125,4761.76025390625,True
1599387568.3405864,0.0,10,0.5,0.5,1.5108561893463133,-0.15025,-0.02275,-0.12575,0.27743174519174196,10,1,100,0.33304221806432815,-10,-1,-100,19127.098220659653,-0.005644901834553509,0.03061239677283049,0.9995153907004641,60.03523550242531,3.66556263317602,317.98922325136544,-93.64550079235045,-101.52262115478516,4761.76025390625,True
1599387568.3774872,0.0,10,0.5,0.5,0.735693173789978,-0.15025,-0.02275,-0.12575,0.2731400913293118,10,1,100,0.2551766727051189,-10,-1,-100,19123.341466635116,-0.007475671551176415,0.030031430115681056,0.9995209990490773,58.47001634054518,3.571843892062579,310.98287157482366,-94.00996844313963,-94.77521514892578,4761.76025390625,True
1599387568.4129016,0.0,10,0.5,0.5,1.4698461318969727,-0.15025,-0.02275,-0.12575,0.33122573740053207,10,1,100,0.07366080050438809,-10,-1,-100,19123.341466635116,-0.007475671551176415,0.030031430115681056,0.9995209990490773,58.47001634054518,3.571843892062579,310.98287157482366,-94.00996844313963,-94.77521514892578,4761.76025390625,True
1599387568.4498024,0.0,10,0.5,0.5,-1.5851342184066772,-0.15025,-0.02275,-0.12575,0.20937229431830473,10,1,100,0.35815624896735443,-10,-1,-100,19117.678999469965,-0.010047801996643747,0.028923771720785564,0.9995311186273694,60.688617482233326,3.7089273116044694,324.785434433195,-94.55665557273929,-84.12069702148438,4761.76025390625,True
1599387568.4867053,0.0,10,0.5,0.5,-1.3822290590286255,-0.15025,-0.02275,-0.12575,0.27250217202656857,10,1,100,0.19284822929273,-10,-1,-100,19115.784222940914,-0.010868764132455274,0.028492454580686492,0.9995349168479313,62.087367940680906,3.794614279305817,332.954147744656,-94.73881413309914,-80.44802856445312,4761.76025390625,True
1599387568.5206156,0.0,10,0.5,0.5,-3.1349615137100217,-0.15025,-0.02275,-0.12575,0.2070015741801006,10,1,100,0.29092115716589484,-10,-1,-100,19111.98374360311,-0.012491380998890687,0.027507017273668513,0.9995435605322294,64.62534830383548,3.9498477541346815,347.9857811129425,-95.10302678829696,-72.90103149414062,4761.76025390625,True
1599387568.558512,0.0,10,0.5,0.5,-3.370336766242981,-0.15025,-0.02275,-0.12575,0.2520389888034267,10,1,100,0.2087420090796236,-10,-1,-100,19110.0780418294,-0.013204105503185942,0.027023943295501642,0.9995475766998899,65.74636061552476,4.018355515585517,354.7444753407761,-95.28508300986893,-69.10867309570312,4761.76025390625,True
1599387568.5944164,0.0,10,0.5,0.5,-6.069399013710021,-0.15025,-0.02275,-0.12575,0.1230824622287266,10,1,100,0.3654089688964499,-10,-1,-100,19104.339095637784,-0.015261853521901613,0.02541639832587035,0.9995604446571587,68.28727720055062,4.173902282806773,370.70309015983173,-95.83108397306061,-58.08941650390625,4761.76025390625,True
1599387568.6313179,0.0,10,0.5,0.5,-6.759544711112976,-0.15025,-0.02275,-0.12575,0.15848590650351907,10,1,100,0.29550711042480293,-10,-1,-100,19100.49493480008,-0.016482411001297582,0.024282365194222392,0.9995692556637378,69.29084583981505,4.236001488181401,377.67119574924027,-96.1949831958463,-51.102142333984375,4761.76025390625,True
1599387568.6692162,0.0,10,0.5,0.5,-6.964564622306824,-0.15025,-0.02275,-0.12575,0.20682585897291958,10,1,100,0.23716245504538935,-10,-1,-100,19098.567396425875,-0.01704749713080993,0.02369735973613701,0.999573818176082,69.59917993650782,4.255475725623106,380.1153502803805,-96.37691470772603,-47.719970703125,4761.76025390625,True
1599387568.7081127,0.0,10,0.5,0.5,-8.489126046562195,-0.15025,-0.02275,-0.12575,0.14560755564597203,10,1,100,0.2949764782140059,-10,-1,-100,19094.701404121588,-0.018073874412479908,0.02261583338678697,0.9995808417251418,69.86107573727885,4.273256123807767,383.079622663093,-96.74076201156254,-41.177642822265625,4761.76025390625,True
1599387568.7430227,0.0,10,0.5,0.5,-9.527087530899047,-0.15025,-0.02275,-0.12575,0.13123908082049773,10,1,100,0.29497378007534547,-10,-1,-100,19090.82085790811,-0.018995621074030314,0.021509274719315387,0.9995881739401786,69.69472141761335,4.265473493836381,383.7000780689361,-97.10461295439345,-34.93353271484375,4761.76025390625,True
1599387568.7809215,0.0,10,0.5,0.5,-9.708911127662658,-0.15025,-0.02275,-0.12575,0.18067832318183455,10,1,100,0.24954480069335672,-10,-1,-100,19088.875126963598,-0.019410109181491827,0.02096050736616825,0.9995918691108463,69.46883495118986,4.253034087954667,383.22151068389286,-97.28654802720112,-31.923095703125,4761.76025390625,True
1599387568.8198164,0.0,10,0.5,0.5,-11.073712733459473,-0.15025,-0.02275,-0.12575,0.12096154092968188,10,1,100,0.29219037972400563,-10,-1,-100,19084.972747830907,-0.02016375414525336,0.019926994408969025,0.9995980881897456,68.7684500954749,4.2131585588795515,380.8753067938385,-97.65045094266145,-26.1246337890625,4761.76025390625,True
1599387568.8587136,0.0,10,0.5,0.5,-11.994985717010497,-0.15025,-0.02275,-0.12575,0.11741791436596369,10,1,100,0.2913673228326381,-10,-1,-100,19081.055810865946,-0.02083220727497995,0.018963401276673942,0.9996031255213603,67.78543626074867,4.156050163806944,376.9305397986466,-98.01441123396198,-20.62286376953125,4761.76025390625,True
1599387568.8986058,0.0,10,0.5,0.5,-12.875749298095702,-0.15025,-0.02275,-0.12575,0.11124223473667916,10,1,100,0.28791120173269513,-10,-1,-100,19077.12431341922,-0.021399414980056892,0.018039927753688564,0.9996082362831716,66.71401438994432,4.093353716909695,372.45258081867814,-98.37843665767086,-15.418121337890625,4761.76025390625,True
1599387568.9365044,0.0,10,0.5,0.5,-13.706850654602052,-0.15025,-0.02275,-0.12575,0.11285297221845514,10,1,100,0.2886523719395817,-10,-1,-100,19073.178253209102,-0.0219136980465702,0.01722365588219071,0.9996114922888671,65.5355590194016,4.023717976074254,367.33063420028026,-98.7425279497192,-10.50933837890625,4761.76025390625,True
1599387568.9734063,0.0,10,0.5,0.5,-14.495914469146728,-0.15025,-0.02275,-0.12575,0.11243869089645603,10,1,100,0.28760132135823,-10,-1,-100,19069.21762762731,-0.022363755290348755,0.016486733702822953,0.9996139505134598,64.43454752272382,3.9583177711514557,362.5949436362853,-99.10668035368576,-5.89691162109375,4761.76025390625,True
1599387569.0103095,0.0,10,0.5,0.5,-15.22598472366333,-0.15025,-0.02275,-0.12575,0.11452223830269437,10,1,100,0.2877742045178497,-10,-1,-100,19065.24243395403,-0.022768013629990848,0.01584386366583902,0.9996152207422027,63.23109465492961,3.886016179467843,357.2335893990765,-99.47089148982376,-1.5804443359375,4761.76025390625,True
1599387569.0472088,0.0,10,0.5,0.5,-16.933595820617676,-0.15025,-0.02275,-0.12575,0.07014193933326475,10,1,100,0.32581594143152265,-10,-1,-100,19057.248340780963,-0.02347564099921824,0.01486365046115734,0.9996139085540198,64.94898781494177,3.993158794904402,369.8412625680853,-100.1992804930087,6.165008544921875,4761.76025390625,True
1599387569.081118,0.0,10,0.5,0.5,-16.565623014068603,-0.15025,-0.02275,-0.12575,0.14752557599192856,10,1,100,0.2735231916265724,-10,-1,-100,19055.240714192158,-0.02363770620586322,0.01468406579859365,0.9996127435446929,65.72911427708715,4.041204206167639,375.0181641622415,-100.38132270493224,7.91656494140625,4761.76025390625,True
1599387569.1230056,0.0,10,0.5,0.5,-17.362780194091794,-0.15025,-0.02275,-0.12575,0.13477708527645132,10,1,100,0.29368606166317823,-10,-1,-100,19051.21454034443,-0.023963279001515635,0.014412122342111585,0.9996089495343122,67.1374891237719,4.127685268131452,384.55440601300546,-100.7453442660036,11.19818115234375,4761.76025390625,True
1599387569.15891,0.0,10,0.5,0.5,-17.879208938598634,-0.15025,-0.02275,-0.12575,0.1421529579014012,10,1,100,0.2934798173912132,-10,-1,-100,19047.1738078685,-0.024252863269702253,0.014238406362243074,0.9996044549758094,68.361615610721,4.202552679873569,393.09405553504195,-101.10928734054393,14.1842041015625,4761.76025390625,True
1599387569.195812,0.0,10,0.5,0.5,-17.60861065979004,-0.15025,-0.02275,-0.12575,0.15885234578785973,10,1,100,0.26500566598137243,-10,-1,-100,19047.1738078685,-0.024252863269702253,0.014238406362243074,0.9996044549758094,68.361615610721,4.202552679873569,393.09405553504195,-101.10928734054393,14.1842041015625,4761.76025390625,True
1599387569.2347066,0.0,10,0.5,0.5,-19.10420047302246,-0.15025,-0.02275,-0.12575,0.15893506840448202,10,1,100,0.3300451971340509,-10,-1,-100,19039.04867884994,-0.024840414362795285,0.014244329829709391,0.9995899423673625,70.33298910816858,4.322459028779164,407.57352101083706,-101.83696601390255,19.270751953125,4761.76025390625,True
1599387569.2710867,0.0,10,0.5,0.5,-18.555325056457516,-0.15025,-0.02275,-0.12575,0.15787081451315382,10,1,100,0.27169090853352923,-10,-1,-100,19039.04867884994,-0.024840414362795285,0.014244329829709391,0.9995899423673625,70.33298910816858,4.322459028779164,407.57352101083706,-101.83696601390255,19.270751953125,4761.76025390625,True
1599387569.3079894,0.0,10,0.5,0.5,-19.213978693389894,-0.15025,-0.02275,-0.12575,0.17549470829183567,10,1,100,0.30262504455779,-10,-1,-100,19034.96428723936,-0.02511850559994062,0.01440799758944648,0.999580647212564,71.11975090683366,4.370074869522753,413.7219823873662,-102.20071531164287,21.371246337890625,4761.76025390625,True
1599387569.342897,0.0,10,0.5,0.5,-19.52080894165039,-0.15025,-0.02275,-0.12575,0.19257195453389103,10,1,100,0.30710672574371733,-10,-1,-100,19030.865347331623,-0.025409144910350838,0.014714593844401377,0.9995688350898698,71.79739014060462,4.4109853097545635,419.2684372109545,-102.56441321142411,23.17718505859375,4761.76025390625,True
1599387569.3797984,0.0,10,0.5,0.5,-19.578504521179198,-0.15025,-0.02275,-0.12575,0.1818332950833758,10,1,100,0.29377652800348025,-10,-1,-100,19028.810422367416,-0.025549410313430696,0.014897304571954255,0.9995625532947533,72.10115632820714,4.429299347125095,421.8480069755938,-102.74624461991046,23.969390869140625,4761.76025390625,True
1599387569.4160428,0.0,10,0.5,0.5,-19.913364580535887,-0.15025,-0.02275,-0.12575,0.2151016073397401,10,1,100,0.3113127000980283,-10,-1,-100,19024.68966328376,-0.02583381552010515,0.015366704943963715,0.9995481370873732,72.64698557397462,4.462179549995764,426.6653810818064,-103.10987557549956,25.332992553710938,4761.76025390625,True
1599387569.4539776,0.0,10,0.5,0.5,-20.080593436813352,-0.15025,-0.02275,-0.12575,0.23450267648171164,10,1,100,0.31434101770407424,-10,-1,-100,19020.554360209266,-0.02611775207302699,0.015969348588460414,0.9995313116317628,73.121757796125,4.490767092639453,431.08874493950833,-103.4734680329172,26.402175903320312,4761.76025390625,True
1599387569.4908767,0.0,10,0.5,0.5,-20.334626068878173,-0.15025,-0.02275,-0.12575,0.34796096283250033,10,1,100,0.3490089633186271,-10,-1,-100,19012.240127478377,-0.02668878476684536,0.01754747697501925,0.999489767241006,73.90220030858154,4.5378046199053905,438.9968867210206,-104.20055339759,27.6573486328125,4761.76025390625,True
1599387569.5267777,0.0,10,0.5,0.5,-20.214232704162598,-0.15025,-0.02275,-0.12575,0.19046165963990752,10,1,100,0.2921782445133231,-10,-1,-100,19012.240127478377,-0.02668878476684536,0.01754747697501925,0.999489767241006,73.90220030858154,4.5378046199053905,438.9968867210206,-104.20055339759,27.6573486328125,4761.76025390625,True
1599387569.5616868,0.0,10,0.5,0.5,-20.296372999572753,-0.15025,-0.02275,-0.12575,0.3001873902866516,10,1,100,0.32264362063013985,-10,-1,-100,19008.06119988556,-0.026963528257455384,0.01854197537125076,0.9994644382334177,74.22431940385236,4.557263609512082,442.5725341859624,-104.56405311178986,27.843902587890625,4761.76025390625,True
1599387569.6135948,0.0,10,0.5,0.5,-20.229241057586666,-0.15025,-0.02275,-0.12575,0.39686256738498316,10,1,100,0.335819806963107,-10,-1,-100,19001.76554810116,-0.027330614338320784,0.020321017733256053,0.9994198786086731,74.63436143522311,4.5820948136644075,447.52677585356986,-105.10925729551063,27.573074340820312,4761.76025390625,True
1599387569.6504986,0.0,10,0.5,0.5,-20.216760993576045,-0.15025,-0.02275,-0.12575,0.29314053073056157,10,1,100,0.31123628892349686,-10,-1,-100,18999.659728262573,-0.02743857861149694,0.020989877103762898,0.9994030965846311,74.7524990017406,4.589264827307021,449.07359867005454,-105.29098132737334,27.336029052734375,4761.76025390625,True
1599387569.6873617,0.0,10,0.5,0.5,-20.179257543563843,-0.15025,-0.02275,-0.12575,0.3048995923383935,10,1,100,0.31166986687841197,-10,-1,-100,18997.550274148583,-0.02753830760102113,0.021698699321318453,0.9993852150508504,74.86150822294563,4.595887680779602,450.56850142866574,-105.47270047046582,27.025665283203125,4761.76025390625,True
1599387569.724266,0.0,10,0.5,0.5,-19.99918425865173,-0.15025,-0.02275,-0.12575,0.4053925826722875,10,1,100,0.3177790416393913,-10,-1,-100,18993.32046291267,-0.02768230845114195,0.023250027884193565,0.999346349371528,75.05064221729722,4.6073965936289865,453.3923502103399,-105.8361258484637,26.185211181640625,4761.76025390625,True
1599387569.7611675,0.0,10,0.5,0.5,-19.798713034439086,-0.15025,-0.02275,-0.12575,0.43556669830350114,10,1,100,0.31891075228230714,-10,-1,-100,18989.076115523465,-0.0278214400811503,0.024926877234327616,0.9993020655753472,75.196961131426,4.616319136720264,455.9668021822165,-106.1995363912335,25.0511474609375,4761.76025390625,True
1599387569.796793,0.0,10,0.5,0.5,-19.32274042930603,-0.15025,-0.02275,-0.12575,0.5802501499922208,10,1,100,0.3131911035080729,-10,-1,-100,18982.68233900715,-0.027893861092512382,0.02775747204738114,0.9992254276482812,75.3290345619126,4.624409658163474,459.31149413861044,-106.74463162891095,22.800994873046875,4761.76025390625,True
1599387569.8346927,0.0,10,0.5,0.5,-19.599936822509765,-0.15025,-0.02275,-0.12575,0.29842974539721034,10,1,100,0.3061550069291055,-10,-1,-100,18982.68233900715,-0.027893861092512382,0.02775747204738114,0.9992254276482812,75.3290345619126,4.624409658163474,459.31149413861044,-106.74463162891095,22.800994873046875,4761.76025390625,True
1599387569.8715928,0.0,10,0.5,0.5,-18.480980585861207,-0.15025,-0.02275,-0.12575,0.7781589167957783,10,1,100,0.27798815243627195,-10,-1,-100,18974.10642904078,-0.027636184134378,0.03210792985695092,0.9991022581131483,75.29142260695184,4.622235334041401,462.48001353018833,-107.47140703811525,18.7764892578125,4761.76025390625,True
1599387569.9105191,0.0,10,0.5,0.5,-18.966858211898803,-0.15025,-0.02275,-0.12575,0.3445691811269934,10,1,100,0.3038505881864635,-10,-1,-100,18974.10642904078,-0.027636184134378,0.03210792985695092,0.9991022581131483,75.29142260695184,4.622235334041401,462.48001353018833,-107.47140703811525,18.7764892578125,4761.76025390625,True
1599387569.9474273,0.0,10,0.5,0.5,-17.512967000961304,-0.15025,-0.02275,-0.12575,0.8919185543004793,10,1,100,0.22074849576620406,-10,-1,-100,18965.472376832622,-0.026879849294768794,0.037070596474089945,0.9989510721646709,74.9116249355999,4.599387890138306,463.53797592671066,-108.19819793790762,13.58197021484375,4761.76025390625,True
1599387569.984322,0.0,10,0.5,0.5,-17.295801332473754,-0.15025,-0.02275,-0.12575,0.6929939893844042,10,1,100,0.24206374717741974,-10,-1,-100,18961.133546396857,-0.026386123252464828,0.039756862243976704,0.998860933465825,74.55178375750043,4.577757229492551,463.00283237795804,-108.56161399095389,10.545989990234375,4761.76025390625,True
1599387570.0227814,0.0,10,0.5,0.5,-16.72031042022705,-0.15025,-0.02275,-0.12575,0.7375473560029803,10,1,100,0.18650395271368386,-10,-1,-100,18956.78017845261,-0.02543305098350531,0.042586283690851066,0.9987690265316967,74.0614369537599,4.548345480596112,461.6407849390955,-108.92505288599794,7.217987060546875,4761.76025390625,True
1599387570.0586894,0.0,10,0.5,0.5,-17.093038243103027,-0.15025,-0.02275,-0.12575,0.4567648519742528,10,1,100,0.2816106268468364,-10,-1,-100,18956.78017845261,-0.02543305098350531,0.042586283690851066,0.9987690265316967,74.0614369537599,4.548345480596112,461.6407849390955,-108.92505288599794,7.217987060546875,4761.76025390625,True
1599387570.0926034,0.0,10,0.5,0.5,-15.51882391967773,-0.15025,-0.02275,-0.12575,0.9460614305994244,10,1,100,0.09614715953536121,-10,-1,-100,18950.222866768483,-0.023748933332144187,0.04701544569256214,0.9986118044725465,73.01665616710332,4.485842227986791,457.6228917492315,-109.47027111815397,1.677581787109375,4761.76025390625,True
1599387570.1314874,0.0,10,0.5,0.5,-16.15977502593994,-0.15025,-0.02275,-0.12575,0.5055217722091536,10,1,100,0.26416558715957383,-10,-1,-100,18950.222866768483,-0.023748933332144187,0.04701544569256214,0.9986118044725465,73.01665616710332,4.485842227986791,457.6228917492315,-109.47027111815397,1.677581787109375,4761.76025390625,True
1599387570.1693923,0.0,10,0.5,0.5,-14.98631879196167,-0.15025,-0.02275,-0.12575,0.8452376866472451,10,1,100,0.10782309903129447,-10,-1,-100,18945.833150074002,-0.0223313402643862,0.05008369167067367,0.9984953355277293,72.09179934453134,4.4306745696074685,453.4714380005222,-109.83380108280195,-2.38140869140625,4761.76025390625,True
1599387570.205287,0.0,10,0.5,0.5,-14.23812082672119,-0.15025,-0.02275,-0.12575,0.8754434706067952,10,1,100,0.046161043521127876,-10,-1,-100,18941.42889066052,-0.020487111989812082,0.05312730766893161,0.9983775675675849,70.96880604442929,4.3638496255158055,448.0288526171936,-110.19738072590732,-6.734039306640625,4761.76025390625,True
1599387570.2441535,0.0,10,0.5,0.5,-13.436541333007812,-0.15025,-0.02275,-0.12575,0.9223937292194263,10,1,100,0.019116836536237414,-10,-1,-100,18937.010086325346,-0.018571417812248154,0.056297988349624975,0.9982412729136322,69.62304308175071,4.283913077426874,441.12468533689963,-110.56101742911396,-11.37799072265625,4761.76025390625,True
1599387570.2800953,0.0,10,0.5,0.5,-12.588863558959961,-0.15025,-0.02275,-0.12575,0.9434781254402106,10,1,100,-0.04947410685587139,-10,-1,-100,18932.576734669856,-0.01621456431664553,0.05935011069908728,0.9981055316268052,68.05501949115072,4.190924900287213,432.74587205744984,-110.92471727811063,-16.31658935546875,4761.76025390625,True
1599387570.313003,0.0,10,0.5,0.5,-10.933493815612792,-0.15025,-0.02275,-0.12575,1.1301881044426085,10,1,100,-0.2577924964922966,-10,-1,-100,18925.89943134552,-0.012188549978328127,0.0637973652069456,0.9978884383747901,69.48508800928582,4.285802139423841,444.2202416492694,-111.47019089407723,-24.275146484375,4761.76025390625,True
1599387570.349876,0.0,10,0.5,0.5,-11.848157434082031,-0.15025,-0.02275,-0.12575,0.6881353305300625,10,1,100,0.14333980740779967,-10,-1,-100,18925.89943134552,-0.012188549978328127,0.0637973652069456,0.9978884383747901,69.48508800928582,4.285802139423841,444.2202416492694,-111.47019089407723,-24.275146484375,4761.76025390625,True
1599387570.3867743,0.0,10,0.5,0.5,-9.389138445281983,-0.15025,-0.02275,-0.12575,1.1358812465707813,10,1,100,-0.37375399235223816,-10,-1,-100,18919.189408631297,-0.007500604138031544,0.06784592762280398,0.9976676155125844,71.31954104947914,4.407325132480548,458.38582384348564,-112.01543844112985,-32.897613525390625,4761.76025390625,True
1599387570.429686,0.0,10,0.5,0.5,-9.547993579864501,-0.15025,-0.02275,-0.12575,0.867323582026407,10,1,100,-0.09295040841076077,-10,-1,-100,18916.945465662167,-0.005807897270725784,0.06906204228324278,0.9975954604171775,71.92237804941799,4.447581864323002,463.0780795158112,-112.19713608748394,-35.919921875,4761.76025390625,True
1599387570.4685817,0.0,10,0.5,0.5,-8.1012967086792,-0.15025,-0.02275,-0.12575,1.0193180496011736,10,1,100,-0.3202617871348048,-10,-1,-100,18912.446680296212,-0.0022204468154226747,0.07152530008105558,0.9974363142899174,72.96550265075376,4.518272224342538,471.4503602678142,-112.56045859680512,-42.183013916015625,4761.76025390625,True
1599387570.505491,0.0,10,0.5,0.5,-5.084761251831054,-0.15025,-0.02275,-0.12575,1.178680202980599,10,1,100,-0.8131661800488421,-10,-1,-100,18903.405522054178,0.0055022494554198345,0.07519109051489063,0.9971539626146565,74.65754595084209,4.63514312743563,485.7602493439256,-113.28684225118153,-55.604522705078125,4761.76025390625,True
1599387570.5413604,0.0,10,0.5,0.5,-6.642199194335937,-0.15025,-0.02275,-0.12575,0.8149187240793265,10,1,100,-0.04382167124334751,-10,-1,-100,18903.405522054178,0.0055022494554198345,0.07519109051489063,0.9971539626146565,74.65754595084209,4.63514312743563,485.7602493439256,-113.28684225118153,-55.604522705078125,4761.76025390625,True
1599387570.8872557,0.0,10,0.5,0.5,-3.5270792564392086,-0.15025,-0.02275,-0.12575,1.0096689902171958,10,1,100,-0.7049194982597344,-10,-1,-100,18896.586524998886,0.01148692643764171,0.07693872257174016,0.9969696502351739,75.02773549897542,4.66586694002478,490.7074821706412,-113.83148602624408,-66.45248413085938,4761.76025390625,True
1599387570.9201827,0.0,10,0.5,0.5,-4.7553509437561035,-0.15025,-0.02275,-0.12575,0.8372869260225243,10,1,100,-0.10964920388029224,-10,-1,-100,18896.586524998886,0.01148692643764171,0.07693872257174016,0.9969696502351739,75.02773549897542,4.66586694002478,490.7074821706412,-113.83148602624408,-66.45248413085938,4761.76025390625,True
1599387570.9551206,0.0,10,0.5,0.5,-1.4511122573852535,-0.15025,-0.02275,-0.12575,0.9388831869981737,10,1,100,-0.7719343650817221,-10,-1,-100,18889.734850471024,0.01748037486288208,0.07784356064040777,0.996812327653243,74.4559976108993,4.63647398838809,489.4870788027397,-114.37611816221862,-77.97039794921875,4761.76025390625,True
1599387571.0149553,0.0,10,0.5,0.5,-1.6582344635009765,-0.15025,-0.02275,-0.12575,0.8569868201921265,10,1,100,-0.3838685825776465,-10,-1,-100,18887.443696789327,0.019370461827445798,0.07790481605010398,0.9967726043811553,74.02856152792306,4.611604075080397,487.5127395558313,-114.55767931610977,-81.95950317382812,4761.76025390625,True
1599387571.0488646,0.0,10,0.5,0.5,0.234556095123291,-0.15025,-0.02275,-0.12575,0.8444060679969827,10,1,100,-0.6319400333385922,-10,-1,-100,18882.850494363578,0.02331522770050707,0.07783330735637817,0.9966937224760879,72.78966570624503,4.537582757213312,480.99962062022007,-114.92085225466698,-90.15946197509766,4761.76025390625,True
1599387571.0817761,0.0,10,0.5,0.5,1.6989485452651978,-0.15025,-0.02275,-0.12575,0.7988272590193861,10,1,100,-0.6193985711939547,-10,-1,-100,18878.242762479815,0.026755089040448946,0.07734118669669525,0.9966456271166722,71.00855437441142,4.42951122622458,470.83830757466,-115.28411916644471,-98.65819549560547,4761.76025390625,True
1599387571.1186366,0.0,10,0.5,0.5,1.983318323135376,-0.15025,-0.02275,-0.12575,0.8099737546021317,10,1,100,-0.4716058110857179,-10,-1,-100,18875.933446311625,0.028507523627431697,0.07698650400312311,0.9966245026578507,69.91566827698715,4.362851205439884,464.3845059711751,-115.46579640496834,-103.01863098144531,4761.76025390625,True
1599387571.153151,0.0,10,0.5,0.5,6.462924374008178,-0.15025,-0.02275,-0.12575,0.6177747459474768,10,1,100,-0.9666567291495709,-10,-1,-100,18866.659832985024,0.03456991303354363,0.0749095974196335,0.9965909257700885,64.25390886121994,4.016216953988574,429.6947830209545,-116.19285742155282,-120.68269348144531,4761.76025390625,True
1599387571.1880572,0.0,10,0.5,0.5,6.768929541015625,-0.15025,-0.02275,-0.12575,0.6749875250882981,10,1,100,-0.6457947043904204,-10,-1,-100,18862.001209925744,0.03713080285051768,0.07353854006561535,0.9966009164177475,64.9160477982823,4.061779212451115,435.592778167661,-116.55646562417387,-129.1923828125,4761.76025390625,True
1599387571.2179465,0.0,10,0.5,0.5,5.866248489379883,-0.15025,-0.02275,-0.12575,0.8119280054451863,10,1,100,-0.39286857803252484,-10,-1,-100,18862.001209925744,0.03713080285051768,0.07353854006561535,0.9966009164177475,64.9160477982823,4.061779212451115,435.592778167661,-116.55646562417387,-129.1923828125,4761.76025390625,True
1599387571.2553868,0.0,10,0.5,0.5,7.177361981964111,-0.15025,-0.02275,-0.12575,0.7432575218070384,10,1,100,-0.5149259018435697,-10,-1,-100,18859.666445443756,0.038211661654804364,0.07291576526022243,0.996605819815485,65.89723789416504,4.125384555658824,442.9213955874188,-116.73821519141472,-133.3362274169922,4761.76025390625,True
1599387571.2912648,0.0,10,0.5,0.5,9.034825335311888,-0.15025,-0.02275,-0.12575,0.6552241110370587,10,1,100,-0.624916759196726,-10,-1,-100,18854.986014252412,0.04016988223898717,0.0715529598458759,0.9966275906767784,67.46812540636324,4.228206101267381,455.00239683873565,-117.10162190162775,-141.40286254882812,4761.76025390625,True
1599387571.3284101,0.0,10,0.5,0.5,10.33579090309143,-0.15025,-0.02275,-0.12575,0.6241019817588486,10,1,100,-0.608028406086871,-10,-1,-100,18850.291049421416,0.04177047687288072,0.07003601353278247,0.9966695460734455,68.62673671884137,4.305070909298014,464.3620829150286,-117.46493264359205,-149.1739959716797,4761.76025390625,True
1599387571.3613572,0.0,10,0.5,0.5,11.58231308898926,-0.15025,-0.02275,-0.12575,0.6233642071027947,10,1,100,-0.584407385445986,-10,-1,-100,18845.5815546643,0.04298874444149409,0.06865736215774033,0.996713667244954,69.45533397507725,4.360879001255212,471.53240259144997,-117.82817220710686,-156.6441192626953,4761.76025390625,True
1599387571.3982277,0.0,10,0.5,0.5,12.791721544265746,-0.15025,-0.02275,-0.12575,0.6195777475602615,10,1,100,-0.5641226882570618,-10,-1,-100,18840.85753158352,0.04389038290886688,0.06737802714267206,0.9967616744972061,69.84194235646933,4.388477102423976,475.72988718645524,-118.19137421667466,-163.81393432617188,4761.76025390625,True
1599387571.4341617,0.0,10,0.5,0.5,13.0160585439682,-0.15025,-0.02275,-0.12575,0.6797649766919478,10,1,100,-0.5130825818377721,-10,-1,-100,18838.49007202545,0.04422734858884101,0.06677165673945597,0.9967875839380571,69.88780542897888,4.3928419049185825,476.8298139050468,-118.37297059079064,-167.28631591796875,4761.76025390625,True
1599387571.4700372,0.0,10,0.5,0.5,14.589961069869995,-0.15025,-0.02275,-0.12575,0.6182646735554846,10,1,100,-0.530557030350685,-10,-1,-100,18833.744257006794,0.04467665577570907,0.06567092591707098,0.9968406722831354,69.72138211557557,4.385058372424746,477.26752132575064,-118.73617018126183,-174.0052490234375,4761.76025390625,True
1599387571.5029461,0.0,10,0.5,0.5,-83.68230140838622,-0.15025,-0.02275,-0.12575,0.6267599409273354,10,1,100,-0.5070905124718187,-10,-1,-100,18828.983913310454,0.044857085662919176,0.06475777812563423,0.9968923071415793,69.26046153099168,4.3584883206157965,475.6781276872436,-119.09939514276464,179.57754516601562,4761.76025390625,True
1599387571.5383823,0.0,10,0.5,0.5,-39.04800197944642,-0.15025,-0.02275,-0.12575,0.6745512298803322,10,1,100,-0.48832197554166834,-10,-1,-100,18826.598292785347,0.0448411377949912,0.0643713389596226,0.9969180523402091,68.93785946552067,4.339354656158468,474.24294959220276,-119.28102224847352,176.4820556640625,4761.76025390625,True
1599387571.5732882,0.0,10,0.5,0.5,-38.486565982437135,-0.15025,-0.02275,-0.12575,0.6467491611100262,10,1,100,-0.4701439724779687,-10,-1,-100,18821.816153177293,0.04465437576452807,0.06377561836634198,0.9969647221577458,68.14419445637309,4.291734215746257,470.3283216097355,-119.6443125124727,170.51791381835938,4761.76025390625,True
1599387571.6101573,0.0,10,0.5,0.5,-38.272606240463254,-0.15025,-0.02275,-0.12575,0.6652360525885402,10,1,100,-0.44654836178805446,-10,-1,-100,18817.01948047208,0.044263246937004175,0.06341099222379996,0.9970054217685013,67.17951437187156,4.233441148309134,465.1962112212543,-120.0076574287121,164.55490112304688,4761.76025390625,True
1599387571.647638,0.0,10,0.5,0.5,-37.987724298858645,-0.15025,-0.02275,-0.12575,0.688794093182441,10,1,100,-0.4206488474237171,-10,-1,-100,18812.208271792508,0.043666723703868295,0.06330231862055762,0.9970386319988969,65.98512281896745,4.160882741667655,458.42650984063914,-120.37106646988434,158.35043334960938,4761.76025390625,True
1599387571.6805186,0.0,10,0.5,0.5,-37.66015367813111,-0.15025,-0.02275,-0.12575,0.7153535455871349,10,1,100,-0.3992167128120946,-10,-1,-100,18807.38252453739,0.04292641332139831,0.06345247458603935,0.9970612350845199,64.52201607397177,4.071673092260458,449.73068444760275,-120.73455004425863,151.86593627929688,4761.76025390625,True
1599387571.7174454,0.0,10,0.5,0.5,-38.23602022590637,-0.15025,-0.02275,-0.12575,0.7193247935500464,10,1,100,-0.42631151536068673,-10,-1,-100,18804.964198292582,0.042498669418277776,0.06363106729881898,0.9970681773941484,64.09765938599021,4.046587930516683,447.50257470017965,-120.9163109504021,148.51657104492188,4761.76025390625,True
1599387571.7548716,0.0,10,0.5,0.5,-35.45619469528199,-0.15025,-0.02275,-0.12575,0.8599630046705051,10,1,100,-0.2501579589981821,-10,-1,-100,18795.254554166575,0.04050886088034836,0.06507652286140365,0.9970577106479073,68.03349927635364,4.303235568387462,478.0769786063187,-121.64302162317367,134.40335083007812,4761.76025390625,True
1599387571.7917626,0.0,10,0.5,0.5,-35.84335204696655,-0.15025,-0.02275,-0.12575,0.845808005574275,10,1,100,-0.3287163680516447,-10,-1,-100,18790.37793788861,0.039417185493651745,0.06626398383949787,0.997023254459733,69.80906331754238,4.419991524722908,492.1405757068862,-122.0061818506421,126.91775512695312,4761.76025390625,True
1599387571.843629,0.0,10,0.5,0.5,-37.45397996826172,-0.15025,-0.02275,-0.12575,0.7270111404748575,10,1,100,-0.4374028904117871,-10,-1,-100,18790.37793788861,0.039417185493651745,0.06626398383949787,0.997023254459733,69.80906331754238,4.419991524722908,492.1405757068862,-122.0061818506421,126.91775512695312,4761.76025390625,True
1599387571.8814933,0.0,10,0.5,0.5,-34.89185690231323,-0.15025,-0.02275,-0.12575,0.991487496919492,10,1,100,-0.2386815084030173,-10,-1,-100,18783.035785045708,0.037615408812010254,0.06866777520906507,0.996930196988607,72.2408560790996,4.580601218904245,511.74563727517835,-122.55070695761597,115.15426635742188,4761.76025390625,True
1599387571.923418,0.0,10,0.5,0.5,-35.10297837600708,-0.15025,-0.02275,-0.12575,0.8582612395730315,10,1,100,-0.35369987807476266,-10,-1,-100,18780.581141470117,0.03702963489558014,0.06963833775362795,0.9968848017972848,72.90216878399357,4.6246100185326755,517.2584942607505,-122.7321674448605,111.09059143066406,4761.76025390625,True
1599387571.9872465,0.0,10,0.5,0.5,-30.782497687911984,-0.15025,-0.02275,-0.12575,1.2835433831958056,10,1,100,-0.16880077921176564,-10,-1,-100,18770.726281266077,0.03482331362088861,0.07438208046453396,0.9966216147235764,74.4758825269766,4.731959783188664,531.8156754898372,-123.4578750830386,94.12420654296875,4761.76025390625,True
1599387572.0321262,0.0,10,0.5,0.5,-30.282941761398313,-0.15025,-0.02275,-0.12575,1.1239543792437792,10,1,100,-0.2897371990252261,-10,-1,-100,18765.77708104858,0.03392592633505836,0.07723412247297719,0.996435608480617,74.51259949180863,4.73768673302621,533.7816457533437,-123.82071161696982,85.21376037597656,4761.76025390625,True
1599387572.0739791,0.0,10,0.5,0.5,-28.68554944992065,-0.15025,-0.02275,-0.12575,1.198969050430879,10,1,100,-0.29025579305800076,-10,-1,-100,18760.81336627493,0.03312423176696694,0.08049627300939996,0.9962043642252549,73.9669460136488,4.706486898132449,531.570376007549,-124.18358621664464,76.02035522460938,4761.76025390625,True
1599387572.113873,0.0,10,0.5,0.5,-27.038320501708984,-0.15025,-0.02275,-0.12575,1.2647655452800353,10,1,100,-0.3136110172634061,-10,-1,-100,18755.8351343174,0.03261732282687561,0.08404438349169586,0.9959280354800281,72.79664324429825,4.635971816080282,524.8364003047162,-124.54653309042429,66.54209899902344,4761.76025390625,True
1599387572.1507773,0.0,10,0.5,0.5,-28.036099492263794,-0.15025,-0.02275,-0.12575,0.9120136879410105,10,1,100,-0.363271002223087,-10,-1,-100,18755.8351343174,0.03261732282687561,0.08404438349169586,0.9959280354800281,72.79664324429825,4.635971816080282,524.8364003047162,-124.54653309042429,66.54209899902344,4761.76025390625,True
1599387572.1906703,0.0,10,0.5,0.5,-23.77828328857422,-0.15025,-0.02275,-0.12575,1.5566118153867485,10,1,100,-0.3364703563472832,-10,-1,-100,18748.340558469878,0.03238266363399685,0.08988580890829996,0.9954254891516833,69.78108273269798,4.451306514951281,505.51139901861285,-125.09115226521115,51.790924072265625,4761.76025390625,True
1599387572.2315578,0.0,10,0.5,0.5,-22.632396334075928,-0.15025,-0.02275,-0.12575,1.427870169590007,10,1,100,-0.3896091734512561,-10,-1,-100,18743.32602005487,0.03265980470254896,0.09400326315610885,0.9950360413938756,71.67817154428043,4.578755168268429,520.9069475438359,-125.4542070442088,41.5992431640625,4761.76025390625,True
1599387572.2724485,0.0,10,0.5,0.5,-23.719900593566894,-0.15025,-0.02275,-0.12575,1.0188986727407787,10,1,100,-0.3612193285169349,-10,-1,-100,18743.32602005487,0.03265980470254896,0.09400326315610885,0.9950360413938756,71.67817154428043,4.578755168268429,520.9069475438359,-125.4542070442088,41.5992431640625,4761.76025390625,True
1599387572.314336,0.0,10,0.5,0.5,-20.633991774749756,-0.15025,-0.02275,-0.12575,1.4928505366879496,10,1,100,-0.43707213171740883,-10,-1,-100,18738.296966537833,0.03335551871418154,0.09828669893806803,0.9945989815916592,74.92391540355004,4.7935095433766595,546.2177206543421,-125.81702610356709,31.121673583984375,4761.76025390625,True
1599387572.3602135,0.0,10,0.5,0.5,-17.27358635635376,-0.15025,-0.02275,-0.12575,1.7772995895083616,10,1,100,-0.5707126502605897,-10,-1,-100,18730.726188759785,0.03520677242978356,0.1047397056530083,0.9938762886973401,78.90415441417251,5.05989261112696,577.9492544381515,-126.36087857946652,14.865203857421875,4761.76025390625,True
1599387572.4060917,0.0,10,0.5,0.5,-14.432538559341431,-0.15025,-0.02275,-0.12575,1.8254278537113422,10,1,100,-0.6967892444956743,-10,-1,-100,18723.122793564573,0.03803753835743689,0.11101169473398166,0.9930909068700589,81.49690633961579,5.237073563299546,599.7449807408469,-126.90441416718402,-2.0419921875,4761.76025390625,True
1599387572.44901,0.0,10,0.5,0.5,-16.33984035987854,-0.15025,-0.02275,-0.12575,1.201891907040951,10,1,100,-0.41403407420399624,-10,-1,-100,18723.122793564573,0.03803753835743689,0.11101169473398166,0.9930909068700589,81.49690633961579,5.237073563299546,599.7449807408469,-126.90441416718402,-2.0419921875,4761.76025390625,True
1599387572.488869,0.0,10,0.5,0.5,-9.637392848968506,-0.15025,-0.02275,-0.12575,2.021738721041782,10,1,100,-0.9741320995615165,-10,-1,-100,18712.93420937436,0.04312560075884855,0.11843414070466103,0.9920249678686203,81.46272433497563,5.248419763556702,603.2567388028484,-127.62904736027336,-25.60699462890625,4761.76025390625,True
1599387572.5297596,0.0,10,0.5,0.5,-12.369489685058594,-0.15025,-0.02275,-0.12575,1.2832879107433712,10,1,100,-0.4663259963195388,-10,-1,-100,18712.93420937436,0.04312560075884855,0.11843414070466103,0.9920249678686203,81.46272433497563,5.248419763556702,603.2567388028484,-127.62904736027336,-25.60699462890625,4761.76025390625,True
