Timestamp,Input Throttle,horizon,dT,dt,Input Roll,Roll P,Roll I,Roll D,Input Pitch,Pitch P,Pitch I,Pitch D,Input Yaw,Yaw P,Yaw I,Yaw D,Altitude,Direction X,Direction Y,Direction Z,Drag X,Drag Y,Drag Z,Vertical Velocity,Roll,Mass,Has Fuel
1599384809.0255628,0.0,10,0.5,0.5,-0.05567777252197266,-0.001,-0.00825,-0.37525,-0.0010613605532248816,10,1,100,0.49267882534673835,-10,-1,-100,19352.46380398562,-0.04879417196977227,-0.00018444666054943148,0.9988088379470886,60.89731277884887,3.6746298076329666,231.77113345703233,-68.29941016917023,-33.921417236328125,4761.76025390625,True
1599384809.0572383,0.0,10,0.5,0.5,-0.10193005294799805,-0.001,-0.00825,-0.37525,-0.0009774666984100492,10,1,100,0.49821894822790036,-10,-1,-100,19351.09416618466,-0.04884324298189227,-0.00017639716442998413,0.9988064409579326,60.98673539456582,3.6806936455688426,232.75485079886934,-68.48187355335021,-33.922515869140625,4761.76025390625,True
1599384809.0907767,0.0,10,0.5,0.5,-0.14772210693359375,-0.001,-0.00825,-0.37525,5.287453670685112e-05,10,1,100,0.5095922801042527,-10,-1,-100,19348.34394353279,-0.04894684397089376,-0.00015955234112539655,0.998801372149808,61.16635187843152,3.692878955600766,234.7314308328479,-68.84679015779882,-33.92486572265625,4761.76025390625,True
1599384809.1244848,0.0,10,0.5,0.5,-0.19090450286865235,-0.001,-0.00825,-0.37525,0.021473060247341053,10,1,100,0.5021974257268874,-10,-1,-100,19345.579124717042,-0.04892930360840007,5.063514319465344e-05,0.9988022430313617,61.345445560410056,3.705047479386934,236.7142787524415,-69.21169307209226,-33.935394287109375,4761.76025390625,True
1599384809.159021,0.0,10,0.5,0.5,-0.2248727607727051,-0.001,-0.00825,-0.37525,0.028728544145068993,10,1,100,0.5042937815405205,-10,-1,-100,19342.799709925544,-0.048887934419340286,0.0003076275869711396,0.9988042226750335,61.51601254673969,3.716716929355175,238.67231369236237,-69.57658243167884,-33.978546142578125,4761.76025390625,True
1599384809.190383,0.0,10,0.5,0.5,-0.28728319396972657,-0.001,-0.00825,-0.37525,0.0030600625261174943,10,1,100,0.5133194938884327,-10,-1,-100,19342.799709925544,-0.048887934419340286,0.0003076275869711396,0.9988042226750335,61.51601254673969,3.716716929355175,238.67231369236237,-69.57658243167884,-33.978546142578125,4761.76025390625,True
1599384809.2233324,0.0,10,0.5,0.5,-0.3189873435974121,-0.001,-0.00825,-0.37525,0.022215222201302273,10,1,100,0.5122610794209126,-10,-1,-100,19341.404529549996,-0.0488338688928907,0.0004814857407573911,0.9988067988457194,61.59768421502914,3.722339827873038,239.64024333066416,-69.75902199006484,-34.017120361328125,4761.76025390625,True
1599384809.257286,0.0,10,0.5,0.5,-0.2638957458496094,-0.001,-0.00825,-0.37525,0.12389520510711385,10,1,100,0.47235676932896703,-10,-1,-100,19335.787320587435,-0.04837755753265258,0.0015634643744879457,0.9988278968402539,61.901095484919615,3.7434660300119353,243.43939666111382,-70.48874620320159,-34.32476806640625,4761.76025390625,True
1599384809.2772737,0.0,10,0.5,0.5,-0.42527261352539064,-0.001,-0.00825,-0.37525,0.015853688171507202,10,1,100,0.522825661106044,-10,-1,-100,19335.787320587435,-0.04837755753265258,0.0015634643744879457,0.9988278968402539,61.901095484919615,3.7434660300119353,243.43939666111382,-70.48874620320159,-34.32476806640625,4761.76025390625,True
1599384809.3245194,0.0,10,0.5,0.5,-0.36749709930419927,-0.001,-0.00825,-0.37525,0.10022515912503555,10,1,100,0.4852563742531132,-10,-1,-100,19332.956825178815,-0.047992038963505346,0.0023290564155432143,0.998845002836946,62.04086928528949,3.7533293187733703,245.3024140250228,-70.85358757801976,-34.60040283203125,4761.76025390625,True
1599384809.358696,0.0,10,0.5,0.5,-0.45272357177734385,-0.001,-0.00825,-0.37525,0.07001197859441827,10,1,100,0.5016523796754726,-10,-1,-100,19331.53610504826,-0.04774699300542612,0.002748266578573717,0.9988556811120177,62.10805683005294,3.758101751453887,246.22567763501215,-71.03600294570133,-34.770263671875,4761.76025390625,True
1599384809.3910704,0.0,10,0.5,0.5,-0.2616501274108888,-0.001,-0.00825,-0.37525,0.1966609657816138,10,1,100,0.4304431170961641,-10,-1,-100,19327.252055416,-0.046877819000964334,0.004278055052813112,0.9988914697456766,62.29767012676445,3.7717054994588923,248.95716753210752,-71.58322754572944,-35.445648193359375,4761.76025390625,True
1599384809.426428,0.0,10,0.5,0.5,-0.5138315849304199,-0.001,-0.00825,-0.37525,0.0441275635793986,10,1,100,0.5171639751442499,-10,-1,-100,19327.252055416,-0.046877819000964334,0.004278055052813112,0.9988914697456766,62.29767012676445,3.7717054994588923,248.95716753210752,-71.58322754572944,-35.445648193359375,4761.76025390625,True
1599384809.4588132,0.0,10,0.5,0.5,-0.02981769256591804,-0.001,-0.00825,-0.37525,0.3125100354038477,10,1,100,0.33924699504819794,-10,-1,-100,19321.488917174516,-0.04526227284097289,0.0067138615172227046,0.9989525768127318,62.52172347821649,3.7880945136231556,252.50373714340174,-72.31280908968941,-36.728729248046875,4761.76025390625,True
1599384809.49269,0.0,10,0.5,0.5,-0.3636127319335937,-0.001,-0.00825,-0.37525,0.1478762075492131,10,1,100,0.44850470010104593,-10,-1,-100,19320.039013210568,-0.04479018004215876,0.007425502389485631,0.9989688191760816,62.56999665307063,3.791715893920771,253.36234058051124,-72.49519522109739,-37.1151123046875,4761.76025390625,True
1599384809.5246632,0.0,10,0.5,0.5,-0.3475030006408692,-0.001,-0.00825,-0.37525,0.15829890684702508,10,1,100,0.4393873968343504,-10,-1,-100,19318.58546144166,-0.04428184542660976,0.00816072965352066,0.9989857459729524,62.61547928721013,3.7951632713381884,254.2107654504553,-72.67757759570341,-37.536407470703125,4761.76025390625,True
1599384809.5607364,0.0,10,0.5,0.5,-0.16554024581909182,-0.001,-0.00825,-0.37525,0.24509889726101525,10,1,100,0.36294926228220614,-10,-1,-100,19315.667415539385,-0.04312901827017548,0.009611069713619188,0.9990232805705835,62.69604640530185,3.801408889503061,255.86844122364155,-73.0423312381047,-38.432403564453125,4761.76025390625,True
1599384809.5909202,0.0,10,0.5,0.5,-0.31629892044067387,-0.001,-0.00825,-0.37525,0.18794097090862324,10,1,100,0.4096004269977439,-10,-1,-100,19314.20292140916,-0.04251028130776076,0.01040164354325714,0.9990418819022223,62.72948463303835,3.804105909019643,256.6707302307866,-73.22470260494457,-38.9156494140625,4761.76025390625,True
1599384809.6271267,0.0,10,0.5,0.5,-0.10173099441528327,-0.001,-0.00825,-0.37525,0.28877391549837467,10,1,100,0.3224518122800279,-10,-1,-100,19311.262991083437,-0.04116086691379077,0.012028975449045045,0.999080120302947,62.782740094012425,3.8086471248316642,258.2217602533718,-73.58943471718801,-39.95782470703125,4761.76025390625,True
1599384809.6583083,0.0,10,0.5,0.5,0.15192888107299807,-0.001,-0.00825,-0.37525,0.40562915402390365,10,1,100,0.2033574970751178,-10,-1,-100,19306.825741628534,-0.038858011590699654,0.014561174339925625,0.9991386426002445,62.822886281762386,3.812967411714279,260.3886732196734,-74.13650701412023,-41.6590576171875,4761.76025390625,True
1599384809.6949692,0.0,10,0.5,0.5,-0.4806353782653809,-0.001,-0.00825,-0.37525,0.15363247672828384,10,1,100,0.4327296266469488,-10,-1,-100,19306.825741628534,-0.038858011590699654,0.014561174339925625,0.9991386426002445,62.822886281762386,3.812967411714279,260.3886732196734,-74.13650701412023,-41.6590576171875,4761.76025390625,True
1599384809.725134,0.0,10,0.5,0.5,0.20509495010375972,-0.001,-0.00825,-0.37525,0.4365381114922639,10,1,100,0.14113748567861334,-10,-1,-100,19302.355668929173,-0.036215254837728174,0.017122304739815124,0.9991973188502036,62.80664163371104,3.813750884749439,262.32357635599146,-74.68355053225386,-43.46649169921875,4761.76025390625,True
1599384809.758198,0.0,10,0.5,0.5,0.013062655639648424,-0.001,-0.00825,-0.37525,0.38485642296118955,10,1,100,0.19072442742027224,-10,-1,-100,19299.35738625028,-0.034273232318281215,0.01896909498062581,0.9992324649359994,62.76083924066972,3.812080643179615,263.46664512080207,-75.04823176584422,-44.74114990234375,4761.76025390625,True
1599384809.7941403,0.0,10,0.5,0.5,-0.21079628829956057,-0.001,-0.00825,-0.37525,0.2923336896713239,10,1,100,0.27061767493743216,-10,-1,-100,19297.852774680243,-0.033245518265924236,0.01979352395152055,0.9992511956083969,62.727820130962144,3.810607876012161,263.9950201875654,-75.23056848371377,-45.397064208984375,4761.76025390625,True
1599384809.8251917,0.0,10,0.5,0.5,-0.20610068435668946,-0.001,-0.00825,-0.37525,0.30301140890311484,10,1,100,0.2552076016515367,-10,-1,-100,19296.34451656707,-0.03218206551079616,0.020628184406773598,0.9992691292477414,62.68729144279074,3.8086634954064627,264.4911112887161,-75.41290263884378,-46.044708251953125,4761.76025390625,True
1599384809.8582728,0.0,10,0.5,0.5,-0.1996706726074219,-0.001,-0.00825,-0.37525,0.31532633056584025,10,1,100,0.23931036756291293,-10,-1,-100,19294.832611753838,-0.0310822318912662,0.021486918033921793,0.9992858486009201,62.63916009470477,3.806242119286796,264.9542834969797,-75.59523458683633,-46.688140869140625,4761.76025390625,True
1599384809.8913014,0.0,10,0.5,0.5,0.30144396820068353,-0.001,-0.00825,-0.37525,0.5102770895681971,10,1,100,-0.03860976528482968,-10,-1,-100,19290.275017685606,-0.027567836132655257,0.024027749878277577,0.9993311171212222,62.45092414668923,3.7962222336719114,266.15142448603274,-76.14221788152629,-48.64166259765625,4761.76025390625,True
1599384809.9282534,0.0,10,0.5,0.5,-0.1685852592468262,-0.001,-0.00825,-0.37525,0.3480088994454893,10,1,100,0.1746550362081159,-10,-1,-100,19288.748526800307,-0.026325848349433467,0.024849325571881256,0.99934451553371,62.37344725319405,3.791955781504867,266.4850637703574,-76.3245419655085,-49.318359375,4761.76025390625,True
1599384809.9591794,0.0,10,0.5,0.5,-0.15383781661987317,-0.001,-0.00825,-0.37525,0.35618695531498845,10,1,100,0.15685030907327843,-10,-1,-100,19287.218389334856,-0.025049620511604524,0.025657424272126753,0.999356899757011,62.28834553614181,3.7872098532145615,266.7844986357084,-76.50686453520487,-50.0096435546875,4761.76025390625,True
1599384809.9921985,0.0,10,0.5,0.5,0.38845027999877924,-0.001,-0.00825,-0.37525,0.5277794942601526,10,1,100,-0.15775011646933113,-10,-1,-100,19282.60609864164,-0.02104405610537466,0.027939602127466805,0.9993880759422702,61.98638020116475,3.7700366935176626,267.4711978998257,-77.05382428006598,-52.11834716796875,4761.76025390625,True
1599384810.026337,0.0,10,0.5,0.5,0.1460963905334472,-0.001,-0.00825,-0.37525,0.46224000927175196,10,1,100,-0.07084109903772107,-10,-1,-100,19279.513006570633,-0.018208910399530622,0.0294063335617109,0.9994016725664007,61.74755943322634,3.756226270746133,267.7561254333281,-77.41845919113923,-53.55438232421875,4761.76025390625,True
1599384810.0612426,0.0,10,0.5,0.5,-0.38296215896606445,-0.001,-0.00825,-0.37525,0.317051381769521,10,1,100,0.21060856142756568,-10,-1,-100,19279.513006570633,-0.018208910399530622,0.0294063335617109,0.9994016725664007,61.74755943322634,3.756226270746133,267.7561254333281,-77.41845919113923,-53.55438232421875,4761.76025390625,True
1599384810.0931633,0.0,10,0.5,0.5,0.6552942039489746,-0.001,-0.00825,-0.37525,0.5800602831827552,10,1,100,-0.436513275346209,-10,-1,-100,19273.28306632093,-0.01234235401471285,0.03178615627562949,0.9994184842029873,61.18862502915811,3.7234769148291957,267.9406849331259,-78.14772261129133,-56.291748046875,4761.76025390625,True
1599384810.125862,0.0,10,0.5,0.5,-0.3623730400085449,-0.001,-0.00825,-0.37525,0.3433597179203968,10,1,100,0.14794927530521135,-10,-1,-100,19273.28306632093,-0.01234235401471285,0.03178615627562949,0.9994184842029873,61.18862502915811,3.7234769148291957,267.9406849331259,-78.14772261129133,-56.291748046875,4761.76025390625,True
1599384810.1588147,0.0,10,0.5,0.5,0.41685513305664057,-0.001,-0.00825,-0.37525,0.5065225671720616,10,1,100,-0.36273547989757327,-10,-1,-100,19268.57232478971,-0.007718768207643182,0.03325855251216816,0.999416974691821,60.70638860249026,3.6949378809974815,267.7708306174414,-78.69466843701576,-58.338897705078125,4761.76025390625,True
1599384810.1960208,0.0,10,0.5,0.5,-0.0837403121948242,-0.001,-0.00825,-0.37525,0.4112045813996814,10,1,100,-0.07968617845396059,-10,-1,-100,19266.99478487624,-0.006110923211888284,0.03371908524917677,0.9994126674739805,60.53346470315396,3.684658585975667,267.6537034530569,-78.87698412289093,-59.023162841796875,4761.76025390625,True
1599384810.2259398,0.0,10,0.5,0.5,-0.3303344116210938,-0.001,-0.00825,-0.37525,0.3663745244203455,10,1,100,0.07860119025359147,-10,-1,-100,19266.99478487624,-0.006110923211888284,0.03371908524917677,0.9994126674739805,60.53346470315396,3.684658585975667,267.6537034530569,-78.87698412289093,-59.023162841796875,4761.76025390625,True
1599384810.2592728,0.0,10,0.5,0.5,0.7284188484191895,-0.001,-0.00825,-0.37525,0.5124701456344858,10,1,100,-0.6312074485130164,-10,-1,-100,19260.648162382888,0.0003223763106074541,0.035038416955331775,0.9993859141546768,59.773919813664236,3.6392908976204033,266.8463955917361,-79.60625304534706,-61.814361572265625,4761.76025390625,True
1599384810.2922533,0.0,10,0.5,0.5,-0.03991599273681645,-0.001,-0.00825,-0.37525,0.41045274400371085,10,1,100,-0.173772884312525,-10,-1,-100,19259.052390845492,0.001988108724999075,0.03530111568120796,0.9993747438550563,59.56946347254785,3.627033947238301,266.5694840660022,-79.78857241019888,-62.528656005859375,4761.76025390625,True
1599384810.3291926,0.0,10,0.5,0.5,-0.2976267936706543,-0.001,-0.00825,-0.37525,0.3851472405570005,10,1,100,-0.009903415797023264,-10,-1,-100,19259.052390845492,0.001988108724999075,0.03530111568120796,0.9993747438550563,59.56946347254785,3.627033947238301,266.5694840660022,-79.78857241019888,-62.528656005859375,4761.76025390625,True
1599384810.3592498,0.0,10,0.5,0.5,0.2566321441650391,-0.001,-0.00825,-0.37525,0.4186710078005099,10,1,100,-0.36629253971848985,-10,-1,-100,19255.849908456323,0.005207071519893886,0.035599184916554644,0.9993525826451162,59.134497892492654,3.6009016953072783,265.8857221780821,-80.1532149933372,-63.97894287109375,4761.76025390625,True
1599384810.3924105,0.0,10,0.5,0.5,0.5220936126708984,-0.001,-0.00825,-0.37525,0.41615397559043765,10,1,100,-0.5946305307992443,-10,-1,-100,19251.018836330855,0.010187913996060187,0.035841644972819296,0.9993055503168444,58.45176075576478,3.5597888974705123,264.6888229257009,-80.70019027743113,-66.10806274414062,4761.76025390625,True
1599384810.4264274,0.0,10,0.5,0.5,-0.26650183334350586,-0.001,-0.00825,-0.37525,0.3925515011050832,10,1,100,-0.09938596562217329,-10,-1,-100,19251.018836330855,0.010187913996060187,0.035841644972819296,0.9993055503168444,58.45176075576478,3.5597888974705123,264.6888229257009,-80.70019027743113,-66.10806274414062,4761.76025390625,True
1599384810.461352,0.0,10,0.5,0.5,0.29530462646484373,-0.001,-0.00825,-0.37525,0.38349174676071246,10,1,100,-0.4602726373221803,-10,-1,-100,19247.779888707562,0.01344821985877773,0.03575559676178212,0.9992700749461274,57.963448735591925,3.530320004631863,263.716230615388,-81.06484969530258,-67.5797119140625,4761.76025390625,True
1599384810.4922702,0.0,10,0.5,0.5,0.7886528945922852,-0.001,-0.00825,-0.37525,0.31350534112430994,10,1,100,-0.8357901181325813,-10,-1,-100,19241.258233402506,0.01980248358327597,0.03503752248188452,0.9991897886098845,56.95572790292183,3.469411017461672,261.56676935338004,-81.79419467758898,-70.33392333984375,4761.76025390625,True
1599384810.5264304,0.0,10,0.5,0.5,-0.23496904678344727,-0.001,-0.00825,-0.37525,0.3854906661110413,10,1,100,-0.20311587086184937,-10,-1,-100,19241.258233402506,0.01980248358327597,0.03503752248188452,0.9991897886098845,56.95572790292183,3.469411017461672,261.56676935338004,-81.79419467758898,-70.33392333984375,4761.76025390625,True
1599384810.5463393,0.0,10,0.5,0.5,0.030806651306152316,-0.001,-0.00825,-0.37525,0.35165266662791517,10,1,100,-0.3705021774218846,-10,-1,-100,19239.618702586507,0.02130061963673523,0.03472870572546273,0.9991697556480208,56.695619884669554,3.4536730605204924,260.9785312762755,-81.97653664648304,-71.0155029296875,4761.76025390625,True
1599384810.566286,0.0,10,0.5,0.5,0.2706477729797363,-0.001,-0.00825,-0.37525,0.3000043731243466,10,1,100,-0.540062100339369,-10,-1,-100,19236.328700175392,0.02417909576381294,0.03397751544188658,0.9991300714984215,56.17112938065756,3.421925545660084,259.76587500661384,-82.3412282053657,-72.30642700195312,4761.76025390625,True
1599384810.5922508,0.0,10,0.5,0.5,0.02785909347534174,-0.001,-0.00825,-0.37525,0.3290167786092807,10,1,100,-0.42111938823579653,-10,-1,-100,19234.678228536155,0.025692906933439105,0.03355932878078353,0.9991064237532921,55.916256456449155,3.4064963369948558,259.18544047508743,-82.5235775104295,-72.92562866210938,4761.76025390625,True
1599384810.6262982,0.0,10,0.5,0.5,0.040362682342529266,-0.001,-0.00825,-0.37525,0.31921042209613526,10,1,100,-0.434349443448924,-10,-1,-100,19233.0241099149,0.02716782231848365,0.03309159383593436,0.9990830074862993,55.66027339308651,3.3909968183462174,258.59448673014043,-82.70592934265275,-73.55361938476562,4761.76025390625,True
1599384810.6602833,0.0,10,0.5,0.5,0.5159321769714355,-0.001,-0.00825,-0.37525,0.18128421938957306,10,1,100,-0.7343722723259758,-10,-1,-100,19228.0398711639,0.031213244100503267,0.03141451433587116,0.9990189496109488,54.86931614838143,3.3430855118804654,256.6816682453423,-83.25300036548683,-75.41973876953125,4761.76025390625,True
1599384810.696341,0.0,10,0.5,0.5,0.2845024253845215,-0.001,-0.00825,-0.37525,0.20381672861020425,10,1,100,-0.6151486794015748,-10,-1,-100,19224.69880916516,0.03378340744613508,0.03009854184743825,0.9989758551436497,54.337993174022714,3.310894652385378,255.359804958275,-83.61772819438943,-76.64071655273438,4761.76025390625,True
1599384810.726347,0.0,10,0.5,0.5,-0.16498004837036134,-0.001,-0.00825,-0.37525,0.33483966714095725,10,1,100,-0.3604918941834008,-10,-1,-100,19224.69880916516,0.03378340744613508,0.03009854184743825,0.9989758551436497,54.337993174022714,3.310894652385378,255.359804958275,-83.61772819438943,-76.64071655273438,4761.76025390625,True
1599384810.759359,0.0,10,0.5,0.5,0.06396169509887692,-0.001,-0.00825,-0.37525,0.25718384160545,10,1,100,-0.48994945915605914,-10,-1,-100,19223.022807064117,0.034938843951841,0.029397800799956714,0.9989569792996267,54.070472405859576,3.2946855324566657,254.68171957569763,-83.80009642902495,-77.22610473632812,4761.76025390625,True
1599384810.7924223,0.0,10,0.5,0.5,0.4575392700195312,-0.001,-0.00825,-0.37525,0.06956839153443362,10,1,100,-0.7447263810791209,-10,-1,-100,19217.972916276776,0.03828585767988052,0.027060948297929554,0.9989003444683222,53.30949429148783,3.248593662404757,252.8108270369049,-84.34721728042418,-78.8348388671875,4761.76025390625,True
1599384810.8143647,0.0,10,0.5,0.5,0.2622481811523437,-0.001,-0.00825,-0.37525,0.1120250748240017,10,1,100,-0.6342620178353917,-10,-1,-100,19214.588084616815,0.04030757288124927,0.025329758211613623,0.9988662087173457,52.81410776099603,3.2185967794862513,251.5936920830356,-84.7119777236511,-79.901611328125,4761.76025390625,True
1599384810.8594158,0.0,10,0.5,0.5,0.06286307373046873,-0.001,-0.00825,-0.37525,0.1878756562595764,10,1,100,-0.5293404688342027,-10,-1,-100,19212.89019721758,0.041173022537666436,0.02445432502280461,0.9988527259825604,52.56376515245256,3.2034391858343363,250.9646523295594,-84.89436210294687,-80.41464233398438,4761.76025390625,True
1599384810.8927295,0.0,10,0.5,0.5,0.06068155746459959,-0.001,-0.00825,-0.37525,0.17435244233366254,10,1,100,-0.5363581041146914,-10,-1,-100,19211.18866223411,0.042005525816140185,0.0235448787070178,0.9988399143444264,52.319993266495146,3.188683878959987,250.36178103594165,-85.07674909938584,-80.89990234375,4761.76025390625,True
1599384810.927798,0.0,10,0.5,0.5,0.388989810180664,-0.001,-0.00825,-0.37525,-0.055689934823091036,10,1,100,-0.7058223113155299,-10,-1,-100,19206.062170045916,0.044286724834712736,0.02063629920645464,0.9988057014046706,51.643099539906416,3.147745834838361,248.7845517611141,-85.62392506507635,-82.23760986328125,4761.76025390625,True
1599384810.962373,0.0,10,0.5,0.5,-0.10530255203247071,-0.001,-0.00825,-0.37525,0.2338757122757923,10,1,100,-0.4795617912484021,-10,-1,-100,19206.062170045916,0.044286724834712736,0.02063629920645464,0.9988057014046706,51.643099539906416,3.147745834838361,248.7845517611141,-85.62392506507635,-82.23760986328125,4761.76025390625,True
1599384810.992378,0.0,10,0.5,0.5,0.2199886474609375,-0.001,-0.00825,-0.37525,0.007671191603578487,10,1,100,-0.6180666005837252,-10,-1,-100,19202.62626901327,0.04553029682638274,0.018591217468188585,0.9987899472381327,51.21972042202436,3.122164147026068,247.8442866787422,-85.9887206999467,-83.0831298828125,4761.76025390625,True
1599384811.027287,0.0,10,0.5,0.5,0.34093396911621093,-0.001,-0.00825,-0.37525,-0.134017492635076,10,1,100,-0.6487890686055251,-10,-1,-100,19197.445057167206,0.046927096480166484,0.015455630846565935,0.9987787398073087,50.626073388828324,3.0863369311624758,246.60237007457724,-86.53593093294633,-84.23104858398438,4761.76025390625,True
1599384811.060199,0.0,10,0.5,0.5,0.19475748596191403,-0.001,-0.00825,-0.37525,-0.061945890892072336,10,1,100,-0.5853218693361709,-10,-1,-100,19193.972675202764,0.04760799100021755,0.01327360567093708,0.9987778985267024,50.258490821955185,3.0641852809499186,245.89161546619087,-86.90074801607868,-84.97076416015625,4761.76025390625,True
1599384811.09642,0.0,10,0.5,0.5,-0.075948494720459,-0.001,-0.00825,-0.37525,0.15457413305316312,10,1,100,-0.5186148756864725,-10,-1,-100,19193.972675202764,0.04760799100021755,0.01327360567093708,0.9987778985267024,50.258490821955185,3.0641852809499186,245.89161546619087,-86.90074801607868,-84.97076416015625,4761.76025390625,True
1599384811.1263,0.0,10,0.5,0.5,0.1827171173095703,-0.001,-0.00825,-0.37525,-0.08154940900966606,10,1,100,-0.5655593239671085,-10,-1,-100,19190.485700286925,0.04802324130545208,0.01114168637502865,0.9987840763244271,49.91051337026861,3.0432435684813837,245.26187245655856,-87.26557289756302,-85.64126586914062,4761.76025390625,True
1599384811.1598773,0.0,10,0.5,0.5,0.2818368217468261,-0.001,-0.00825,-0.37525,-0.24228972249368536,10,1,100,-0.5565185483563313,-10,-1,-100,19185.22787565412,0.0483097005468168,0.0077567744033689035,0.9988022853818128,49.46231525856307,3.0163570400017687,244.65501434327848,-87.81282265841047,-86.55850219726562,4761.76025390625,True
1599384811.1938188,0.0,10,0.5,0.5,-0.05686417541503906,-0.001,-0.00825,-0.37525,0.09444417629146483,10,1,100,-0.5286728369864165,-10,-1,-100,19185.22787565412,0.0483097005468168,0.0077567744033689035,0.9988022853818128,49.46231525856307,3.0163570400017687,244.65501434327848,-87.81282265841047,-86.55850219726562,4761.76025390625,True
1599384811.22891,0.0,10,0.5,0.5,0.2695464431762695,-0.001,-0.00825,-0.37525,-0.26486592623185445,10,1,100,-0.5028191227900549,-10,-1,-100,19179.937215593876,0.0480681788922961,0.0045054985173563974,0.9988338954306107,49.08300662726925,2.99371271243104,244.36339744096293,-88.3600856453413,-87.41256713867188,4761.76025390625,True
1599384811.2599463,0.0,10,0.5,0.5,-0.04556847763061524,-0.001,-0.00825,-0.37525,0.05835772435043006,10,1,100,-0.5275775535497401,-10,-1,-100,19179.937215593876,0.0480681788922961,0.0045054985173563974,0.9988338954306107,49.08300662726925,2.99371271243104,244.36339744096293,-88.3600856453413,-87.41256713867188,4761.76025390625,True
1599384811.2939548,0.0,10,0.5,0.5,0.2553215362548828,-0.001,-0.00825,-0.37525,-0.31051528426955244,10,1,100,-0.453075592713531,-10,-1,-100,19174.61372047919,0.04738745065373276,0.0011667718941648275,0.9988759022841062,49.68247037085642,3.030820052342164,248.95308011491173,-88.90732267351275,-88.200927734375,4761.76025390625,True
1599384811.3269274,0.0,10,0.5,0.5,0.14201622924804685,-0.001,-0.00825,-0.37525,-0.21838474783942677,10,1,100,-0.44306874657896766,-10,-1,-100,19171.04648360645,0.046674816630343674,-0.0010131842254515575,0.9989096230141389,50.20384133023129,3.0630162655238578,252.64776156895445,-89.27211456568963,-88.6729736328125,4761.76025390625,True
1599384811.3619704,0.0,10,0.5,0.5,-0.030507373046875005,-0.001,-0.00825,-0.37525,-0.0023495760471523124,10,1,100,-0.5144466008982723,-10,-1,-100,19171.04648360645,0.046674816630343674,-0.0010131842254515575,0.9989096230141389,50.20384133023129,3.0630162655238578,252.64776156895445,-89.27211456568963,-88.6729736328125,4761.76025390625,True
1599384811.3932009,0.0,10,0.5,0.5,0.27036348342895505,-0.001,-0.00825,-0.37525,-0.45197266947672615,10,1,100,-0.2994398758524949,-10,-1,-100,19163.868238092517,0.044720439384336445,-0.005085695242927667,0.9989865955082521,51.25659913954239,3.1280842511469906,260.15746590729657,-90.00161968468856,-89.462890625,4761.76025390625,True
1599384811.4262183,0.0,10,0.5,0.5,-0.022346863555908203,-0.001,-0.00825,-0.37525,-0.04655749782050163,10,1,100,-0.49458884529162966,-10,-1,-100,19163.868238092517,0.044720439384336445,-0.005085695242927667,0.9989865955082521,51.25659913954239,3.1280842511469906,260.15746590729657,-90.00161968468856,-89.462890625,4761.76025390625,True
1599384811.4602475,0.0,10,0.5,0.5,0.047324602508544915,-0.001,-0.00825,-0.37525,-0.16193752839756909,10,1,100,-0.4262479100210982,-10,-1,-100,19162.06455849018,0.04410178320152787,-0.0061179143382520396,0.9990083101969649,51.519324460834405,3.144333264196835,262.04718890666453,-90.18397979591433,-89.63821411132812,4761.76025390625,True
1599384811.4959803,0.0,10,0.5,0.5,0.11115953750610352,-0.001,-0.00825,-0.37525,-0.26932884537648255,10,1,100,-0.3427012732323424,-10,-1,-100,19158.44625787181,0.04278341857189859,-0.008016889487706791,0.9990522051315655,52.059082582564365,3.177716268210374,265.9173310841594,-90.54868031215315,-89.97396850585938,4761.76025390625,True
1599384811.526947,0.0,10,0.5,0.5,0.04767300834655761,-0.001,-0.00825,-0.37525,-0.18869097016155717,10,1,100,-0.39156097844956683,-10,-1,-100,19156.63163740351,0.04203410830327848,-0.008995819245356265,0.9990756773014011,52.330536568916,3.194508859439642,267.86952013529435,-90.73102074701708,-90.13260650634766,4761.76025390625,True
1599384811.5599687,0.0,10,0.5,0.5,0.10871965923309326,-0.001,-0.00825,-0.37525,-0.3000960962948621,10,1,100,-0.28868619750596497,-10,-1,-100,19152.99145653553,0.04042339695253976,-0.010883299632023355,0.9991233671413842,52.88468012120209,3.2287893927482556,271.84990759013726,-91.09568175623848,-90.44523620605469,4761.76025390625,True
1599384811.5957248,0.0,10,0.5,0.5,0.15371998615264892,-0.001,-0.00825,-0.37525,-0.4025491619159454,10,1,100,-0.15582576958035133,-10,-1,-100,19147.503837290686,0.03775824163612604,-0.013516592581776576,0.9991954848344372,53.738319282572455,3.281601661083275,277.9831719230757,-91.64262309632193,-90.86998748779297,4761.76025390625,True
1599384811.626532,0.0,10,0.5,0.5,0.046583901214599606,-0.001,-0.00825,-0.37525,-0.23520601905991984,10,1,100,-0.3141242908284023,-10,-1,-100,19145.66733876185,0.03678382330278327,-0.014372810245498241,0.9992198820424244,54.025651837461325,3.2993813830115495,280.0548467393271,-91.82492348330777,-91.00128173828125,4761.76025390625,True
1599384811.6595154,0.0,10,0.5,0.5,0.12974849662780763,-0.001,-0.00825,-0.37525,-0.4086835934065859,10,1,100,-0.07697253263345039,-10,-1,-100,19140.135968208546,0.03375170304101842,-0.01671413190463339,0.9992904784578434,54.89628936771996,3.3532629311573388,286.3538675036503,-92.37178415557267,-91.34712219238281,4761.76025390625,True
1599384811.693383,0.0,10,0.5,0.5,0.0021780387878417968,-0.001,-0.00825,-0.37525,-0.17612152226098926,10,1,100,-0.37889224745100314,-10,-1,-100,19140.135968208546,0.03375170304101842,-0.01671413190463339,0.9992904784578434,54.89628936771996,3.3532629311573388,286.3538675036503,-92.37178415557267,-91.34712219238281,4761.76025390625,True
1599384811.7294693,0.0,10,0.5,0.5,0.07771552925109862,-0.001,-0.00825,-0.37525,-0.3413991499872737,10,1,100,-0.13394074517421042,-10,-1,-100,19136.430160402437,0.03153661948721969,-0.0182023822042549,0.9993368375644963,55.47283275961616,3.3889583193600914,290.56573099888436,-92.73632469384238,-91.54202270507812,4761.76025390625,True
1599384811.760617,0.0,10,0.5,0.5,0.03872597923278808,-0.001,-0.00825,-0.37525,-0.26633202905798636,10,1,100,-0.23466420234427599,-10,-1,-100,19134.571788515663,0.030450560248855185,-0.018860984389134274,0.9993583074395308,55.76250967200189,3.406895200683966,292.68885884682066,-92.91858500477433,-91.62821960449219,4761.76025390625,True
1599384811.794105,0.0,10,0.5,0.5,0.06493804817199707,-0.001,-0.00825,-0.37525,-0.34421909409331664,10,1,100,-0.08605756569179862,-10,-1,-100,19130.84410980018,0.028125236861806277,-0.02015525488557652,0.9994011890887285,56.334327161322136,3.442315082956114,296.91517794831947,-93.28308605004138,-91.77910614013672,4761.76025390625,True
1599384811.8277209,0.0,10,0.5,0.5,0.058860661888122556,-0.001,-0.00825,-0.37525,-0.34234258065112694,10,1,100,-0.058539701585803794,-10,-1,-100,19127.10185201827,0.025775668242016155,-0.02130204399600654,0.9994407625508727,56.90456874623966,3.477647482222317,301.1592658621205,-93.64756115788394,-91.90874481201172,4761.76025390625,True
1599384811.8626266,0.0,10,0.5,0.5,0.07243903198242188,-0.001,-0.00825,-0.37525,-0.39878477266015544,10,1,100,0.11636236930524896,-10,-1,-100,19121.461131059797,0.022065139534406367,-0.022845612974199275,0.9994954765206095,57.7544687399725,3.5303300263087127,307.54532622847097,-94.19422568787546,-92.06988525390625,4761.76025390625,True
1599384811.8935394,0.0,10,0.5,0.5,0.045251703453063966,-0.001,-0.00825,-0.37525,-0.34146337800135573,10,1,100,0.023327656810966713,-10,-1,-100,19117.68242927792,0.019555855339953555,-0.023715163190450087,0.9995274681352049,58.31708077796359,3.565221412123378,311.81397731533303,-94.55863689626706,-92.15409088134766,4761.76025390625,True
1599384811.9285376,0.0,10,0.5,0.5,0.027909101486206053,-0.001,-0.00825,-0.37525,-0.29761738240319513,10,1,100,-0.08956362268837866,-10,-1,-100,19115.78761248046,0.018319942741911035,-0.024095398096550796,0.9995417907664002,58.595216918193195,3.582477575236871,313.9410631310369,-94.74083305045643,-92.188232421875,4761.76025390625,True
1599384811.9607565,0.0,10,0.5,0.5,0.03598616123199463,-0.001,-0.00825,-0.37525,-0.3354123138902125,10,1,100,0.06546185869544402,-10,-1,-100,19111.987047800794,0.015804734457377824,-0.024775039383329076,0.99956811063193,59.13905833351345,3.6162391890830317,318.1476903541304,-95.1052070560953,-92.24085998535156,4761.76025390625,True
1599384811.9970999,0.0,10,0.5,0.5,0.01726032009124756,-0.001,-0.00825,-0.37525,-0.2684884081261676,10,1,100,-0.18396106087333652,-10,-1,-100,19111.987047800794,0.015804734457377824,-0.024775039383329076,0.99956811063193,59.13905833351345,3.6162391890830317,318.1476903541304,-95.1052070560953,-92.24085998535156,4761.76025390625,True
1599384812.0274482,0.0,10,0.5,0.5,0.038203523445129395,-0.001,-0.00825,-0.37525,-0.35803337948171055,10,1,100,0.23871581617567578,-10,-1,-100,19106.2588741784,0.011978532819281022,-0.02558175647976247,0.99960096462884,59.931480862041255,3.6654797624646047,324.37872857489657,-95.65172307377591,-92.29456329345703,4761.76025390625,True
1599384812.0614262,0.0,10,0.5,0.5,0.018832995986938477,-0.001,-0.00825,-0.37525,-0.278248432295884,10,1,100,-0.1417270306118307,-10,-1,-100,19106.2588741784,0.011978532819281022,-0.02558175647976247,0.99960096462884,59.931480862041255,3.6654797624646047,324.37872857489657,-95.65172307377591,-92.29456329345703,4761.76025390625,True
1599384812.094134,0.0,10,0.5,0.5,0.031524545478820803,-0.001,-0.00825,-0.37525,-0.3499691174424844,10,1,100,0.4117853784297901,-10,-1,-100,19098.570304876193,0.006964381906782595,-0.026227054186299285,0.9996317517032787,60.95436964767856,3.729129354459665,332.58957347382056,-96.38032897656598,-92.32664489746094,4761.76025390625,True
1599384812.1296873,0.0,10,0.5,0.5,0.02068216533660889,-0.001,-0.00825,-0.37525,-0.2972350857643222,10,1,100,0.05735697569359674,-10,-1,-100,19096.63905551203,0.005649490355151303,-0.026327591749897492,0.9996374048480668,61.20076965350396,3.7444826485726774,334.60636820903613,-96.56246615038363,-92.32829284667969,4761.76025390625,True
1599384812.161889,0.0,10,0.5,0.5,0.01927389907836914,-0.001,-0.00825,-0.37525,-0.2986386454257579,10,1,100,0.1992216719734077,-10,-1,-100,19092.765628875117,0.003184887838857898,-0.02642613795294135,0.9996456950951902,61.688318140108386,3.774882720630633,338.6286276365707,-96.92672367343717,-92.32498931884766,4761.76025390625,True
1599384812.194106,0.0,10,0.5,0.5,0.020856949615478515,-0.001,-0.00825,-0.37525,-0.2892964345170656,10,1,100,-0.04497950161561702,-10,-1,-100,19092.765628875117,0.003184887838857898,-0.02642613795294135,0.9996456950951902,61.688318140108386,3.774882720630633,338.6286276365707,-96.92672367343717,-92.32498931884766,4761.76025390625,True
1599384812.2270849,0.0,10,0.5,0.5,0.01664100742340088,-0.001,-0.00825,-0.37525,-0.2890456124020645,10,1,100,0.23244642480575117,-10,-1,-100,19088.877632596064,0.0006799978274777766,-0.026420602729187937,0.9996506836662399,62.160854114035494,3.804385373775505,342.5913178543111,-97.29095931681022,-92.31322479248047,4761.76025390625,True
1599384812.2632701,0.0,10,0.5,0.5,0.009340131568908694,-0.001,-0.00825,-0.37525,-0.26641530674873887,10,1,100,0.3846496483900205,-10,-1,-100,19083.018321998767,-0.0029636807086225315,-0.026207381165710295,0.9996521343793012,62.841955356559225,3.846986966659324,348.42408203184755,-97.83727270275422,-92.28173828125,4761.76025390625,True
1599384812.294299,0.0,10,0.5,0.5,0.02123258724212647,-0.001,-0.00825,-0.37525,-0.28794866140341907,10,1,100,0.022410157125043052,-10,-1,-100,19083.018321998767,-0.0029636807086225315,-0.026207381165710295,0.9996521343793012,62.841955356559225,3.846986966659324,348.42408203184755,-97.83727270275422,-92.28173828125,4761.76025390625,True
1599384812.327643,0.0,10,0.5,0.5,0.010200304222106937,-0.001,-0.00825,-0.37525,-0.25837362577648426,10,1,100,0.2796646690317965,-10,-1,-100,19079.09390541422,-0.0052852958939875625,-0.02593721507657236,0.999649601871268,63.27784474448464,3.87430619934741,352.2386821087075,-98.2014557295168,-92.25232696533203,4761.76025390625,True
1599384812.360814,0.0,10,0.5,0.5,0.014994281768798828,-0.001,-0.00825,-0.37525,-0.2670187007518341,10,1,100,0.17228966102331728,-10,-1,-100,19077.126234516385,-0.00640054596210472,-0.025769144608319923,0.9996474299459498,63.48918292169087,3.88757120380301,354.1170405174734,-98.38353968656764,-92.23571014404297,4761.76025390625,True
1599384812.3968134,0.0,10,0.5,0.5,0.007236011123657229,-0.001,-0.00825,-0.37525,-0.23768024642009983,10,1,100,0.3119574152655919,-10,-1,-100,19073.179968098644,-0.008667408263703373,-0.025349469699503253,0.9996410757966803,63.89462939429393,3.9130664260666874,357.79266657158144,-98.74769291043663,-92.19864654541016,4761.76025390625,True
1599384812.4278085,0.0,10,0.5,0.5,0.005297010803222663,-0.001,-0.00825,-0.37525,-0.22403544694723126,10,1,100,0.3211914245003969,-10,-1,-100,19069.219136102474,-0.010793368675397663,-0.024844114593353166,0.9996330692622714,64.28136807993015,3.9374436471808267,361.38290491893366,-99.11182701917483,-92.15673828125,4761.76025390625,True
1599384812.460726,0.0,10,0.5,0.5,0.012311422729492193,-0.001,-0.00825,-0.37525,-0.24233721716219742,10,1,100,0.2271836438435717,-10,-1,-100,19067.233258392196,-0.011855300361346624,-0.024552337807528184,0.9996282481810562,64.46739741760041,3.949193395793184,363.14379808058516,-99.29388704849018,-92.13395690917969,4761.76025390625,True
1599384812.4945042,0.0,10,0.5,0.5,-0.01731501655578613,-0.001,-0.00825,-0.37525,-0.12092617419253213,10,1,100,0.5582320171905228,-10,-1,-100,19059.253336709924,-0.015814310023802965,-0.02318496329700158,0.999606104961043,65.16524657463785,3.993431535470191,369.97062873879685,-100.02208216471098,-92.03292083740234,4761.76025390625,True
1599384812.5314748,0.0,10,0.5,0.5,0.020357812881469727,-0.001,-0.00825,-0.37525,-0.25733950777959863,10,1,100,0.16423097073115486,-10,-1,-100,19059.253336709924,-0.015814310023802965,-0.02318496329700158,0.999606104961043,65.16524657463785,3.993431535470191,369.97062873879685,-100.02208216471098,-92.03292083740234,4761.76025390625,True
1599384812.551424,0.0,10,0.5,0.5,0.009837382125854494,-0.001,-0.00825,-0.37525,-0.21313370732306047,10,1,100,0.27108784572952627,-10,-1,-100,19057.249254172668,-0.01676846416209483,-0.022786038906174814,0.9995997274112328,65.32706110503747,4.003734910915234,371.61624900300046,-100.20412007338072,-92.00559997558594,4761.76025390625,True
1599384812.59395,0.0,10,0.5,0.5,-0.0012140691757202109,-0.001,-0.00825,-0.37525,-0.16176460763490663,10,1,100,0.3702927736225219,-10,-1,-100,19053.23016723187,-0.018521877757760513,-0.02195969270264273,0.9995872707976688,65.6359719285119,4.023462371186992,374.8356399699788,-100.56818360978465,-91.94965362548828,4761.76025390625,True
1599384812.6285768,0.0,10,0.5,0.5,-0.00285296058654785,-0.001,-0.00825,-0.37525,-0.14008961439822676,10,1,100,0.3910552837946081,-10,-1,-100,19049.196518260753,-0.020290496394430882,-0.02101528502315563,0.9995732357118526,65.92348100069958,4.041908574573318,377.94795694674565,-100.93223089419632,-91.89022827148438,4761.76025390625,True
1599384812.663702,0.0,10,0.5,0.5,0.00737420692443848,-0.001,-0.00825,-0.37525,-0.18059095047878437,10,1,100,0.3054242605428805,-10,-1,-100,19047.174233158585,-0.021104116020310232,-0.02052964663902929,0.9995664809785679,66.05999055288524,4.050698807562376,379.46799972762057,-101.11424866353298,-91.85900115966797,4761.76025390625,True
1599384812.6940465,0.0,10,0.5,0.5,-0.005560306549072261,-0.001,-0.00825,-0.37525,-0.11648615893881098,10,1,100,0.39582213537178207,-10,-1,-100,19043.118742137216,-0.022651188342166634,-0.019510302338039718,0.9995530359962727,66.31849658201266,4.067412222891628,382.4349312840587,-101.47827286196882,-91.79434204101562,4761.76025390625,True
1599384812.727683,0.0,10,0.5,0.5,-0.006141234016418452,-0.001,-0.00825,-0.37525,-0.0995593909706053,10,1,100,0.4006347524139765,-10,-1,-100,19039.048690663883,-0.024086595478437802,-0.018435435848583946,0.999539879456208,66.55649857920277,4.082898134812166,385.29656436850973,-101.8422824315262,-91.72927856445312,4761.76025390625,True
1599384812.7607675,0.0,10,0.5,0.5,0.00546856575012207,-0.001,-0.00825,-0.37525,-0.1436011551717114,10,1,100,0.33529880093984177,-10,-1,-100,19037.008204835816,-0.024783530418724244,-0.017864949654407773,0.9995332011463299,66.6675556983969,4.090164901364885,386.685984242178,-102.02428193343744,-91.69627380371094,4761.76025390625,True
1599384812.7975538,0.0,10,0.5,0.5,-0.02008181343078613,-0.001,-0.00825,-0.37525,-0.00707409933354361,10,1,100,0.47188050961453465,-10,-1,-100,19030.864908314543,-0.026646041205351557,-0.01611151548384513,0.9995150862077553,66.96911796231484,4.110068846737991,390.6874610115631,-102.57026004955728,-91.5964584350586,4761.76025390625,True
1599384812.828481,0.0,10,0.5,0.5,-0.007776439857482907,-0.001,-0.00825,-0.37525,-0.04619289983327811,10,1,100,0.4080298936011813,-10,-1,-100,19026.751178588253,-0.02774532655594226,-0.014880783353625481,0.9995042566898283,67.14440208220857,4.121791761073153,393.2177530809535,-102.9342291490041,-91.53079223632812,4761.76025390625,True
1599384812.8613887,0.0,10,0.5,0.5,0.01645054512023926,-0.001,-0.00825,-0.37525,-0.16843569486090543,10,1,100,0.2992944601953248,-10,-1,-100,19026.751178588253,-0.02774532655594226,-0.014880783353625481,0.9995042566898283,67.14440208220857,4.121791761073153,393.2177530809535,-102.9342291490041,-91.53079223632812,4761.76025390625,True
1599384812.8954098,0.0,10,0.5,0.5,-0.03201975078582764,-0.001,-0.00825,-0.37525,0.10938861174392095,10,1,100,0.49668055466920435,-10,-1,-100,19018.480044468073,-0.029528899217948313,-0.012362657093530129,0.9994874730683542,67.43346794485693,4.141539004697929,397.9441607845005,-103.66213083418093,-91.40306854248047,4761.76025390625,True
1599384812.9304438,0.0,10,0.5,0.5,0.0034555957794189466,-0.001,-0.00825,-0.37525,-0.0672932936560726,10,1,100,0.36243650202413696,-10,-1,-100,19016.40316228103,-0.029918328036584244,-0.011689126344182154,0.9994839958562644,67.49361282484503,4.145746358773867,399.0591951346654,-103.84409893510687,-91.37129211425781,4761.76025390625,True
1599384812.9611332,0.0,10,0.5,0.5,0.014902552223205568,-0.001,-0.00825,-0.37525,-0.13361931195502402,10,1,100,0.3246332651884263,-10,-1,-100,19016.40316228103,-0.029918328036584244,-0.011689126344182154,0.9994839958562644,67.49361282484503,4.145746358773867,399.0591951346654,-103.84409893510687,-91.37129211425781,4761.76025390625,True
1599384812.9942048,0.0,10,0.5,0.5,-0.032642936897277826,-0.001,-0.00825,-0.37525,0.157607073040693,10,1,100,0.45361335443843176,-10,-1,-100,19008.059241449926,-0.031082121728273245,-0.009050092079383794,0.9994758614104812,67.68392530595086,4.159541199663873,403.23739755389863,-104.57194408958836,-91.24606323242188,4761.76025390625,True
1599384813.0281398,0.0,10,0.5,0.5,0.013843527221679688,-0.001,-0.00825,-0.37525,-0.10514839798317852,10,1,100,0.3382317858403279,-10,-1,-100,19008.059241449926,-0.031082121728273245,-0.009050092079383794,0.9994758614104812,67.68392530595086,4.159541199663873,403.23739755389863,-104.57194408958836,-91.24606323242188,4761.76025390625,True
1599384813.0640094,0.0,10,0.5,0.5,0.0014267044067382828,-0.001,-0.00825,-0.37525,-0.027976586742743254,10,1,100,0.36391916490678733,-10,-1,-100,19005.964163311757,-0.03130797887125369,-0.008358039441069524,0.9994748389207698,67.71979293226379,4.162282637111714,404.2156975172677,-104.75389896065306,-91.21426391601562,4761.76025390625,True
1599384813.0944793,0.0,10,0.5,0.5,-0.034949295425415035,-0.001,-0.00825,-0.37525,0.20506683957999303,10,1,100,0.40431658041208474,-10,-1,-100,18997.54746099154,-0.031873987884563325,-0.005619485345493053,0.9994760979036901,67.81431160663313,4.170279990358199,407.8462705043544,-105.48169424850427,-91.08699798583984,4761.76025390625,True
1599384813.128472,0.0,10,0.5,0.5,0.0001621248245239279,-0.001,-0.00825,-0.37525,0.008060603461713112,10,1,100,0.3556459734512327,-10,-1,-100,18995.43418821448,-0.03193963559932267,-0.004931988736325092,0.9994776311478348,67.82595910963991,4.1715514414815935,408.68393200519404,-105.6636372814668,-91.05472564697266,4761.76025390625,True
1599384813.1615827,0.0,10,0.5,0.5,0.01182539043426514,-0.001,-0.00825,-0.37525,-0.05957110478033099,10,1,100,0.34961056141469543,-10,-1,-100,18995.43418821448,-0.03193963559932267,-0.004931988736325092,0.9994776311478348,67.82595910963991,4.1715514414815935,408.68393200519404,-105.6636372814668,-91.05472564697266,4761.76025390625,True
1599384813.1835253,0.0,10,0.5,0.5,-0.03470299987792968,-0.001,-0.00825,-0.37525,0.24026054919870263,10,1,100,0.34620772329621075,-10,-1,-100,18986.94470894104,-0.03190488769911519,-0.002215290786167787,0.9994884544744075,67.83143063321278,4.174136281219997,411.79092837974775,-106.39138851522887,-90.9321060180664,4761.76025390625,True
1599384813.2284575,0.0,10,0.5,0.5,-0.0005627988815307596,-0.001,-0.00825,-0.37525,0.04643881330259432,10,1,100,0.34122609596934284,-10,-1,-100,18984.813242405653,-0.03182422975855216,-0.0015190952419598194,0.9994923265087735,67.82359370468846,4.174221746148197,412.51256445018913,-106.57332123317735,-90.90186309814453,4761.76025390625,True
1599384813.2622552,0.0,10,0.5,0.5,-0.001210346031188964,-0.001,-0.00825,-0.37525,0.05390331961486159,10,1,100,0.33737030114287836,-10,-1,-100,18982.678137354786,-0.03171376501367191,-0.0008281888369788466,0.9994966489248015,67.81098203416659,4.174015307873183,413.2052286110634,-106.75525201016173,-90.87107849121094,4761.76025390625,True
1599384813.2953131,0.0,10,0.5,0.5,-0.0007696744918823228,-0.001,-0.00825,-0.37525,0.054045483993270096,10,1,100,0.3334370894237605,-10,-1,-100,18980.53939367924,-0.03157595383271871,-0.0002086732812898879,0.9995013334633506,67.79340448078132,4.1735046010381645,413.8675834823942,-106.93718088758602,-90.84264373779297,4761.76025390625,True
1599384813.3307505,0.0,10,0.5,0.5,-0.01023918991088867,-0.001,-0.00825,-0.37525,0.1352185438991656,10,1,100,0.30764627585302784,-10,-1,-100,18976.250990630244,-0.03121470206684902,0.0010820228111510406,0.9995121167857416,67.75367775013167,4.172205351031932,415.16393431512904,-107.30103320192478,-90.79027557373047,4761.76025390625,True
1599384813.3619533,0.0,10,0.5,0.5,-0.0004885782241821259,-0.001,-0.00825,-0.37525,0.07869475292086596,10,1,100,0.31940140700629327,-10,-1,-100,18974.10133148718,-0.030993035671689373,0.0017323192363941293,0.9995180992908116,67.7304447799752,4.171350046341021,415.79115645423656,-107.48295651998293,-90.76496124267578,4761.76025390625,True
1599384813.3952267,0.0,10,0.5,0.5,-0.027236704635620113,-0.001,-0.00825,-0.37525,0.28375545387345835,10,1,100,0.21526739138562268,-10,-1,-100,18965.466310721124,-0.029844928885044128,0.0041778838031697975,0.9995458096089312,67.604823989207,4.1659198185276,418.09514635867987,-108.21063199584657,-90.669677734375,4761.76025390625,True
1599384813.4281182,0.0,10,0.5,0.5,0.008069148254394531,-0.001,-0.00825,-0.37525,0.04045258952031552,10,1,100,0.3299317650515262,-10,-1,-100,18965.466310721124,-0.029844928885044128,0.0041778838031697975,0.9995458096089312,67.604823989207,4.1659198185276,418.09514635867987,-108.21063199584657,-90.669677734375,4761.76025390625,True
1599384813.4641347,0.0,10,0.5,0.5,-0.0006944925308227535,-0.001,-0.00825,-0.37525,0.1072242206016334,10,1,100,0.2907466755799364,-10,-1,-100,18963.298459419864,-0.029490545398029238,0.004775991931955721,0.999553649202079,67.56711522297039,4.164174188625211,418.6308981143472,-108.39254655169711,-90.64730072021484,4761.76025390625,True
1599384813.4951482,0.0,10,0.5,0.5,-0.008355698966979977,-0.001,-0.00825,-0.37525,0.17108000660584938,10,1,100,0.24252195983176233,-10,-1,-100,18958.951842665672,-0.028732198530488022,0.005891408303010087,0.9995697834947853,67.48318412769878,4.160157299674112,419.64754783092604,-108.75637060586679,-90.60551452636719,4761.76025390625,True
1599384813.5281532,0.0,10,0.5,0.5,-0.01575502662658691,-0.001,-0.00825,-0.37525,0.2444718596281101,10,1,100,0.16898179317854933,-10,-1,-100,18952.404631056823,-0.02737716116957483,0.007562782397771577,0.9995965663049764,67.34398213278897,4.153307244646088,421.0836993582842,-109.30209408559544,-90.54515838623047,4761.76025390625,True
1599384813.5612042,0.0,10,0.5,0.5,0.006574383163452149,-0.001,-0.00825,-0.37525,0.07831225747035513,10,1,100,0.3040327566169145,-10,-1,-100,18952.404631056823,-0.02737716116957483,0.007562782397771577,0.9995965663049764,67.34398213278897,4.153307244646088,421.0836993582842,-109.30209408559544,-90.54515838623047,4761.76025390625,True
1599384813.5973096,0.0,10,0.5,0.5,-0.00819038963317871,-0.001,-0.00825,-0.37525,0.19175074585302598,10,1,100,0.19394552014164196,-10,-1,-100,18948.021632933058,-0.02638041090033506,0.008585785130668828,0.9996151050351427,67.23688858666678,4.147854179173276,421.9470946378624,-109.66590198076481,-90.50669860839844,4761.76025390625,True
1599384813.6172254,0.0,10,0.5,0.5,-0.006789903640747069,-0.001,-0.00825,-0.37525,0.19375949481953675,10,1,100,0.1780290107940028,-10,-1,-100,18943.62408273795,-0.025334427256150673,0.009525490811209476,0.9996336488036047,67.12489498151342,4.142093059394065,422.77541934078187,-110.02970343599455,-90.47286224365234,4761.76025390625,True
1599384813.6622791,0.0,10,0.5,0.5,-0.0005667102813720695,-0.001,-0.00825,-0.37525,0.15432430343472373,10,1,100,0.21769008345198781,-10,-1,-100,18941.419850582024,-0.024749762355216157,0.010012417722664037,0.9996435368443629,67.06979069997608,4.139265398372181,423.193538033987,-110.21160176281822,-90.45646667480469,4761.76025390625,True
1599384813.6953723,0.0,10,0.5,0.5,-0.01202210483551025,-0.001,-0.00825,-0.37525,0.24911363705027728,10,1,100,0.07863460549949125,-10,-1,-100,18934.785326730576,-0.022959985318172657,0.011308681225117296,0.9996724227481412,66.89243390047474,4.130028913899787,424.36482754772135,-110.75728735640283,-90.410400390625,4761.76025390625,True
1599384813.7310996,0.0,10,0.5,0.5,-0.00024405136108398336,-0.001,-0.00825,-0.37525,0.16426802294846138,10,1,100,0.1879744572135902,-10,-1,-100,18932.566542965942,-0.022334216709491754,0.011707073042795819,0.9996820130445202,66.85406835865717,4.128227904943301,424.8847241070142,-110.93917886416847,-90.39653778076172,4761.76025390625,True
1599384813.7620971,0.0,10,0.5,0.5,-0.00967765712738037,-0.001,-0.00825,-0.37525,0.24652250767948655,10,1,100,0.033870275693991286,-10,-1,-100,18925.888365760096,-0.020371216971581445,0.012810170748022319,0.9997104145923975,66.97242324226204,4.1372375301873285,427.93158265845216,-111.48482820084514,-90.35823822021484,4761.76025390625,True
1599384813.7965827,0.0,10,0.5,0.5,-0.004068152999877929,-0.001,-0.00825,-0.37525,0.21007362206955532,10,1,100,0.07652585055346961,-10,-1,-100,18921.418060202617,-0.018983062173943206,0.013473785804551714,0.9997290135064568,67.06100622790066,4.143841800772796,430.0299648270469,-111.84857156999296,-90.33563232421875,4761.76025390625,True
1599384813.8283026,0.0,10,0.5,0.5,0.004157583045959473,-0.001,-0.00825,-0.37525,0.1445818958038754,10,1,100,0.2142905819948849,-10,-1,-100,18921.418060202617,-0.018983062173943206,0.013473785804551714,0.9997290135064568,67.06100622790066,4.143841800772796,430.0299648270469,-111.84857156999296,-90.33563232421875,4761.76025390625,True
1599384813.8642347,0.0,10,0.5,0.5,0.00019459095001220748,-0.001,-0.00825,-0.37525,0.17677271530516359,10,1,100,0.13926105239280762,-10,-1,-100,18919.177451131167,-0.01830983839243027,0.013759536547743841,0.9997376780796223,67.0986701058225,4.146734395026118,431.0382557293959,-112.0304367573562,-90.32569122314453,4761.76025390625,True
1599384813.8961558,0.0,10,0.5,0.5,-0.0027808534622192375,-0.001,-0.00825,-0.37525,0.20702841734924654,10,1,100,0.05263734808425033,-10,-1,-100,18914.685322014033,-0.016918571572592668,0.014288728374546554,0.9997547670190833,67.16212251901322,4.151785674459166,432.98115542862456,-112.39415440592144,-90.308349609375,4761.76025390625,True
1599384813.9292428,0.0,10,0.5,0.5,-0.002531402206420897,-0.001,-0.00825,-0.37525,0.2083818095972647,10,1,100,0.027512692912664588,-10,-1,-100,18910.178644628613,-0.015434885407177688,0.014776000923006663,0.9997716909920938,67.20972065474544,4.155856874444287,434.8247692706353,-112.75785582793198,-90.292236328125,4761.76025390625,True
1599384813.9625509,0.0,10,0.5,0.5,0.0005078033447265626,-0.001,-0.00825,-0.37525,0.18294478960162636,10,1,100,0.09454453933402539,-10,-1,-100,18907.919850583072,-0.014705410701988402,0.014982102861835198,0.9997796194611706,67.2271908074624,4.157500822883706,435.7065068192099,-112.93970068661284,-90.28471374511719,4761.76025390625,True
1599384813.9991229,0.0,10,0.5,0.5,-0.0020805646896362292,-0.001,-0.00825,-0.37525,0.2025999312052192,10,1,100,0.003890040572425646,-10,-1,-100,18903.391351865022,-0.013227782814487382,0.015343190809847777,0.9997947850722094,67.24972817869943,4.160020574069778,437.3907525844547,-113.30337900788454,-90.27074432373047,4761.76025390625,True
1599384814.0297632,0.0,10,0.5,0.5,-0.0034792251586914054,-0.001,-0.00825,-0.37525,0.212652650846916,10,1,100,-0.09775105706509901,-10,-1,-100,18896.571329056635,-0.010970949283273258,0.01575799478379538,0.9998156449427154,67.25644473466272,4.162120493002129,439.7424837045168,-113.84887006273784,-90.25350189208984,4761.76025390625,True
1599384814.0629575,0.0,10,0.5,0.5,-0.0006606206893920896,-0.001,-0.00825,-0.37525,0.19228217504364759,10,1,100,-0.039817258506565506,-10,-1,-100,18892.00646465621,-0.009456852456369721,0.015945858331391963,0.9998281340028862,67.24392678250729,4.1624653202644994,441.19939892420206,-114.21251404950502,-90.244140625,4761.76025390625,True
1599384814.0963128,0.0,10,0.5,0.5,9.990501403808576e-05,-0.001,-0.00825,-0.37525,0.18581402558952495,10,1,100,-0.0499110655963963,-10,-1,-100,18887.427054960513,-0.008000345607689065,0.01605398857481629,0.9998391190191537,67.21957258022942,4.162073910834349,442.57806887879144,-114.57614552710847,-90.2371597290039,4761.76025390625,True
1599384814.131569,0.0,10,0.5,0.5,0.0015890655517578128,-0.001,-0.00825,-0.37525,0.17882664638213314,10,1,100,0.01298818090323274,-10,-1,-100,18885.131895833765,-0.0072593060510340885,0.01608581824165594,0.999844262336467,67.20450715235597,4.161697924381759,443.2480345129623,-114.75795667164023,-90.23442077636719,4761.76025390625,True
1599384814.16272,0.0,10,0.5,0.5,0.0025333580017089844,-0.001,-0.00825,-0.37525,0.17590488294187856,10,1,100,0.08591976095643945,-10,-1,-100,18885.131895833765,-0.0072593060510340885,0.01608581824165594,0.999844262336467,67.20450715235597,4.161697924381759,443.2480345129623,-114.75795667164023,-90.23442077636719,4761.76025390625,True
1599384814.196335,0.0,10,0.5,0.5,-0.00012790412902832,-0.001,-0.00825,-0.37525,0.1703102168517715,10,1,100,-0.23329760139322572,-10,-1,-100,18875.91489774885,-0.0043679879897852315,0.016032583065893963,0.9998619289487706,67.12422852559118,4.158943238540553,445.79222247115564,-115.48517335313744,-90.22756958007812,4761.76025390625,True
1599384814.2296576,0.0,10,0.5,0.5,0.0023620569229125974,-0.001,-0.00825,-0.37525,0.1758610390797842,10,1,100,0.054440019691395475,-10,-1,-100,18875.91489774885,-0.0043679879897852315,0.016032583065893963,0.9998619289487706,67.12422852559118,4.158943238540553,445.79222247115564,-115.48517335313744,-90.22756958007812,4761.76025390625,True
1599384814.2660878,0.0,10,0.5,0.5,0.001916499519348145,-0.001,-0.00825,-0.37525,0.16993020804073994,10,1,100,-0.026813341419727535,-10,-1,-100,18873.601558306953,-0.00364073069203212,0.01597708109763779,0.9998657299655928,67.09864059106712,4.157909567652596,446.3905888956827,-115.66697077836099,-90.2265625,4761.76025390625,True
1599384814.296216,0.0,10,0.5,0.5,0.0016718545913696288,-0.001,-0.00825,-0.37525,0.13316318358008494,10,1,100,-0.2636917886914425,-10,-1,-100,18864.31184181827,-0.0008368692231638336,0.01559128719487656,0.99987809827674,66.97056728226676,4.1521652751295965,448.6065957390255,-116.3941365298004,-90.22505187988281,4761.76025390625,True
1599384814.3296757,0.0,10,0.5,0.5,0.002264128303527832,-0.001,-0.00825,-0.37525,0.15690249019128946,10,1,100,-0.05999579829642347,-10,-1,-100,18861.980323295807,-0.00015229374730994986,0.015455823539438172,0.9998805400273236,66.93296175759619,4.150378546458561,449.12145074012574,-116.57592225182198,-90.22525024414062,4761.76025390625,True
1599384814.362986,0.0,10,0.5,0.5,0.0025339439392089843,-0.001,-0.00825,-0.37525,0.13634100437256222,10,1,100,-0.1364592783185942,-10,-1,-100,18857.3063793747,0.001153283331788608,0.015145649770024307,0.9998846329605233,66.85116817002793,4.146391061911468,450.10447017198976,-116.93948741628951,-90.22626495361328,4761.76025390625,True
1599384814.3992398,0.0,10,0.5,0.5,0.0021307037353515625,-0.001,-0.00825,-0.37525,0.16729714681257157,10,1,100,-0.0071139936702446106,-10,-1,-100,18857.3063793747,0.001153283331788608,0.015145649770024307,0.9998846329605233,66.85116817002793,4.146391061911468,450.10447017198976,-116.93948741628951,-90.22626495361328,4761.76025390625,True
1599384814.4292736,0.0,10,0.5,0.5,0.00285081958770752,-0.001,-0.00825,-0.37525,0.12590800392741744,10,1,100,-0.15418221386460468,-10,-1,-100,18852.617892866023,0.0024806215737481012,0.01477011229703324,0.9998878388596097,66.76748390112357,4.142278216878642,451.0712645651789,-117.30304467967565,-90.22821807861328,4761.76025390625,True
1599384814.4629543,0.0,10,0.5,0.5,0.002552598762512207,-0.001,-0.00825,-0.37525,0.14091404594665283,10,1,100,-0.09103051729061111,-10,-1,-100,18850.268196270452,0.0031036582183282106,0.01456630031837785,0.9998890889497187,66.72414414718655,4.1401257996067296,451.54321043286046,-117.484820368883,-90.2293930053711,4761.76025390625,True
1599384814.49631,0.0,10,0.5,0.5,0.0032414306640625003,-0.001,-0.00825,-0.37525,0.11089246377628487,10,1,100,-0.16622065260135266,-10,-1,-100,18845.557896923507,0.0043441809759810854,0.014109474607072583,0.9998910194706023,66.63672567217931,4.135768655640977,452.47935834849017,-117.84836621985517,-90.23240661621094,4761.76025390625,True
1599384814.533121,0.0,10,0.5,0.5,0.0034121456146240237,-0.001,-0.00825,-0.37525,0.10165473975802577,10,1,100,-0.169796096109644,-10,-1,-100,18840.833055882133,0.005493884344807243,0.013611995872660517,0.9998922595975871,66.5461806959013,4.131208942826126,453.39055542300815,-118.21190507088271,-90.23587036132812,4761.76025390625,True
1599384814.5635946,0.0,10,0.5,0.5,0.004524752426147461,-0.001,-0.00825,-0.37525,0.057890819847019215,10,1,100,-0.23825733537780275,-10,-1,-100,18833.718529407168,0.007152478789510109,0.0127640891941797,0.9998929543077142,66.4096098574226,4.124306061491607,454.74513644291847,-118.75720078292174,-90.24226379394531,4761.76025390625,True
1599384814.5963287,0.0,10,0.5,0.5,0.0038600753784179685,-0.001,-0.00825,-0.37525,0.07485142618565205,10,1,100,-0.1847561204121727,-10,-1,-100,18828.957335443934,0.0081634440879349,0.012150423629431722,0.999892856953308,66.31910346733989,4.119726658882417,455.6472155436421,-119.12072317331719,-90.24684143066406,4761.76025390625,True
1599384814.6295059,0.0,10,0.5,0.5,0.0029771568298339844,-0.001,-0.00825,-0.37525,0.10142214944418439,10,1,100,-0.13614273718915013,-10,-1,-100,18826.571285786573,0.008629832534675443,0.01183757665243677,0.9998926931273282,66.27522495884098,4.117519113825791,456.1063317901876,-119.30248208061892,-90.24901580810547,4761.76025390625,True
1599384814.6658065,0.0,10,0.5,0.5,0.0021809919357299807,-0.001,-0.00825,-0.37525,0.13233147608943563,10,1,100,-0.09045056269087967,-10,-1,-100,18826.571285786573,0.008629832534675443,0.01183757665243677,0.9998926931273282,66.27522495884098,4.117519113825791,456.1063317901876,-119.30248208061892,-90.24901580810547,4761.76025390625,True
1599384814.6966352,0.0,10,0.5,0.5,0.005599341201782227,-0.001,-0.00825,-0.37525,-0.017735029399863503,10,1,100,-0.2809465636461456,-10,-1,-100,18816.990735768806,0.010353630610376056,0.010476625008794961,0.9998915154463554,66.12023337882657,4.1099437072039855,458.0761854438734,-120.02950187897304,-90.25804901123047,4761.76025390625,True
1599384814.729991,0.0,10,0.5,0.5,0.003177397155761719,-0.001,-0.00825,-0.37525,0.07740400217313595,10,1,100,-0.15299355899658953,-10,-1,-100,18814.586510622525,0.01074914668485466,0.010108541096839884,0.9998911306949576,66.0847722090894,4.108249442298487,458.58958464027796,-120.21125283564172,-90.26055145263672,4761.76025390625,True
1599384814.7634988,0.0,10,0.5,0.5,0.0022666423797607425,-0.001,-0.00825,-0.37525,0.11370868250132524,10,1,100,-0.11440153788403573,-10,-1,-100,18814.586510622525,0.01074914668485466,0.010108541096839884,0.9998911306949576,66.0847722090894,4.108249442298487,458.58958464027796,-120.21125283564172,-90.26055145263672,4761.76025390625,True
1599384814.7993386,0.0,10,0.5,0.5,0.004044358825683594,-0.001,-0.00825,-0.37525,0.03316201259345758,10,1,100,-0.19194857647534036,-10,-1,-100,18809.767155410023,0.011446602921947333,0.009380536435132172,0.9998904844120362,66.06086842379376,4.1077793897138815,459.94175199986273,-120.57474855753496,-90.26520538330078,4761.76025390625,True
1599384814.830414,0.0,10,0.5,0.5,0.005203817367553711,-0.001,-0.00825,-0.37525,-0.024947341635908504,10,1,100,-0.22920546066809044,-10,-1,-100,18802.510861519142,0.012411768498598746,0.008195161489570238,0.9998893875478913,66.26572597546121,4.122037331074658,463.6533860142178,-121.11996179689268,-90.2728500366211,4761.76025390625,True
1599384814.8635058,0.0,10,0.5,0.5,0.004297543144226074,-0.001,-0.00825,-0.37525,0.003619519734671367,10,1,100,-0.1931808891440706,-10,-1,-100,18797.655159258633,0.012954361474861106,0.007382623290716935,0.9998888345171808,66.43524369812673,4.133591395761424,466.3678096395395,-121.48341295388725,-90.2779769897461,4761.76025390625,True
1599384814.8966124,0.0,10,0.5,0.5,0.0024083919525146485,-0.001,-0.00825,-0.37525,0.08425040236180727,10,1,100,-0.1396676392308399,-10,-1,-100,18797.655159258633,0.012954361474861106,0.007382623290716935,0.9998888345171808,66.43524369812673,4.133591395761424,466.3678096395395,-121.48341295388725,-90.2779769897461,4761.76025390625,True
