Timestamp,Input Throttle,horizon,dT,dt,Input Roll,Roll P,Roll I,Roll D,Input Pitch,Pitch P,Pitch I,Pitch D,Input Yaw,Yaw P,Yaw I,Yaw D,Altitude,Direction X,Direction Y,Direction Z,Drag X,Drag Y,Drag Z,Vertical Velocity,Roll,Mass,Has Fuel
1599385413.401686,0.0,10,0.5,0.5,-2.845431266784668,-0.05075,-0.001,-0.2505,-0.00017900975151692046,10,1,100,0.498113561290209,-10,-1,-100,19349.722302222042,-0.048844780899731675,-0.0001760923049705524,0.9988063658038817,61.076345248105156,3.6862868941995552,233.73083366690645,-68.66499598091912,-33.921844482421875,4761.76025390625,True
1599385413.4278967,0.0,10,0.5,0.5,-2.851234051513672,-0.05075,-0.001,-0.2505,-0.0008515328896192948,10,1,100,0.49894375007895264,-10,-1,-100,19348.345352982637,-0.04889579419965588,-0.00016766503778343163,0.9988038712370012,61.16609718346696,3.6923770780617415,234.71988934047465,-68.84745273013012,-33.9229736328125,4761.76025390625,True
1599385413.4618745,0.0,10,0.5,0.5,-2.8567752563476563,-0.05075,-0.001,-0.2505,-0.0007652158758367925,10,1,100,0.5045430918036653,-10,-1,-100,19346.96475473512,-0.048948622311448316,-0.00015906676290822325,0.9988012850770548,61.25611338165816,3.6984869251077823,235.71203187365856,-69.02990606198424,-33.92413330078125,4761.76025390625,True
1599385413.4955368,0.0,10,0.5,0.5,-2.8623056030273437,-0.05075,-0.001,-0.2505,-0.0006549859873570493,10,1,100,0.5101534330827705,-10,-1,-100,19345.580507616978,-0.049003152222604714,-0.00015010345334193776,0.9987986126047641,61.34641633907817,3.7046178117374824,236.7073568652372,-69.21235586855047,-33.92535400390625,4761.76025390625,True
1599385413.5309336,0.0,10,0.5,0.5,-2.8228033569335937,-0.05075,-0.001,-0.2505,0.02174088763510739,10,1,100,0.5080446802915783,-10,-1,-100,19342.80106653308,-0.04898900606898823,6.178031869830937e-05,0.9987993159126436,61.530569501444994,3.717103386115373,238.71802108028464,-69.57724511362984,-34.07611083984375,4761.76025390625,True
1599385413.5617197,0.0,10,0.5,0.5,-2.642511994934082,-0.05075,-0.001,-0.2505,0.04818373227575154,10,1,100,0.5046520249600941,-10,-1,-100,19338.604539009626,-0.04890076814807886,0.0004947352624510279,0.9988035192727084,61.83147385696154,3.737315440621104,241.84635855478666,-70.124550258645,-34.818511962890625,4761.76025390625,True
1599385413.5954902,0.0,10,0.5,0.5,-2.834001625061035,-0.05075,-0.001,-0.2505,0.004937711426724798,10,1,100,0.5183658938658393,-10,-1,-100,19338.604539009626,-0.04890076814807886,0.0004947352624510279,0.9988035192727084,61.83147385696154,3.737315440621104,241.84635855478666,-70.124550258645,-34.818511962890625,4761.76025390625,True
1599385413.629399,0.0,10,0.5,0.5,-2.2335538543701174,-0.05075,-0.001,-0.2505,0.12229967805447997,10,1,100,0.4714028639929631,-10,-1,-100,19332.958090128843,-0.04842937626909991,0.0015612124724647559,0.9988253892096465,62.26403870456711,3.766032579789666,246.17318921462083,-70.85423056063004,-36.83001708984375,4761.76025390625,True
1599385413.6655605,0.0,10,0.5,0.5,-2.742752886962891,-0.05075,-0.001,-0.2505,0.015808078300353655,10,1,100,0.5233849895177678,-10,-1,-100,19332.958090128843,-0.04842937626909991,0.0015612124724647559,0.9988253892096465,62.26403870456711,3.766032579789666,246.17318921462083,-70.85423056063004,-36.83001708984375,4761.76025390625,True
1599385413.6958044,0.0,10,0.5,0.5,-2.0615420227050785,-0.05075,-0.001,-0.2505,0.14474570726986638,10,1,100,0.4567424126724403,-10,-1,-100,19328.684947181842,-0.047779507955715936,0.0027319534517580854,0.998854171062947,62.57618507059282,3.7866170402822767,249.39473347994053,-71.40144179081128,-39.10894775390625,4761.76025390625,True
1599385413.7288454,0.0,10,0.5,0.5,-2.637503259277344,-0.05075,-0.001,-0.2505,0.027944804685709236,10,1,100,0.5265071948064096,-10,-1,-100,19328.684947181842,-0.047779507955715936,0.0027319534517580854,0.998854171062947,62.57618507059282,3.7866170402822767,249.39473347994053,-71.40144179081128,-39.10894775390625,4761.76025390625,True
1599385413.76177,0.0,10,0.5,0.5,-1.7515110687255864,-0.05075,-0.001,-0.2505,0.18971094192773186,10,1,100,0.42393974130423345,-10,-1,-100,19324.378973380197,-0.04684804499019071,0.004199911021452174,0.9988931982089022,62.83164385675118,3.8034767416203477,252.40944273979446,-71.94861251225488,-42.04827880859375,4761.76025390625,True
1599385413.7977865,0.0,10,0.5,0.5,-2.487000967407227,-0.05075,-0.001,-0.2505,0.04335194256424654,10,1,100,0.5168812629358093,-10,-1,-100,19324.378973380197,-0.04684804499019071,0.004199911021452174,0.9988931982089022,62.83164385675118,3.8034767416203477,252.40944273979446,-71.94861251225488,-42.04827880859375,4761.76025390625,True
1599385413.8287616,0.0,10,0.5,0.5,-0.9957052688598638,-0.05075,-0.001,-0.2505,0.295187394690553,10,1,100,0.3247573180140937,-10,-1,-100,19318.58660826902,-0.04510337328846717,0.006485361515523723,0.9989612734255588,62.98462775694557,3.813951379055885,255.69440497120914,-72.67812183713335,-46.995941162109375,4761.76025390625,True
1599385413.8627353,0.0,10,0.5,0.5,-2.2337876296997075,-0.05075,-0.001,-0.2505,0.06730589178028464,10,1,100,0.49883451029303433,-10,-1,-100,19318.58660826902,-0.04510337328846717,0.006485361515523723,0.9989612734255588,62.98462775694557,3.813951379055885,255.69440497120914,-72.67812183713335,-46.995941162109375,4761.76025390625,True
1599385413.8964436,0.0,10,0.5,0.5,-0.8823407318115235,-0.05075,-0.001,-0.2505,0.28110191933558915,10,1,100,0.31161449279751724,-10,-1,-100,19314.20403611695,-0.04340490552285385,0.00842312214675665,0.9990220544061342,62.86629722896951,3.8070886146988943,257.21475584357034,-73.22523275583205,-51.477783203125,4761.76025390625,True
1599385413.9317348,0.0,10,0.5,0.5,-0.9928906250000001,-0.05075,-0.001,-0.2505,0.24361408899450082,10,1,100,0.33436447251941,-10,-1,-100,19311.264084506198,-0.04207265815397279,0.00983671663851823,0.9990661291634465,62.63147376065111,3.7927567347656312,257.58389703892817,-73.58997477889983,-54.83209228515625,4761.76025390625,True
1599385413.9617872,0.0,10,0.5,0.5,-1.2939905242919922,-0.05075,-0.001,-0.2505,0.17520914095485532,10,1,100,0.38761722647961305,-10,-1,-100,19309.788637437858,-0.04135184750007741,0.01049144666578101,0.9990895626795374,62.45756532576455,3.7820780934331717,257.53216822239517,-73.77234928882892,-56.61517333984375,4761.76025390625,True
1599385413.9955316,0.0,10,0.5,0.5,-1.738673812866211,-0.05075,-0.001,-0.2505,0.11062916164790895,10,1,100,0.4589905389922493,-10,-1,-100,19309.788637437858,-0.04135184750007741,0.01049144666578101,0.9990895626795374,62.45756532576455,3.7820780934331717,257.53216822239517,-73.77234928882892,-56.61517333984375,4761.76025390625,True
1599385414.0294948,0.0,10,0.5,0.5,-0.6013630371093751,-0.05075,-0.001,-0.2505,0.2605562322838832,10,1,100,0.28693870666575105,-10,-1,-100,19306.826800364768,-0.039794174050535626,0.011846301640477761,0.9991376726202844,61.98172701438742,3.752806398267515,256.8879471218091,-74.13711058768585,-60.3839111328125,4761.76025390625,True
1599385414.0655155,0.0,10,0.5,0.5,0.32275773010253905,-0.05075,-0.001,-0.2505,0.3567380159474395,10,1,100,0.15026052469505136,-10,-1,-100,19302.35668606707,-0.03714283774567781,0.013944082061517392,0.999212676150408,60.89480077891146,3.6860080888908078,254.3278122874368,-74.6843026348597,-66.57830810546875,4761.76025390625,True
1599385414.0964243,0.0,10,0.5,0.5,-1.2261917755126954,-0.05075,-0.001,-0.2505,0.1480811867044523,10,1,100,0.41433048815982915,-10,-1,-100,19302.35668606707,-0.03714283774567781,0.013944082061517392,0.999212676150408,60.89480077891146,3.6860080888908078,254.3278122874368,-74.6843026348597,-66.57830810546875,4761.76025390625,True
1599385414.129333,0.0,10,0.5,0.5,0.12581856994628904,-0.05075,-0.001,-0.2505,0.2962893036478573,10,1,100,0.19873084071701239,-10,-1,-100,19299.358368331566,-0.03519166386641994,0.01528257024187556,0.9992637238692873,59.87906089614514,3.623785348601688,251.36244229989964,-75.04914621498092,-71.05816650390625,4761.76025390625,True
1599385414.1632082,0.0,10,0.5,0.5,0.3747534027099607,-0.05075,-0.001,-0.2505,0.297874875714014,10,1,100,0.16888271468391342,-10,-1,-100,19296.345455692266,-0.03315711954054259,0.01650371682532948,0.9993138809977191,58.628527725889256,3.5474383399357436,247.36483136308664,-75.41403997741853,-75.60003662109375,4761.76025390625,True
1599385414.198318,0.0,10,0.5,0.5,-0.06595705718994149,-0.05075,-0.001,-0.2505,0.24857017691017494,10,1,100,0.2482523349259997,-10,-1,-100,19294.8335253268,-0.03203993602262571,0.01715651795269832,0.999339329953247,57.936973181597025,3.5053250054870464,245.06622620619004,-75.59650740469534,-77.90432739257812,4761.76025390625,True
1599385414.2302697,0.0,10,0.5,0.5,0.7904695129394531,-0.05075,-0.001,-0.2505,0.312653715450585,10,1,100,0.10889854220682188,-10,-1,-100,19291.79871566326,-0.0297693378336777,0.018322850094821742,0.9993888430882881,56.37474587272359,3.41047944490165,239.6643072142793,-75.96148662296538,-82.653076171875,4761.76025390625,True
1599385414.2632775,0.0,10,0.5,0.5,1.0287022537231447,-0.05075,-0.001,-0.2505,0.31173826821729334,10,1,100,0.07803567506133302,-10,-1,-100,19288.74930479075,-0.02743698211302886,0.019365830041951235,0.9994359292317421,54.606624137434515,3.3035570698324386,233.31703915026253,-76.32652751180937,-87.38229370117188,4761.76025390625,True
1599385414.2961855,0.0,10,0.5,0.5,0.5549702056884765,-0.05075,-0.001,-0.2505,0.26319843073492405,10,1,100,0.17515660649232817,-10,-1,-100,19287.21912321169,-0.026212881449121636,0.019864059550044295,0.9994590056547225,53.67119650726337,3.2471514795202125,229.89531010864692,-76.50907055272157,-89.7314453125,4761.76025390625,True
1599385414.3331494,0.0,10,0.5,0.5,2.055666245651245,-0.05075,-0.001,-0.2505,0.35509033990258565,10,1,100,-0.11107976928474594,-10,-1,-100,19282.606671999092,-0.02251167648946072,0.021143855901758307,0.9995229671094304,53.20374001639389,3.2201673308649603,229.60376373208254,-77.05672626452588,-96.6554183959961,4761.76025390625,True
1599385414.363112,0.0,10,0.5,0.5,1.6294441959381105,-0.05075,-0.001,-0.2505,0.30560921989079115,10,1,100,-0.021598765868400066,-10,-1,-100,19279.513451830484,-0.019977535803563592,0.021847794758449297,0.9995616899058356,54.493003988451235,3.299635041205701,236.33573364803493,-77.4217525807417,-100.98480987548828,4761.76025390625,True
1599385414.3960376,0.0,10,0.5,0.5,0.548991720199585,-0.05075,-0.001,-0.2505,0.23621548353348926,10,1,100,0.22983363889661557,-10,-1,-100,19279.513451830484,-0.019977535803563592,0.021847794758449297,0.9995616899058356,54.493003988451235,3.299635041205701,236.33573364803493,-77.4217525807417,-100.98480987548828,4761.76025390625,True
1599385414.4300637,0.0,10,0.5,0.5,1.7953667213439943,-0.05075,-0.001,-0.2505,0.2997023462288103,10,1,100,-0.047124101275746205,-10,-1,-100,19276.40563249681,-0.017475342985580407,0.02241776286231864,0.9995959465182844,55.54888137588327,3.3653337170763344,242.10534456388572,-77.78671149695577,-105.11073303222656,4761.76025390625,True
1599385414.4670458,0.0,10,0.5,0.5,2.480414601135254,-0.05075,-0.001,-0.2505,0.3130200318226087,10,1,100,-0.2156703802334371,-10,-1,-100,19271.716536313994,-0.013686262883034955,0.02304928220687003,0.999640643830594,56.95373050720456,3.453480361743879,250.05765568770985,-78.33402819617237,-110.80281066894531,4761.76025390625,True
1599385414.4969656,0.0,10,0.5,0.5,2.1199959381103515,-0.05075,-0.001,-0.2505,0.2802095410275449,10,1,100,-0.1123638552720167,-10,-1,-100,19268.57223057747,-0.01120034519944599,0.023318052865629806,0.9996653543451274,57.76984880757685,3.505092730513734,254.8770824779792,-78.69883163107485,-114.32637023925781,4761.76025390625,True
1599385414.5291162,0.0,10,0.5,0.5,1.2412168991088868,-0.05075,-0.001,-0.2505,0.25401390875559715,10,1,100,0.1340322356527702,-10,-1,-100,19268.57223057747,-0.01120034519944599,0.023318052865629806,0.9996653543451274,57.76984880757685,3.505092730513734,254.8770824779792,-78.69883163107485,-114.32637023925781,4761.76025390625,True
1599385414.5632186,0.0,10,0.5,0.5,2.2241560356140138,-0.05075,-0.001,-0.2505,0.27627484584634027,10,1,100,-0.12605104976618697,-10,-1,-100,19265.41333461879,-0.008854896778203815,0.023514823625624806,0.9996842720943966,58.4362089225737,3.547637608754135,259.06687828959423,-79.06358147128125,-117.5771484375,4761.76025390625,True
1599385414.599284,0.0,10,0.5,0.5,1.870225410079956,-0.05075,-0.001,-0.2505,0.2631776747644026,10,1,100,-0.023934829284200765,-10,-1,-100,19263.82841564517,-0.007670013346052143,0.023569920967120097,0.9996927676645835,58.707643117684476,3.5651466942931807,260.8978680041309,-79.24593896665309,-119.09381866455078,4761.76025390625,True
1599385414.6302662,0.0,10,0.5,0.5,2.3410281867980958,-0.05075,-0.001,-0.2505,0.2607704652983537,10,1,100,-0.1642960485372547,-10,-1,-100,19260.647637243965,-0.005334805477038294,0.023594303836128854,0.9997073815257196,59.14110140613076,3.593457530663126,264.0883938317604,-79.61062436949523,-121.90728759765625,4761.76025390625,True
1599385414.663408,0.0,10,0.5,0.5,2.7443324714660644,-0.05075,-0.001,-0.2505,0.25065506736736204,10,1,100,-0.29108837786517444,-10,-1,-100,19255.849120572093,-0.002078211762201055,0.023521120786504087,0.9997211800861369,59.55919258864905,3.62160339509112,267.8645989168036,-80.15759176678296,-125.57487487792969,4761.76025390625,True
1599385414.6973205,0.0,10,0.5,0.5,1.8284938034057618,-0.05075,-0.001,-0.2505,0.25821109881831333,10,1,100,0.032527647145823534,-10,-1,-100,19255.849120572093,-0.002078211762201055,0.023521120786504087,0.9997211800861369,59.55919258864905,3.62160339509112,267.8645989168036,-80.15759176678296,-125.57487487792969,4761.76025390625,True
1599385414.7341876,0.0,10,0.5,0.5,2.456601842498779,-0.05075,-0.001,-0.2505,0.24302186947872895,10,1,100,-0.19723152835599642,-10,-1,-100,19252.63187833561,-5.764097676657807e-06,0.023381515677936907,0.999726614976003,59.71792549187227,3.6329040819999063,269.8546072762164,-80.52220519980298,-127.65171813964844,4761.76025390625,True
1599385414.7641344,0.0,10,0.5,0.5,2.710898873901367,-0.05075,-0.001,-0.2505,0.22545726426719243,10,1,100,-0.3107085399932921,-10,-1,-100,19247.778670045198,0.002891732274315585,0.023093529421935058,0.9997291267054751,59.83130171146547,3.642016679095925,272.2848684046347,-81.06908999633984,-130.21397399902344,4761.76025390625,True
1599385414.7967172,0.0,10,0.5,0.5,2.284580252838135,-0.05075,-0.001,-0.2505,0.23815887004677666,10,1,100,-0.12665616146000966,-10,-1,-100,19246.153642558842,0.0038341009210424238,0.0229465785448754,0.9997293404733159,59.844824320799496,3.643515968671233,272.98594846489345,-81.25137716689491,-130.92108154296875,4761.76025390625,True
1599385414.8297436,0.0,10,0.5,0.5,2.614557350921631,-0.05075,-0.001,-0.2505,0.2147999085627245,10,1,100,-0.3115014707700842,-10,-1,-100,19241.256685734144,0.006355283990154703,0.022600726010113415,0.9997243707888791,59.83320390458477,3.6446794964542644,274.85157595861494,-81.79822005254427,-132.59774780273438,4761.76025390625,True
1599385414.865649,0.0,10,0.5,0.5,2.1963795906066896,-0.05075,-0.001,-0.2505,0.2493134293533714,10,1,100,-0.0611387267778164,-10,-1,-100,19241.256685734144,0.006355283990154703,0.022600726010113415,0.9997243707888791,59.83320390458477,3.6446794964542644,274.85157595861494,-81.79822005254427,-132.59774780273438,4761.76025390625,True
1599385414.8970797,0.0,10,0.5,0.5,2.3223041137695315,-0.05075,-0.001,-0.2505,0.23141825094381901,10,1,100,-0.15273565504602968,-10,-1,-100,19239.617075816263,0.007172023675147914,0.022438694685349772,0.9997224950241046,59.819527503879826,3.6444261387148016,275.4283041715876,-81.98049563263297,-133.0096893310547,4761.76025390625,True
1599385414.9301617,0.0,10,0.5,0.5,2.4019548622131346,-0.05075,-0.001,-0.2505,0.21587848982216118,10,1,100,-0.23789977157798092,-10,-1,-100,19236.326919497224,0.008674163611383706,0.022151101224404366,0.9997170037566577,59.78224902501266,3.6432646518544387,276.5352362371482,-82.34503929552798,-133.61151123046875,4761.76025390625,True
1599385414.9630656,0.0,10,0.5,0.5,2.3583010330200196,-0.05075,-0.001,-0.2505,0.18670023661641166,10,1,100,-0.31870615816778386,-10,-1,-100,19231.364344878704,0.010759490543362239,0.021625685612349652,0.9997082389802752,59.71459770123446,3.6407209041126087,278.13871788872575,-82.89183766249862,-133.96221923828125,4761.76025390625,True
1599385415.1734767,0.0,10,0.5,0.5,2.271654170227051,-0.05075,-0.001,-0.2505,0.23904493599950513,10,1,100,-0.11178289457197065,-10,-1,-100,19231.364344878704,0.010759490543362239,0.021625685612349652,0.9997082389802752,59.71459770123446,3.6407209041126087,278.13871788872575,-82.89183766249862,-133.96221923828125,4761.76025390625,True
1599385415.199442,0.0,10,0.5,0.5,2.102005519866944,-0.05075,-0.001,-0.2505,0.16635934747210018,10,1,100,-0.36881718727721247,-10,-1,-100,19224.696545652696,0.013084495293132107,0.020966630657713384,0.9996945515415131,59.617027160294164,3.6368237393853624,280.2367966252859,-83.6208729000277,-133.3962860107422,4761.76025390625,True
1599385415.2233431,0.0,10,0.5,0.5,2.1465750564575194,-0.05075,-0.001,-0.2505,0.2097042095574539,10,1,100,-0.19621553066397532,-10,-1,-100,19223.02048305841,0.01361524572638862,0.02076385625439162,0.9996916961529975,59.593543205386716,3.635911402654089,280.76458019218717,-83.80312672342083,-133.071044921875,4761.76025390625,True
1599385415.258706,0.0,10,0.5,0.5,2.1083767166137695,-0.05075,-0.001,-0.2505,0.20802445152576315,10,1,100,-0.19919616980368018,-10,-1,-100,19221.340775294113,0.014112460103506343,0.020566625050559686,0.9996888778034176,59.5691881822162,3.6349535955672225,281.2878700811314,-83.98537869049244,-132.6719970703125,4761.76025390625,True
1599385415.348323,0.0,10,0.5,0.5,2.2085840057373045,-0.05075,-0.001,-0.2505,0.2274948814718189,10,1,100,-0.1505968048748269,-10,-1,-100,19221.340775294113,0.014112460103506343,0.020566625050559686,0.9996888778034176,59.5691881822162,3.6349535955672225,281.2878700811314,-83.98537869049244,-132.6719970703125,4761.76025390625,True
1599385415.375234,0.0,10,0.5,0.5,1.901335715484619,-0.05075,-0.001,-0.2505,0.19215300051011477,10,1,100,-0.24628478875226986,-10,-1,-100,19217.970424912288,0.014973006903135402,0.020247498817720845,0.9996828736433896,59.516015166691,3.632797163503595,282.31210571850727,-84.34987739270436,-131.65150451660156,4761.76025390625,True
1599385415.397162,0.0,10,0.5,0.5,1.5295982078552246,-0.05075,-0.001,-0.2505,0.16312412487637984,10,1,100,-0.2836320714170574,-10,-1,-100,19212.887562257354,0.01608700863346627,0.019695624488644665,0.9996765929685605,59.41483050829799,3.628365401768526,283.7429352222624,-84.89661416480499,-129.5692596435547,4761.76025390625,True
1599385415.422127,0.0,10,0.5,0.5,2.0508976997375488,-0.05075,-0.001,-0.2505,0.21802104763185098,10,1,100,-0.1732050708483018,-10,-1,-100,19212.887562257354,0.01608700863346627,0.019695624488644665,0.9996765929685605,59.41483050829799,3.628365401768526,283.7429352222624,-84.89661416480499,-129.5692596435547,4761.76025390625,True
1599385415.447061,0.0,10,0.5,0.5,1.2234836780548097,-0.05075,-0.001,-0.2505,0.15863408447184052,10,1,100,-0.2667179129498257,-10,-1,-100,19207.771895892452,0.01692902084806347,0.019158236705550665,0.9996731316882834,59.25821085421848,3.6207226042062937,284.902219346497,-85.44334246954986,-126.82379913330078,4761.76025390625,True
1599385415.469009,0.0,10,0.5,0.5,1.5904738330841066,-0.05075,-0.001,-0.2505,0.19255825221099968,10,1,100,-0.20765417893377175,-10,-1,-100,19206.059384159977,0.017150039045517998,0.01898082466811107,0.999672748681115,59.18752552374815,3.6170903206189613,285.19774710219787,-85.62558477050905,-125.7613296508789,4761.76025390625,True
1599385415.497098,0.0,10,0.5,0.5,1.8558023494720461,-0.05075,-0.001,-0.2505,0.2100349698605353,10,1,100,-0.18619141403853448,-10,-1,-100,19206.059384159977,0.017150039045517998,0.01898082466811107,0.999672748681115,59.18752552374815,3.6170903206189613,285.19774710219787,-85.62558477050905,-125.7613296508789,4761.76025390625,True
1599385415.5300558,0.0,10,0.5,0.5,1.5128789985656739,-0.05075,-0.001,-0.2505,0.18726926839091307,10,1,100,-0.2094232378608134,-10,-1,-100,19204.343227458536,0.017355427854354937,0.018776268164700176,0.9996730669963053,59.104967113409145,3.612755633961814,285.4346323555792,-85.80782750655708,-124.62571716308594,4761.76025390625,True
1599385415.5659935,0.0,10,0.5,0.5,1.0455496940612794,-0.05075,-0.001,-0.2505,0.1666143102484299,10,1,100,-0.22306023238653322,-10,-1,-100,19200.899979536538,0.017662234964839405,0.018404526598934073,0.999674606487889,58.89563462936127,3.601452494731549,285.68929940716964,-86.17231597441216,-122.13302612304688,4761.76025390625,True
1599385415.5961657,0.0,10,0.5,0.5,1.2602412506103517,-0.05075,-0.001,-0.2505,0.18126490305168685,10,1,100,-0.205560192940299,-10,-1,-100,19199.172888177796,0.017778380171006383,0.01820191177340855,0.9996762573985081,58.76481053296307,3.5942342680611,285.6864752494909,-86.35456293752594,-120.77656555175781,4761.76025390625,True
1599385415.6301785,0.0,10,0.5,0.5,0.7151045600891113,-0.05075,-0.001,-0.2505,0.15642226303774812,10,1,100,-0.21048203845687097,-10,-1,-100,19195.707770421985,0.017925378117611107,0.017794024034874224,0.9996809758757976,58.43944525221248,3.575955949766271,285.3621066209419,-86.71906562596067,-117.84298706054688,4761.76025390625,True
1599385415.663169,0.0,10,0.5,0.5,0.4761685417175294,-0.05075,-0.001,-0.2505,0.15087032481343993,10,1,100,-0.20034047311844982,-10,-1,-100,19192.22807201848,0.01796335027688966,0.017375265380545384,0.9996876603218555,58.013421295032174,3.5515693088803393,284.5313005518923,-87.08358471794664,-114.61538696289062,4761.76025390625,True
1599385415.6992018,0.0,10,0.5,0.5,0.7636815074920656,-0.05075,-0.001,-0.2505,0.16754897596626647,10,1,100,-0.19493532962012985,-10,-1,-100,19190.48275497195,0.01794601425954566,0.01714881091748775,0.9996918819597929,57.75628807970477,3.5366822196646597,283.89265586056285,-87.26585248113201,-112.8915786743164,4761.76025390625,True
1599385415.7301905,0.0,10,0.5,0.5,0.09266510086059587,-0.05075,-0.001,-0.2505,0.13853643257874554,10,1,100,-0.18463160784600174,-10,-1,-100,19186.981183814118,0.01783489404071715,0.01668150811443167,0.9997017774524484,57.14052925431597,3.500674114271858,282.0987687604346,-87.63040870195817,-109.23626708984375,4761.76025390625,True
1599385415.7642953,0.0,10,0.5,0.5,-0.15206982803344726,-0.05075,-0.001,-0.2505,0.13043169078979563,10,1,100,-0.17338180753644056,-10,-1,-100,19183.465029706596,0.01763001576132499,0.016185748019366793,0.9997135610290125,56.4704659687406,3.4612627412120873,280.01055034565593,-87.99499655664252,-105.39109802246094,4761.76025390625,True
1599385415.7971692,0.0,10,0.5,0.5,0.2092207073211671,-0.05075,-0.001,-0.2505,0.15042437159450953,10,1,100,-0.17879667541592797,-10,-1,-100,19181.701483562007,0.017492351583588132,0.01591951092997447,0.9997202542750779,56.11265768553848,3.440112433310037,278.8429683406945,-88.17730289533435,-103.4001235961914,4761.76025390625,True
1599385415.833073,0.0,10,0.5,0.5,-0.5334229812622071,-0.05075,-0.001,-0.2505,0.1155507530435825,10,1,100,-0.15537805348339678,-10,-1,-100,19178.163452031324,0.01715399457486064,0.015363227328916783,0.9997348206980519,55.31520883003766,3.3926528106433986,276.0772635922645,-88.54194311267311,-99.28677368164062,4761.76025390625,True
1599385415.865058,0.0,10,0.5,0.5,-0.7523730415344237,-0.05075,-0.001,-0.2505,0.10537459218307409,10,1,100,-0.14352189032732984,-10,-1,-100,19174.6108337529,0.016738610396844728,0.014768293135895349,0.9997508271763694,54.496665098957045,3.3436546453775007,273.1726375389416,-88.90661994494286,-95.14836120605469,4761.76025390625,True
1599385415.8970962,0.0,10,0.5,0.5,-0.34305407447814934,-0.05075,-0.001,-0.2505,0.1292035046103769,10,1,100,-0.15871168415954134,-10,-1,-100,19172.829054291476,0.01649963819481174,0.014447713959786621,0.9997594838263734,54.05023614937713,3.3167670839874384,271.52080015609863,-89.08897249074792,-93.07564544677734,4761.76025390625,True
1599385415.9311337,0.0,10,0.5,0.5,-1.686295362854004,-0.05075,-0.001,-0.2505,0.048609798944000554,10,1,100,-0.09360862192564527,-10,-1,-100,19167.461831597262,0.01569160162426454,0.013427205396029035,0.9997867191524991,53.49805516195487,3.2839213321258662,270.4881598870203,-89.63606883968374,-86.90286254882812,4761.76025390625,True
1599385415.9672348,0.0,10,0.5,0.5,-0.7378563743591309,-0.05075,-0.001,-0.2505,0.11013284349348645,10,1,100,-0.141204770169648,-10,-1,-100,19165.665463276207,0.015391612251936873,0.013063111385224174,0.9997962059306001,54.26709416720248,3.3313218085607126,274.96553084199644,-89.81841270839028,-84.9295654296875,4761.76025390625,True
1599385415.9971569,0.0,10,0.5,0.5,-1.4052077598571777,-0.05075,-0.001,-0.2505,0.06024366354995579,10,1,100,-0.09967960941493663,-10,-1,-100,19162.061787233804,0.014743696602837687,0.012282879660141886,0.9998158601851331,55.69437846224092,3.4191351227909386,283.4068743100147,-90.18304768517876,-81.0843505859375,4761.76025390625,True
1599385416.031175,0.0,10,0.5,0.5,-1.0031085548400878,-0.05075,-0.001,-0.2505,0.09500870716551857,10,1,100,-0.12773785619974792,-10,-1,-100,19160.254480299773,0.014412684305040394,0.011894253384499833,0.999825385388643,56.36082218917696,3.460060651901902,287.4102073340622,-90.36533935961347,-79.23281860351562,4761.76025390625,True
1599385416.0641234,0.0,10,0.5,0.5,-1.6078153579711914,-0.05075,-0.001,-0.2505,0.03958065619843028,10,1,100,-0.08149790344198493,-10,-1,-100,19156.62893051596,0.013694612945567288,0.011041842268336245,0.9998452556748931,57.583079397713874,3.534982521501804,294.893857669745,-90.7298734682129,-75.69705200195312,4761.76025390625,True
1599385416.100022,0.0,10,0.5,0.5,-1.2296728881835937,-0.05075,-0.001,-0.2505,0.0768251299948092,10,1,100,-0.11243011589930776,-10,-1,-100,19154.810687885736,0.013326786623926626,0.010610636166196515,0.9998548950514914,58.14256403391885,3.5692166880525673,298.3905974831879,-90.91211706406425,-74.0233154296875,4761.76025390625,True
1599385416.1309466,0.0,10,0.5,0.5,-1.7569031036376952,-0.05075,-0.001,-0.2505,0.019215882381772173,10,1,100,-0.06398799235578835,-10,-1,-100,19151.163269584416,0.012555928143982573,0.00969997846945385,0.9998741216203844,59.15768093724038,3.631227400962176,304.88537700185793,-91.27656066437868,-70.89181518554688,4761.76025390625,True
1599385416.1640332,0.0,10,0.5,0.5,-1.8303426780700685,-0.05075,-0.001,-0.2505,0.006908306810429435,10,1,100,-0.05284308530769771,-10,-1,-100,19147.501275015762,0.011758318028541343,0.008765874905821513,0.9998924449130893,60.04445932819783,3.685286811430612,310.7601736073182,-91.64095080123997,-68.05487060546875,4761.76025390625,True
1599385416.1979806,0.0,10,0.5,0.5,-1.5165378669738772,-0.05075,-0.001,-0.2505,0.04528842081469018,10,1,100,-0.08641837651999201,-10,-1,-100,19145.66481246485,0.01134335300420319,0.0082715975683973,0.9999014496520586,60.4450179068342,3.7096715632650015,313.4899552242712,-91.8231274971138,-66.74789428710938,4761.76025390625,True
1599385416.2328537,0.0,10,0.5,0.5,-1.9124319297790526,-0.05075,-0.001,-0.2505,-0.015698669322980016,10,1,100,-0.03441780607955433,-10,-1,-100,19141.980957400985,0.01049828439388511,0.007273732529094194,0.9999184360936046,61.17065322149878,3.753793697990999,318.58271221186993,-92.18744765881435,-64.35635375976562,4761.76025390625,True
1599385416.2637672,0.0,10,0.5,0.5,-2.2292858917236327,-0.05075,-0.001,-0.2505,-0.08644734315878061,10,1,100,0.026203034709753506,-10,-1,-100,19136.427853850182,0.009184397426239445,0.005729934532521084,0.9999414056304349,62.09990157558579,3.8102034324856353,325.4473454682621,-92.7338531741805,-61.325439453125,4761.76025390625,True
1599385416.298086,0.0,10,0.5,0.5,-1.4725996002197266,-0.05075,-0.001,-0.2505,0.0671627294121795,10,1,100,-0.10453494163501051,-10,-1,-100,19136.427853850182,0.009184397426239445,0.005729934532521084,0.9999414056304349,62.09990157558579,3.8102034324856353,325.4473454682621,-92.7338531741805,-61.325439453125,4761.76025390625,True
1599385416.33107,0.0,10,0.5,0.5,-1.9719839004516602,-0.05075,-0.001,-0.2505,-0.04964413964613899,10,1,100,-0.004351514956031935,-10,-1,-100,19132.707572666346,0.00827928192445391,0.004674720429129737,0.9999547992183071,62.63323515342637,3.8425342022681135,329.60462854030646,-93.09807978606337,-59.675567626953125,4761.76025390625,True
1599385416.3670413,0.0,10,0.5,0.5,-1.9688083038330078,-0.05075,-0.001,-0.2505,-0.057108359609501384,10,1,100,0.006871453069680844,-10,-1,-100,19128.972723225248,0.007360299408668202,0.003654494843862502,0.9999662347599797,63.111078062779676,3.8714703663513417,333.49252191729323,-93.46227538238074,-58.3212890625,4761.76025390625,True
1599385416.397143,0.0,10,0.5,0.5,-1.8019332092285159,-0.05075,-0.001,-0.2505,-0.01764501319391032,10,1,100,-0.03205451055954364,-10,-1,-100,19127.099835759727,0.006885144413579938,0.003093265423343695,0.9999715128419533,63.33226849504602,3.884852976439659,335.35064851424386,-93.6443625533451,-57.75604248046875,4761.76025390625,True
1599385416.4313984,0.0,10,0.5,0.5,-1.936078582763672,-0.05075,-0.001,-0.2505,-0.08041994244461569,10,1,100,0.026326602468804486,-10,-1,-100,19123.343136503594,0.00592863836190743,0.00201960166317927,0.9999803860357941,63.74308543641957,3.9096809911384067,338.91412457986155,-94.00851719986846,-56.8466796875,4761.76025390625,True
1599385416.4643435,0.0,10,0.5,0.5,-1.8949173248291018,-0.05075,-0.001,-0.2505,-0.08922899131405612,10,1,100,0.038419698004733535,-10,-1,-100,19119.571871664957,0.004955875763025813,0.0009712714683103496,0.9999872478822698,64.11654756683843,3.932205350405469,342.29694962527054,-94.37264770647768,-56.23284912109375,4761.76025390625,True
1599385416.500238,0.0,10,0.5,0.5,-1.8528201950073242,-0.05075,-0.001,-0.2505,-0.16039269208511386,10,1,100,0.10715822977101332,-10,-1,-100,19113.887666063965,0.0034535595228772143,-0.0006207635276699725,0.9999938437706828,64.6135510273847,3.9620597564345497,347.0641333213297,-94.91880280402013,-55.867034912109375,4761.76025390625,True
1599385416.5311284,0.0,10,0.5,0.5,-1.7624025192260744,-0.05075,-0.001,-0.2505,-0.0021278563304308,10,1,100,-0.042242918393280114,-10,-1,-100,19113.887666063965,0.0034535595228772143,-0.0006207635276699725,0.9999938437706828,64.6135510273847,3.9620597564345497,347.0641333213297,-94.91880280402013,-55.867034912109375,4761.76025390625,True
1599385416.5643485,0.0,10,0.5,0.5,-1.7258067749023438,-0.05075,-0.001,-0.2505,-0.1150853219607136,10,1,100,0.07082088419622656,-10,-1,-100,19110.079991322942,0.0024328793115919955,-0.001639565614221573,0.9999956964521658,64.90307753615328,3.9793367770018335,350.0361940483377,-95.28288224917345,-55.99212646484375,4761.76025390625,True
1599385416.5981176,0.0,10,0.5,0.5,-1.7058887115478516,-0.05075,-0.001,-0.2505,-0.06694857444198296,10,1,100,0.026066136240329614,-10,-1,-100,19108.1706929676,0.0019191817419156715,-0.0021200395353315536,0.9999959110785454,65.03451118102718,3.9871331112082697,351.4553710936824,-95.46491568062748,-56.1650390625,4761.76025390625,True
1599385416.6333299,0.0,10,0.5,0.5,-1.318980030822754,-0.05075,-0.001,-0.2505,-0.22792530971471087,10,1,100,0.2067268038874689,-10,-1,-100,19100.497094028397,-0.00018358101305104914,-0.004013122535121923,0.9999919305402069,65.45590167271642,4.011712649830407,356.595575381633,-96.19301453672611,-57.594879150390625,4761.76025390625,True
1599385416.6643896,0.0,10,0.5,0.5,-1.514308042907715,-0.05075,-0.001,-0.2505,-0.08977554581013784,10,1,100,0.056348659631904725,-10,-1,-100,19098.569593310123,-0.0007195931348435842,-0.00446934281119192,0.9999897535277831,65.53028728163329,4.0158998750718435,357.7182503257843,-96.37503240162319,-58.136688232421875,4761.76025390625,True
1599385416.698403,0.0,10,0.5,0.5,-1.2574605728149413,-0.05075,-0.001,-0.2505,-0.13606406010142005,10,1,100,0.12084658813645076,-10,-1,-100,19094.70367077191,-0.001785040891006037,-0.005296580407321463,0.999984379810508,65.6330033306639,4.021373105627527,359.7172382419154,-96.73906307434059,-59.440338134765625,4761.76025390625,True
1599385416.7316425,0.0,10,0.5,0.5,-1.5839129684448243,-0.05075,-0.001,-0.2505,-0.05423540801358414,10,1,100,0.015216346550172913,-10,-1,-100,19094.70367077191,-0.001785040891006037,-0.005296580407321463,0.999984379810508,65.6330033306639,4.021373105627527,359.7172382419154,-96.73906307434059,-59.440338134765625,4761.76025390625,True
1599385416.76706,0.0,10,0.5,0.5,-0.8281557022094727,-0.05075,-0.001,-0.2505,-0.18695107130339533,10,1,100,0.19490066565220684,-10,-1,-100,19088.87748513627,-0.003410652714383995,-0.006495459304655506,0.9999730878661104,65.64673070459386,4.020787534266496,361.95355058961974,-97.28510484390802,-61.948516845703125,4761.76025390625,True
1599385416.7981734,0.0,10,0.5,0.5,-1.4559442855834963,-0.05075,-0.001,-0.2505,-0.06791468766677455,10,1,100,0.03327341242204023,-10,-1,-100,19088.87748513627,-0.003410652714383995,-0.006495459304655506,0.9999730878661104,65.64673070459386,4.020787534266496,361.95355058961974,-97.28510484390802,-61.948516845703125,4761.76025390625,True
1599385416.8313391,0.0,10,0.5,0.5,-0.8408753051757814,-0.05075,-0.001,-0.2505,-0.1493165104210336,10,1,100,0.15411773054773478,-10,-1,-100,19084.975159742404,-0.004501631489638118,-0.007228687938082437,0.9999637400349201,65.53957945803181,4.0131585016653775,362.80349862146994,-97.6491376177332,-63.98834228515625,4761.76025390625,True
1599385416.865251,0.0,10,0.5,0.5,-0.6560720245361331,-0.05075,-0.001,-0.2505,-0.1440416123320101,10,1,100,0.1619489831412363,-10,-1,-100,19081.058272773284,-0.005557391589798685,-0.007841298600015423,0.9999538136509022,65.32033606115647,3.9986030279756846,363.027870346981,-98.01318159543456,-66.2952880859375,4761.76025390625,True
1599385416.9002256,0.0,10,0.5,0.5,-0.03611965332031264,-0.05075,-0.001,-0.2505,-0.1823043947704193,10,1,100,0.23563884565171395,-10,-1,-100,19075.15563763096,-0.007178889566301109,-0.008739496737510634,0.999936040325265,64.74935523614424,3.9619290668964044,361.99699502879014,-98.55928337616027,-70.26806640625,4761.76025390625,True
1599385416.9311762,0.0,10,0.5,0.5,-1.0298730285644533,-0.05075,-0.001,-0.2505,-0.09319457413322713,10,1,100,0.07445022488926079,-10,-1,-100,19075.15563763096,-0.007178889566301109,-0.008739496737510634,0.999936040325265,64.74935523614424,3.9619290668964044,361.99699502879014,-98.55928337616027,-70.26806640625,4761.76025390625,True
1599385416.9653132,0.0,10,0.5,0.5,-0.14144475097656262,-0.05075,-0.001,-0.2505,-0.14798899321290118,10,1,100,0.18978098758632198,-10,-1,-100,19071.202343093348,-0.008219080071448741,-0.009231610131687508,0.9999236091307955,64.17969658567532,3.925992436582446,360.2309220622838,-98.92338666012083,-73.2125244140625,4761.76025390625,True
1599385416.9983325,0.0,10,0.5,0.5,0.5160689483642579,-0.05075,-0.001,-0.2505,-0.16716482029754737,10,1,100,0.2530007283694296,-10,-1,-100,19065.245091190445,-0.009732127720467205,-0.009848567565711844,0.9999041411090045,63.06121196903172,3.856250630876828,356.048599658519,-99.46961201003231,-77.83837890625,4761.76025390625,True
1599385417.0345316,0.0,10,0.5,0.5,-0.6407374328613281,-0.05075,-0.001,-0.2505,-0.10600699937056568,10,1,100,0.10259721692614555,-10,-1,-100,19065.245091190445,-0.009732127720467205,-0.009848567565711844,0.9999041411090045,63.06121196903172,3.856250630876828,356.048599658519,-99.46961201003231,-77.83837890625,4761.76025390625,True
1599385417.0644085,0.0,10,0.5,0.5,0.3313759613037109,-0.05075,-0.001,-0.2505,-0.1414418840153585,10,1,100,0.2080050946434145,-10,-1,-100,19061.25538050302,-0.01068315652987014,-0.010166564710520515,0.9998912496509534,62.14186988995457,3.7994602009871388,352.2374374779621,-99.8338169125802,-81.0592041015625,4761.76025390625,True
1599385417.0984633,0.0,10,0.5,0.5,0.00921022644042968,-0.05075,-0.001,-0.2505,-0.12439508871882043,10,1,100,0.16306507900316464,-10,-1,-100,19059.25506160094,-0.011131093382017024,-0.010296254899193325,0.9998850363392642,61.63355734617824,3.768217557900051,350.0410773072009,-100.01593770461893,-82.66082763671875,4761.76025390625,True
1599385417.1314437,0.0,10,0.5,0.5,0.56203505859375,-0.05075,-0.001,-0.2505,-0.13725783387957646,10,1,100,0.21745026539731058,-10,-1,-100,19055.243495834526,-0.01202570090512676,-0.010527633848907718,0.9998722675638543,60.9655804069986,3.727332304349107,347.60366741888356,-100.38020664255733,-85.82086181640625,4761.76025390625,True
1599385417.1674654,0.0,10,0.5,0.5,0.7190021728515624,-0.05075,-0.001,-0.2505,-0.13218514941595902,10,1,100,0.21881639532598784,-10,-1,-100,19051.21736049361,-0.012843567972586548,-0.010688197422120415,0.9998603928537222,62.35566557670616,3.812664010811672,356.91817521496205,-100.74442468571316,-88.961669921875,4761.76025390625,True
1599385417.198345,0.0,10,0.5,0.5,0.4026583839416504,-0.05075,-0.001,-0.2505,-0.1235803583589335,10,1,100,0.18182644623634267,-10,-1,-100,19049.198830285924,-0.0132432276453869,-0.010752793924991691,0.9998544865850927,63.01227002624983,3.853122065514149,361.37866285052706,-100.92650705799171,-90.51496887207031,4761.76025390625,True
1599385417.2315364,0.0,10,0.5,0.5,1.3873431007385255,-0.05075,-0.001,-0.2505,-0.1298856524395579,10,1,100,0.2621602393648532,-10,-1,-100,19043.12139330397,-0.014329874707232236,-0.01086619205985764,0.999838277203365,64.84003478500267,3.966337007553913,374.02986251329946,-101.47264993896486,-95.06721496582031,4761.76025390625,True
1599385417.2654374,0.0,10,0.5,0.5,0.680530376815796,-0.05075,-0.001,-0.2505,-0.12049464525393011,10,1,100,0.1904896974697156,-10,-1,-100,19041.08829986048,-0.014659684396098625,-0.01088197512139157,0.9998333242450286,65.38900355532414,4.0005454242836365,377.92599181732146,-101.65466384957033,-96.4980697631836,4761.76025390625,True
1599385417.301645,0.0,10,0.5,0.5,1.5464585739135743,-0.05075,-0.001,-0.2505,-0.11797929427281631,10,1,100,0.25645552550289863,-10,-1,-100,19034.967181338347,-0.015552400009160828,-0.010871508824426945,0.9998199503659825,66.96837368861004,4.099415516496458,389.29587226714466,-102.20060772923442,-100.55361938476562,4761.76025390625,True
1599385417.3324566,0.0,10,0.5,0.5,0.5332775032043457,-0.05075,-0.001,-0.2505,-0.1191899138385528,10,1,100,0.16791729619044962,-10,-1,-100,19034.967181338347,-0.015552400009160828,-0.010871508824426945,0.9998199503659825,66.96837368861004,4.099415516496458,389.29587226714466,-102.20060772923442,-100.55361938476562,4761.76025390625,True
1599385417.3655045,0.0,10,0.5,0.5,1.2724522369384765,-0.05075,-0.001,-0.2505,-0.11372138804988262,10,1,100,0.22552985457892968,-10,-1,-100,19030.86824008159,-0.016070859383339107,-0.01082086500702202,0.9998123005640513,67.94690922992393,4.161021558523455,396.5008429702109,-102.56449029329433,-102.99977111816406,4761.76025390625,True
1599385417.398558,0.0,10,0.5,0.5,1.0032809658050539,-0.05075,-0.001,-0.2505,-0.11533758999141797,10,1,100,0.19807024561858616,-10,-1,-100,19028.813311845646,-0.016286790795077263,-0.010788634011175765,0.9998091546999208,68.42155501382122,4.190982268579241,400.0342969112834,-102.74640802187538,-104.13196563720703,4761.76025390625,True
1599385417.4334867,0.0,10,0.5,0.5,1.345972328567505,-0.05075,-0.001,-0.2505,-0.10875376247521838,10,1,100,0.22085311161849,-10,-1,-100,19024.692541459226,-0.016685114829142707,-0.010698914610894941,0.9998035507884971,69.26775542020961,4.244662473394324,406.5281211462236,-103.11020053961738,-106.20333099365234,4761.76025390625,True
1599385417.4653218,0.0,10,0.5,0.5,1.3773337448120118,-0.05075,-0.001,-0.2505,-0.10616240530532299,10,1,100,0.21581660609919867,-10,-1,-100,19020.55722085631,-0.0169963920631658,-0.010593427672993596,0.9997994308594961,69.99730155566522,4.291255980870046,412.37274621905084,-103.47394072947179,-108.02203369140625,4761.76025390625,True
1599385417.4988856,0.0,10,0.5,0.5,1.5819028629302978,-0.05075,-0.001,-0.2505,-0.09531634198201408,10,1,100,0.22237688680525106,-10,-1,-100,19014.32696280314,-0.017334491472189056,-0.01039887006848585,0.9997956685776848,70.8806210678094,4.34825534006097,419.95133771935343,-104.01946649690998,-110.20604705810547,4761.76025390625,True
1599385417.5313606,0.0,10,0.5,0.5,1.3644774330139162,-0.05075,-0.001,-0.2505,-0.09910313215571881,10,1,100,0.20318851882880828,-10,-1,-100,19010.155274862074,-0.01746333220469744,-0.010256687909015792,0.9997948951567243,71.34373816518983,4.378543273563007,424.2893283530329,-104.38310243823882,-111.2933349609375,4761.76025390625,True
1599385417.5673323,0.0,10,0.5,0.5,1.094189649963379,-0.05075,-0.001,-0.2505,-0.11327173750112703,10,1,100,0.1907264560339008,-10,-1,-100,19010.155274862074,-0.01746333220469744,-0.010256687909015792,0.9997948951567243,71.34373816518983,4.378543273563007,424.2893283530329,-104.38310243823882,-111.2933349609375,4761.76025390625,True
1599385417.6062725,0.0,10,0.5,0.5,1.420277946853638,-0.05075,-0.001,-0.2505,-0.08846944112078114,10,1,100,0.19707062484173726,-10,-1,-100,19003.87047247158,-0.017518157868861895,-0.010031766582058867,0.9997962181385388,71.874533190965,4.413904995544677,429.85630101148917,-104.92849810817113,-112.37039947509766,4761.76025390625,True
1599385417.6322212,0.0,10,0.5,0.5,1.2571298225402834,-0.05075,-0.001,-0.2505,-0.09250859365018133,10,1,100,0.18632218564899067,-10,-1,-100,18999.662425215356,-0.01746768768592028,-0.009864785133764695,0.999798762702361,72.1300537721752,4.431436622958206,432.9980875448686,-105.29206329598891,-112.71917724609375,4761.76025390625,True
1599385417.6665413,0.0,10,0.5,0.5,1.1709775466918948,-0.05075,-0.001,-0.2505,-0.10910606611053238,10,1,100,0.191560732710828,-10,-1,-100,18999.662425215356,-0.01746768768592028,-0.009864785133764695,0.999798762702361,72.1300537721752,4.431436622958206,432.9980875448686,-105.29206329598891,-112.71917724609375,4761.76025390625,True
1599385417.7016377,0.0,10,0.5,0.5,1.191408351135254,-0.05075,-0.001,-0.2505,-0.10029896752932367,10,1,100,0.18602684393685626,-10,-1,-100,18997.5529481204,-0.017415638435541666,-0.0097856358045634,0.9998004485244958,72.23013361784795,4.438503682667959,434.4071539655235,-105.4738379701041,-112.782958984375,4761.76025390625,True
1599385417.732515,0.0,10,0.5,0.5,1.031003908920288,-0.05075,-0.001,-0.2505,-0.06983750980884121,10,1,100,0.14992579116636295,-10,-1,-100,18989.078687570523,-0.01703890701996371,-0.009437700643469162,0.9998102847311229,72.45205227972475,4.45584969936726,438.9876873672537,-106.20089685772447,-112.30028533935547,4761.76025390625,True
1599385417.7655106,0.0,10,0.5,0.5,1.1527304889678955,-0.05075,-0.001,-0.2505,-0.1044959325814943,10,1,100,0.18767414434664714,-10,-1,-100,18989.078687570523,-0.01703890701996371,-0.009437700643469162,0.9998102847311229,72.45205227972475,4.45584969936726,438.9876873672537,-106.20089685772447,-112.30028533935547,4761.76025390625,True
1599385417.798468,0.0,10,0.5,0.5,1.0614588424682616,-0.05075,-0.001,-0.2505,-0.0943617472420516,10,1,100,0.1729059676272302,-10,-1,-100,18986.951034349855,-0.016904329238704628,-0.00934671824399007,0.9998134238501986,72.46207979095684,4.4574085422426215,439.8608024829659,-106.38265435782091,-111.99528503417969,4761.76025390625,True
1599385417.8348541,0.0,10,0.5,0.5,0.5487674339294435,-0.05075,-0.001,-0.2505,-0.06062582075982497,10,1,100,0.11018850907706289,-10,-1,-100,18978.404070505872,-0.016211910780580725,-0.00895845010319702,0.9998284453447958,72.30505924131374,4.451608600513558,442.1536615115153,-107.10967321767936,-110.03846740722656,4761.76025390625,True
1599385417.866243,0.0,10,0.5,0.5,0.6110533187866212,-0.05075,-0.001,-0.2505,-0.07615290272605328,10,1,100,0.1315973515861162,-10,-1,-100,18974.108778188587,-0.015778085823906395,-0.008747943829410222,0.9998372494993826,72.09474641828272,4.440648848670161,442.48827548182726,-107.47318507026041,-108.61811828613281,4761.76025390625,True
1599385417.898689,0.0,10,0.5,0.5,0.966583251953125,-0.05075,-0.001,-0.2505,-0.09705265569677253,10,1,100,0.17481132261547003,-10,-1,-100,18974.108778188587,-0.015778085823906395,-0.008747943829410222,0.9998372494993826,72.09474641828272,4.440648848670161,442.48827548182726,-107.47318507026041,-108.61811828613281,4761.76025390625,True
1599385417.9327552,0.0,10,0.5,0.5,0.7251424343109132,-0.05075,-0.001,-0.2505,-0.08507887293510585,10,1,100,0.1500592584116895,-10,-1,-100,18971.955679178005,-0.015554599100581837,-0.00864046284437653,0.9998416858926493,71.95221375558882,4.43287596934978,442.42288504054744,-107.65494419130981,-107.81754302978516,4761.76025390625,True
1599385417.9687557,0.0,10,0.5,0.5,0.11495535240173338,-0.05075,-0.001,-0.2505,-0.05725552079608223,10,1,100,0.0869764676086241,-10,-1,-100,18965.474570374936,-0.014779734489139171,-0.008291078114661761,0.9998563984253575,71.39947766675907,4.401847880809562,441.436605591894,-108.20024217998737,-105.1278305053711,4761.76025390625,True
1599385417.998774,0.0,10,0.5,0.5,0.7879692050933838,-0.05075,-0.001,-0.2505,-0.09203662306564883,10,1,100,0.16419413343321257,-10,-1,-100,18965.474570374936,-0.014779734489139171,-0.008291078114661761,0.9998563984253575,71.39947766675907,4.401847880809562,441.436605591894,-108.20024217998737,-105.1278305053711,4761.76025390625,True
1599385418.032779,0.0,10,0.5,0.5,-0.5158745319366453,-0.05075,-0.001,-0.2505,-0.034549115063382735,10,1,100,0.03565510189929094,-10,-1,-100,18956.78219462314,-0.013613641432646048,-0.00776989504829489,0.9998771412017988,70.29698662937298,4.3377752192926495,437.79401310148523,-108.92738107560604,-100.80223846435547,4761.76025390625,True
1599385418.065818,0.0,10,0.5,0.5,0.21589251823425298,-0.05075,-0.001,-0.2505,-0.0704563984234887,10,1,100,0.11544732510804351,-10,-1,-100,18954.600010770024,-0.013282397044098138,-0.007624354601013488,0.9998827166951537,69.97751312284944,4.318984330917833,436.5954600153344,-109.10918355570584,-99.63843536376953,4761.76025390625,True
1599385418.1017902,0.0,10,0.5,0.5,-0.22509254455566408,-0.05075,-0.001,-0.2505,-0.05201051697445201,10,1,100,0.07657946770901627,-10,-1,-100,18950.22473452671,-0.01263133663267785,-0.0073260037685322936,0.9998933838183226,69.33932238000469,4.281324929357873,434.1828472848128,-109.47281047717684,-97.21104431152344,4761.76025390625,True
1599385418.1328685,0.0,10,0.5,0.5,-0.3579070564270019,-0.05075,-0.001,-0.2505,-0.04602910265854341,10,1,100,0.06460845827575047,-10,-1,-100,18945.83491231152,-0.011934643055072703,-0.0070023189696547085,0.9999042613291511,68.68624429170755,4.2425432448469635,431.649572859499,-109.83646790242149,-94.7567138671875,4761.76025390625,True
1599385418.1666367,0.0,10,0.5,0.5,0.25517886276245116,-0.05075,-0.001,-0.2505,-0.07816314261886838,10,1,100,0.1337808474179019,-10,-1,-100,18945.83491231152,-0.011934643055072703,-0.0070023189696547085,0.9999042613291511,68.68624429170755,4.2425432448469635,431.649572859499,-109.83646790242149,-94.7567138671875,4761.76025390625,True
1599385418.1995456,0.0,10,0.5,0.5,-0.842871548461914,-0.05075,-0.001,-0.2505,-0.021325005046858886,10,1,100,0.01676728216478722,-10,-1,-100,18939.222902551526,-0.010874771796158486,-0.006487386929121479,0.9999198233604599,67.65572026083261,4.180762983025638,427.47540662954447,-110.38200995139943,-91.11680603027344,4761.76025390625,True
1599385418.2355597,0.0,10,0.5,0.5,0.06717523345947266,-0.05075,-0.001,-0.2505,-0.07259215341015297,10,1,100,0.12226407665343411,-10,-1,-100,18939.222902551526,-0.010874771796158486,-0.006487386929121479,0.9999198233604599,67.65572026083261,4.180762983025638,427.47540662954447,-110.38200995139943,-91.11680603027344,4761.76025390625,True
1599385418.2675247,0.0,10,0.5,0.5,-1.354374568939209,-0.05075,-0.001,-0.2505,0.011560272580884226,10,1,100,-0.041339961049550844,-10,-1,-100,18930.35596728383,-0.00939191992070203,-0.0057244199263850395,0.9999395095988105,66.1353651185292,4.088349868952645,420.8735969026548,-111.10950940288501,-86.40377807617188,4761.76025390625,True
1599385418.2996285,0.0,10,0.5,0.5,-0.17590244293212892,-0.05075,-0.001,-0.2505,-0.06444482340096055,10,1,100,0.10632895857810679,-10,-1,-100,18930.35596728383,-0.00939191992070203,-0.0057244199263850395,0.9999395095988105,66.1353651185292,4.088349868952645,420.8735969026548,-111.10950940288501,-86.40377807617188,4761.76025390625,True
1599385418.3326306,0.0,10,0.5,0.5,-0.8451344291687012,-0.05075,-0.001,-0.2505,-0.016865856925073683,10,1,100,0.01891216531636873,-10,-1,-100,18925.900673015392,-0.00860211981338481,-0.005294217193139047,0.9999489860983047,65.36035025818256,4.040773430658241,417.4272466638384,-111.47330640355554,-84.1884765625,4761.76025390625,True
1599385418.3687427,0.0,10,0.5,0.5,-0.611334603881836,-0.05075,-0.001,-0.2505,-0.037872362569769294,10,1,100,0.05779623865349183,-10,-1,-100,18923.66756889713,-0.008243227304957322,-0.005096816451432216,0.9999530347299613,65.54138286584667,4.052022941140279,419.3285017322134,-111.65520100607223,-83.12942504882812,4761.76025390625,True
1599385418.3996985,0.0,10,0.5,0.5,-0.6589883750915528,-0.05075,-0.001,-0.2505,-0.03254520394944936,10,1,100,0.04958051041784901,-10,-1,-100,18921.430827146396,-0.007847155144360752,-0.004871362588420245,0.9999573450816152,66.02237191050895,4.081750961948515,423.15645868857365,-111.8370795060685,-82.09646606445312,4761.76025390625,True
1599385418.4327364,0.0,10,0.5,0.5,-0.9995678665161134,-0.05075,-0.001,-0.2505,-0.0050706864812250785,10,1,100,0.003041795538487213,-10,-1,-100,18916.94643240224,-0.007068951446642161,-0.004419138910527864,0.9999652499645849,66.92253043848106,4.137205562697184,430.44772522130495,-112.20078977790781,-80.11279296875,4761.76025390625,True
1599385418.465761,0.0,10,0.5,0.5,-1.2978516967773437,-0.05075,-0.001,-0.2505,0.028277711672715734,10,1,100,-0.04896983530870637,-10,-1,-100,18910.19256587047,-0.005893717245728987,-0.003707501824551695,0.9999757589698105,68.08297602021182,4.208284093430822,440.2343665254376,-112.74624650152397,-77.47882080078125,4761.76025390625,True
1599385418.4906552,0.0,10,0.5,0.5,-1.092205256652832,-0.05075,-0.001,-0.2505,0.0108072244772121,10,1,100,-0.01744129364755441,-10,-1,-100,18905.671808600426,-0.005117437374372341,-0.003222376918300759,0.9999817138936671,68.72955634395807,4.247632809032526,445.97843039946173,-113.10981922842183,-75.97695922851562,4761.76025390625,True
1599385418.5115964,0.0,10,0.5,0.5,-0.7178669082641602,-0.05075,-0.001,-0.2505,-0.037327271942746085,10,1,100,0.05950497292004015,-10,-1,-100,18905.671808600426,-0.005117437374372341,-0.003222376918300759,0.9999817138936671,68.72955634395807,4.247632809032526,445.97843039946173,-113.10981922842183,-75.97695922851562,4761.76025390625,True
1599385418.5335388,0.0,10,0.5,0.5,-0.9148513977050782,-0.05075,-0.001,-0.2505,-0.011307939934331112,10,1,100,0.017697580598427583,-10,-1,-100,18903.40597678069,-0.0047426041118320324,-0.0029888057273250055,0.9999842872498362,69.0121743486969,4.264753859323558,448.5971339543117,-113.29158810934373,-75.32809448242188,4761.76025390625,True
1599385418.5665576,0.0,10,0.5,0.5,-0.9275533615112305,-0.05075,-0.001,-0.2505,-0.008277005988504758,10,1,100,0.013330537624699941,-10,-1,-100,18901.13650976657,-0.004367720907656343,-0.002752094864386623,0.9999866744051792,69.2659339413333,4.280071874751855,451.03437588154196,-113.4733463871804,-74.75161743164062,4761.76025390625,True
1599385418.600467,0.0,10,0.5,0.5,-0.9358738052368165,-0.05075,-0.001,-0.2505,-0.00491277997292432,10,1,100,0.008753906084799798,-10,-1,-100,18898.863407878787,-0.003989879707145756,-0.0025090214116300883,0.9999888927740539,69.49155496942262,4.293635962066217,453.29388054467705,-113.65509493279643,-74.24850463867188,4761.76025390625,True
1599385418.6356437,0.0,10,0.5,0.5,-1.0576914672851563,-0.05075,-0.001,-0.2505,0.026244021076104636,10,1,100,-0.03744129464903911,-10,-1,-100,18894.306299708667,-0.0032313422820226473,-0.0020077249891463887,0.9999927637075301,69.86615020747949,4.3159980358866,457.32675582366846,-114.01856595688362,-73.4298095703125,4761.76025390625,True
1599385418.6667109,0.0,10,0.5,0.5,-1.0195519104003907,-0.05075,-0.001,-0.2505,0.030056001684393097,10,1,100,-0.042877645365342366,-10,-1,-100,18889.734653656953,-0.0024972239595183027,-0.001520334319725851,0.9999957262188934,70.15092493260673,4.332791231937316,460.78701781468465,-114.38200665141144,-72.87921142578125,4761.76025390625,True
1599385418.6997166,0.0,10,0.5,0.5,-0.9657606170654298,-0.05075,-0.001,-0.2505,0.0357411916752297,10,1,100,-0.04991572766828556,-10,-1,-100,18885.14847071492,-0.0017710847393470868,-0.0010288196950011261,0.9999979023922406,70.34851187681505,4.344200013686478,463.6860179778317,-114.74542247509005,-72.60333251953125,4761.76025390625,True
1599385418.7336333,0.0,10,0.5,0.5,-0.9070163269042969,-0.05075,-0.001,-0.2505,0.012957952225343045,10,1,100,-0.01659252436547521,-10,-1,-100,18882.84992802504,-0.001419420087766997,-0.0007926017974261814,0.9999986785136293,70.41594893974282,4.3479736429069025,464.93206891601136,-114.92712279203042,-72.57208251953125,4761.76025390625,True
1599385418.7686446,0.0,10,0.5,0.5,-0.8524950302124025,-0.05075,-0.001,-0.2505,0.041627765042921164,10,1,100,-0.0584213359459379,-10,-1,-100,18878.241941288696,-0.000724598964107141,-0.0003205204441192502,0.9999996861114436,70.48772637097319,4.351645664594174,467.0112469881602,-115.2905115712747,-72.72958374023438,4761.76025390625,True
1599385418.8004074,0.0,10,0.5,0.5,-0.6585985549926758,-0.05075,-0.001,-0.2505,0.07040994352923659,10,1,100,-0.1003697234130225,-10,-1,-100,18871.302707739407,0.0002837063813920226,0.00036722151659861603,0.9999998923295177,70.44009490926115,4.347643529116145,469.10349305684235,-115.83557553516698,-73.50576782226562,4761.76025390625,True
1599385418.83364,0.0,10,0.5,0.5,-0.853279786682129,-0.05075,-0.001,-0.2505,0.001994707300939894,10,1,100,-7.930323868256435e-05,-10,-1,-100,18871.302707739407,0.0002837063813920226,0.00036722151659861603,0.9999998923295177,70.44009490926115,4.347643529116145,469.10349305684235,-115.83557553516698,-73.50576782226562,4761.76025390625,True
1599385418.8669567,0.0,10,0.5,0.5,-0.4422684371948243,-0.05075,-0.001,-0.2505,0.07128088949094909,10,1,100,-0.10362304104922415,-10,-1,-100,18864.33077075705,0.001220102958073524,0.0009938326288397002,0.9999987618219723,70.21516587972724,4.332832042552064,470.0080033970245,-116.38063211470887,-74.87094116210938,4761.76025390625,True
1599385418.9029233,0.0,10,0.5,0.5,-0.7842900741577149,-0.05075,-0.001,-0.2505,0.009018042102457144,10,1,100,-0.01057965408806457,-10,-1,-100,18864.33077075705,0.001220102958073524,0.0009938326288397002,0.9999987618219723,70.21516587972724,4.332832042552064,470.0080033970245,-116.38063211470887,-74.87094116210938,4761.76025390625,True
1599385418.9339085,0.0,10,0.5,0.5,-0.014945141601562573,-0.05075,-0.001,-0.2505,0.09248985866467213,10,1,100,-0.13733301483720473,-10,-1,-100,18854.983982207836,0.0023673263977332256,0.0017492619362296307,0.9999956679148191,69.67302724780615,4.2984330612363415,469.5617993107048,-117.10739035811659,-77.42474365234375,4761.76025390625,True
1599385418.9679236,0.0,10,0.5,0.5,-0.6543550415039062,-0.05075,-0.001,-0.2505,0.017372756260465055,10,1,100,-0.023246391481722473,-10,-1,-100,18854.983982207836,0.0023673263977332256,0.0017492619362296307,0.9999956679148191,69.67302724780615,4.2984330612363415,469.5617993107048,-117.10739035811659,-77.42474365234375,4761.76025390625,True
1599385419.0018294,0.0,10,0.5,0.5,-0.18484288482666011,-0.05075,-0.001,-0.2505,0.05796677918103907,10,1,100,-0.08446044054469613,-10,-1,-100,18850.288784738514,0.00291872805405139,0.0021148830655754163,0.9999935041269846,69.30908075448784,4.275669963019001,468.69404055595163,-117.47078562533433,-78.98196411132812,4761.76025390625,True
1599385419.0368373,0.0,10,0.5,0.5,0.2106270935058594,-0.05075,-0.001,-0.2505,0.0739606104691788,10,1,100,-0.1111075031831501,-10,-1,-100,18843.218732502428,0.0036573247183142392,0.0025893596336134905,0.999989959545891,68.63846670660247,4.234102064198851,466.51625841295186,-118.01591016360092,-81.58758544921875,4761.76025390625,True
1599385419.066731,0.0,10,0.5,0.5,-0.44118262634277344,-0.05075,-0.001,-0.2505,0.026874771598232844,10,1,100,-0.037790677702631295,-10,-1,-100,18843.218732502428,0.0036573247183142392,0.0025893596336134905,0.999989959545891,68.63846670660247,4.234102064198851,466.51625841295186,-118.01591016360092,-81.58758544921875,4761.76025390625,True
1599385419.0998454,0.0,10,0.5,0.5,0.12952712097167962,-0.05075,-0.001,-0.2505,0.05828406056559011,10,1,100,-0.08717310067211087,-10,-1,-100,18838.487192870234,0.004101640613667616,0.002871824113833975,0.9999874645066984,68.1125488026521,4.201739575798591,464.5028393646063,-118.37935254317168,-83.47906494140625,4761.76025390625,True
1599385419.133746,0.0,10,0.5,0.5,-0.05611221771240238,-0.05075,-0.001,-0.2505,0.04480522103343622,10,1,100,-0.06595388634142085,-10,-1,-100,18836.115971000283,0.0043082747159118905,0.0030031729686894226,0.9999862097654608,67.83227008738037,4.184561956281923,463.36926678457877,-118.56108280093062,-84.43209838867188,4761.76025390625,True
1599385419.1697369,0.0,10,0.5,0.5,0.5677517700195313,-0.05075,-0.001,-0.2505,0.07306053049267924,10,1,100,-0.10963161584520223,-10,-1,-100,18828.980496805394,0.004889535469500589,0.0033770511486855928,0.9999823438283456,66.970772036163,4.132058199466997,459.78992973213195,-119.10631036688244,-87.2918701171875,4761.76025390625,True
1599385419.2008452,0.0,10,0.5,0.5,0.4270797286987305,-0.05075,-0.001,-0.2505,0.059827681159491504,10,1,100,-0.08871564147683003,-10,-1,-100,18824.205339024775,0.0052236219975159235,0.003593905564169416,0.9999798986059786,66.73171096911882,4.118010499033576,459.6816322214647,-119.4698167959427,-89.19833374023438,4761.76025390625,True
1599385419.2338867,0.0,10,0.5,0.5,-0.04905666961669922,-0.05075,-0.001,-0.2505,0.03840224690464214,10,1,100,-0.055707340579240816,-10,-1,-100,18824.205339024775,0.0052236219975159235,0.003593905564169416,0.9999798986059786,66.73171096911882,4.118010499033576,459.6816322214647,-119.4698167959427,-89.19833374023438,4761.76025390625,True
1599385419.2673416,0.0,10,0.5,0.5,0.7601582523345948,-0.05075,-0.001,-0.2505,0.06885676818760704,10,1,100,-0.10091903990576168,-10,-1,-100,18817.015342017636,0.005630997883175711,0.0038684011458915246,0.9999766633954085,67.7442862230302,4.181976410405705,468.9929366380997,-120.01499671297663,-91.87976837158203,4761.76025390625,True
1599385419.3033504,0.0,10,0.5,0.5,0.08990437965393068,-0.05075,-0.001,-0.2505,0.041619123936362384,10,1,100,-0.06050781848832719,-10,-1,-100,18817.015342017636,0.005630997883175711,0.0038684011458915246,0.9999766633954085,67.7442862230302,4.181976410405705,468.9929366380997,-120.01499671297663,-91.87976837158203,4761.76025390625,True
1599385419.33334,0.0,10,0.5,0.5,0.586912015914917,-0.05075,-0.001,-0.2505,0.05969165690415954,10,1,100,-0.08586880845330046,-10,-1,-100,18812.203840093687,0.005858585363325066,0.004030770409953624,0.9999747146140461,68.35382655431201,4.220836965575959,474.7853245714777,-120.3783915015789,-93.52478790283203,4761.76025390625,True
1599385419.3668633,0.0,10,0.5,0.5,0.6310874134063722,-0.05075,-0.001,-0.2505,0.05814844223677128,10,1,100,-0.08164920599063652,-10,-1,-100,18807.377803538227,0.006024450452610013,0.00416260789181166,0.9999731889867263,68.92587034928334,4.2575666693463265,480.3452462257698,-120.74174182426744,-95.03449249267578,4761.76025390625,True
1599385419.4008226,0.0,10,0.5,0.5,0.4671753177642822,-0.05075,-0.001,-0.2505,0.0522739252008918,10,1,100,-0.07377418584249221,-10,-1,-100,18804.959335557418,0.006101493872672929,0.004227625222030789,0.9999724490992258,69.18997576844829,4.2746393282904815,482.9823852079391,-120.92340114798772,-95.74129486083984,4761.76025390625,True
1599385419.436896,0.0,10,0.5,0.5,0.6998969383239746,-0.05075,-0.001,-0.2505,0.05813036508561657,10,1,100,-0.0785899217682676,-10,-1,-100,18800.11150046799,0.00621309079100594,0.004338482916101662,0.99997128712219,69.6970759210497,4.3075919529483375,488.1276373551484,-121.2866894003013,-97.09684753417969,4761.76025390625,True
