Timestamp,Input Throttle,horizon,dT,dt,Input Roll,Roll P,Roll I,Roll D,Input Pitch,Pitch P,Pitch I,Pitch D,Input Yaw,Yaw P,Yaw I,Yaw D,Altitude,Direction X,Direction Y,Direction Z,Drag X,Drag Y,Drag Z,Vertical Velocity,Roll,Mass,Has Fuel
1599385510.675304,0.0,10,0.5,0.5,-2.845928604125977,-0.05075,-0.00825,-0.001,-0.00017193408389313625,10,1,100,0.4981611188504518,-10,-1,-100,19349.722304217634,-0.048846340274513275,-0.0001750866306103455,0.9988062897211141,61.07656799999466,3.6863002646119174,233.7316895632985,-68.66499631491662,-33.92254638671875,4761.76025390625,True
1599385510.6952488,0.0,10,0.5,0.5,-2.892071485900879,-0.05075,-0.00825,-0.001,0.0001347415674946774,10,1,100,0.5047710521783519,-10,-1,-100,19346.964756728034,-0.048950185869111165,-0.00015778557118617124,0.9988012086531998,61.25634521160852,3.6985008161232904,235.71292634896693,-69.02990637435663,-33.9249267578125,4761.76025390625,True
1599385510.7247233,0.0,10,0.5,0.5,-2.9383358016967773,-0.05075,-0.00825,-0.001,-0.001611142932041364,10,1,100,0.49928151130547405,-10,-1,-100,19346.964756728034,-0.048950185869111165,-0.00015778557118617124,0.9988012086531998,61.25634521160852,3.6985008161232904,235.71292634896693,-69.02990637435663,-33.9249267578125,4761.76025390625,True
1599385510.758367,0.0,10,0.5,0.5,-2.976729740905762,-0.05075,-0.00825,-0.001,0.022768356542176696,10,1,100,0.508525640360487,-10,-1,-100,19342.80106859887,-0.048989723237003,6.398968364416217e-05,0.9987992805976995,61.53083259914486,3.7171191306640465,238.71904320048836,-69.57724539206447,-34.07696533203125,4761.76025390625,True
1599385510.7921505,0.0,10,0.5,0.5,-3.023018283081055,-0.05075,-0.00825,-0.001,0.0005972300275077692,10,1,100,0.5094708758950038,-10,-1,-100,19342.80106859887,-0.048989723237003,6.398968364416217e-05,0.9987992805976995,61.53083259914486,3.7171191306640465,238.71904320048836,-69.57724539206447,-34.07696533203125,4761.76025390625,True
1599385510.816129,0.0,10,0.5,0.5,-3.030727632141114,-0.05075,-0.00825,-0.001,0.04771192192767593,10,1,100,0.5043749242860727,-10,-1,-100,19338.604541075067,-0.048898860292160895,0.0004922468921151053,0.9988036139077215,61.83172759568593,3.737330602181379,241.84735284477503,-70.12455063653779,-34.81951904296875,4761.76025390625,True
1599385510.837078,0.0,10,0.5,0.5,-3.0566623718261723,-0.05075,-0.00825,-0.001,0.02857951914834933,10,1,100,0.5101101328755663,-10,-1,-100,19337.198401389876,-0.04882394236557969,0.0007071931955565253,0.9988071498190563,61.93798864408304,3.74441588932613,242.91805318768724,-70.30697740220293,-35.21240234375,4761.76025390625,True
1599385510.8587494,0.0,10,0.5,0.5,-3.1022550231933597,-0.05075,-0.00825,-0.001,0.007155608123762981,10,1,100,0.5224843197702451,-10,-1,-100,19337.198401389876,-0.04882394236557969,0.0007071931955565253,0.9988071498190563,61.93798864408304,3.74441588932613,242.91805318768724,-70.30697740220293,-35.21240234375,4761.76025390625,True
1599385510.8919284,0.0,10,0.5,0.5,-3.09540630645752,-0.05075,-0.00825,-0.001,0.06587201974467782,10,1,100,0.5016208372080756,-10,-1,-100,19334.3751768691,-0.04858988894013671,0.001240335852841609,0.9988180436194359,62.155219843890436,3.7588348992095977,245.08517814851777,-70.67181744749877,-36.218170166015625,4761.76025390625,True
1599385510.924065,0.0,10,0.5,0.5,-3.140782083892822,-0.05075,-0.00825,-0.001,0.012681787601453628,10,1,100,0.529885168646387,-10,-1,-100,19334.3751768691,-0.04858988894013671,0.001240335852841609,0.9988180436194359,62.155219843890436,3.7588348992095977,245.08517814851777,-70.67181744749877,-36.218170166015625,4761.76025390625,True
1599385510.9610956,0.0,10,0.5,0.5,-3.117923524475098,-0.05075,-0.00825,-0.001,0.08827912591923232,10,1,100,0.4972785931249387,-10,-1,-100,19331.53735930682,-0.048249292899996146,0.0019264568049551954,0.998833466849619,62.37153814636779,3.773128307344454,247.2583929838217,-71.03663904743054,-37.51727294921875,4761.76025390625,True
1599385510.9849935,0.0,10,0.5,0.5,-3.0338293731689454,-0.05075,-0.00825,-0.001,0.10880901622803259,10,1,100,0.47962551876271653,-10,-1,-100,19328.684949315153,-0.04777972041237045,0.0027349279974697624,0.9988541527601337,62.57625403039306,3.7866205459666227,249.39500853096976,-71.40144196006008,-39.110076904296875,4761.76025390625,True
1599385511.0059674,0.0,10,0.5,0.5,-2.8790403633117676,-0.05075,-0.00825,-0.001,0.19176935951879248,10,1,100,0.4240897039095348,-10,-1,-100,19324.37897522864,-0.04684902934809702,0.004221457008245681,0.9988930612182011,62.831471711970714,3.8034654111436867,252.40875016475982,-71.94861276652539,-42.049285888671875,4761.76025390625,True
1599385511.026912,0.0,10,0.5,0.5,-2.8752769760131835,-0.05075,-0.00825,-0.001,0.043554382699143836,10,1,100,0.5169486946847764,-10,-1,-100,19324.37897522864,-0.04684902934809702,0.004221457008245681,0.9988930612182011,62.831471711970714,3.8034654111436867,252.40875016475982,-71.94861276652539,-42.049285888671875,4761.76025390625,True
1599385511.0588555,0.0,10,0.5,0.5,-2.810397359466553,-0.05075,-0.00825,-0.001,0.10432717850776793,10,1,100,0.4747733767817741,-10,-1,-100,19322.93635524984,-0.04646756345251418,0.004770157454392626,0.9989084097877277,62.894703575681774,3.807673990779624,253.32920699120623,-72.130994849361,-43.1759033203125,4761.76025390625,True
1599385511.0948048,0.0,10,0.5,0.5,-2.7419151420593266,-0.05075,-0.00825,-0.001,0.1131142162367552,10,1,100,0.46690638417887775,-10,-1,-100,19321.49008776748,-0.046051551032671174,0.005344579868634507,0.9989247669937477,62.94304990292673,3.81093258884955,254.19102002746314,-72.31337349855754,-44.375946044921875,4761.76025390625,True
1599385511.1247182,0.0,10,0.5,0.5,-2.6693165283203126,-0.05075,-0.00825,-0.001,0.11991216403478697,10,1,100,0.4580323671011994,-10,-1,-100,19320.04017264291,-0.04559527350416181,0.00592417037703967,0.998942428390858,62.97396964825059,3.813083569860662,254.98343665107132,-72.49574908071179,-45.649658203125,4761.76025390625,True
1599385511.158314,0.0,10,0.5,0.5,-2.518790501403809,-0.05075,-0.00825,-0.001,0.20454943651200913,10,1,100,0.39200463636858707,-10,-1,-100,19317.129400030477,-0.04458315880691265,0.007215757882490489,0.9989796168035555,62.972444821477886,3.8133775909790195,256.3127927995571,-72.86049325261155,-48.416595458984375,4761.76025390625,True
1599385511.1921625,0.0,10,0.5,0.5,-2.3522522514343263,-0.05075,-0.00825,-0.001,0.22386176850419987,10,1,100,0.3638199357111338,-10,-1,-100,19314.204037775984,-0.04341068524303536,0.008559578119477574,0.9990206434449425,62.86761024377669,3.807171801052794,257.220125546768,-73.22523293085683,-51.477691650390625,4761.76025390625,True
1599385511.2282126,0.0,10,0.5,0.5,-2.2578155815124514,-0.05075,-0.00825,-0.001,0.16706865970419085,10,1,100,0.40964212909548364,-10,-1,-100,19312.73588559439,-0.04276607394636564,0.0092582780346779,0.9990422149274006,62.76868521955581,3.801158235068538,257.4816668038748,-73.40760317792757,-53.118438720703125,4761.76025390625,True
1599385511.2531092,0.0,10,0.5,0.5,-2.0642733192443847,-0.05075,-0.00825,-0.001,0.25386062259933806,10,1,100,0.31839409917889105,-10,-1,-100,19309.78863888397,-0.04135583050923666,0.010675188581923319,0.9990874514433817,62.461487805532144,3.7823257764544542,257.5483364523076,-73.77234917202233,-56.62066650390625,4761.76025390625,True
1599385511.2740817,0.0,10,0.5,0.5,-1.8555317039489747,-0.05075,-0.00825,-0.001,0.2695536940085069,10,1,100,0.28670662251224277,-10,-1,-100,19306.82680195791,-0.03979198983523239,0.012097999972432537,0.9991347436365225,61.98539417691068,3.7530437130668073,256.9031417614264,-74.13711044301584,-60.417449951171875,4761.76025390625,True
1599385511.2960298,0.0,10,0.5,0.5,-1.6300546913146974,-0.05075,-0.00825,-0.001,0.2889081268440973,10,1,100,0.2516545297137197,-10,-1,-100,19303.850373839377,-0.038058922679402966,0.013558902378696319,0.9991835039524863,61.31179152292303,3.711631915577784,255.41631084519716,-74.50189675829274,-64.5081787109375,4761.76025390625,True
1599385511.3249593,0.0,10,0.5,0.5,-1.6156168334960939,-0.05075,-0.00825,-0.001,0.14375163075476424,10,1,100,0.42408223462979266,-10,-1,-100,19303.850373839377,-0.038058922679402966,0.013558902378696319,0.9991835039524863,61.31179152292303,3.711631915577784,255.41631084519716,-74.50189675829274,-64.5081787109375,4761.76025390625,True
1599385511.3614156,0.0,10,0.5,0.5,-1.4855007301330567,-0.05075,-0.00825,-0.001,0.22105382383982003,10,1,100,0.3224186575194704,-10,-1,-100,19302.356687702704,-0.03714269934809885,0.014253161001860052,0.9992083202648945,60.89215600806541,3.6858716694782316,254.31677386481093,-74.6843026613376,-66.66445922851562,4761.76025390625,True
1599385511.3924727,0.0,10,0.5,0.5,-1.2336588424682617,-0.05075,-0.00825,-0.001,0.30164282913664897,10,1,100,0.2006433580340029,-10,-1,-100,19299.358370265923,-0.03521119801895851,0.015608311613300558,0.999258000789912,59.869490529190145,3.623237072608798,251.3222894252261,-75.04914677533857,-71.19818115234375,4761.76025390625,True
1599385511.425994,0.0,10,0.5,0.5,-0.9662355995178222,-0.05075,-0.00825,-0.001,0.3190077129722955,10,1,100,0.158669062239474,-10,-1,-100,19296.345457552117,-0.03308355807889313,0.016988798629711744,0.9993081901525472,58.579676460521604,3.544523600097864,247.15878279543008,-75.41404251876244,-76.02578735351562,4761.76025390625,True
1599385511.4589477,0.0,10,0.5,0.5,-0.5425541000366212,-0.05075,-0.00825,-0.001,0.3844155455847744,10,1,100,-0.0008246555177858217,-10,-1,-100,19291.798716636724,-0.029710771349608846,0.018828344733605656,0.9993811902874717,56.090982111601356,3.3934181815201736,238.4582171241356,-75.96150282075592,-83.8218994140625,4761.76025390625,True
1599385511.4949155,0.0,10,0.5,0.5,-0.37908891830444336,-0.05075,-0.00825,-0.001,0.2633947413628098,10,1,100,0.20658109064904312,-10,-1,-100,19290.275836156914,-0.028543628731282765,0.019389913347081247,0.9994044689309944,55.10351296794068,3.3336975925072307,234.85024135913355,-76.1440241023277,-86.56686401367188,4761.76025390625,True
1599385511.5268302,0.0,10,0.5,0.5,-0.3528853157043457,-0.05075,-0.00825,-0.001,0.20832091353801105,10,1,100,0.32180864683047594,-10,-1,-100,19290.275836156914,-0.028543628731282765,0.019389913347081247,0.9994044689309944,55.10351296794068,3.3336975925072307,234.85024135913355,-76.1440241023277,-86.56686401367188,4761.76025390625,True
1599385511.5598125,0.0,10,0.5,0.5,0.2715607933044434,-0.05075,-0.00825,-0.001,0.4254527957517491,10,1,100,-0.2153434533397644,-10,-1,-100,19284.147804023,-0.023673357316294292,0.02135462897146759,0.9994916467759328,53.50388541185286,3.2384089627848915,230.32594832175275,-76.87421837714257,-98.1002197265625,4761.76025390625,True
1599385511.5928483,0.0,10,0.5,0.5,0.2942480690002442,-0.05075,-0.00825,-0.001,0.23004917735206923,10,1,100,0.26991544083978863,-10,-1,-100,19284.147804023,-0.023673357316294292,0.02135462897146759,0.9994916467759328,53.50388541185286,3.2384089627848915,230.32594832175275,-76.87421837714257,-98.1002197265625,4761.76025390625,True
1599385511.6288137,0.0,10,0.5,0.5,0.47893323783874514,-0.05075,-0.00825,-0.001,0.2766605697859044,10,1,100,0.12682660516712635,-10,-1,-100,19282.6066692248,-0.022387203021560033,0.021769953785412424,0.9995123222117137,54.38813345249184,3.2926693863643606,234.7152870230086,-77.05673279714118,-101.06827545166016,4761.76025390625,True
1599385511.659775,0.0,10,0.5,0.5,1.1236615217208865,-0.05075,-0.00825,-0.001,0.37816376273528785,10,1,100,-0.3076891666681507,-10,-1,-100,19276.405636556563,-0.017282075482078954,0.02306281350544147,0.9995846319848285,57.5319107660682,3.4869944050014507,250.7459874394342,-77.7865563873526,-113.00130462646484,4761.76025390625,True
1599385511.6931567,0.0,10,0.5,0.5,1.303578409576416,-0.05075,-0.00825,-0.001,0.27617760418446535,10,1,100,0.06027198270554973,-10,-1,-100,19274.846257305588,-0.016005039847036454,0.023302353708526995,0.9996003396413675,58.21080929281731,3.529234644133604,254.32725730109888,-77.96895541763004,-115.93547058105469,4761.76025390625,True
1599385511.7261946,0.0,10,0.5,0.5,1.6386350177764895,-0.05075,-0.00825,-0.001,0.298398114093319,10,1,100,-0.0852864069922962,-10,-1,-100,19271.7165566443,-0.01354005632656382,0.023713895626224626,0.9996270894833243,59.39689732156606,3.603286138470788,260.7785137320012,-78.33369225621637,-121.68121337890625,4761.76025390625,True
1599385511.7617602,0.0,10,0.5,0.5,1.9583131214141847,-0.05075,-0.00825,-0.001,0.28773544103275506,10,1,100,-0.11944599999078523,-10,-1,-100,19268.572268497548,-0.011008321500413702,0.023983722538114687,0.9996517383123777,60.218680546561224,3.6550543581278987,265.67217500112116,-78.6983632766345,-127.164794921875,4761.76025390625,True
1599385511.793644,0.0,10,0.5,0.5,2.263778727340698,-0.05075,-0.00825,-0.001,0.2831001858549874,10,1,100,-0.13045784148606,-10,-1,-100,19265.413394891308,-0.00862670513266426,0.024180522025572852,0.9996703868341428,60.70131261869916,3.6859191747639977,269.0968168127225,-79.06298828636119,-132.35821533203125,4761.76025390625,True
1599385511.826697,0.0,10,0.5,0.5,2.4272960376739507,-0.05075,-0.00825,-0.001,0.2716977073119853,10,1,100,-0.02201794038170682,-10,-1,-100,19263.82848897518,-0.007466583959492473,0.024250906138969377,0.9996780200021479,60.830686600034774,3.694412347505227,270.3193384071213,-79.24528944843651,-134.8445587158203,4761.76025390625,True
1599385511.859768,0.0,10,0.5,0.5,2.7105247291564942,-0.05075,-0.00825,-0.001,0.27462000894736016,10,1,100,-0.15528177088896492,-10,-1,-100,19260.64773948898,-0.005219599929062857,0.024337038990749727,0.9996901841619449,60.89634725721813,3.6993769182101386,271.9106497876102,-79.60987945594462,-139.59597778320312,4761.76025390625,True
1599385511.8964097,0.0,10,0.5,0.5,2.749522328948975,-0.05075,-0.00825,-0.001,0.266501436333692,10,1,100,0.06708422927377468,-10,-1,-100,19260.64773948898,-0.005219599929062857,0.024337038990749727,0.9996901841619449,60.89634725721813,3.6993769182101386,271.9106497876102,-79.60987945594462,-139.59597778320312,4761.76025390625,True
1599385511.9271133,0.0,10,0.5,0.5,3.0143847969055177,-0.05075,-0.00825,-0.001,0.26628454457945555,10,1,100,-0.17329002479915875,-10,-1,-100,19257.452406644472,-0.0030511555805700363,0.024332355965693685,0.9996992682315927,60.74379457834326,3.6907154757671847,272.52629071034625,-79.97446508504076,-144.0525665283203,4761.76025390625,True
1599385511.9604557,0.0,10,0.5,0.5,3.157398609542847,-0.05075,-0.00825,-0.001,0.26759918694301454,10,1,100,-0.0708811827695188,-10,-1,-100,19255.84927122679,-0.0020295794656057663,0.024337342939862158,0.9997017427942297,60.59892359144279,3.682095041267646,272.52349579024656,-80.15675979854484,-146.16966247558594,4761.76025390625,True
1599385511.9933972,0.0,10,0.5,0.5,3.4002134702682496,-0.05075,-0.00825,-0.001,0.2547805924420726,10,1,100,-0.19366637983900536,-10,-1,-100,19252.632062628283,-3.1517727846922877e-06,0.02422300988532089,0.9997065798433868,60.19962467221139,3.6579975207578155,272.01435768735035,-80.52135904538486,-150.1836395263672,4761.76025390625,True
1599385512.02882,0.0,10,0.5,0.5,3.524963500595093,-0.05075,-0.00825,-0.001,0.2636686855310845,10,1,100,-0.09659018530261498,-10,-1,-100,19251.017989389133,0.0009408362488042858,0.024198816867110864,0.9997067230390045,59.953730830354466,3.643058394265161,271.5443636410012,-80.70366520825854,-152.07907104492188,4761.76025390625,True
1599385512.0608673,0.0,10,0.5,0.5,3.907031650543213,-0.05075,-0.00825,-0.001,0.24244757665650402,10,1,100,-0.3942615025957315,-10,-1,-100,19244.525232444517,0.004489704720099106,0.02398308907609776,0.999702282677145,58.780949390048406,3.571491791549313,268.74978674305686,-81.43294577157235,-158.92245483398438,4761.76025390625,True
1599385512.093243,0.0,10,0.5,0.5,4.009890737915039,-0.05075,-0.00825,-0.001,0.25591743098105674,10,1,100,-0.13143836711296716,-10,-1,-100,19242.892926769564,0.0053102568613904826,0.023909181402263713,0.9997000311177048,58.461789549967826,3.55198683109536,267.91722423853787,-81.61528106016985,-160.4486083984375,4761.76025390625,True
1599385512.1271822,0.0,10,0.5,0.5,4.182229736328125,-0.05075,-0.00825,-0.001,0.2559896985202884,10,1,100,-0.21977733107084124,-10,-1,-100,19239.617374752765,0.0068444597727616765,0.02384271735016746,0.9996922917577082,57.81711715920727,3.5125962451894526,266.20319702022664,-81.97996981137759,-163.2777099609375,4761.76025390625,True
1599385512.162336,0.0,10,0.5,0.5,4.336032485961915,-0.05075,-0.00825,-0.001,0.2512392540186137,10,1,100,-0.2256438011042726,-10,-1,-100,19236.327234530007,0.008278456542579932,0.023739416720678738,0.9996839036670713,57.18798440968361,3.474188767074937,264.5344797843172,-82.34468167932071,-165.81149291992188,4761.76025390625,True
1599385512.1942513,0.0,10,0.5,0.5,4.359046423721313,-0.05075,-0.00825,-0.001,0.26151816802565686,10,1,100,-0.08381862817265424,-10,-1,-100,19236.327234530007,0.008278456542579932,0.023739416720678738,0.9996839036670713,57.18798440968361,3.474188767074937,264.5344797843172,-82.34468167932071,-165.81149291992188,4761.76025390625,True
1599385512.2272706,0.0,10,0.5,0.5,4.548536391067506,-0.05075,-0.00825,-0.001,0.26063682283571155,10,1,100,-0.2956997070676047,-10,-1,-100,19231.36466927675,0.010192377208468897,0.023731947784652027,0.9996663994059152,56.31753783912359,3.4211557818956404,262.32377247936216,-82.89178689647414,-169.05520629882812,4761.76025390625,True
1599385512.2603166,0.0,10,0.5,0.5,4.56959654121399,-0.05075,-0.00825,-0.001,0.26132320731777287,10,1,100,-0.10584883819246135,-10,-1,-100,19231.36466927675,0.010192377208468897,0.023731947784652027,0.9996663994059152,56.31753783912359,3.4211557818956404,262.32377247936216,-82.89178689647414,-169.05520629882812,4761.76025390625,True
1599385512.2962153,0.0,10,0.5,0.5,4.682981424713135,-0.05075,-0.00825,-0.001,0.26350427020542394,10,1,100,-0.2323752153558563,-10,-1,-100,19228.038054821664,0.011330577425600634,0.023752321454704347,0.9996536626455759,55.81346763641274,3.3905333326383116,261.17656045569686,-83.2565437647869,-170.84762573242188,4761.76025390625,True
1599385512.3271637,0.0,10,0.5,0.5,4.742142258071899,-0.05075,-0.00825,-0.001,0.26864394400738506,10,1,100,-0.1770555971817599,-10,-1,-100,19226.369276293437,0.011850253678782058,0.023818099117938064,0.9996460721886304,55.589045714472554,3.376931043443978,260.72462292623436,-83.43892680337568,-171.63204956054688,4761.76025390625,True
1599385512.3601434,0.0,10,0.5,0.5,4.828776611328125,-0.05075,-0.00825,-0.001,0.275810531306418,10,1,100,-0.23223748188626084,-10,-1,-100,19223.020775869605,0.012813564310395573,0.023943415887930274,0.9996311946939634,55.204703972404616,3.353704499282443,260.1107062292997,-83.80369956454962,-172.9793701171875,4761.76025390625,True
1599385512.394056,0.0,10,0.5,0.5,4.92046901550293,-0.05075,-0.00825,-0.001,0.2987601218036021,10,1,100,-0.2721069581850203,-10,-1,-100,19217.97066697327,0.014040957643613317,0.024266205047878665,0.999606924146199,54.80416722369913,3.329686390281385,259.99485190130497,-84.35086704647429,-174.4440460205078,4761.76025390625,True
1599385512.4301767,0.0,10,0.5,0.5,4.963167139053345,-0.05075,-0.00825,-0.001,0.2986031461163446,10,1,100,-0.22455635851333233,-10,-1,-100,19214.58568871068,0.014715808628683635,0.024557965308882334,0.9995900916457164,54.66370062214548,3.3214316031590583,260.5071075608664,-84.71564468336867,-175.04998779296875,4761.76025390625,True
1599385512.4602025,0.0,10,0.5,0.5,4.990602330398559,-0.05075,-0.00825,-0.001,0.3118249712407667,10,1,100,-0.2182223883521756,-10,-1,-100,19211.18611967587,0.01526317747567587,0.024942810516465307,0.9995723543680496,54.6298728633417,3.319693110239178,261.5243708823495,-85.08041640333182,-175.35906982421875,4761.76025390625,True
1599385512.4932096,0.0,10,0.5,0.5,5.000260370254517,-0.05075,-0.00825,-0.001,0.27345045979909915,10,1,100,-0.16432737542324358,-10,-1,-100,19211.18611967587,0.01526317747567587,0.024942810516465307,0.9995723543680496,54.6298728633417,3.319693110239178,261.5243708823495,-85.08041640333182,-175.35906982421875,4761.76025390625,True
1599385512.5271168,0.0,10,0.5,0.5,5.010392339706422,-0.05075,-0.00825,-0.001,0.2963650074953429,10,1,100,-0.19042811856396477,-10,-1,-100,19209.480863548466,0.01549410721247052,0.025150030592071354,0.999563609082937,54.65448518227522,3.3213560832526348,262.23190410937593,-85.26279867460599,-175.40264892578125,4761.76025390625,True
1599385512.5631065,0.0,10,0.5,0.5,4.98894757194519,-0.05075,-0.00825,-0.001,0.38659428364755744,10,1,100,-0.2364898056698922,-10,-1,-100,19202.62336424063,0.016116226264456007,0.026157396249577535,0.9995279175052768,55.026061421014944,3.344619795788497,266.39093399760725,-85.99229034240415,-174.83619689941406,4761.76025390625,True
1599385512.5890367,0.0,10,0.5,0.5,4.956635563659668,-0.05075,-0.00825,-0.001,0.35287082352241145,10,1,100,-0.18805587585140504,-10,-1,-100,19199.17273084051,0.016236095268769304,0.02676440134756826,0.9995099079203414,55.36880150544756,3.3657731475521517,269.2464786781504,-86.35700572106218,-174.10870361328125,4761.76025390625,True
1599385512.6109812,0.0,10,0.5,0.5,4.936960102081299,-0.05075,-0.00825,-0.001,0.32903006410384783,10,1,100,-0.17593872061846397,-10,-1,-100,19197.441943667596,0.016229416845063474,0.02709673321142478,0.9995010620695398,55.5775587379662,3.3786122058778636,270.8621977214194,-86.53935384490669,-173.63388061523438,4761.76025390625,True
1599385512.6339223,0.0,10,0.5,0.5,4.939733585357667,-0.05075,-0.00825,-0.001,0.29613131889386796,10,1,100,-0.1770964469309933,-10,-1,-100,19197.441943667596,0.016229416845063474,0.02709673321142478,0.9995010620695398,55.5775587379662,3.3786122058778636,270.8621977214194,-86.53935384490669,-173.63388061523438,4761.76025390625,True
1599385512.6632156,0.0,10,0.5,0.5,4.912987978363037,-0.05075,-0.00825,-0.001,0.3344659159899535,10,1,100,-0.17337559685329362,-10,-1,-100,19195.70750953874,0.016191609877842312,0.027442248972213295,0.9994922484646447,55.81096591000613,3.3929411187655347,272.60294411575535,-86.72169479464853,-173.08514404296875,4761.76025390625,True
1599385512.6942885,0.0,10,0.5,0.5,4.881408940124512,-0.05075,-0.00825,-0.001,0.33870714467212626,10,1,100,-0.17068262048045357,-10,-1,-100,19193.969428699347,0.01612968735373594,0.027791730076327806,0.9994835931245872,56.06851751412422,3.408728098346904,274.46704107119075,-86.90402812193346,-172.46263122558594,4761.76025390625,True
1599385512.7272673,0.0,10,0.5,0.5,4.804490047454834,-0.05075,-0.00825,-0.001,0.3859228324033236,10,1,100,-0.1528522090138784,-10,-1,-100,19190.482328169164,0.015909400655115716,0.02853546867305329,0.9994661665101047,56.65000687929226,3.4443062670367603,278.5386680413082,-87.2686692502597,-170.99583435058594,4761.76025390625,True
1599385512.7601476,0.0,10,0.5,0.5,4.7589236263275145,-0.05075,-0.00825,-0.001,0.35492548676685587,10,1,100,-0.15600425908437227,-10,-1,-100,19188.73330851982,0.015736709936986882,0.0289261847066866,0.9994576688377922,56.97065501152648,3.4638968986444123,280.7314119924688,-87.45097610155992,-170.151611328125,4761.76025390625,True
1599385512.797232,0.0,10,0.5,0.5,4.601496178817749,-0.05075,-0.00825,-0.001,0.45120489866745567,10,1,100,-0.0918956825386647,-10,-1,-100,19183.464374733157,0.014996482649671227,0.030153027232549402,0.999432789364473,58.03399289176695,3.528772236978328,287.8546640500856,-87.99783591827406,-167.17623901367188,4761.76025390625,True
1599385512.8281152,0.0,10,0.5,0.5,4.597720715713502,-0.05075,-0.00825,-0.001,0.3290416677527837,10,1,100,-0.16589174178762978,-10,-1,-100,19183.464374733157,0.014996482649671227,0.030153027232549402,0.999432789364473,58.03399289176695,3.528772236978328,287.8546640500856,-87.99783591827406,-167.17623901367188,4761.76025390625,True
1599385512.860974,0.0,10,0.5,0.5,4.469208192825318,-0.05075,-0.00825,-0.001,0.4233143594412727,10,1,100,-0.09103303436254936,-10,-1,-100,19179.933525467874,0.01431640133177304,0.031005503523680686,0.9994166795707137,58.80946093996416,3.576034179297947,292.9738151839999,-88.36235395890195,-164.8240509033203,4761.76025390625,True
1599385512.8950014,0.0,10,0.5,0.5,4.3263629558563235,-0.05075,-0.00825,-0.001,0.4300561900094443,10,1,100,-0.06368213224354778,-10,-1,-100,19176.38809683628,0.013451137227995296,0.031837363968716045,0.9994025461058208,59.61806568824093,3.6253075833390764,298.2924797688893,-88.72682456553846,-162.17791748046875,4761.76025390625,True
1599385512.9303539,0.0,10,0.5,0.5,4.085179374313355,-0.05075,-0.00825,-0.001,0.4894506830527863,10,1,100,0.02155510775499045,-10,-1,-100,19171.042622038047,0.011892181277338612,0.03312893888948662,0.9993803327224944,60.84716189281547,3.70027619790483,306.4177749394734,-89.27343776252727,-157.65643310546875,4761.76025390625,True
1599385512.9614143,0.0,10,0.5,0.5,4.076519464492798,-0.05075,-0.00825,-0.001,0.36089641154353497,10,1,100,-0.1339067637539055,-10,-1,-100,19171.042622038047,0.011892181277338612,0.03312893888948662,0.9993803327224944,60.84716189281547,3.70027619790483,306.4177749394734,-89.27343776252727,-157.65643310546875,4761.76025390625,True
1599385512.9944568,0.0,10,0.5,0.5,3.698274574661255,-0.05075,-0.00825,-0.001,0.5293967341818582,10,1,100,0.16136092661671697,-10,-1,-100,19163.86431293271,0.009211872488121794,0.034655276181036775,0.9993568698108192,62.37946097617893,3.7941834512510777,316.8348872442458,-90.00208375075232,-150.60206604003906,4761.76025390625,True
1599385513.0274496,0.0,10,0.5,0.5,3.586010195922852,-0.05075,-0.00825,-0.001,0.41962281836014703,10,1,100,-0.022068400575510252,-10,-1,-100,19162.060628470383,0.008449112688208317,0.03503835355024061,0.9993502520514368,62.71860732604636,3.815121011550234,319.2363695286062,-90.18421673963867,-148.65481567382812,4761.76025390625,True
1599385513.0633903,0.0,10,0.5,0.5,3.355504230880738,-0.05075,-0.00825,-0.001,0.44956103165229433,10,1,100,0.08356561091087528,-10,-1,-100,19158.44233222457,0.006802367833561221,0.0356521834399237,0.9993411077344027,63.31556971435382,3.852272557422464,323.6458577858696,-90.54845307703319,-144.54251098632812,4761.76025390625,True
1599385513.0943677,0.0,10,0.5,0.5,3.337792543792725,-0.05075,-0.00825,-0.001,0.38888971416067264,10,1,100,-0.08019817127167883,-10,-1,-100,19158.44233222457,0.006802367833561221,0.0356521834399237,0.9993411077344027,63.31556971435382,3.852272557422464,323.6458577858696,-90.54845307703319,-144.54251098632812,4761.76025390625,True
1599385513.1274416,0.0,10,0.5,0.5,2.9690865905761723,-0.05075,-0.00825,-0.001,0.4741863234761887,10,1,100,0.22106286670504355,-10,-1,-100,19152.987572460785,0.004071753253866859,0.0364214926166709,0.9993282222078057,63.93337442885047,3.8917922499115356,328.88149723028545,-91.09475048273731,-137.82601928710938,4761.76025390625,True
1599385513.1613877,0.0,10,0.5,0.5,2.951589151000977,-0.05075,-0.00825,-0.001,0.39788225233988056,10,1,100,-0.050906118324812205,-10,-1,-100,19152.987572460785,0.004071753253866859,0.0364214926166709,0.9993282222078057,63.93337442885047,3.8917922499115356,328.88149723028545,-91.09475048273731,-137.82601928710938,4761.76025390625,True
1599385513.1974068,0.0,10,0.5,0.5,2.676790911102295,-0.05075,-0.00825,-0.001,0.4391552677130623,10,1,100,0.16851333756361472,-10,-1,-100,19149.33285690169,0.002086962499786436,0.036791003242441535,0.9993208026794693,64.10125361464313,3.9038085719272884,331.1352131531394,-91.45892798027722,-132.9838104248047,4761.76025390625,True
1599385513.228441,0.0,10,0.5,0.5,2.251303359985352,-0.05075,-0.00825,-0.001,0.42625580290581566,10,1,100,0.3151733737304698,-10,-1,-100,19143.823470032075,-0.001039548115592643,0.037004394586059176,0.9993145621479927,63.87991469000674,3.893781897637609,332.0732653038886,-92.005201661193,-125.17585754394531,4761.76025390625,True
1599385513.261401,0.0,10,0.5,0.5,2.228584613418579,-0.05075,-0.00825,-0.001,0.4054333716057858,10,1,100,0.003971380726920701,-10,-1,-100,19143.823470032075,-0.001039548115592643,0.037004394586059176,0.9993145621479927,63.87991469000674,3.893781897637609,332.0732653038886,-92.005201661193,-125.17585754394531,4761.76025390625,True
1599385513.2943196,0.0,10,0.5,0.5,1.6103945934295654,-0.05075,-0.00825,-0.001,0.3738103183649132,10,1,100,0.4844675218703467,-10,-1,-100,19136.4266307886,-0.005395938735630215,0.03671338914232709,0.9993112682757288,62.477797191504294,3.8138452189727214,327.5082633568657,-92.73368093424939,-113.74796295166016,4761.76025390625,True
1599385513.3312213,0.0,10,0.5,0.5,1.5855980001449586,-0.05075,-0.00825,-0.001,0.4032693077634062,10,1,100,0.05055727186788643,-10,-1,-100,19136.4266307886,-0.005395938735630215,0.03671338914232709,0.9993112682757288,62.477797191504294,3.8138452189727214,327.5082633568657,-92.73368093424939,-113.74796295166016,4761.76025390625,True
1599385513.3612747,0.0,10,0.5,0.5,1.0721813888549805,-0.05075,-0.00825,-0.001,0.33161240533424496,10,1,100,0.42043470279502704,-10,-1,-100,19130.840749598574,-0.008745181006582628,0.03606009174482445,0.9993113586828267,60.782547376102976,3.7144409693837024,320.6178420706255,-93.28019947778552,-104.41439819335938,4761.76025390625,True
1599385513.3941913,0.0,10,0.5,0.5,0.7042326412200929,-0.05075,-0.00825,-0.001,0.3248406570316843,10,1,100,0.33759648847149476,-10,-1,-100,19127.098608206725,-0.011021240855693809,0.035403694818712785,0.999312318868923,59.326895606528765,3.627718170972387,314.242355617842,-93.64464352830768,-97.8292007446289,4761.76025390625,True
1599385513.4281583,0.0,10,0.5,0.5,0.6722793577194215,-0.05075,-0.00825,-0.001,0.3904555007807295,10,1,100,0.11177286442930216,-10,-1,-100,19127.098608206725,-0.011021240855693809,0.035403694818712785,0.999312318868923,59.326895606528765,3.627718170972387,314.242355617842,-93.64464352830768,-97.8292007446289,4761.76025390625,True
1599385513.4633853,0.0,10,0.5,0.5,0.45771657142639166,-0.05075,-0.00825,-0.001,0.3470930266313318,10,1,100,0.2269115225272904,-10,-1,-100,19125.222070223652,-0.012051752648685288,0.03500971640701027,0.9993143024170101,58.4529862344333,3.575154089426012,310.2562219311645,-93.82689830844078,-94.42776489257812,4761.76025390625,True
1599385513.4942617,0.0,10,0.5,0.5,0.062664888381958,-0.05075,-0.00825,-0.001,0.28814547917859523,10,1,100,0.3512974718465871,-10,-1,-100,19121.45806003199,-0.014104705176214283,0.03411695085244643,0.9993183131297175,60.373177456438015,3.6938252365162665,321.77724545558925,-94.19135849904342,-87.4200439453125,4761.76025390625,True
1599385513.5281496,0.0,10,0.5,0.5,-0.5359206745147705,-0.05075,-0.00825,-0.001,0.19462409663637392,10,1,100,0.47950448487637853,-10,-1,-100,19115.78471967741,-0.017120019902938672,0.032457246454062956,0.999326489227191,64.53225066365185,3.9490389416973115,346.0756610694045,-94.73778424034815,-76.52133178710938,4761.76025390625,True
1599385513.561122,0.0,10,0.5,0.5,-0.9566157371520997,-0.05075,-0.00825,-0.001,0.22454680498439233,10,1,100,0.3792295560301694,-10,-1,-100,19111.98428444832,-0.0189321639537201,0.03122438867395849,0.9993330829708215,66.8348332424065,4.090059515113441,359.8942774598779,-95.10189680847594,-69.08148193359375,4761.76025390625,True
1599385513.5972567,0.0,10,0.5,0.5,-0.9954537471771241,-0.05075,-0.00825,-0.001,0.347254582403629,10,1,100,0.1998044125358392,-10,-1,-100,19111.98428444832,-0.0189321639537201,0.03122438867395849,0.9993330829708215,66.8348332424065,4.090059515113441,359.8942774598779,-95.10189680847594,-69.08148193359375,4761.76025390625,True
1599385513.6191993,0.0,10,0.5,0.5,-1.61169228515625,-0.05075,-0.00825,-0.001,0.13516048205810594,10,1,100,0.4690415836839564,-10,-1,-100,19106.256331202574,-0.02136350858612287,0.02930151503982837,0.9993422945704147,69.35588746327028,4.2448175065367675,375.7554376586507,-95.64785099171152,-58.0677490234375,4761.76025390625,True
1599385513.6421754,0.0,10,0.5,0.5,-1.6466147287368775,-0.05075,-0.00825,-0.001,0.3267066580608679,10,1,100,0.22750387742872888,-10,-1,-100,19106.256331202574,-0.02136350858612287,0.02930151503982837,0.9993422945704147,69.35588746327028,4.2448175065367675,375.7554376586507,-95.64785099171152,-58.0677490234375,4761.76025390625,True
1599385513.6671076,0.0,10,0.5,0.5,-1.8767144489288332,-0.05075,-0.00825,-0.001,0.2521405216559044,10,1,100,0.31039712931114366,-10,-1,-100,19104.339735210873,-0.022102567630644374,0.028630379139876427,0.9993456748765364,69.92006707847005,4.279750687969319,379.5796714285529,-95.82979261030209,-54.509033203125,4761.76025390625,True
1599385513.695176,0.0,10,0.5,0.5,-2.271582381820679,-0.05075,-0.00825,-0.001,0.16996353902773337,10,1,100,0.38687807691113846,-10,-1,-100,19100.49562775565,-0.023457577752369275,0.02727994640021397,0.999352563698314,70.64336908216038,4.325357988609517,385.0576178689209,-96.19363659838153,-47.605560302734375,4761.76025390625,True
1599385513.7305386,0.0,10,0.5,0.5,-2.479010339164734,-0.05075,-0.00825,-0.001,0.22672472845402863,10,1,100,0.3210457095592485,-10,-1,-100,19098.568116688984,-0.024079623308105026,0.026575676312049417,0.9993567456968991,70.81378059799586,4.3367371980522496,386.76444146252453,-96.37554757877774,-44.264556884765625,4761.76025390625,True
1599385513.7616494,0.0,10,0.5,0.5,-2.6889178527832036,-0.05075,-0.00825,-0.001,0.2187284691263403,10,1,100,0.32402304822575123,-10,-1,-100,19096.63696737564,-0.024660314726239904,0.025870762982108716,0.9993610821421486,70.86549320255392,4.3410314743791165,387.8259264048262,-96.55745670889053,-40.99774169921875,4761.76025390625,True
1599385513.7956378,0.0,10,0.5,0.5,-3.0563647789001465,-0.05075,-0.00825,-0.001,0.14381735695327766,10,1,100,0.38304637793560703,-10,-1,-100,19092.763754215906,-0.02571332941092707,0.0245572307109756,0.999367683643219,70.64298360607027,4.330133283805461,388.16355651258914,-96.92128485543228,-34.68597412109375,4761.76025390625,True
1599385513.8290122,0.0,10,0.5,0.5,-3.554633936309815,-0.05075,-0.00825,-0.001,0.05959284301646714,10,1,100,0.4248439277166683,-10,-1,-100,19086.92664449627,-0.027040039918438948,0.022606123719739465,0.9993787067031081,69.60710967119583,4.271519421984861,384.7775231896403,-97.46709826980988,-25.77630615234375,4761.76025390625,True
1599385513.8640194,0.0,10,0.5,0.5,-3.5875889144897464,-0.05075,-0.00825,-0.001,0.2537184298666484,10,1,100,0.29316487896703053,-10,-1,-100,19086.92664449627,-0.027040039918438948,0.022606123719739465,0.9993787067031081,69.60710967119583,4.271519421984861,384.7775231896403,-97.46709826980988,-25.77630615234375,4761.76025390625,True
1599385513.89499,0.0,10,0.5,0.5,-3.911516184997559,-0.05075,-0.00825,-0.001,0.12102567294755467,10,1,100,0.375228282244401,-10,-1,-100,19083.01704215596,-0.027778700060992572,0.021407660715887903,0.999384838731104,68.53664260446777,4.209244189900946,380.3789665826755,-97.83104951002638,-20.20721435546875,4761.76025390625,True
1599385513.9290066,0.0,10,0.5,0.5,-4.219157699584962,-0.05075,-0.00825,-0.001,0.12182057818468109,10,1,100,0.37616746217492875,-10,-1,-100,19079.092879621196,-0.028450704975312234,0.02033429960359497,0.9993883497650146,67.4153171850431,4.143613371467309,375.6537043201476,-98.19506975342733,-14.933990478515625,4761.76025390625,True
1599385513.9559362,0.0,10,0.5,0.5,-4.6300221565246575,-0.05075,-0.00825,-0.001,0.06458615008330434,10,1,100,0.3952445533155776,-10,-1,-100,19073.179329394945,-0.029228603729254926,0.018846355805530908,0.9993950688275831,65.61061837596077,4.0367340764853985,367.79112946614725,-98.74122979940705,-7.580322265625,4761.76025390625,True
1599385513.9799047,0.0,10,0.5,0.5,-4.783529759979248,-0.05075,-0.00825,-0.001,0.16607799714500884,10,1,100,0.3448718228304453,-10,-1,-100,19071.200863063335,-0.029470700414662414,0.018425837470792072,0.9993958006368493,64.99674718589918,4.000039368765803,365.07575831782276,-98.92331521754312,-5.276763916015625,4761.76025390625,True
1599385514.0048041,0.0,10,0.5,0.5,-4.937222203063965,-0.05075,-0.00825,-0.001,0.16355819757707596,10,1,100,0.34587324217733245,-10,-1,-100,19069.218754721805,-0.029693193820200907,0.018029917662838364,0.9993964360101687,64.3557435383598,3.961499641357997,362.1945199629074,-99.10541650475245,-3.047210693359375,4761.76025390625,True
1599385514.0317328,0.0,10,0.5,0.5,-4.971753288269044,-0.05075,-0.00825,-0.001,0.20222517549870933,10,1,100,0.3242474632302664,-10,-1,-100,19069.218754721805,-0.029693193820200907,0.018029917662838364,0.9993964360101687,64.3557435383598,3.961499641357997,362.1945199629074,-99.10541650475245,-3.047210693359375,4761.76025390625,True
1599385514.0623813,0.0,10,0.5,0.5,-5.3289471511840825,-0.05075,-0.00825,-0.001,0.09080150184021059,10,1,100,0.3897848204119109,-10,-1,-100,19063.25057570322,-0.03028388473047759,0.017024744046533112,0.9993963400051958,64.55764002281218,3.975660390254527,365.4973351179779,-99.65174480795739,3.197998046875,4761.76025390625,True
1599385514.097829,0.0,10,0.5,0.5,-5.359163427734376,-0.05075,-0.00825,-0.001,0.19043426157717816,10,1,100,0.33127808638466655,-10,-1,-100,19063.25057570322,-0.03028388473047759,0.017024744046533112,0.9993963400051958,64.55764002281218,3.975660390254527,365.4973351179779,-99.65174480795739,3.197998046875,4761.76025390625,True
1599385514.1297092,0.0,10,0.5,0.5,-5.679212016296387,-0.05075,-0.00825,-0.001,0.11178407556627967,10,1,100,0.3881859289400862,-10,-1,-100,19057.249624481774,-0.030797073703418176,0.016316590070674437,0.9993924700235499,67.12048143488009,4.133946473726046,382.26115226219616,-100.19788111578552,8.778564453125,4761.76025390625,True
1599385514.3397684,0.0,10,0.5,0.5,-5.875566784667969,-0.05075,-0.00825,-0.001,0.14806027330170607,10,1,100,0.3713269330491036,-10,-1,-100,19053.23078939994,-0.03110693004909616,0.016008315102624123,0.9993878590169564,68.55743946787067,4.222230622745006,391.9797968881863,-100.56186017527949,12.12982177734375,4761.76025390625,True
1599385514.3672469,0.0,10,0.5,0.5,-5.903488082885742,-0.05075,-0.00825,-0.001,0.17822798924502598,10,1,100,0.34074798749437096,-10,-1,-100,19053.23078939994,-0.03110693004909616,0.016008315102624123,0.9993878590169564,68.55743946787067,4.222230622745006,391.9797968881863,-100.56186017527949,12.12982177734375,4761.76025390625,True
1599385514.4011953,0.0,10,0.5,0.5,-6.161686111450196,-0.05075,-0.00825,-0.001,0.1566935054207675,10,1,100,0.3926177913888851,-10,-1,-100,19047.17524382344,-0.03157544805723892,0.015817455563870195,0.9993762050296523,70.36055851120933,4.332452175319732,404.65166572580824,-101.10767855373624,16.6036376953125,4761.76025390625,True
1599385514.4284055,0.0,10,0.5,0.5,-6.183230838775636,-0.05075,-0.00825,-0.001,0.17532777489218782,10,1,100,0.3460784648828016,-10,-1,-100,19047.17524382344,-0.03157544805723892,0.015817455563870195,0.9993762050296523,70.36055851120933,4.332452175319732,404.65166572580824,-101.10767855373624,16.6036376953125,4761.76025390625,True
1599385514.4621782,0.0,10,0.5,0.5,-6.400362613677979,-0.05075,-0.00825,-0.001,0.1887623835502425,10,1,100,0.3961100815558235,-10,-1,-100,19041.086955744307,-0.03202814744124095,0.015942341915526747,0.9993598148343421,71.80666677923969,4.420372773807269,415.37869994941286,-101.65333858115893,20.41387939453125,4761.76025390625,True
1599385514.4991877,0.0,10,0.5,0.5,-6.530133787536622,-0.05075,-0.00825,-0.001,0.2049771734479473,10,1,100,0.3852949583072951,-10,-1,-100,19037.00991092832,-0.03233904808168656,0.016205539866607534,0.9993455690834889,72.6059541874955,4.468799042737986,421.62682643701595,-102.01703599805505,22.585601806640625,4761.76025390625,True
1599385514.5293624,0.0,10,0.5,0.5,-6.6462627799987795,-0.05075,-0.00825,-0.001,0.22530589910500648,10,1,100,0.38932655084246887,-10,-1,-100,19032.91831986385,-0.03265593054671916,0.016631275853378088,0.9993282698210918,73.29596915265235,4.510535532089493,427.27371077147535,-102.38068015791549,24.462966918945312,4761.76025390625,True
1599385514.5624793,0.0,10,0.5,0.5,-6.709942307662963,-0.05075,-0.00825,-0.001,0.21201023303768923,10,1,100,0.37545082406745867,-10,-1,-100,19030.86707019841,-0.0328151691472246,0.016898710369657035,0.9993185669553436,73.60555511408893,4.529251200545787,429.9019045250269,-102.5624841646408,25.29119873046875,4761.76025390625,True
1599385514.5956671,0.0,10,0.5,0.5,-6.727340966415405,-0.05075,-0.00825,-0.001,0.18525417804210692,10,1,100,0.3597800924585897,-10,-1,-100,19030.86707019841,-0.0328151691472246,0.016898710369657035,0.9993185669553436,73.60555511408893,4.529251200545787,429.9019045250269,-102.5624841646408,25.29119873046875,4761.76025390625,True
1599385514.63187,0.0,10,0.5,0.5,-6.878944764328003,-0.05075,-0.00825,-0.001,0.3459278180254829,10,1,100,0.4324648685793646,-10,-1,-100,19022.625714532332,-0.033473638671580055,0.01835949440012125,0.9992709564875066,74.652879547162,4.592625083465371,439.3607030298389,-103.28959451896819,27.8685302734375,4761.76025390625,True
1599385514.6627998,0.0,10,0.5,0.5,-6.8921166545867925,-0.05075,-0.00825,-0.001,0.20005370541200612,10,1,100,0.36688557264063515,-10,-1,-100,19022.625714532332,-0.033473638671580055,0.01835949440012125,0.9992709564875066,74.652879547162,4.592625083465371,439.3607030298389,-103.28959451896819,27.8685302734375,4761.76025390625,True
1599385514.6957653,0.0,10,0.5,0.5,-6.94895150718689,-0.05075,-0.00825,-0.001,0.30517511519425883,10,1,100,0.4058460593431855,-10,-1,-100,19018.48322557041,-0.033825673361037346,0.019313006144234913,0.9992411278642133,75.08538897481517,4.618888628835829,443.58768245456486,-103.6530938520165,28.71588134765625,4761.76025390625,True
1599385514.7298346,0.0,10,0.5,0.5,-6.978030598068238,-0.05075,-0.00825,-0.001,0.27268109015502817,10,1,100,0.3879621046270938,-10,-1,-100,19016.406528924126,-0.03398065190556865,0.01988143051030741,0.9992247214800765,75.28420395038802,4.630995729154832,445.6055279492548,-103.83483119947232,29.029754638671875,4761.76025390625,True
1599385514.7657478,0.0,10,0.5,0.5,-7.009023294448852,-0.05075,-0.00825,-0.001,0.350480216112776,10,1,100,0.410555096411227,-10,-1,-100,19012.2422317639,-0.03432474577695438,0.02110175019276517,0.9991879342576898,75.65088423637835,4.653400409009048,449.4714424725408,-104.19828321944722,29.436614990234375,4761.76025390625,True
1599385514.7962801,0.0,10,0.5,0.5,-7.024037830734253,-0.05075,-0.00825,-0.001,0.30391408367813516,10,1,100,0.39454142446190255,-10,-1,-100,19010.15463172272,-0.03448948018983872,0.021782999341385587,0.9991676419379922,75.82090038866151,4.663828883310649,451.331661669384,-104.37999855636599,29.530029296875,4761.76025390625,True
1599385514.8371737,0.0,10,0.5,0.5,-7.012851791000367,-0.05075,-0.00825,-0.001,0.5858775363680262,10,1,100,0.4473535284441438,-10,-1,-100,19001.767890958,-0.03511711120798249,0.024960311176016013,0.9990714545849074,76.42703731247005,4.701267943018772,458.370514627698,-105.10679585861469,29.17034912109375,4761.76025390625,True
1599385514.866087,0.0,10,0.5,0.5,-6.986570985031128,-0.05075,-0.00825,-0.001,0.4725844007003914,10,1,100,0.4177594419568771,-10,-1,-100,18997.55271789513,-0.03541612219902323,0.02681088000023844,0.9990129503675098,76.68978499372963,4.717648106094285,461.6698252440729,-105.47015992606273,28.550582885742188,4761.76025390625,True
1599385514.8961163,0.0,10,0.5,0.5,-6.990563034439088,-0.05075,-0.00825,-0.001,0.2885454786928348,10,1,100,0.38813436201803375,-10,-1,-100,18997.55271789513,-0.03541612219902323,0.02681088000023844,0.9990129503675098,76.68978499372963,4.717648106094285,461.6698252440729,-105.47015992606273,28.550582885742188,4761.76025390625,True
1599385514.9301999,0.0,10,0.5,0.5,-6.971559761810303,-0.05075,-0.00825,-0.001,0.40374568075932527,10,1,100,0.39792542345204907,-10,-1,-100,18995.439681117423,-0.03550276734564901,0.027849143501178734,0.998981470657515,76.8116155080572,4.725280756211255,463.26696980290836,-105.65183417555667,28.13140869140625,4761.76025390625,True
1599385514.9629111,0.0,10,0.5,0.5,-6.91955725479126,-0.05075,-0.00825,-0.001,0.5424124349281088,10,1,100,0.40832850357687317,-10,-1,-100,18991.202707397635,-0.03567366584535409,0.03004367132799383,0.9989117915903735,77.0298595214725,4.7390333821199935,466.3169553837665,-106.01516885144233,27.073150634765625,4761.76025390625,True
1599385514.9991264,0.0,10,0.5,0.5,-6.809388867187501,-0.05075,-0.00825,-0.001,0.7216560026780248,10,1,100,0.4154793043441301,-10,-1,-100,18984.81999814976,-0.035892035372812166,0.03365756162561782,0.9987887315855214,77.2903773121954,4.755666334158371,470.5070596047616,-106.56014109294982,24.9365234375,4761.76025390625,True
1599385515.0297768,0.0,10,0.5,0.5,-6.764702631378174,-0.05075,-0.00825,-0.001,0.508024920999538,10,1,100,0.3932715277742109,-10,-1,-100,18982.685162158217,-0.035886465704682756,0.034986908365266564,0.9987432491998467,77.35874102968609,4.760101904719936,471.796064842152,-106.74179188719005,24.078475952148438,4761.76025390625,True
1599385515.062759,0.0,10,0.5,0.5,-6.713544527053834,-0.05075,-0.00825,-0.001,0.527687311922848,10,1,100,0.39212907208796166,-10,-1,-100,18980.546693165204,-0.03586914296165044,0.03635990540768549,0.998694829195556,77.41495657710603,4.763803982161456,473.0129627061473,-106.92344006489448,23.147262573242188,4761.76025390625,True
1599385515.0966685,0.0,10,0.5,0.5,-6.65766263961792,-0.05075,-0.00825,-0.001,0.5501266895884153,10,1,100,0.38581383855411644,-10,-1,-100,18978.404591301107,-0.03579426698944421,0.037797098447846594,0.9986441557429813,77.45754526554592,4.7666816524491145,474.14832021289976,-107.10508625950843,22.143203735351562,4761.76025390625,True
1599385515.1327953,0.0,10,0.5,0.5,-6.537380015182495,-0.05075,-0.00825,-0.001,0.7384709002521224,10,1,100,0.3719134216338111,-10,-1,-100,18974.109489011345,-0.035598494568878966,0.040800680082885774,0.998532949726349,77.49207784779995,4.7693707476607345,476.11266778581046,-107.46837447557226,19.915771484375,4761.76025390625,True
1599385515.1627789,0.0,10,0.5,0.5,-6.330453497695923,-0.05075,-0.00825,-0.001,0.9771792652045904,10,1,100,0.32960342377939067,-10,-1,-100,18967.639589236467,-0.03503487510207125,0.045683996086360645,0.9983413895197192,77.40218262701256,4.764854008749309,478.1918710912716,-108.01330525619196,16.027420043945312,4761.76025390625,True
1599385515.1963036,0.0,10,0.5,0.5,-6.248876942443848,-0.05075,-0.00825,-0.001,0.6807076137072783,10,1,100,0.35615663851088347,-10,-1,-100,18965.47569005913,-0.03476396138990136,0.047409337725989195,0.9982704151104872,77.32904312833739,4.76075239100585,478.61783756354475,-108.19495119267168,14.58544921875,4761.76025390625,True
1599385515.230937,0.0,10,0.5,0.5,-6.160405145645142,-0.05075,-0.00825,-0.001,0.7057802560109171,10,1,100,0.34422877206160474,-10,-1,-100,18963.308157884516,-0.03440983392094358,0.049187037366843,0.9981966733487974,77.23122628727633,4.7551723109259525,478.8899084297737,-108.37659945582206,13.07061767578125,4761.76025390625,True
1599385515.265676,0.0,10,0.5,0.5,-5.891322887420655,-0.05075,-0.00825,-0.001,1.1438352063735038,10,1,100,0.2271112288964548,-10,-1,-100,18956.783763029263,-0.03302410972791522,0.054765103718763974,0.9979530006925937,76.75740817101864,4.727645056194941,478.5730644398496,-108.92156704265209,8.088470458984375,4761.76025390625,True
1599385515.2969332,0.0,10,0.5,0.5,-5.689018870544434,-0.05075,-0.00825,-0.001,1.0192884483605598,10,1,100,0.23384753759501797,-10,-1,-100,18952.416000029072,-0.031827852956619766,0.058679360820194836,0.9977693723450853,76.26672032649992,4.698888234857115,477.25403730467383,-109.2849065648354,4.4024658203125,4761.76025390625,True
1599385515.3296945,0.0,10,0.5,0.5,-5.468124431610108,-0.05075,-0.00825,-0.001,1.07039103637431,10,1,100,0.1749886874819472,-10,-1,-100,18948.033702543238,-0.030208762538858472,0.06267631290390044,0.9975766188452109,75.61670645998701,4.66070654923684,474.9151389094579,-109.64827714373263,0.424163818359375,4761.76025390625,True
1599385515.3636353,0.0,10,0.5,0.5,-5.45188003692627,-0.05075,-0.00825,-0.001,0.673597703131578,10,1,100,0.3363294019746813,-10,-1,-100,18948.033702543238,-0.030208762538858472,0.06267631290390044,0.9975766188452109,75.61670645998701,4.66070654923684,474.9151389094579,-109.64827714373263,0.424163818359375,4761.76025390625,True
1599385515.3996081,0.0,10,0.5,0.5,-5.323762560653687,-0.05075,-0.00825,-0.001,0.9004758263539139,10,1,100,0.23534770297940588,-10,-1,-100,18945.83710295707,-0.029295908641779445,0.06471366911088655,0.9974737544251773,75.22174250231969,4.637480706120795,473.2954869419175,-109.8299765063231,-1.6744384765625,4761.76025390625,True
1599385515.4305894,0.0,10,0.5,0.5,-4.833192936706543,-0.05075,-0.00825,-0.001,1.614420245985922,10,1,100,-0.16173996568100735,-10,-1,-100,18937.014359898632,-0.024862129233267364,0.07303043878325291,0.9970197738967436,73.1227021810839,4.5140028922754825,463.44169234339756,-110.55689057223694,-10.79888916015625,4761.76025390625,True
1599385515.4636083,0.0,10,0.5,0.5,-4.815140160751342,-0.05075,-0.00825,-0.001,0.7862666127828268,10,1,100,0.280544761394583,-10,-1,-100,18937.014359898632,-0.024862129233267364,0.07303043878325291,0.9970197738967436,73.1227021810839,4.5140028922754825,463.44169234339756,-110.55689057223694,-10.79888916015625,4761.76025390625,True
1599385515.496649,0.0,10,0.5,0.5,-4.530981077194214,-0.05075,-0.00825,-0.001,1.245692333272244,10,1,100,-0.028043254349257696,-10,-1,-100,18932.581178057706,-0.022066543967719367,0.07717773646161091,0.99677312595795,71.74944770648686,4.433279533664643,456.3853903358214,-110.92042940632156,-15.80023193359375,4761.76025390625,True
1599385515.5337746,0.0,10,0.5,0.5,-4.3745694252014165,-0.05075,-0.00825,-0.001,1.0517187439356064,10,1,100,0.0847459787999332,-10,-1,-100,18930.359133625985,-0.020562248874154154,0.07915598013853489,0.9966501516226973,70.9748942990947,4.3877546069373,452.2733321568727,-111.10222191305648,-18.41192626953125,4761.76025390625,True
1599385515.5646887,0.0,10,0.5,0.5,-4.0684523719787595,-0.05075,-0.00825,-0.001,1.312967895345168,10,1,100,-0.12237105173000182,-10,-1,-100,18925.90413576865,-0.017324736432018865,0.08330051518272312,0.9963738644092658,69.47210035132271,4.300107111824726,444.2912151958718,-111.46585025543742,-23.851654052734375,4761.76025390625,True
1599385515.5973506,0.0,10,0.5,0.5,-3.592480702209473,-0.05075,-0.00825,-0.001,1.532599687252537,10,1,100,-0.4087341336415038,-10,-1,-100,18919.194371016813,-0.011793774464963063,0.08903391471494679,0.9959587686819174,71.46796903739443,4.433413712866349,459.5103693976817,-112.0111518444289,-32.565673828125,4761.76025390625,True
1599385515.6309872,0.0,10,0.5,0.5,-3.5676550529479982,-0.05075,-0.00825,-0.001,0.9626866151297884,10,1,100,0.14223902953778125,-10,-1,-100,18919.194371016813,-0.011793774464963063,0.08903391471494679,0.9959587686819174,71.46796903739443,4.433413712866349,459.5103693976817,-112.0111518444289,-32.565673828125,4761.76025390625,True
1599385515.6660287,0.0,10,0.5,0.5,-3.217469638824463,-0.05075,-0.00825,-0.001,1.3597855211333685,10,1,100,-0.3069215280170077,-10,-1,-100,18914.703022731468,-0.007728709467639214,0.09261630972052956,0.9956718767865825,72.78222317880055,4.522406370517033,469.62240408595153,-112.37454469981567,-38.743194580078125,4761.76025390625,True
1599385515.6970997,0.0,10,0.5,0.5,-3.0257050300598145,-0.05075,-0.00825,-0.001,1.1838745892793097,10,1,100,-0.1321715798796485,-10,-1,-100,18912.451898682863,-0.005642268137749181,0.09424662398437098,0.9955328918111196,73.46091073050526,4.5684973373649616,474.8385100157837,-112.55619728065275,-41.943756103515625,4761.76025390625,True
1599385515.7306478,0.0,10,0.5,0.5,-2.6512946632385255,-0.05075,-0.00825,-0.001,1.3699338931615177,10,1,100,-0.416023734359216,-10,-1,-100,18907.93875345646,-0.0011873623374904537,0.097391475794901,0.9952454423975879,74.66666637885851,4.651570351196345,484.3297923726724,-112.91941923975533,-48.565155029296875,4761.76025390625,True
1599385515.764246,0.0,10,0.5,0.5,-2.2611394775390625,-0.05075,-0.00825,-0.001,1.3558733921752966,10,1,100,-0.47709125896084736,-10,-1,-100,18903.41108257894,0.003392158117028411,0.10009290215306808,0.994972313284086,75.79088969771455,4.729710594083254,493.3402042217865,-113.28253686437975,-55.48480224609375,4761.76025390625,True
1599385515.800352,0.0,10,0.5,0.5,-1.6652423721313476,-0.05075,-0.00825,-0.001,1.4595218781455748,10,1,100,-0.8116998443560703,-10,-1,-100,18896.592348759877,0.010571569045320046,0.1034664010207954,0.9945767671666796,76.97663352438624,4.815210807190638,503.66843559224685,-113.82705422492194,-66.42105102539062,4761.76025390625,True
1599385515.8302364,0.0,10,0.5,0.5,-1.630290337371826,-0.05075,-0.00825,-0.001,1.1252155875965968,10,1,100,-0.09730212135476556,-10,-1,-100,18896.592348759877,0.010571569045320046,0.1034664010207954,0.9945767671666796,76.97663352438624,4.815210807190638,503.66843559224685,-113.82705422492194,-66.42105102539062,4761.76025390625,True
1599385515.8633296,0.0,10,0.5,0.5,-1.1919350372314452,-0.05075,-0.00825,-0.001,1.315199778549715,10,1,100,-0.6264719416746588,-10,-1,-100,18892.028378060437,0.015352532763670858,0.10516963124349722,0.9943357825210994,77.30105507024766,4.842346217221758,507.53577716541406,-114.19000109607575,-74.08468627929688,4761.76025390625,True
1599385515.8974,0.0,10,0.5,0.5,-0.5298306709289551,-0.05075,-0.00825,-0.001,1.3393897804845483,10,1,100,-0.9246136710997829,-10,-1,-100,18885.155201652087,0.022376592973638337,0.10691428268981103,0.994016410449956,76.97545116756876,4.830766262875918,508.00482000885984,-114.7344074687824,-86.1395263671875,4761.76025390625,True
1599385515.934479,0.0,10,0.5,0.5,-0.4904980163574219,-0.05075,-0.00825,-0.001,1.1672860126038764,10,1,100,-0.22617778304360064,-10,-1,-100,18885.155201652087,0.022376592973638337,0.10691428268981103,0.994016410449956,76.97545116756876,4.830766262875918,508.00482000885984,-114.7344074687824,-86.1395263671875,4761.76025390625,True
1599385515.964306,0.0,10,0.5,0.5,0.4357976238250733,-0.05075,-0.00825,-0.001,1.2702507037235509,10,1,100,-1.1605048039856642,-10,-1,-100,18875.94014879933,0.030839411011803822,0.10783407045637637,0.9936904668845598,74.7601796572601,4.701482925647503,496.77124149889113,-115.460443234974,-103.18488311767578,4761.76025390625,True
1599385515.997272,0.0,10,0.5,0.5,0.7037371957778931,-0.05075,-0.00825,-0.001,1.1775176645382026,10,1,100,-0.5464007188197809,-10,-1,-100,18873.62730852433,0.03291136010364917,0.10781012247362222,0.9936265998192432,73.86930076036326,4.647825420236423,491.69034901445,-115.6420080357071,-107.56602478027344,4761.76025390625,True
1599385516.0303817,0.0,10,0.5,0.5,0.7561348890304566,-0.05075,-0.00825,-0.001,1.181431844088927,10,1,100,-0.34326981659237465,-10,-1,-100,18873.62730852433,0.03291136010364917,0.10781012247362222,0.9936265998192432,73.86930076036326,4.647825420236423,491.69034901445,-115.6420080357071,-107.56602478027344,4761.76025390625,True
1599385516.0663464,0.0,10,0.5,0.5,1.4941662984848023,-0.05075,-0.00825,-0.001,1.1346398537225502,10,1,100,-0.9373866620979301,-10,-1,-100,18866.6669938314,0.038277373582571134,0.10737241028984675,0.9934817603661222,70.38246033524393,4.435782223052422,470.88252721590993,-116.18688601345536,-120.7813491821289,4761.76025390625,True
1599385516.097229,0.0,10,0.5,0.5,1.5405293342590332,-0.05075,-0.00825,-0.001,1.179409165549592,10,1,100,-0.4047317877977403,-10,-1,-100,18866.6669938314,0.038277373582571134,0.10737241028984675,0.9934817603661222,70.38246033524393,4.435782223052422,470.88252721590993,-116.18688601345536,-120.7813491821289,4761.76025390625,True
1599385516.1315038,0.0,10,0.5,0.5,2.0407454992294314,-0.05075,-0.00825,-0.001,1.109714817558856,10,1,100,-0.7585448798983171,-10,-1,-100,18862.0086159911,0.04146214240578952,0.10673220757344298,0.9934229344109293,67.50792801115965,4.260035933025787,453.1862782939524,-116.5503073354085,-129.40640258789062,4761.76025390625,True
1599385516.1640244,0.0,10,0.5,0.5,2.5172606145858767,-0.05075,-0.00825,-0.001,1.1035085318320617,10,1,100,-0.7284136578274143,-10,-1,-100,18857.3356979792,0.04405538425047033,0.10609081540960266,0.9933800189274339,66.20405523595898,4.183664710862173,445.93560570432913,-116.91381687989566,-137.7769775390625,4761.76025390625,True
1599385516.2000086,0.0,10,0.5,0.5,2.778845078086853,-0.05075,-0.00825,-0.001,1.1176535710495188,10,1,100,-0.6079390715277936,-10,-1,-100,18854.99378756748,0.045287213492724375,0.10563393705864398,0.9933733133296639,67.23782194170924,4.252134598158982,453.65996354961794,-117.09552359664951,-141.85594177246094,4761.76025390625,True
1599385516.230918,0.0,10,0.5,0.5,3.2412795686721805,-0.05075,-0.00825,-0.001,1.0690827004107784,10,1,100,-0.7116072294581064,-10,-1,-100,18850.299067040207,0.04732228271165903,0.1047766176375883,0.9933692475385899,69.17796314761846,4.381322265938688,468.31316929008796,-117.45882502701896,-149.790283203125,4761.76025390625,True
1599385516.2643497,0.0,10,0.5,0.5,3.6809704362869264,-0.05075,-0.00825,-0.001,1.0674522287783121,10,1,100,-0.6835555811357289,-10,-1,-100,18845.589818413602,0.04889465275345254,0.10398435720819911,0.9933763468032228,70.66564757065312,4.48192518800681,479.9773698251214,-117.82200411967024,-157.42532348632812,4761.76025390625,True
1599385516.2994382,0.0,10,0.5,0.5,4.295750235939026,-0.05075,-0.00825,-0.001,1.0283664530881422,10,1,100,-0.7011595339885409,-10,-1,-100,18838.498713269946,0.05046000867212692,0.10291145878928158,0.9934097941809668,72.45916578627865,4.6045760178596025,494.6068437579015,-118.36659881039651,-168.31622314453125,4761.76025390625,True
1599385516.333921,0.0,10,0.5,0.5,4.338592691802979,-0.05075,-0.00825,-0.001,1.1351640338131854,10,1,100,-0.5465860018871356,-10,-1,-100,18838.498713269946,0.05046000867212692,0.10291145878928158,0.9934097941809668,72.45916578627865,4.6045760178596025,494.6068437579015,-118.36659881039651,-168.31622314453125,4761.76025390625,True
1599385516.3638518,0.0,10,0.5,0.5,4.744933475875856,-0.05075,-0.00825,-0.001,1.080446104837654,10,1,100,-0.6054765468002309,-10,-1,-100,18833.753159484593,0.05097942394536553,0.10241847640194433,0.9934342222944119,73.17722622973265,4.65550583677125,501.1571556138883,-118.7295886602875,-175.19973754882812,4761.76025390625,True
1599385516.3987956,0.0,10,0.5,0.5,-13.331163318634033,-0.05075,-0.00825,-0.001,1.0933676773964154,10,1,100,-0.561948852378058,-10,-1,-100,18826.60760586057,0.051039487822797505,0.10209268093314619,0.9934646723375067,73.63752031917873,4.6919604382770395,506.8038013891535,-119.27403230690199,175.04202270507812,4761.76025390625,True
1599385516.4309573,0.0,10,0.5,0.5,-13.064476297950744,-0.05075,-0.00825,-0.001,1.126595877988624,10,1,100,-0.5395441338374813,-10,-1,-100,18824.218495452078,0.050878810166239304,0.10210337753903768,0.9934718148851475,73.65048452423109,4.695038993818728,507.72661612821446,-119.45551335597183,171.94058227539062,4761.76025390625,True
1599385516.4673355,0.0,10,0.5,0.5,-13.152519632339478,-0.05075,-0.00825,-0.001,1.1362320892178166,10,1,100,-0.5303445405556426,-10,-1,-100,18821.82575546915,0.05063765105172998,0.10220549367625062,0.9934736359654227,73.60217720436829,4.694181562625564,508.2277770704273,-119.63699784123008,168.91539001464844,4761.76025390625,True
1599385516.497825,0.0,10,0.5,0.5,-13.24444172515869,-0.05075,-0.00825,-0.001,1.1440148046404002,10,1,100,-0.5201520259519383,-10,-1,-100,18819.429385561147,0.05031741489791879,0.1023731936811015,0.9934726402742666,73.49952161258274,4.689849159217851,508.3531115231544,-119.81848751817543,165.87734985351562,4761.76025390625,True
1599385516.5317683,0.0,10,0.5,0.5,-13.175368837738038,-0.05075,-0.00825,-0.001,1.1896316885473484,10,1,100,-0.4582230064625855,-10,-1,-100,18814.625755957677,0.049457607280325916,0.10294372683169137,0.9934568607584866,73.10941351171147,4.669453161394885,507.3180154093597,-120.1814895920001,159.64303588867188,4761.76025390625,True
1599385516.5648503,0.0,10,0.5,0.5,-12.920168478775025,-0.05075,-0.00825,-0.001,1.2971738528842631,10,1,100,-0.3497924159359683,-10,-1,-100,18807.393083245493,0.047686440083374415,0.10444249501731498,0.9933870185716807,71.95131487327474,4.602751848123424,501.7451071156088,-120.72607837030677,149.78465270996094,4761.76025390625,True
1599385516.6003993,0.0,10,0.5,0.5,-13.177176184082033,-0.05075,-0.00825,-0.001,1.1472636220598746,10,1,100,-0.5269455513682899,-10,-1,-100,18807.393083245493,0.047686440083374415,0.10444249501731498,0.9933870185716807,71.95131487327474,4.602751848123424,501.7451071156088,-120.72607837030677,149.78465270996094,4761.76025390625,True
