Timestamp,Input Throttle,horizon,dT,dt,Input Roll,Roll P,Roll I,Roll D,Input Pitch,Pitch P,Pitch I,Pitch D,Input Yaw,Yaw P,Yaw I,Yaw D,Altitude,Direction X,Direction Y,Direction Z,Drag X,Drag Y,Drag Z,Vertical Velocity,Roll,Mass,Has Fuel
1599387074.2214847,0.0,10,0.5,0.5,-8.425036552429198,-0.15025,-0.001,-0.2505,-0.0001656308983708284,10,1,100,0.49815947738799404,-10,-1,-100,19349.722301400034,-0.048846391480790195,-0.00017453164016400336,0.9988062873140177,61.07657821965444,3.686300640860784,233.731712417304,-68.66499496113968,-33.922882080078125,4761.76025390625,True
1599387074.2533991,0.0,10,0.5,0.5,-8.429739318847657,-0.15025,-0.001,-0.2505,0.0011484559673868673,10,1,100,0.5108149522964258,-10,-1,-100,19345.580506938393,-0.049005176920248784,-0.00014806595349997335,0.9987985135709245,61.346683885357706,3.704633580061322,236.7083742522742,-69.21235466907828,-33.926513671875,4761.76025390625,True
1599387074.2884479,0.0,10,0.5,0.5,-8.436256381225586,-0.15025,-0.001,-0.2505,-0.0015129192943661312,10,1,100,0.4998369260425917,-10,-1,-100,19345.580506938393,-0.049005176920248784,-0.00014806595349997335,0.9987985135709245,61.346683885357706,3.704633580061322,236.7083742522742,-69.21235466907828,-33.926513671875,4761.76025390625,True
1599387074.321361,0.0,10,0.5,0.5,-8.424081427001953,-0.15025,-0.001,-0.2505,0.010121388206699021,10,1,100,0.5038167356677332,-10,-1,-100,19344.19261067186,-0.04899680684691348,-4.216491625983564e-05,0.9987989342910444,61.43725088743381,3.7107841669032617,237.70680852911423,-69.39480103381108,-33.97088623046875,4761.76025390625,True
1599387074.356266,0.0,10,0.5,0.5,-8.327807438659669,-0.15025,-0.001,-0.2505,0.02377111520376108,10,1,100,0.5076034647869412,-10,-1,-100,19341.405871753115,-0.04897907994783154,0.0001782355129465445,0.998799788726232,61.62770478284588,3.7236522998965818,239.74618959047368,-69.75968299727285,-34.252838134765625,4761.76025390625,True
1599387074.389178,0.0,10,0.5,0.5,-8.176766973876953,-0.15025,-0.001,-0.2505,0.03656915695578052,10,1,100,0.5059810203374713,-10,-1,-100,19338.604538237676,-0.04890368865371838,0.00049478334132257,0.9988033762585633,61.83170030736263,3.7373286472309877,241.84722943378677,-70.12454917612891,-34.81988525390625,4761.76025390625,True
1599387074.420096,0.0,10,0.5,0.5,-7.980033596801757,-0.15025,-0.001,-0.2505,0.055814960136728556,10,1,100,0.4989299253046832,-10,-1,-100,19335.788610585965,-0.048726592350904964,0.0009570661384536456,0.9988116955774374,62.0463043321477,3.7516140654285834,243.9992034605319,-70.48939826886276,-35.67901611328125,4761.76025390625,True
1599387074.4530077,0.0,10,0.5,0.5,-7.98445299987793,-0.15025,-0.001,-0.2505,0.04110711473466258,10,1,100,0.5073185018153609,-10,-1,-100,19334.375174158253,-0.0485975585963072,0.0012427454811554295,0.998817667485987,62.1555550163533,3.7588548979523746,245.08648354197481,-70.67181608277679,-36.21856689453125,4761.76025390625,True
1599387074.4889119,0.0,10,0.5,0.5,-7.604336483764648,-0.15025,-0.001,-0.2505,0.08735345086089184,10,1,100,0.48768978431177296,-10,-1,-100,19331.5373565763,-0.04825763269791633,0.0019217454434126305,0.9988330730311464,62.37238891328666,3.77317957357827,247.26175075582597,-71.03663767617873,-37.51776123046875,4761.76025390625,True
1599387074.5228207,0.0,10,0.5,0.5,-7.630569044494628,-0.15025,-0.001,-0.2505,0.06231879825210028,10,1,100,0.5027941165536046,-10,-1,-100,19330.112975634518,-0.04804205069003409,0.0023096833440725147,0.9988426436272864,62.47727517598102,3.7800930039530574,248.33897496209258,-71.21904148281254,-38.277496337890625,4761.76025390625,True
1599387074.5557332,0.0,10,0.5,0.5,-7.128961761474609,-0.15025,-0.001,-0.2505,0.12080675332095206,10,1,100,0.4720742165889298,-10,-1,-100,19327.253269791603,-0.0475231206371077,0.00319196313316736,0.9988650381188979,62.671904633614474,3.7929135613190086,250.43992655391392,-71.58383524593971,-40.0169677734375,4761.76025390625,True
1599387074.5906408,0.0,10,0.5,0.5,-6.749259335327148,-0.15025,-0.001,-0.2505,0.142159907044959,10,1,100,0.4517561684136364,-10,-1,-100,19324.378972848528,-0.046867859488166214,0.0041850947982233445,0.9988923308988449,62.83391295457764,3.803612581378642,252.41854708561428,-71.94861148075785,-42.05023193359375,4761.76025390625,True
1599387074.6235518,0.0,10,0.5,0.5,-5.814967120361328,-0.15025,-0.001,-0.2505,0.23163200202385326,10,1,100,0.38091818356206897,-10,-1,-100,19320.04017040273,-0.045630128869961595,0.005897385211035348,0.9989409953480654,62.977088408445,3.813269826172489,254.99605958276186,-72.49574766937258,-45.6505126953125,4761.76025390625,True
1599387074.658458,0.0,10,0.5,0.5,-6.715665051269531,-0.15025,-0.001,-0.2505,0.06100750585910643,10,1,100,0.504353740577502,-10,-1,-100,19320.04017040273,-0.045630128869961595,0.005897385211035348,0.9989409953480654,62.977088408445,3.813269826172489,254.99605958276186,-72.49574766937258,-45.6505126953125,4761.76025390625,True
1599387074.6943617,0.0,10,0.5,0.5,-5.60540238494873,-0.15025,-0.001,-0.2505,0.1985673929298959,10,1,100,0.3926325306199898,-10,-1,-100,19317.12939795188,-0.04461754212305417,0.007142530047926802,0.9989786079788756,62.97633842751819,3.813608915795467,256.3286406551978,-72.86049183568129,-48.418060302734375,4761.76025390625,True
1599387074.7252796,0.0,10,0.5,0.5,-5.07011865234375,-0.15025,-0.001,-0.2505,0.2142661647282909,10,1,100,0.3649821215527917,-10,-1,-100,19314.20403586002,-0.0434496063960045,0.00841086483005446,0.9990202145386463,62.871545063246664,3.8074032557361326,257.2362297777616,-73.22523141035003,-51.48016357421875,4761.76025390625,True
1599387074.7621808,0.0,10,0.5,0.5,-5.178004565429688,-0.15025,-0.001,-0.2505,0.16573691609726265,10,1,100,0.4106525641988697,-10,-1,-100,19312.735883565154,-0.042807990742976164,0.009115525024898681,0.9990417324276649,62.77209041479808,3.801355855497744,257.49564269262635,-73.40760168811173,-53.120849609375,4761.76025390625,True
1599387074.797087,0.0,10,0.5,0.5,-4.183538771057129,-0.15025,-0.001,-0.2505,0.24811796566658018,10,1,100,0.31936473780622454,-10,-1,-100,19309.7886369318,-0.041400195001751745,0.010497627053672274,0.9990874955078054,62.4631230059958,3.782410636735343,257.5550953242919,-73.7723477891864,-56.623565673828125,4761.76025390625,True
1599387074.8330688,0.0,10,0.5,0.5,-2.7320641738891602,-0.15025,-0.001,-0.2505,0.33986937588453353,10,1,100,0.1950216398605713,-10,-1,-100,19305.34040989168,-0.03899653194985502,0.012579773644018282,0.9991601572275334,61.67281282814429,3.733796314583909,256.2637923162583,-74.31949875532524,-62.429840087890625,4761.76025390625,True
1599387074.8649843,0.0,10,0.5,0.5,-3.3494750045776365,-0.15025,-0.001,-0.2505,0.2103970754673442,10,1,100,0.33709912868863356,-10,-1,-100,19303.85037192353,-0.038111416438156805,0.013285924151266927,0.9991851701043827,61.30790529230083,3.7113680109216887,255.4001612203161,-74.50189591661147,-64.51235961914062,4761.76025390625,True
1599387074.8998964,0.0,10,0.5,0.5,-2.1105451217651368,-0.15025,-0.001,-0.2505,0.28874945784662986,10,1,100,0.2193407558763216,-10,-1,-100,19300.859351060935,-0.03624526316036639,0.014630195142389025,0.9992358271642042,60.40464264796627,3.655956840149351,252.92455706997944,-74.86671864832682,-68.89907836914062,4761.76025390625,True
1599387074.9347665,0.0,10,0.5,0.5,-2.2830976608276368,-0.15025,-0.001,-0.2505,0.22521546152283145,10,1,100,0.2980068677182689,-10,-1,-100,19299.358368096757,-0.035274159249553474,0.01526427950227529,0.9992610947397649,59.85916420616976,3.6225721533187256,251.27900793037247,-75.04914683979499,-71.20333862304688,4761.76025390625,True
1599387074.9696732,0.0,10,0.5,0.5,-0.922283851623535,-0.15025,-0.001,-0.2505,0.30598631928869413,10,1,100,0.16378786794643804,-10,-1,-100,19296.345455249422,-0.03318170451474201,0.016564928368494235,0.9993120521807205,58.56389737710058,3.5435229175701455,247.0922974641268,-75.41404337754558,-76.03207397460938,4761.76025390625,True
1599387075.008604,0.0,10,0.5,0.5,-1.116744688415527,-0.15025,-0.001,-0.2505,0.24193930464001523,10,1,100,0.25391883119207503,-10,-1,-100,19294.833524964983,-0.03211016208019667,0.017155393074471233,0.9993370952684804,57.80777958525029,3.4975125732859484,244.51996887872787,-75.59651417785678,-78.55758666992188,4761.76025390625,True
1599387075.044507,0.0,10,0.5,0.5,0.3667215103149414,-0.15025,-0.001,-0.2505,0.30927696331797383,10,1,100,0.11215093430868,-10,-1,-100,19291.798714449746,-0.029859524410569833,0.01829410515164682,0.9993866791781222,56.06475865504916,3.3917795391562042,238.34685828259674,-75.96150565015931,-83.82974243164062,4761.76025390625,True
1599387075.0853987,0.0,10,0.5,0.5,1.2763013214111327,-0.15025,-0.001,-0.2505,0.3074136271299184,10,1,100,0.08123400775154366,-10,-1,-100,19288.749302333803,-0.027545843576491907,0.019302220733638926,0.9994341653037528,53.99923542980162,3.2669840608792993,230.72244079480808,-76.32656822813719,-89.3861083984375,4761.76025390625,True
1599387075.122697,0.0,10,0.5,0.5,2.2294599254608154,-0.15025,-0.001,-0.2505,0.30881960521837787,10,1,100,0.04249421892216282,-10,-1,-100,19285.68528575555,-0.02510477543144443,0.02022156983088721,0.9994802841297628,52.633443412790385,3.185083484231937,226.01493793202917,-76.6916858657047,-95.2282485961914,4761.76025390625,True
1599387075.1586013,0.0,10,0.5,0.5,5.455016656494141,-0.15025,-0.001,-0.2505,0.3727914393743085,10,1,100,-0.25502271247518393,-10,-1,-100,19279.51344816503,-0.02019701702807224,0.02162880746179776,0.9995620416917343,56.120195661772804,3.3993110730651144,243.39242841380005,-77.42169020786392,-106.9183349609375,4761.76025390625,True
1599387075.1945472,0.0,10,0.5,0.5,2.531679499053955,-0.15025,-0.001,-0.2505,0.2331807943240662,10,1,100,0.2336328100646673,-10,-1,-100,19279.51344816503,-0.02019701702807224,0.02162880746179776,0.9995620416917343,56.120195661772804,3.3993110730651144,243.39242841380005,-77.42169020786392,-106.9183349609375,4761.76025390625,True
1599387075.2274895,0.0,10,0.5,0.5,4.733906020355224,-0.15025,-0.001,-0.2505,0.29029807222878967,10,1,100,-0.03907847304186299,-10,-1,-100,19276.405633934075,-0.017734914013396313,0.022139829048369992,0.9995975694221381,57.513074418795085,3.4857808419828125,250.66419657399675,-77.78655584869783,-112.40249633789062,4761.76025390625,True
1599387075.2623894,0.0,10,0.5,0.5,5.445729446411132,-0.15025,-0.001,-0.2505,0.2854987731706576,10,1,100,-0.04831825755590702,-10,-1,-100,19273.283227778506,-0.015431164597585761,0.022552715131182545,0.9996265573699882,58.73316982626029,3.5619021629678587,257.23766642887875,-78.15133943703214,-117.59480285644531,4761.76025390625,True
1599387075.2972682,0.0,10,0.5,0.5,5.146285542297362,-0.15025,-0.001,-0.2505,0.2601319408463076,10,1,100,0.04251782892974422,-10,-1,-100,19271.716553720762,-0.014181551459048253,0.02269025625807369,0.9996419538360509,59.2424228109271,3.593840721841526,260.1010347594229,-78.33370388589923,-120.08103942871094,4761.76025390625,True
1599387075.332212,0.0,10,0.5,0.5,6.432324908447265,-0.15025,-0.001,-0.2505,0.27257728859755287,10,1,100,-0.08538024501130415,-10,-1,-100,19268.572264588787,-0.011902004849814175,0.022921682283208053,0.9996664137410352,60.030615363664744,3.6436321924854402,264.84367734010556,-78.69838793509413,-124.83201599121094,4761.76025390625,True
1599387075.366118,0.0,10,0.5,0.5,7.032891994476318,-0.15025,-0.001,-0.2505,0.2649983468037076,10,1,100,-0.10252418279807393,-10,-1,-100,19265.41338950314,-0.009693180952144312,0.023057391240736413,0.9996871505387076,60.54840958144819,3.6767721465569236,268.42067932794345,-79.06302521892205,-129.28817749023438,4761.76025390625,True
1599387075.4060125,0.0,10,0.5,0.5,6.770349052429198,-0.15025,-0.001,-0.2505,0.2546329394994248,10,1,100,-0.00441816260616637,-10,-1,-100,19263.828482736135,-0.00859741121157819,0.023081166591935747,0.9996966261167507,60.71896436582443,3.6878669913184083,269.8247838994985,-79.24533083526526,-131.4058380126953,4761.76025390625,True
1599387075.7441065,0.0,10,0.5,0.5,7.853191199493409,-0.15025,-0.001,-0.2505,0.2531055553380712,10,1,100,-0.12795008227278062,-10,-1,-100,19260.647731700097,-0.006497568644275214,0.02308454336297712,0.9997124013732328,60.90622412623155,3.7004719467363016,271.9569491737901,-79.60992438743465,-135.41970825195312,4761.76025390625,True
1599387075.7790132,0.0,10,0.5,0.5,8.342541862487792,-0.15025,-0.001,-0.2505,0.24760293178681883,10,1,100,-0.1399948002541179,-10,-1,-100,19257.45239709539,-0.004498258215016913,0.0230341508292494,0.9997245588503896,60.92222802676079,3.7023542005897174,273.3290252394759,-79.9745034209571,-139.13829040527344,4761.76025390625,True
1599387075.8138876,0.0,10,0.5,0.5,8.787600537872313,-0.15025,-0.001,-0.2505,0.23696491951947876,10,1,100,-0.15541726054332797,-10,-1,-100,19254.24247963354,-0.0025592322923496634,0.02288907334070442,0.9997347351431167,60.804858623149165,3.6958391911909505,274.1010783638951,-80.33907693051287,-142.5623016357422,4761.76025390625,True
1599387075.8677814,0.0,10,0.5,0.5,9.187029093170167,-0.15025,-0.001,-0.2505,0.23542951574753726,10,1,100,-0.16173580739981658,-10,-1,-100,19251.017978955642,-0.0007550744682620152,0.022742080802392324,0.999741080291955,60.586109880813346,3.6829114676814316,274.40966385373605,-80.70365165118406,-145.6903839111328,4761.76025390625,True
1599387075.911663,0.0,10,0.5,0.5,10.065741567993163,-0.15025,-0.001,-0.2505,0.21898121363370462,10,1,100,-0.2608141066720342,-10,-1,-100,19246.153884764528,0.0017681063265107253,0.022457909136218673,0.9997462258579661,60.13925066457397,3.655937780705862,274.31503360163515,-81.25052533758915,-149.82867431640625,4761.76025390625,True
1599387075.944577,0.0,10,0.5,0.5,9.032842439270018,-0.15025,-0.001,-0.2505,0.24743018825985458,10,1,100,-0.010446329228750875,-10,-1,-100,19246.153884764528,0.0017681063265107253,0.022457909136218673,0.9997462258579661,60.13925066457397,3.655937780705862,274.31503360163515,-81.25052533758915,-149.82867431640625,4761.76025390625,True
1599387075.9784768,0.0,10,0.5,0.5,9.993546218872071,-0.15025,-0.001,-0.2505,0.22566079432844716,10,1,100,-0.1818482621324128,-10,-1,-100,19242.89292556548,0.003310670015703928,0.02226009174229221,0.9997467318174497,59.80194629819553,3.6353872448112354,274.0566315154559,-81.61511902666737,-152.2178955078125,4761.76025390625,True
1599387076.0123563,0.0,10,0.5,0.5,10.236926721191404,-0.15025,-0.001,-0.2505,0.22870734025638198,10,1,100,-0.1851689756985388,-10,-1,-100,19239.617382741068,0.004727286927867301,0.02210834467853645,0.9997444042623478,59.460937211789435,3.614521907429281,273.76767430756877,-81.9797222239664,-154.31063842773438,4761.76025390625,True
1599387076.0423088,0.0,10,0.5,0.5,10.436412783813477,-0.15025,-0.001,-0.2505,0.21706392228407162,10,1,100,-0.1924088542595944,-10,-1,-100,19236.32725532446,0.006065820024227526,0.02186528294592355,0.9997425244677394,59.13655162983422,3.594611528534606,273.5419216864451,-82.3443342051722,-156.10919189453125,4761.76025390625,True
1599387076.0752263,0.0,10,0.5,0.5,10.846669538879395,-0.15025,-0.001,-0.2505,0.21700819003255256,10,1,100,-0.25422450181170525,-10,-1,-100,19231.364717430668,0.007830302361413854,0.021644894812438753,0.9997350573494395,58.708838798393266,3.5682723725587606,273.4530186138807,-82.8912648599323,-158.25045776367188,4761.76025390625,True
1599387076.1091301,0.0,10,0.5,0.5,10.312966900634766,-0.15025,-0.001,-0.2505,0.2389033762030827,10,1,100,-0.07941903945037157,-10,-1,-100,19231.364717430668,0.007830302361413854,0.021644894812438753,0.9997350573494395,58.708838798393266,3.5682723725587606,273.4530186138807,-82.8912648599323,-158.25045776367188,4761.76025390625,True
1599387076.1420102,0.0,10,0.5,0.5,10.739236822509763,-0.15025,-0.001,-0.2505,0.22380419817303582,10,1,100,-0.19627696625111946,-10,-1,-100,19228.03812806157,0.008879621813233663,0.021508938329029725,0.9997292222839202,58.48457574220162,3.554401894023459,273.6643207888029,-83.25589022431679,-159.30844116210938,4761.76025390625,True
1599387076.1769161,0.0,10,0.5,0.5,10.889844871520994,-0.15025,-0.001,-0.2505,0.22155692095880097,10,1,100,-0.24257778972840516,-10,-1,-100,19223.02089664829,0.01024230345556495,0.02136629828989231,0.999719248848051,58.264228415376316,3.540654757483811,274.51131348306836,-83.80282785123933,-160.34054565429688,4761.76025390625,True
1599387076.2118242,0.0,10,0.5,0.5,10.711621063232421,-0.15025,-0.001,-0.2505,0.23301662733842157,10,1,100,-0.1514427084333605,-10,-1,-100,19221.34119371546,0.0106409664497767,0.02134218901690104,0.9997155999587991,58.224817536230454,3.5381446605165574,274.9515533408512,-83.98513861815317,-160.53652954101562,4761.76025390625,True
1599387076.2437375,0.0,10,0.5,0.5,10.712906932067872,-0.15025,-0.001,-0.2505,0.23392043658033346,10,1,100,-0.15346369541548638,-10,-1,-100,19219.6578447622,0.011011399925335764,0.021329760572549532,0.9997118536786498,58.20299400886137,3.5367053939069795,275.4743359880676,-84.16744762942794,-160.65853881835938,4761.76025390625,True
1599387076.2796404,0.0,10,0.5,0.5,10.692207676696777,-0.15025,-0.001,-0.2505,0.23669231236519858,10,1,100,-0.1893954114327881,-10,-1,-100,19216.28020813316,0.011666406600002361,0.02134468644715027,0.9997041058820936,58.2144954967988,3.5371842716995685,276.7811208894488,-84.53205890431516,-160.68045043945312,4761.76025390625,True
1599387076.3205676,0.0,10,0.5,0.5,10.578327869415283,-0.15025,-0.001,-0.2505,0.23671401647012935,10,1,100,-0.1856641172132585,-10,-1,-100,19212.887987748138,0.01221894790200037,0.021359464754731283,0.9996971894416626,58.30041225778663,3.542192993273155,278.4443238299767,-84.89665795619305,-160.4072723388672,4761.76025390625,True
1599387076.355437,0.0,10,0.5,0.5,10.548374929809569,-0.15025,-0.001,-0.2505,0.23805700460682527,10,1,100,-0.1570017854529683,-10,-1,-100,19211.18640868517,0.01245259308973565,0.021385927314672676,0.9996937406217131,58.37019522760185,3.546330285855584,279.4058906779811,-85.07895178425149,-160.15972900390625,4761.76025390625,True
1599387076.3973582,0.0,10,0.5,0.5,10.135616935729981,-0.15025,-0.001,-0.2505,0.25113635978936144,10,1,100,-0.1922604767104511,-10,-1,-100,19206.059796791873,0.012978508357143143,0.021529544159336875,0.9996839685866303,58.68225137116977,3.5649963396663704,282.7951728923857,-85.62580514406486,-158.97357177734375,4761.76025390625,True
1599387076.4342656,0.0,10,0.5,0.5,10.215404342651366,-0.15025,-0.001,-0.2505,0.2434417091831576,10,1,100,-0.1535140917356065,-10,-1,-100,19204.343635072117,0.013098089020166898,0.021590458775144827,0.9996810952268221,58.81857609696012,3.5731873399044973,284.08562879816503,-85.80807877220371,-158.43051147460938,4761.76025390625,True
1599387076.4711642,0.0,10,0.5,0.5,9.185262756347655,-0.15025,-0.001,-0.2505,0.27079650786397436,10,1,100,-0.16286434121699203,-10,-1,-100,19197.44253614999,0.01328701208487495,0.021894565173920657,0.999671987866871,59.49802165298128,3.6141598957369574,289.93123140455657,-86.53710892108516,-155.52047729492188,4761.76025390625,True
1599387076.5050728,0.0,10,0.5,0.5,9.548535557556153,-0.15025,-0.001,-0.2505,0.24976061131797758,10,1,100,-0.14209264649774955,-10,-1,-100,19195.708149091108,0.013264966091958737,0.02197956314024282,0.9996704154263761,59.69515902918437,3.6260836065083257,291.53514283492325,-86.71934882075331,-154.608642578125,4761.76025390625,True
1599387076.54194,0.0,10,0.5,0.5,8.957026652526855,-0.15025,-0.001,-0.2505,0.26159101066592205,10,1,100,-0.1293388799182672,-10,-1,-100,19192.22844116285,0.013124994271058954,0.022163955262961364,0.9996681917578882,60.11034887017378,3.6512478871856864,294.85845435043746,-87.08380582776566,-152.5638427734375,4761.76025390625,True
1599387076.5778763,0.0,10,0.5,0.5,9.468471333312987,-0.15025,-0.001,-0.2505,0.24323156409137475,10,1,100,-0.1436243310897949,-10,-1,-100,19192.22844116285,0.013124994271058954,0.022163955262961364,0.9996681917578882,60.11034887017378,3.6512478871856864,294.85845435043746,-87.08380582776566,-152.5638427734375,4761.76025390625,True
1599387076.61378,0.0,10,0.5,0.5,8.53017124557495,-0.15025,-0.001,-0.2505,0.2643185957546464,10,1,100,-0.11629066352283228,-10,-1,-100,19188.73415578704,0.01287424817697631,0.022354908490585596,0.9996672005223816,60.54057612140748,3.677410590679888,298.2739321481782,-87.44823130160444,-150.22447204589844,4761.76025390625,True
1599387076.6496894,0.0,10,0.5,0.5,7.4877782066345215,-0.15025,-0.001,-0.2505,0.27605502428021345,10,1,100,-0.07577625156923862,-10,-1,-100,19183.465398104745,0.012276290848003382,0.022634265186005476,0.99966843639404,61.17296358936535,3.7161024721284153,303.3680531128433,-87.99481055350739,-146.16368103027344,4761.76025390625,True
1599387076.6901174,0.0,10,0.5,0.5,8.503554679107665,-0.15025,-0.001,-0.2505,0.24824831261211106,10,1,100,-0.13563297289133155,-10,-1,-100,19183.465398104745,0.012276290848003382,0.022634265186005476,0.99966843639404,61.17296358936535,3.7161024721284153,303.3680531128433,-87.99481055350739,-146.16368103027344,4761.76025390625,True
1599387076.7240472,0.0,10,0.5,0.5,7.2699414772033695,-0.15025,-0.001,-0.2505,0.2670800838342108,10,1,100,-0.07619277936846418,-10,-1,-100,19179.934674983844,0.011735873322390039,0.022804304196723406,0.9996710623937576,61.554741749687956,3.739693687325127,306.58888044365256,-88.35915955320432,-143.08897399902344,4761.76025390625,True
1599387076.7609313,0.0,10,0.5,0.5,6.688687339782715,-0.15025,-0.001,-0.2505,0.26409998239086796,10,1,100,-0.05921725285346349,-10,-1,-100,19176.38937878597,0.011090913257848218,0.022930503850725634,0.9996755391807177,61.87588401344963,3.7598233219144195,309.52324519493436,-88.7234825287085,-139.72088623046875,4761.76025390625,True
1599387076.7948782,0.0,10,0.5,0.5,6.062914414978026,-0.15025,-0.001,-0.2505,0.2650859368222163,10,1,100,-0.03971695688138835,-10,-1,-100,19172.829510209267,0.01032902650406342,0.0230529204312932,0.9996808861186988,62.108843896591694,3.7748562970647765,312.0290257799511,-89.08778491453708,-136.05886840820312,4761.76025390625,True
1599387076.8297853,0.0,10,0.5,0.5,5.393174145507812,-0.15025,-0.001,-0.2505,0.25850089544588695,10,1,100,-0.021835043696236664,-10,-1,-100,19169.25506988482,0.009476356664863227,0.023103014708700586,0.9996881760707835,62.22459386986555,3.7830566214787167,313.95431722125886,-89.45207381104309,-132.10418701171875,4761.76025390625,True
1599387076.8617,0.0,10,0.5,0.5,4.6792282951354975,-0.15025,-0.001,-0.2505,0.2536444606575466,10,1,100,-0.002580871054486733,-10,-1,-100,19165.666058002622,0.008529628564683518,0.023103306963236224,0.9996966953250926,62.190295378046486,3.7824365432004763,315.12546177695134,-89.81635880938634,-127.85652160644531,4761.76025390625,True
1599387076.8964338,0.0,10,0.5,0.5,4.84550380859375,-0.15025,-0.001,-0.2505,0.25084425946218375,10,1,100,-0.041365217179682515,-10,-1,-100,19163.866087886738,0.008025856472501267,0.023077094689380784,0.9997014721048378,62.10636312724839,3.778174289976696,315.371911604827,-89.9985032763945,-125.62298583984375,4761.76025390625,True
1599387076.9313345,0.0,10,0.5,0.5,3.524244256973266,-0.15025,-0.001,-0.2505,0.2417321518627843,10,1,100,0.025861133812063578,-10,-1,-100,19160.255218361737,0.006961368777682036,0.02296959788094819,0.9997119269659277,61.78307380633793,3.7603848078947384,315.06811205475236,-90.36280417206908,-120.93660736083984,4761.76025390625,True
1599387076.9622471,0.0,10,0.5,0.5,2.699848630905151,-0.15025,-0.001,-0.2505,0.2315307544366887,10,1,100,0.043531461244134956,-10,-1,-100,19156.629776334972,0.005838616647094247,0.022778401130664976,0.9997234892696975,61.22290403952199,3.7283648048448157,313.53929669304813,-90.72713295544867,-115.95801544189453,4761.76025390625,True
1599387076.9971607,0.0,10,0.5,0.5,2.902059321975708,-0.15025,-0.001,-0.2505,0.23710478255857823,10,1,100,-0.0029968326690089503,-10,-1,-100,19154.811589967925,0.005247313410797458,0.022654873892751885,0.9997295746304959,60.8428687090573,3.706302291764713,312.253713172176,-90.90931246979682,-113.35913848876953,4761.76025390625,True
1599387077.0320709,0.0,10,0.5,0.5,0.24989928054809551,-0.15025,-0.001,-0.2505,0.19236423367895045,10,1,100,0.1373401124406387,-10,-1,-100,19149.335166810197,0.003440364583564676,0.022135825406009963,0.999749053075384,59.43984518438554,3.6239994907125728,306.9933652707866,-91.45592875947202,-105.12483215332031,4761.76025390625,True
1599387077.0649772,0.0,10,0.5,0.5,1.1500558765411377,-0.15025,-0.001,-0.2505,0.2201203541002188,10,1,100,0.025180992752311053,-10,-1,-100,19147.502403543913,0.0028253448525782524,0.021916744639874287,0.9997558070503288,58.85828508144647,3.589518046845001,304.63140740114216,-91.63816371705931,-102.23416900634766,4761.76025390625,True
1599387077.1018898,0.0,10,0.5,0.5,0.6824218082427979,-0.15025,-0.001,-0.2505,0.21525982244572273,10,1,100,0.033960489166808445,-10,-1,-100,19145.665994936833,0.0021945228828859015,0.021674200527943572,0.9997626783896222,58.2129229560376,3.5510532019060634,301.92645415227724,-91.82041570162365,-99.27057647705078,4761.76025390625,True
1599387077.137799,0.0,10,0.5,0.5,-1.0289083866119386,-0.15025,-0.001,-0.2505,0.17851451886222952,10,1,100,0.10720798730157426,-10,-1,-100,19141.982241627527,0.0009632496459176772,0.02112079976026824,0.9997764670003022,56.8294027593693,3.468094955970825,295.99250621103147,-92.18497048866888,-93.15787506103516,4761.76025390625,True
1599387077.174893,0.0,10,0.5,0.5,-2.0423320137023926,-0.15025,-0.001,-0.2505,0.16206601854116384,10,1,100,0.12295622864930303,-10,-1,-100,19138.28390454757,-0.00029074114825265577,0.020469932805527363,0.9997904266997768,56.87755355850912,3.4719227781304225,297.48760855839475,-92.54956088864452,-86.81884765625,4761.76025390625,True
1599387077.211306,0.0,10,0.5,0.5,-5.706731462097167,-0.15025,-0.001,-0.2505,0.05693746070085423,10,1,100,0.2625949986873416,-10,-1,-100,19130.84349451738,-0.0026912969634686583,0.018924915122581182,0.9998172855618458,61.66189094168295,3.7642932004080545,325.2099220646728,-93.27839883336492,-73.72390747070312,4761.76025390625,True
1599387077.2432194,0.0,10,0.5,0.5,-2.4318622070312497,-0.15025,-0.001,-0.2505,0.21102138981140686,10,1,100,0.023661509718556562,-10,-1,-100,19130.84349451738,-0.0026912969634686583,0.018924915122581182,0.9998172855618458,61.66189094168295,3.7642932004080545,325.2099220646728,-93.27839883336492,-73.72390747070312,4761.76025390625,True
1599387077.2781262,0.0,10,0.5,0.5,-3.7064566024780277,-0.15025,-0.001,-0.2505,0.16361543390869218,10,1,100,0.08781529004142545,-10,-1,-100,19128.974283723743,-0.003264770281462039,0.018497726595799048,0.9998235721295015,62.649828502536664,3.82449702115729,331.10546413154685,-93.4605351297727,-70.55633544921875,4761.76025390625,True
1599387077.3140304,0.0,10,0.5,0.5,-5.3704224327087395,-0.15025,-0.001,-0.2505,0.11065939303263572,10,1,100,0.15108569266363903,-10,-1,-100,19125.224936030223,-0.004351998649786014,0.01763202017374673,0.9998350723856135,64.32820212917989,3.9267126092637996,341.381818542315,-93.82473149541028,-64.43679809570312,4761.76025390625,True
1599387077.3459456,0.0,10,0.5,0.5,-6.176001235961914,-0.15025,-0.001,-0.2505,0.08785177327393749,10,1,100,0.1614575222945263,-10,-1,-100,19121.46102314815,-0.005425413240091439,0.016642350865853656,0.9998467867872717,65.62721287734237,4.005904375020284,349.7091824684925,-94.1888412482066,-58.614288330078125,4761.76025390625,True
1599387077.381852,0.0,10,0.5,0.5,-6.9372740074157715,-0.15025,-0.001,-0.2505,0.07807960796858826,10,1,100,0.16318153451816828,-10,-1,-100,19117.682547914097,-0.006407215045446854,0.015659279558653958,0.9998568570345785,66.58060786088033,4.064301396609815,356.2436668088623,-94.55288398180778,-53.08880615234375,4761.76025390625,True
1599387077.4212558,0.0,10,0.5,0.5,-6.6208063453674315,-0.15025,-0.001,-0.2505,0.12168637292092513,10,1,100,0.11735995784588482,-10,-1,-100,19115.78784998937,-0.00687425000817737,0.015167891275173073,0.9998613302658972,66.93947690585075,4.086455903205673,358.8948322024688,-94.73488631861063,-50.4376220703125,4761.76025390625,True
1599387077.4571602,0.0,10,0.5,0.5,-7.997326568603516,-0.15025,-0.001,-0.2505,0.060395030339653266,10,1,100,0.17013506730645478,-10,-1,-100,19111.98753503035,-0.0077697831558823345,0.014170115951601343,0.9998694106150205,67.44588407953135,4.118195894147915,363.0835030455095,-95.098864031517,-45.358489990234375,4761.76025390625,True
1599387077.492575,0.0,10,0.5,0.5,-8.646652347564697,-0.15025,-0.001,-0.2505,0.0494439799807742,10,1,100,0.17362666541477034,-10,-1,-100,19108.172661457094,-0.008606587540199927,0.013170314367433909,0.9998762270753195,67.7037086121123,4.135204658745896,365.9518583444345,-95.4628203481491,-40.576812744140625,4761.76025390625,True
1599387077.5244899,0.0,10,0.5,0.5,-9.251164665222166,-0.15025,-0.001,-0.2505,0.03736019213043007,10,1,100,0.1759975141879817,-10,-1,-100,19104.343230122817,-0.009380172117348644,0.01215877893354478,0.9998820812805348,67.7525263323815,4.139856641099285,367.6989405684713,-95.82676972025143,-36.092559814453125,4761.76025390625,True
1599387077.5583994,0.0,10,0.5,0.5,-8.98694720916748,-0.15025,-0.001,-0.2505,0.08497246564720407,10,1,100,0.14022802743648607,-10,-1,-100,19102.423055085004,-0.009749990552498339,0.011679595710954411,0.999884255665752,67.71073885515155,4.138269306220814,368.2141013407365,-96.00874574222564,-33.961517333984375,4761.76025390625,True
1599387077.594813,0.0,10,0.5,0.5,-10.075910592651367,-0.15025,-0.001,-0.2505,0.028073787969211353,10,1,100,0.1811733057012666,-10,-1,-100,19098.571786331828,-0.010452001938142403,0.01073330054735562,0.9998877696595979,67.51850627348551,4.1286588911397715,368.65020014027175,-96.37270638141781,-29.92205810546875,4761.76025390625,True
1599387077.6257308,0.0,10,0.5,0.5,-10.5683691696167,-0.15025,-0.001,-0.2505,0.02170955642715705,10,1,100,0.18444610558098945,-10,-1,-100,19094.70595859585,-0.01111289164674842,0.009822622488770067,0.9998900038137648,67.21101697173765,4.112194215249187,368.44857784508866,-96.73668458849522,-26.179168701171875,4761.76025390625,True
1599387077.661635,0.0,10,0.5,0.5,-11.662407846069335,-0.15025,-0.001,-0.2505,-0.03139087652507025,10,1,100,0.21920622282789531,-10,-1,-100,19088.879917252692,-0.012022566882848229,0.008519888594223889,0.9998914287980918,66.60633338419755,4.07887581079056,367.33459191097836,-97.28269508194981,-21.12066650390625,4761.76025390625,True
1599387077.7020884,0.0,10,0.5,0.5,-10.399584658813476,-0.15025,-0.001,-0.2505,0.09797129977159535,10,1,100,0.1290057560412207,-10,-1,-100,19088.879917252692,-0.012022566882848229,0.008519888594223889,0.9998914287980918,66.60633338419755,4.07887581079056,367.33459191097836,-97.28269508194981,-21.12066650390625,4761.76025390625,True
1599387077.738029,0.0,10,0.5,0.5,-12.691282888793944,-0.15025,-0.001,-0.2505,-0.06937816585449685,10,1,100,0.25579245227373004,-10,-1,-100,19081.060896655545,-0.013169175799832171,0.007005913872415441,0.9998887388002555,65.68586025138735,4.027335086249963,365.1609004641083,-98.01079851269193,-15.4114990234375,4761.76025390625,True
1599387077.772936,0.0,10,0.5,0.5,-12.230823202514648,-0.15025,-0.001,-0.2505,0.0029960843593402203,10,1,100,0.19783699358546458,-10,-1,-100,19077.129541896982,-0.013678532499238446,0.006295387641521042,0.9998866264947792,65.2998790273385,4.005945592252095,364.4614551593949,-98.37488518421667,-13.001220703125,4761.76025390625,True
1599387077.80884,0.0,10,0.5,0.5,-12.069564942932129,-0.15025,-0.001,-0.2505,0.04120343081279916,10,1,100,0.17879862980975814,-10,-1,-100,19075.158403206035,-0.013962322298473127,0.006004860129951809,0.9998844909342544,65.12562010975824,3.996344710323222,364.2108709059854,-98.55693531196358,-11.906341552734375,4761.76025390625,True
1599387077.8447444,0.0,10,0.5,0.5,-11.798642930603028,-0.15025,-0.001,-0.2505,0.06943965638755757,10,1,100,0.15103890380054907,-10,-1,-100,19075.158403206035,-0.013962322298473127,0.006004860129951809,0.9998844909342544,65.12562010975824,3.996344710323222,364.2108709059854,-98.55693531196358,-11.906341552734375,4761.76025390625,True
1599387077.8796868,0.0,10,0.5,0.5,-13.260099089050291,-0.15025,-0.001,-0.2505,-0.049793831011427515,10,1,100,0.2668675407727855,-10,-1,-100,19067.237436663127,-0.015010441057531392,0.004927433384722383,0.9998751957416973,64.64894247209871,3.9710799667988286,364.4167870557973,-99.28516607317104,-8.266693115234375,4761.76025390625,True
1599387077.914557,0.0,10,0.5,0.5,-12.351149742126465,-0.15025,-0.001,-0.2505,0.057225708956632856,10,1,100,0.16261869176097732,-10,-1,-100,19067.237436663127,-0.015010441057531392,0.004927433384722383,0.9998751957416973,64.64894247209871,3.9710799667988286,364.4167870557973,-99.28516607317104,-8.266693115234375,4761.76025390625,True
1599387077.9464715,0.0,10,0.5,0.5,-13.13702110443115,-0.15025,-0.001,-0.2505,-0.012442312961793316,10,1,100,0.2480742912132729,-10,-1,-100,19061.25847880775,-0.015782527915729504,0.004300226060305992,0.9998662009831213,64.45341838177748,3.961704597707904,365.46643166717024,-99.83135458018792,-6.312103271484375,4761.76025390625,True
1599387077.9833755,0.0,10,0.5,0.5,-13.024102947998047,-0.15025,-0.001,-0.2505,0.013103585856379517,10,1,100,0.2275353658075268,-10,-1,-100,19057.254300565342,-0.01629286162315047,0.003968121276899071,0.9998593884510265,64.40140902534577,3.960124016628282,366.60682515409485,-100.19548050915122,-5.37799072265625,4761.76025390625,True
1599387078.0182805,0.0,10,0.5,0.5,-12.792187872314454,-0.15025,-0.001,-0.2505,0.04572861407588448,10,1,100,0.1770199920630703,-10,-1,-100,19057.254300565342,-0.01629286162315047,0.003968121276899071,0.9998593884510265,64.40140902534577,3.960124016628282,366.60682515409485,-100.19548050915122,-5.37799072265625,4761.76025390625,True
1599387078.0541842,0.0,10,0.5,0.5,-13.050040101623534,-0.15025,-0.001,-0.2505,0.019361639156157132,10,1,100,0.23497426626677037,-10,-1,-100,19053.23555755487,-0.01681583657523838,0.003732559475190027,0.9998516368142021,64.42237747384391,3.9629464726148695,368.1634051962188,-100.55960176349777,-4.738494873046875,4761.76025390625,True
1599387078.087097,0.0,10,0.5,0.5,-13.029572628784178,-0.15025,-0.001,-0.2505,0.024068794881510445,10,1,100,0.24002487293442726,-10,-1,-100,19049.202249910217,-0.017332825438031184,0.0035655568248841385,0.9998434177244271,64.52137916863366,3.9705171728304482,370.17000309333974,-100.92371406295217,-4.3939208984375,4761.76025390625,True
1599387078.1220026,0.0,10,0.5,0.5,-12.96906304321289,-0.15025,-0.001,-0.2505,0.03346336087994533,10,1,100,0.21673726731183549,-10,-1,-100,19047.18013449514,-0.01758732467160272,0.003502268976453222,0.999839197132675,64.60146134993153,3.976175903503046,371.35125950045705,-101.10576546621579,-4.332275390625,4761.76025390625,True
1599387078.1589034,0.0,10,0.5,0.5,-12.7584421295166,-0.15025,-0.001,-0.2505,0.037857420011539834,10,1,100,0.30530793831349035,-10,-1,-100,19039.05526430381,-0.018620322081980646,0.003487219759680582,0.9998205453499698,65.13136927555733,4.011766546271909,377.31154067382033,-101.83392523461097,-4.82147216796875,4761.76025390625,True
1599387078.1928134,0.0,10,0.5,0.5,-12.60663129119873,-0.15025,-0.001,-0.2505,0.05049509997269817,10,1,100,0.2584236771672091,-10,-1,-100,19034.970985786407,-0.019128955535736653,0.0035907154171435046,0.9998105769709105,65.5202866096566,4.037296646385214,381.0322461683391,-102.19796959248606,-5.507843017578125,4761.76025390625,True
1599387078.225725,0.0,10,0.5,0.5,-12.597580505371093,-0.15025,-0.001,-0.2505,0.05133493323220803,10,1,100,0.23555829117562976,-10,-1,-100,19032.92338618182,-0.019378785499921152,0.003694631903298804,0.9998053872467617,65.74476471294759,4.0519533588535115,383.0744892626614,-102.3799807793,-5.9610595703125,4761.76025390625,True
1599387078.2606316,0.0,10,0.5,0.5,-12.711341815185547,-0.15025,-0.001,-0.2505,0.04082000446853572,10,1,100,0.2110121292014188,-10,-1,-100,19032.92338618182,-0.019378785499921152,0.003694631903298804,0.9998053872467617,65.74476471294759,4.0519533588535115,383.0744892626614,-102.3799807793,-5.9610595703125,4761.76025390625,True
1599387078.2965348,0.0,10,0.5,0.5,-12.25984807434082,-0.15025,-0.001,-0.2505,0.06908709848603492,10,1,100,0.2655360617033215,-10,-1,-100,19028.81726664724,-0.01987048639135446,0.0039527262138955455,0.9997947487989967,66.24868186052058,4.084761428815164,387.4963774046264,-102.74397833161262,-7.0882568359375,4761.76025390625,True
1599387078.3304448,0.0,10,0.5,0.5,-11.97253710632324,-0.15025,-0.001,-0.2505,0.07995343944677097,10,1,100,0.26948439250164513,-10,-1,-100,19024.69658851088,-0.02034966479220984,0.004286458232123284,0.9997837353241295,66.82101631222474,4.121959466520164,392.3436087787513,-103.10793904575478,-8.50958251953125,4761.76025390625,True
1599387078.3633614,0.0,10,0.5,0.5,-11.253097123718263,-0.15025,-0.001,-0.2505,0.12040064749996938,10,1,100,0.29733244937482267,-10,-1,-100,19018.488276812714,-0.021034757670771745,0.004957263470127374,0.9997664549826722,67.79088586162213,4.185011426899871,400.32188759210317,-103.65380119342444,-11.192474365234375,4761.76025390625,True
1599387078.4002633,0.0,10,0.5,0.5,-11.924580082702636,-0.15025,-0.001,-0.2505,0.053419037918883264,10,1,100,0.22929735112339425,-10,-1,-100,19018.488276812714,-0.021034757670771745,0.004957263470127374,0.9997664549826722,67.79088586162213,4.185011426899871,400.32188759210317,-103.65380119342444,-11.192474365234375,4761.76025390625,True
1599387078.4351692,0.0,10,0.5,0.5,-10.078598831176757,-0.15025,-0.001,-0.2505,0.18732975067115876,10,1,100,0.31533530952656685,-10,-1,-100,19010.159589025658,-0.021813085546168284,0.006173520218789026,0.9997430054504326,69.35401537848021,4.286559168342091,412.669574097656,-104.38144335130045,-15.79718017578125,4761.76025390625,True
1599387078.4710739,0.0,10,0.5,0.5,-10.696037324523926,-0.15025,-0.001,-0.2505,0.10438703607819991,10,1,100,0.25817692446862417,-10,-1,-100,19008.06832241395,-0.021996961695903716,0.006522812618187352,0.9997367586478437,69.79452579490889,4.315165274285295,416.0750403179047,-104.56331759965913,-17.131927490234375,4761.76025390625,True
1599387078.520943,0.0,10,0.5,0.5,-10.464835308837891,-0.15025,-0.001,-0.2505,0.11083742561445528,10,1,100,0.2589041719885963,-10,-1,-100,19005.973418803536,-0.022166724412186308,0.006896245119204758,0.9997305027516615,70.27322743719219,4.346187272185342,419.7184933144019,-104.74517531627733,-18.53997802734375,4761.76025390625,True
1599387078.5558465,0.0,10,0.5,0.5,-10.222564288330076,-0.15025,-0.001,-0.2505,0.11828449822505317,10,1,100,0.25536925164575525,-10,-1,-100,19003.8748785113,-0.02228569451266265,0.007300330757171903,0.999724988679849,70.75557825117166,4.377485116463942,423.3944904732524,-104.9270162463476,-20.021240234375,4761.76025390625,True
1599387078.5907543,0.0,10,0.5,0.5,-9.3167352935791,-0.15025,-0.001,-0.2505,0.17258091139556936,10,1,100,0.2684827493985846,-10,-1,-100,18999.666888614534,-0.02251019300268784,0.008157912715655793,0.9997133287453488,71.71395395258752,4.439811517629948,430.7407201443444,-105.2906469910498,-23.203857421875,4761.76025390625,True
1599387078.6276882,0.0,10,0.5,0.5,-8.719293255615232,-0.15025,-0.001,-0.2505,0.18966341701309247,10,1,100,0.2646136290386362,-10,-1,-100,18995.444355547428,-0.022676261983526878,0.009088770655516488,0.9997015461578651,72.64297931409044,4.500419345573385,437.95246580095375,-105.65420940779934,-26.67974853515625,4761.76025390625,True
1599387078.66356,0.0,10,0.5,0.5,-8.077463681030272,-0.15025,-0.001,-0.2505,0.206993410560191,10,1,100,0.25747241090824796,-10,-1,-100,18991.207281875657,-0.02275931591357374,0.010087646779679636,0.999690078435109,73.51498805598261,4.557495733944819,444.860147306693,-106.01770495968854,-30.4488525390625,4761.76025390625,True
1599387078.6954737,0.0,10,0.5,0.5,-7.39129021911621,-0.15025,-0.001,-0.2505,0.22343505827594848,10,1,100,0.2473877644021571,-10,-1,-100,18986.955670394935,-0.022740514673086226,0.01113960830763867,0.9996793376474055,74.29653153180757,4.608845924846601,451.25670116113025,-106.38113783285482,-34.51123046875,4761.76025390625,True
1599387078.7298913,0.0,10,0.5,0.5,-5.7439601043701165,-0.15025,-0.001,-0.2505,0.3008028434995603,10,1,100,0.2267431695663234,-10,-1,-100,18980.550999487285,-0.022533571001516473,0.01279305033502016,0.9996642316503304,75.21409390010328,4.669557713990835,459.3602222136566,-106.9261860961497,-41.1546630859375,4761.76025390625,True
1599387078.7657952,0.0,10,0.5,0.5,-7.405143756103515,-0.15025,-0.001,-0.2505,0.13624221944790071,10,1,100,0.2475874180563731,-10,-1,-100,18980.550999487285,-0.022533571001516473,0.01279305033502016,0.9996642316503304,75.21409390010328,4.669557713990835,459.3602222136566,-106.9261860961497,-41.1546630859375,4761.76025390625,True
1599387078.8007016,0.0,10,0.5,0.5,-5.480289077758789,-0.15025,-0.001,-0.2505,0.2608653623908961,10,1,100,0.21728935815964476,-10,-1,-100,18976.26305235282,-0.022256771535790993,0.013918864555533851,0.9996553912875616,75.59599972878468,4.695242752378049,463.3880065834929,-107.28950088977209,-45.9503173828125,4761.76025390625,True
1599387078.8326156,0.0,10,0.5,0.5,-4.638977041625976,-0.15025,-0.001,-0.2505,0.2702325164188232,10,1,100,0.20017321955097836,-10,-1,-100,18971.960573377204,-0.021849131046880296,0.015020446752312231,0.9996484390283702,75.74268553824724,4.705787257596749,465.98639407571073,-107.6527930143349,-51.039794921875,4761.76025390625,True
1599387078.8675227,0.0,10,0.5,0.5,-4.8467909057617184,-0.15025,-0.001,-0.2505,0.2247470990395574,10,1,100,0.2158846564070961,-10,-1,-100,18969.803884614143,-0.021621514419879844,0.015600656196722774,0.999644501630666,75.71309704372082,4.704450757575547,466.65413770715753,-107.83443642738176,-53.694091796875,4761.76025390625,True
1599387078.9039683,0.0,10,0.5,0.5,-2.1402038085937503,-0.15025,-0.001,-0.2505,0.34708140362025586,10,1,100,0.1407665207066554,-10,-1,-100,18963.31202020857,-0.02073219371623207,0.017232336268668238,0.9996365453155643,75.15150175525213,4.670247254423358,465.7266649271721,-108.37938898403826,-62.0982666015625,4761.76025390625,True
1599387078.9368806,0.0,10,0.5,0.5,-3.0597460678100585,-0.15025,-0.001,-0.2505,0.24216468519761478,10,1,100,0.19112026857608733,-10,-1,-100,18961.140799043,-0.02038289396699841,0.01775286434340238,0.9996346199692839,74.78779638994662,4.647651753939985,464.31483536906603,-108.56105722969997,-65.04647827148438,4761.76025390625,True
1599387078.971787,0.0,10,0.5,0.5,-2.5832534255981447,-0.15025,-0.001,-0.2505,0.24817991577724707,10,1,100,0.18465914552175844,-10,-1,-100,18958.965944162686,-0.02000854516632454,0.018272032915132123,0.9996328280591207,74.32672622945753,4.618930136154842,462.2902050388309,-108.74273919018239,-68.06790161132812,4761.76025390625,True
1599387079.0066936,0.0,10,0.5,0.5,1.80191806640625,-0.15025,-0.001,-0.2505,0.4010210937441546,10,1,100,0.03178246306977192,-10,-1,-100,18950.230180257116,-0.0182808652496186,0.020125121177985945,0.999630326402364,71.41549412923841,4.437668610522257,447.4140579029891,-109.46966695878864,-80.88861083984375,4761.76025390625,True
1599387079.0495794,0.0,10,0.5,0.5,-1.4046256195068358,-0.15025,-0.001,-0.2505,0.2167160148986031,10,1,100,0.2041026096739704,-10,-1,-100,18950.230180257116,-0.0182808652496186,0.020125121177985945,0.999630326402364,71.41549412923841,4.437668610522257,447.4140579029891,-109.46966695878864,-80.88861083984375,4761.76025390625,True
1599387079.0854828,0.0,10,0.5,0.5,1.3455311920166015,-0.15025,-0.001,-0.2505,0.30527669950510905,10,1,100,0.09524411940496562,-10,-1,-100,18945.8404850933,-0.017295296837558073,0.02092204966270841,0.9996315023773571,69.26446717899056,4.304338339674344,435.5107599600036,-109.83329069484012,-87.73956298828125,4761.76025390625,True
1599387079.1173985,0.0,10,0.5,0.5,2.376989189147949,-0.15025,-0.001,-0.2505,0.29568666202888494,10,1,100,0.08595760992009964,-10,-1,-100,18941.436240898678,-0.016319664807789683,0.021551957945101625,0.9996345240383075,66.65648829380487,4.143349218598932,420.6288205954568,-110.19704523460885,-94.58413696289062,4761.76025390625,True
1599387079.1538112,0.0,10,0.5,0.5,4.81389555015564,-0.15025,-0.001,-0.2505,0.3229125047484698,10,1,100,0.004746869799818809,-10,-1,-100,18934.802592213964,-0.014700096148901073,0.02236414685599161,0.9996418119049525,68.3617107721187,4.252788337804596,433.72242240303837,-110.7426546178399,-104.93006134033203,4761.76025390625,True
1599387079.1887183,0.0,10,0.5,0.5,2.228139468002319,-0.15025,-0.001,-0.2505,0.24253814188951722,10,1,100,0.16594806814999086,-10,-1,-100,18934.802592213964,-0.014700096148901073,0.02236414685599161,0.9996418119049525,68.3617107721187,4.252788337804596,433.72242240303837,-110.7426546178399,-104.93006134033203,4761.76025390625,True
1599387079.223625,0.0,10,0.5,0.5,4.930396948623657,-0.15025,-0.001,-0.2505,0.2839959172479477,10,1,100,0.04939672640065362,-10,-1,-100,18930.36197858397,-0.013647037619268897,0.022734359631883087,0.9996483918140149,70.44676674709602,4.3857261714104,448.5516130815209,-111.10621431172062,-111.65961456298828,4761.76025390625,True
1599387079.2545424,0.0,10,0.5,0.5,5.834946487808228,-0.15025,-0.001,-0.2505,0.2762165553945326,10,1,100,0.0428287299978735,-10,-1,-100,18925.90682664537,-0.012637252149396747,0.0229937100445396,0.999655735319165,72.15366110405907,4.495541975654594,461.0561859628555,-111.4696431055812,-118.1087875366211,4761.76025390625,True
1599387079.2914438,0.0,10,0.5,0.5,5.473255034637451,-0.15025,-0.001,-0.2505,0.2601284069862002,10,1,100,0.08421663952220458,-10,-1,-100,18923.67380021396,-0.012102878119340379,0.023077989639809893,0.9996604057055644,72.95996155027395,4.547554102697717,467.03459042817906,-111.65131260561009,-121.2235107421875,4761.76025390625,True
1599387079.3263505,0.0,10,0.5,0.5,7.106265434265137,-0.15025,-0.001,-0.2505,0.2616514393498942,10,1,100,0.02755764123452506,-10,-1,-100,18919.196849539992,-0.011109529031080829,0.023163612179456096,0.9996699582539766,74.23480682805977,4.630397081527803,476.8745802346778,-112.01457641958147,-127.2313232421875,4761.76025390625,True
1599387079.3582647,0.0,10,0.5,0.5,7.896158121490479,-0.15025,-0.001,-0.2505,0.2527357640959394,10,1,100,0.024190736616417644,-10,-1,-100,18914.705370115465,-0.010183966196257756,0.02315595236840367,0.9996799931490207,75.0965281860292,4.687081760457856,484.1073071378517,-112.37776359978051,-132.9429473876953,4761.76025390625,True
1599387079.3941684,0.0,10,0.5,0.5,7.5705912353515625,-0.15025,-0.001,-0.2505,0.24877419463920583,10,1,100,0.06605831200641693,-10,-1,-100,18912.454183575814,-0.009730520576376193,0.02311021933493987,0.9996855679320392,75.38787558075805,4.706515726795066,486.8370432074135,-112.55933702571228,-135.68777465820312,4761.76025390625,True
1599387079.4320674,0.0,10,0.5,0.5,10.991544281005858,-0.15025,-0.001,-0.2505,0.21291748950768535,10,1,100,-0.06603847668644384,-10,-1,-100,18903.41312413884,-0.008125190428978985,0.02273996007772536,0.9997083952314076,75.76012012580708,4.7332221649026565,492.66557087005225,-113.28556685651813,-145.92620849609375,4761.76025390625,True
1599387079.4679716,0.0,10,0.5,0.5,8.432635269165038,-0.15025,-0.001,-0.2505,0.25012520627063783,10,1,100,0.09357752741241901,-10,-1,-100,18903.41312413884,-0.008125190428978985,0.02273996007772536,0.9997083952314076,75.76012012580708,4.7332221649026565,492.66557087005225,-113.28556685651813,-145.92620849609375,4761.76025390625,True
1599387079.5048728,0.0,10,0.5,0.5,12.065750616455077,-0.15025,-0.001,-0.2505,0.18241083263322105,10,1,100,-0.0483529071834775,-10,-1,-100,18894.313966946444,-0.006842363272997027,0.022123294860901005,0.9997318349884321,75.15751142177658,4.6969588429439035,492.1524257627745,-114.01181044417692,-154.97918701171875,4761.76025390625,True
1599387079.5387814,0.0,10,0.5,0.5,10.635921418762205,-0.15025,-0.001,-0.2505,0.22064849984485058,10,1,100,0.049359896450785486,-10,-1,-100,18892.030099133728,-0.006571598375939368,0.02191052423116194,0.9997383372776604,74.89912283163441,4.680944893996382,491.31077342088895,-114.19338681301237,-157.05763244628906,4761.76025390625,True
1599387079.5736895,0.0,10,0.5,0.5,10.120483594512939,-0.15025,-0.001,-0.2505,0.241880200556274,10,1,100,0.0756235363792552,-10,-1,-100,18892.030099133728,-0.006571598375939368,0.02191052423116194,0.9997383372776604,74.89912283163441,4.680944893996382,491.31077342088895,-114.19338681301237,-157.05763244628906,4761.76025390625,True
1599387079.6095917,0.0,10,0.5,0.5,11.701539505767823,-0.15025,-0.001,-0.2505,0.19689888673377476,10,1,100,0.023399326330266444,-10,-1,-100,18887.451468163054,-0.006103265047533406,0.02150235213768533,0.9997501682962132,74.28887090339497,4.642937248441174,488.9970668326673,-114.55656596615869,-160.99154663085938,4761.76025390625,True
1599387079.6454966,0.0,10,0.5,0.5,12.178274284362793,-0.15025,-0.001,-0.2505,0.18660030037729486,10,1,100,0.028050353077785015,-10,-1,-100,18882.858308811206,-0.005725729525870758,0.021039018865744826,0.9997622595930311,73.58712853941812,4.599133122091357,486.0546071172205,-114.91978450062865,-164.62945556640625,4761.76025390625,True
1599387079.680439,0.0,10,0.5,0.5,12.610598822784423,-0.15025,-0.001,-0.2505,0.17666198958858312,10,1,100,0.03446138671219068,-10,-1,-100,18878.250619685743,-0.005446594947029738,0.020529312130241593,0.9997744155292945,72.8291403963032,4.55184441651363,482.7105495758683,-115.28304558226763,-167.9713897705078,4761.76025390625,True
1599387079.7183025,0.0,10,0.5,0.5,13.56379588394165,-0.15025,-0.001,-0.2505,0.14012362762410546,10,1,100,0.03216208634219148,-10,-1,-100,18871.311838034773,-0.005177081630250683,0.01973617026196996,0.9997918190349351,71.65564924288061,4.478863362823651,477.39171996509964,-115.82801742691268,-172.42872619628906,4761.76025390625,True
1599387079.755203,0.0,10,0.5,0.5,13.49382512359619,-0.15025,-0.001,-0.2505,0.15648095332546014,10,1,100,0.05061805341492662,-10,-1,-100,18866.667816240108,-0.005104402756172777,0.019166944053650277,0.9998032673121984,70.8892763035008,4.431438454102596,473.9108952099976,-116.19138302246606,-175.03045654296875,4761.76025390625,True
1599387079.7931018,0.0,10,0.5,0.5,12.846025939941406,-0.15025,-0.001,-0.2505,0.21300924662929951,10,1,100,0.057423329040696885,-10,-1,-100,18866.667816240108,-0.005104402756172777,0.019166944053650277,0.9998032673121984,70.8892763035008,4.431438454102596,473.9108952099976,-116.19138302246606,-175.03045654296875,4761.76025390625,True
1599387079.8300037,0.0,10,0.5,0.5,14.578528260803221,-0.15025,-0.001,-0.2505,0.08142667982052937,10,1,100,0.06553725336797644,-10,-1,-100,18857.336163957836,-0.005180911875214233,0.017973987097228798,0.9998250316630255,69.4945476720473,4.345873488679511,467.7790221960383,-116.91822136686665,-179.34634399414062,4761.76025390625,True
1599387079.8708966,0.0,10,0.5,0.5,13.500740467834472,-0.15025,-0.001,-0.2505,0.2002457781646276,10,1,100,0.05759191360845435,-10,-1,-100,18857.336163957836,-0.005180911875214233,0.017973987097228798,0.9998250316630255,69.4945476720473,4.345873488679511,467.7790221960383,-116.91822136686665,-179.34634399414062,4761.76025390625,True
1599387079.908792,0.0,10,0.5,0.5,-130.079745942688,-0.15025,-0.001,-0.2505,0.1310251288658418,10,1,100,0.07707018255165708,-10,-1,-100,18852.648531258805,-0.005359497457786788,0.01734848056520681,0.9998351394150331,68.9029853631446,4.310033228755501,465.3822319786029,-117.28168479387219,178.93917846679688,4761.76025390625,True
1599387079.9447296,0.0,10,0.5,0.5,-39.55418608932495,-0.15025,-0.001,-0.2505,0.08582027457091151,10,1,100,0.09822582158754786,-10,-1,-100,18845.589820628637,-0.005715273888559165,0.016373032354929234,0.9998496184206319,68.19670118524759,4.267960810651238,462.9679608788382,-117.82691950354773,176.92137145996094,4761.76025390625,True
1599387079.9796026,0.0,10,0.5,0.5,-40.09304464492798,-0.15025,-0.001,-0.2505,0.18281134641104593,10,1,100,0.0625625460615721,-10,-1,-100,18845.589820628637,-0.005715273888559165,0.016373032354929234,0.9998496184206319,68.19670118524759,4.267960810651238,462.9679608788382,-117.82691950354773,176.92137145996094,4761.76025390625,True
1599387080.0165246,0.0,10,0.5,0.5,-39.201293978881836,-0.15025,-0.001,-0.2505,0.030091469411268,10,1,100,0.1432179109764506,-10,-1,-100,18836.12732109381,-0.006448857197929855,0.014989332854733759,0.9998668572072037,69.46919778111406,4.351063791145642,474.8116150188757,-118.55380787135884,174.61184692382812,4761.76025390625,True
1599387080.0544035,0.0,10,0.5,0.5,-39.81375400543212,-0.15025,-0.001,-0.2505,0.16785645082971445,10,1,100,0.0699318928065875,-10,-1,-100,18836.12732109381,-0.006448857197929855,0.014989332854733759,0.9998668572072037,69.46919778111406,4.351063791145642,474.8116150188757,-118.55380787135884,174.61184692382812,4761.76025390625,True
1599387080.0893085,0.0,10,0.5,0.5,-38.511208755493165,-0.15025,-0.001,-0.2505,0.0036419739818581987,10,1,100,0.18038101855196192,-10,-1,-100,18826.606680514873,-0.007452029011750623,0.013501510319094618,0.9998810811705117,71.05777199073339,4.454830214450146,488.9530784468403,-119.2804930646897,171.27609252929688,4761.76025390625,True
1599387080.1292017,0.0,10,0.5,0.5,-39.381185713195805,-0.15025,-0.001,-0.2505,0.15180076155148473,10,1,100,0.08029133190803518,-10,-1,-100,18826.606680514873,-0.007452029011750623,0.013501510319094618,0.9998810811705117,71.05777199073339,4.454830214450146,488.9530784468403,-119.2804930646897,171.27609252929688,4761.76025390625,True
1599387080.1641102,0.0,10,0.5,0.5,-37.607341491699216,-0.15025,-0.001,-0.2505,-0.02599071318994503,10,1,100,0.21829949038099866,-10,-1,-100,18817.02791716822,-0.00870451442854522,0.011890374579385762,0.99989141931558,72.92867615744285,4.577387365657093,505.20150347372186,-120.0069305690342,166.76336669921875,4761.76025390625,True
1599387080.1960573,0.0,10,0.5,0.5,-38.77195869445801,-0.15025,-0.001,-0.2505,0.13439520383351417,10,1,100,0.09341095986877618,-10,-1,-100,18817.02791716822,-0.00870451442854522,0.011890374579385762,0.99989141931558,72.92867615744285,4.577387365657093,505.20150347372186,-120.0069305690342,166.76336669921875,4761.76025390625,True
1599387080.2329245,0.0,10,0.5,0.5,-38.280695359802245,-0.15025,-0.001,-0.2505,0.0893723405572502,10,1,100,0.13419753680599875,-10,-1,-100,18814.62414725544,-0.009072098216562397,0.01148660637916322,0.999892871715685,73.42471354922058,4.609983605578896,509.48754813300235,-120.1884966799236,165.45114135742188,4761.76025390625,True
1599387080.2678318,0.0,10,0.5,0.5,-37.50321520080566,-0.15025,-0.001,-0.2505,0.032134375458794315,10,1,100,0.17914280328724547,-10,-1,-100,18809.805714785005,-0.009811321186097212,0.010605096860536824,0.9998956295019805,74.53518454717367,4.682816068415368,518.9185875590604,-120.55156967999775,162.60479736328125,4761.76025390625,True
1599387080.2997465,0.0,10,0.5,0.5,-36.95610776367187,-0.15025,-0.001,-0.2505,0.02365266836875282,10,1,100,0.19695598887339122,-10,-1,-100,18804.9727621153,-0.010641233005795359,0.009732748491607605,0.9998960134768592,75.73329250534798,4.761394266147191,529.0131994226062,-120.91455768268716,159.4644775390625,4761.76025390625,True
1599387080.3346527,0.0,10,0.5,0.5,-37.06743714752197,-0.15025,-0.001,-0.2505,0.059570798509129934,10,1,100,0.1618447817637923,-10,-1,-100,18802.55084170983,-0.01107202735987256,0.009272269597369308,0.9998957121753528,76.37848242316028,4.803652301478411,534.4039924471982,-121.09601706165869,157.78369140625,4761.76025390625,True
1599387080.3715541,0.0,10,0.5,0.5,-36.050938983154296,-0.15025,-0.001,-0.2505,0.0004499991412385135,10,1,100,0.21942185768816783,-10,-1,-100,18797.696115153725,-0.01198221677791769,0.008322645847224171,0.9998935743603858,77.65016516845127,4.887064663214287,545.0987028339367,-121.45886567357879,154.20135498046875,4761.76025390625,True
1599387080.423419,0.0,10,0.5,0.5,-35.39271877288818,-0.15025,-0.001,-0.2505,-0.01429298598008076,10,1,100,0.2367339721794792,-10,-1,-100,18792.826877374435,-0.012962014235534287,0.0073313850159961525,0.9998891123423163,78.86511736530964,4.966883597722691,555.4519835310359,-121.82162247431106,150.32473754882812,4761.76025390625,True
1599387080.4583263,0.0,10,0.5,0.5,-33.8102582244873,-0.15025,-0.001,-0.2505,-0.08525968057475279,10,1,100,0.3157500408590552,-10,-1,-100,18785.49582029367,-0.014565146042238608,0.0057920488075088785,0.9998771467992353,80.48722133969238,5.073567325499075,569.6681084392436,-122.36559783134321,143.9588623046875,4761.76025390625,True
1599387080.4922354,0.0,10,0.5,0.5,-34.492883740234376,-0.15025,-0.001,-0.2505,0.008143914387595125,10,1,100,0.21871009772459427,-10,-1,-100,18783.044882484362,-0.015133890822537901,0.005248784446279598,0.9998716995747045,80.95029939856153,5.104025321700064,573.8813391816288,-122.54688533698103,141.68988037109375,4761.76025390625,True
1599387080.5271423,0.0,10,0.5,0.5,-33.15142828521728,-0.15025,-0.001,-0.2505,-0.06177361993293619,10,1,100,0.29412832162856306,-10,-1,-100,18778.132130711107,-0.016329568238472623,0.004126796283950708,0.999858147315696,81.72035444090687,5.154637099151831,581.2299120146603,-122.90941472310313,136.93161010742188,4761.76025390625,True
1599387080.562049,0.0,10,0.5,0.5,-33.342699443054194,-0.15025,-0.001,-0.2505,-0.016629834810500302,10,1,100,0.24444882087382375,-10,-1,-100,18775.67031746928,-0.01695798401536117,0.0035242628904878933,0.9998499919233952,82.01300584629061,5.173843962627966,584.2598661509326,-123.09066139610745,134.44204711914062,4761.76025390625,True
1599387080.5969548,0.0,10,0.5,0.5,-31.879901168060297,-0.15025,-0.001,-0.2505,-0.08703004783285848,10,1,100,0.3274801202666336,-10,-1,-100,18770.735816641827,-0.018276597925570105,0.0023441088795810765,0.9998302211484846,82.37563843019986,5.197590892564549,588.7503000181013,-123.45313258157955,129.24378967285156,4761.76025390625,True
1599387080.6298676,0.0,10,0.5,0.5,-30.97743755264282,-0.15025,-0.001,-0.2505,-0.11116368861284392,10,1,100,0.352171973265335,-10,-1,-100,18765.78681711154,-0.019691441507830962,0.0010601562239382681,0.9998055426932402,82.3892747067679,5.198465642628188,590.7587630865323,-123.81559728206588,123.75157165527344,4761.76025390625,True
1599387080.6647737,0.0,10,0.5,0.5,-28.82792487640381,-0.15025,-0.001,-0.2505,-0.20209602012908184,10,1,100,0.4656632952624896,-10,-1,-100,18758.336131466785,-0.022000420309567933,-0.0009250538034877217,0.9997575334958287,81.61485066294289,5.148260853286819,588.0562179099938,-124.35935057567673,114.9644775390625,4761.76025390625,True
1599387080.7016752,0.0,10,0.5,0.5,-31.024641952514646,-0.15025,-0.001,-0.2505,-0.004640797615992384,10,1,100,0.23590133381916972,-10,-1,-100,18758.336131466785,-0.022000420309567933,-0.0009250538034877217,0.9997575334958287,81.61485066294289,5.148260853286819,588.0562179099938,-124.35935057567673,114.9644775390625,4761.76025390625,True
1599387080.7380877,0.0,10,0.5,0.5,-28.525970123291014,-0.15025,-0.001,-0.2505,-0.16143923476083194,10,1,100,0.42390148210377554,-10,-1,-100,18753.350879747537,-0.023699577664019172,-0.002341223847167302,0.9997163841257403,80.47640645484493,5.075049094548259,581.7366336137309,-124.72194116668076,108.74017333984375,4761.76025390625,True
1599387080.7709992,0.0,10,0.5,0.5,-27.468802842712403,-0.15025,-0.001,-0.2505,-0.18702624417589025,10,1,100,0.4607777677130925,-10,-1,-100,18748.351121015963,-0.02556885298189036,-0.003851565909108913,0.999665643701552,78.77044995477159,4.966181131169054,571.2566904688452,-125.08464480391638,102.22286987304688,4761.76025390625,True
1599387080.8059068,0.0,10,0.5,0.5,-27.747091174316402,-0.15025,-0.001,-0.2505,-0.11603888538221688,10,1,100,0.379461397244317,-10,-1,-100,18745.845800045296,-0.026517493685924067,-0.004569098202817797,0.9996379073795821,77.68752343312885,4.897472866164416,564.3194559557259,-125.26605006162026,98.85546875,4761.76025390625,True
1599387080.843318,0.0,10,0.5,0.5,-25.799044591522218,-0.15025,-0.001,-0.2505,-0.21375399180833599,10,1,100,0.5123945503568956,-10,-1,-100,18740.824270120705,-0.02857751176548389,-0.0061003002127812045,0.9995729648998154,75.03189752414872,4.729980865498645,546.804308568445,-125.62898791500724,91.90083312988281,4761.76025390625,True
