Timestamp,Input Throttle,horizon,dT,dt,Input Roll,Roll P,Roll I,Roll D,Input Pitch,Pitch P,Pitch I,Pitch D,Input Yaw,Yaw P,Yaw I,Yaw D,Altitude,Direction X,Direction Y,Direction Z,Drag X,Drag Y,Drag Z,Vertical Velocity,Roll,Mass,Has Fuel
1599388744.3669717,0.0,10,0.5,0.5,-11.214401245117188,-0.2,-0.03,-0.5,-0.0001350197068579037,10,1,100,0.4981483676314915,-10,-1,-100,19349.722302104114,-0.04884520080013867,-0.00017392802292876683,0.9988063456485631,61.07639570256107,3.686289896601321,233.73102106093134,-68.66499597163258,-33.922576904296875,4761.76025390625,True
1599388744.4088717,0.0,10,0.5,0.5,-11.38290512084961,-0.2,-0.03,-0.5,-0.0008042869429910134,10,1,100,0.4989668335272327,-10,-1,-100,19348.345353012206,-0.04889638539510078,-0.0001652699675779529,0.998803842694416,61.16620578867698,3.692383564476269,234.72029809692802,-68.84745254815336,-33.923736572265625,4761.76025390625,True
1599388744.4502757,0.0,10,0.5,0.5,-11.518943969726564,-0.2,-0.03,-0.5,0.011940189936060223,10,1,100,0.5096193538818966,-10,-1,-100,19344.192611330654,-0.04899530667974955,-4.13898820244036e-05,0.9987990079141222,61.437047415631305,3.710772212075693,237.70602573645016,-69.3948017747125,-33.970550537109375,4761.76025390625,True
1599388744.4901683,0.0,10,0.5,0.5,-11.63592758178711,-0.2,-0.03,-0.5,0.011152081371435989,10,1,100,0.5039253256203776,-10,-1,-100,19342.801066470332,-0.048988930039162125,6.410138142044311e-05,0.9987993194954786,61.53068819260032,3.717110470272758,238.71846943907647,-69.57724451759437,-34.076995849609375,4761.76025390625,True
1599388744.5290651,0.0,10,0.5,0.5,-11.561029968261721,-0.2,-0.03,-0.5,0.028480971124792812,10,1,100,0.5055140796500325,-10,-1,-100,19340.00703006913,-0.04895304092068027,0.00031747961741771083,0.9988010307320025,61.72792786055048,3.7303862213172314,240.78863621400848,-69.94211875747764,-34.49969482421875,4761.76025390625,True
1599388744.5709522,0.0,10,0.5,0.5,-11.4399423828125,-0.2,-0.03,-0.5,0.04593153639156745,10,1,100,0.49974092576461593,-10,-1,-100,19337.19839922327,-0.048823428467719636,0.0007061763529155257,0.9988071756588537,61.937988661218476,3.7444159663317653,242.91804013039786,-70.3069765497665,-35.21246337890625,4761.76025390625,True
1599388744.6108449,0.0,10,0.5,0.5,-11.256673156738282,-0.2,-0.03,-0.5,0.0659825838006669,10,1,100,0.492568863422436,-10,-1,-100,19334.375174668035,-0.048596013463310404,0.0012411772922208838,0.9988177446133018,62.155279567214826,3.7588385126598576,245.0854005099414,-70.67181661999976,-36.21820068359375,4761.76025390625,True
1599388744.6507387,0.0,10,0.5,0.5,-10.479679321289064,-0.2,-0.03,-0.5,0.12995748060706944,10,1,100,0.4590567718420399,-10,-1,-100,19330.11297620996,-0.04804043897814995,0.0023080034104728496,0.9988427250288425,62.476812246834065,3.780065049536666,248.33713718060955,-71.21904204070756,-38.277069091796875,4761.76025390625,True
1599388744.6916287,0.0,10,0.5,0.5,-11.081134124755861,-0.2,-0.03,-0.5,0.070151897000605,10,1,100,0.4926320932411128,-10,-1,-100,19328.684947340516,-0.04779692833256097,0.002732060027542712,0.9988533373273465,62.57733150041399,3.786685565953762,249.39928976367838,-71.40144114902918,-39.110137939453125,4761.76025390625,True
1599388744.7315228,0.0,10,0.5,0.5,-10.329912719726563,-0.2,-0.03,-0.5,0.13131865420107902,10,1,100,0.4575630034869251,-10,-1,-100,19325.81794574717,-0.047213293358503314,0.0036711437812218576,0.9988780844695619,62.757877099281515,3.7985842157084964,251.44822596530284,-71.76622589882982,-40.9964599609375,4761.76025390625,True
1599388744.7722967,0.0,10,0.5,0.5,-8.162354248046874,-0.2,-0.03,-0.5,0.27951047773286464,10,1,100,0.346838040574602,-10,-1,-100,19320.04017086746,-0.045633204361649325,0.005868717276872566,0.9989410236931969,62.977047609238404,3.813266899086175,254.99589511113098,-72.49574824779714,-45.650360107421875,4761.76025390625,True
1599388744.81518,0.0,10,0.5,0.5,-10.454120971679687,-0.2,-0.03,-0.5,0.06035739269777388,10,1,100,0.5045257406161519,-10,-1,-100,19320.04017086746,-0.045633204361649325,0.005868717276872566,0.9989410236931969,62.977047609238404,3.813266899086175,254.99589511113098,-72.49574824779714,-45.650360107421875,4761.76025390625,True
1599388744.857065,0.0,10,0.5,0.5,-7.435268005371093,-0.2,-0.03,-0.5,0.2617927529914518,10,1,100,0.3306472815452691,-10,-1,-100,19315.66854099487,-0.0440554576255808,0.007694462382047411,0.998999455406284,62.93835278216505,3.8114073800921617,256.84169988297737,-73.04286233225838,-49.912750244140625,4761.76025390625,True
1599388744.8979566,0.0,10,0.5,0.5,-6.072319946289063,-0.2,-0.03,-0.5,0.3012866396032379,10,1,100,0.27605500128089844,-10,-1,-100,19311.264084552997,-0.042129339725891654,0.009706233399346169,0.9990650167869245,62.635872107689124,3.793012700370998,257.60199705526924,-73.58997392163617,-54.8360595703125,4761.76025390625,True
1599388744.9408102,0.0,10,0.5,0.5,-5.915783111572265,-0.2,-0.03,-0.5,0.24214495042247816,10,1,100,0.30566126321743964,-10,-1,-100,19308.3095428315,-0.040653707280427595,0.0109886988479582,0.9991128687901013,62.24428633575766,3.768943630559488,257.31430985666066,-73.95472663746715,-58.48736572265625,4761.76025390625,True
1599388744.982731,0.0,10,0.5,0.5,-4.9073912658691405,-0.2,-0.03,-0.5,0.25641340688895475,10,1,100,0.27416804741233725,-10,-1,-100,19305.340410557692,-0.03903346612599593,0.012274588660727524,0.9991625108036234,61.6675617718375,3.733461612501335,256.2419876365604,-74.31949967490561,-62.433197021484375,4761.76025390625,True
1599388745.0245855,0.0,10,0.5,0.5,-3.8303738403320313,-0.2,-0.03,-0.5,0.26965405136422244,10,1,100,0.24053840990682987,-10,-1,-100,19302.356686356245,-0.037263695610409556,0.013553432156376787,0.9992135514824831,60.87670053876121,3.6848789626658403,254.25229852823773,-74.68430351644345,-66.673583984375,4761.76025390625,True
1599388745.066499,0.0,10,0.5,0.5,-5.859201171875,-0.2,-0.03,-0.5,0.14300092728571173,10,1,100,0.41638222968017735,-10,-1,-100,19302.356686356245,-0.037263695610409556,0.013553432156376787,0.9992135514824831,60.87670053876121,3.6848789626658403,254.25229852823773,-74.68430351644345,-66.673583984375,4761.76025390625,True
1599388745.1073627,0.0,10,0.5,0.5,-2.5989322814941405,-0.2,-0.03,-0.5,0.2762131810210084,10,1,100,0.2063651155310164,-10,-1,-100,19299.358368542395,-0.035364246157569675,0.014754229527837753,0.9992655717099167,59.84321154198228,3.6215721410882082,251.21209236516646,-75.04914917585225,-71.20941162109375,4761.76025390625,True
1599388745.149285,0.0,10,0.5,0.5,2.199117248535156,-0.2,-0.03,-0.5,0.40275389075406354,10,1,100,-0.0692160814077123,-10,-1,-100,19293.31794484984,-0.03114349275752224,0.016985304345375228,0.9993705930710375,56.93944396534539,3.4447367272631304,241.45614344094642,-75.77900709225422,-81.16607666015625,4761.76025390625,True
1599388745.1921725,0.0,10,0.5,0.5,1.13662744140625,-0.2,-0.03,-0.5,0.2847586763604105,10,1,100,0.1053525046816644,-10,-1,-100,19290.275833708118,-0.02890804026792889,0.01792876662995413,0.9994212748060732,55.021660517788426,3.328634712604756,234.5017012916451,-76.14403605151351,-86.58798217773438,4761.76025390625,True
1599388745.2330296,0.0,10,0.5,0.5,2.340131072998047,-0.2,-0.03,-0.5,0.280805658755631,10,1,100,0.08214678582686336,-10,-1,-100,19287.21911903075,-0.0266800543460674,0.01873955941102506,0.9994683604862996,52.806742056859974,3.1950630414840533,226.19335261569975,-76.50913764384588,-92.0046157836914,4761.76025390625,True
1599388745.2749164,0.0,10,0.5,0.5,3.388065299987793,-0.2,-0.03,-0.5,0.2822870896360882,10,1,100,0.043444116811025,-10,-1,-100,19284.147800315637,-0.02432000028969986,0.01947841054533538,0.9995144466732515,53.49242121936237,3.237556724597094,230.27706128631883,-76.87423495669482,-97.17202758789062,4761.76025390625,True
1599388745.3188376,0.0,10,0.5,0.5,4.362498466491699,-0.2,-0.03,-0.5,0.27424067274373987,10,1,100,0.020387165406086427,-10,-1,-100,19281.061879962217,-0.021982829277808,0.02006623147008406,0.9995569526402843,54.97182739269318,3.328598074479226,237.82385358711315,-77.23925166862847,-102.05254364013672,4761.76025390625,True
1599388745.3607183,0.0,10,0.5,0.5,5.274884613037109,-0.2,-0.03,-0.5,0.26752403784612283,10,1,100,-0.003467554662435479,-10,-1,-100,19277.961361370864,-0.019659582275872552,0.020530135631631124,0.9995959255397577,56.23438603929664,3.4068982799568555,244.49068522276107,-77.6041917971714,-106.63967895507812,4761.76025390625,True
1599388745.4013915,0.0,10,0.5,0.5,3.1257738952636718,-0.2,-0.03,-0.5,0.22208776536978364,10,1,100,0.22675773303065389,-10,-1,-100,19277.961361370864,-0.019659582275872552,0.020530135631631124,0.9995959255397577,56.23438603929664,3.4068982799568555,244.49068522276107,-77.6041917971714,-106.63967895507812,4761.76025390625,True
1599388745.4432821,0.0,10,0.5,0.5,6.263295227050782,-0.2,-0.03,-0.5,0.2613839129624941,10,1,100,-0.02878556134996485,-10,-1,-100,19274.84624732018,-0.017354074039548858,0.02087986829431858,0.9996313656614831,57.32218721823515,3.4748571023905246,250.447300263637,-77.9690585102898,-110.9323959350586,4761.76025390625,True
1599388745.4851675,0.0,10,0.5,0.5,9.641270484924316,-0.2,-0.03,-0.5,0.26523814015416025,10,1,100,-0.30604223046736634,-10,-1,-100,19268.57224391459,-0.012755741943251723,0.02122618511110601,0.9996933230311715,59.08936183693331,3.586250406835432,260.69593769968697,-78.69859688786654,-118.6346206665039,4761.76025390625,True
1599388745.5263846,0.0,10,0.5,0.5,5.946041229248047,-0.2,-0.03,-0.5,0.23137373377088996,10,1,100,0.1513401837956314,-10,-1,-100,19268.57224391459,-0.012755741943251723,0.02122618511110601,0.9996933230311715,59.08936183693331,3.586250406835432,260.69593769968697,-78.69859688786654,-118.6346206665039,4761.76025390625,True
1599388745.5682724,0.0,10,0.5,0.5,8.474619804382325,-0.2,-0.03,-0.5,0.23644647317217257,10,1,100,-0.09116255170266777,-10,-1,-100,19265.41335886973,-0.010571724806189292,0.021266417327860155,0.9997179492880277,59.66848816361348,3.6233912443508607,264.52623622899875,-79.06328693792432,-122.04362487792969,4761.76025390625,True
1599388745.610161,0.0,10,0.5,0.5,11.046543678283692,-0.2,-0.03,-0.5,0.21425400368360886,10,1,100,-0.33991680553049003,-10,-1,-100,19259.05183143029,-0.00634355398128991,0.021097350426847447,0.9997573011125518,60.35650558137327,3.6686444341575983,270.1552912616933,-79.79255659351735,-127.97761535644531,4761.76025390625,True
1599388745.652048,0.0,10,0.5,0.5,9.113014518737794,-0.2,-0.03,-0.5,0.2237329180212057,10,1,100,-0.02781671075886258,-10,-1,-100,19257.452334181056,-0.005357549080474938,0.02102694466190778,0.9997645544157061,60.45006983654071,3.675074786137436,271.2197332576473,-79.97485679085516,-129.276611328125,4761.76025390625,True
1599388745.6928062,0.0,10,0.5,0.5,10.993096801757812,-0.2,-0.03,-0.5,0.2042598740692883,10,1,100,-0.2397500935069365,-10,-1,-100,19252.631967500318,-0.0025538979686293758,0.020783832307626215,0.9997807309204225,60.596321354663466,3.6859043253751014,273.81769310250803,-80.52172855750106,-132.73056030273438,4761.76025390625,True
1599388745.7337394,0.0,10,0.5,0.5,10.727296203613282,-0.2,-0.03,-0.5,0.19681060307465925,10,1,100,-0.16293224728902678,-10,-1,-100,19249.400161316968,-0.0007232556528608356,0.020493913683998808,0.9997897160919257,60.61544559869123,3.6881351182492876,275.19932298295953,-80.88629130234857,-134.66555786132812,4761.76025390625,True
1599388745.7745898,0.0,10,0.5,0.5,11.00445043182373,-0.2,-0.03,-0.5,0.20177483556354786,10,1,100,-0.16259146211453224,-10,-1,-100,19246.153772872058,0.0009185397020470258,0.020275091883132958,0.999794017252527,60.59089253422008,3.6875547671097135,276.38288332283685,-81.25084312954478,-136.30386352539062,4761.76025390625,True
1599388745.8221896,0.0,10,0.5,0.5,10.274290153503419,-0.2,-0.03,-0.5,0.22363151127528308,10,1,100,-0.0004697388215380398,-10,-1,-100,19246.153772872058,0.0009185397020470258,0.020275091883132958,0.999794017252527,60.59089253422008,3.6875547671097135,276.38288332283685,-81.25084312954478,-136.30386352539062,4761.76025390625,True
1599388745.862118,0.0,10,0.5,0.5,11.30377953338623,-0.2,-0.03,-0.5,0.1939329571265102,10,1,100,-0.17574110059916048,-10,-1,-100,19242.89280252403,0.0024932083345909394,0.020005336885188203,0.9997967645518315,60.54266100601108,3.685403620626467,277.45729116156076,-81.61538594238456,-137.64743041992188,4761.76025390625,True
1599388745.9029741,0.0,10,0.5,0.5,11.445861587524414,-0.2,-0.03,-0.5,0.1909705083656293,10,1,100,-0.18081743785043197,-10,-1,-100,19239.617251034826,0.003952830809756838,0.0197339687450569,0.9997974522902919,60.48300713849272,3.6824531962625517,278.4775023663051,-81.97992085768304,-138.6956024169922,4761.76025390625,True
1599388745.9445252,0.0,10,0.5,0.5,11.509671546936037,-0.2,-0.03,-0.5,0.18068226523884956,10,1,100,-0.19016008773349724,-10,-1,-100,19236.32711801154,0.0053495039017964225,0.01939509751320867,0.9997975860145182,60.42214596745878,3.679350133787255,279.49005540511155,-82.34444837029818,-139.44947814941406,4761.76025390625,True
1599388745.9924295,0.0,10,0.5,0.5,11.515591461181641,-0.2,-0.03,-0.5,0.18296156406498804,10,1,100,-0.19085557157176292,-10,-1,-100,19233.02240438538,0.0066090699786847795,0.019109418280491446,0.9997955542644695,60.36569544022286,3.67645915174892,280.52098257771024,-82.7089684186287,-139.90721130371094,4761.76025390625,True
1599388746.0318859,0.0,10,0.5,0.5,11.361859527587892,-0.2,-0.03,-0.5,0.14248111861285087,10,1,100,-0.31438806275707837,-10,-1,-100,19226.369235334336,0.008861533791372632,0.018483666745772148,0.9997898915684712,60.29545438206687,3.6731928994262013,282.7770868621767,-83.43798376413258,-139.93798828125,4761.76025390625,True
1599388746.0748115,0.0,10,0.5,0.5,11.382352157592775,-0.2,-0.03,-0.5,0.20479490371667308,10,1,100,-0.09066219026555937,-10,-1,-100,19226.369235334336,0.008861533791372632,0.018483666745772148,0.9997898915684712,60.29545438206687,3.6731928994262013,282.7770868621767,-83.43798376413258,-139.93798828125,4761.76025390625,True
1599388746.1156642,0.0,10,0.5,0.5,11.1151785736084,-0.2,-0.03,-0.5,0.17106665624345574,10,1,100,-0.19891994724637063,-10,-1,-100,19223.020781096653,0.00983276877949651,0.018179358385030295,0.9997863909790119,60.28609350690262,3.6731303649254534,284.02494391856857,-83.80247745825778,-139.5106201171875,4761.76025390625,True
1599388746.1570637,0.0,10,0.5,0.5,10.130889236450196,-0.2,-0.03,-0.5,0.14040336514870708,10,1,100,-0.2820028201753495,-10,-1,-100,19216.280134468107,0.011459747916465183,0.017626324932515074,0.9997789689961799,60.313286118540645,3.675910584396761,286.7391232957219,-84.53143335353667,-137.77017211914062,4761.76025390625,True
1599388746.1989496,0.0,10,0.5,0.5,10.091271194458008,-0.2,-0.03,-0.5,0.16902043434185962,10,1,100,-0.1920007570254472,-10,-1,-100,19212.88794310775,0.012109543827283659,0.017386329321758518,0.999775512053086,60.33687274819769,3.6780058504140025,288.1455094417563,-84.89589495362883,-136.45709228515625,4761.76025390625,True
1599388746.2393486,0.0,10,0.5,0.5,10.748270797729493,-0.2,-0.03,-0.5,0.1927311191613778,10,1,100,-0.12814026635612324,-10,-1,-100,19212.88794310775,0.012109543827283659,0.017386329321758518,0.999775512053086,60.33687274819769,3.6780058504140025,288.1455094417563,-84.89589495362883,-136.45709228515625,4761.76025390625,True
1599388746.2812376,0.0,10,0.5,0.5,9.622958389282227,-0.2,-0.03,-0.5,0.1692129157121432,10,1,100,-0.18851211220561198,-10,-1,-100,19209.48117337341,0.012648205149437887,0.01717515362000309,0.9997724926225102,60.356876553858385,3.679973929651778,289.53623259648157,-85.26034605872948,-134.84884643554688,4761.76025390625,True
1599388746.3231244,0.0,10,0.5,0.5,7.549172622680665,-0.2,-0.03,-0.5,0.13732843582409132,10,1,100,-0.22484721354796017,-10,-1,-100,19202.623901073937,0.013458984548313216,0.016695889695120578,0.9997700250568711,60.33960316668144,3.6807710355267536,292.0447938755541,-85.98922185858878,-130.74954223632812,4761.76025390625,True
1599388746.3680053,0.0,10,0.5,0.5,9.574986541748046,-0.2,-0.03,-0.5,0.18495102040734882,10,1,100,-0.14471988903428282,-10,-1,-100,19202.623901073937,0.013458984548313216,0.016695889695120578,0.9997700250568711,60.33960316668144,3.6807710355267536,292.0447938755541,-85.98922185858878,-130.74954223632812,4761.76025390625,True
1599388746.4089167,0.0,10,0.5,0.5,7.804675918579102,-0.2,-0.03,-0.5,0.1607181969414696,10,1,100,-0.17240927110849985,-10,-1,-100,19199.173399237334,0.013703333948400174,0.016478045125265392,0.9997703199573134,60.270798724861656,3.677708129862818,293.0070883499787,-86.35365143987188,-128.2578125,4761.76025390625,True
1599388746.453612,0.0,10,0.5,0.5,7.065299621582032,-0.2,-0.03,-0.5,0.15881786931910633,10,1,100,-0.16484897437445747,-10,-1,-100,19195.708320117672,0.01385029046547001,0.016265121058971217,0.9997717816036613,60.13945567411789,3.67097951523846,293.6619353055436,-86.71808038961736,-125.4716796875,4761.76025390625,True
1599388746.498532,0.0,10,0.5,0.5,3.89751791381836,-0.2,-0.03,-0.5,0.12380424838029484,10,1,100,-0.15389901115438492,-10,-1,-100,19188.73442978796,0.013879806945647293,0.0157552649407935,0.9997795369909295,59.606668134106634,3.641461422229276,293.62747036656646,-87.4469581709634,-119.01818084716797,4761.76025390625,True
1599388746.5403826,0.0,10,0.5,0.5,5.803572578430177,-0.2,-0.03,-0.5,0.15958098273990337,10,1,100,-0.14593431723981762,-10,-1,-100,19186.981846146635,0.01382967173462669,0.015619482783723816,0.9997823622855534,59.400741212876014,3.629712845663175,293.2534518445893,-87.62918663510379,-117.22113037109375,4761.76025390625,True
1599388746.584264,0.0,10,0.5,0.5,5.32590699005127,-0.2,-0.03,-0.5,0.1572753465929608,10,1,100,-0.14341002629959437,-10,-1,-100,19185.225617539953,0.013757512622464902,0.015477411290143994,0.9997855673024084,59.15995360409029,3.615853267376365,292.7028940062638,-87.81142068069396,-115.35066986083984,4761.76025390625,True
1599388746.6251535,0.0,10,0.5,0.5,3.421035568237304,-0.2,-0.03,-0.5,0.13904799981491986,10,1,100,-0.12904143987510713,-10,-1,-100,19181.702225885703,0.013559201039635212,0.015184505792218667,0.9997927679529457,58.56054902055126,3.580958310341597,291.00188202230214,-88.17590969292647,-111.38946533203125,4761.76025390625,True
1599388746.666043,0.0,10,0.5,0.5,2.3484121856689457,-0.2,-0.03,-0.5,0.13079849454906112,10,1,100,-0.11792410678495266,-10,-1,-100,19178.164253547555,0.013276533247868314,0.014845234222169235,0.9998016566728659,57.79154972631083,3.535663022700737,288.4302726734877,-88.54043434172476,-107.13514709472656,4761.76025390625,True
1599388746.707932,0.0,10,0.5,0.5,1.2043336791992192,-0.2,-0.03,-0.5,0.12357507287523647,10,1,100,-0.10736623010154255,-10,-1,-100,19174.611699008965,0.012922520931485057,0.014473448138816427,0.9998117461561195,56.97903552750534,3.4875864207773604,285.6090458956258,-88.90499871862175,-102.58761596679688,4761.76025390625,True
1599388746.7488225,0.0,10,0.5,0.5,-0.007082427978515327,-0.2,-0.03,-0.5,0.11526006520441928,10,1,100,-0.09700804739775601,-10,-1,-100,19171.044560773997,0.012506276877663994,0.014062325907380251,0.9998229063332835,55.98414556026056,3.4281267331427667,281.83620532569813,-89.26960934230686,-97.7470474243164,4761.76025390625,True
1599388746.789714,0.0,10,0.5,0.5,-5.077296577453613,-0.2,-0.03,-0.5,0.049726892420869084,10,1,100,-0.02879200396012807,-10,-1,-100,19163.866524080164,0.011508593440821545,0.013095216456940308,0.9998480222428606,53.71583007259022,3.291067813257225,272.7507462284154,-89.99897963825111,-87.18777465820312,4761.76025390625,True
1599388746.8316002,0.0,10,0.5,0.5,0.07165450286865227,-0.2,-0.03,-0.5,0.14607777014104537,10,1,100,-0.12836530853362377,-10,-1,-100,19163.866524080164,0.011508593440821545,0.013095216456940308,0.9998480222428606,53.71583007259022,3.291067813257225,272.7507462284154,-89.99897963825111,-87.18777465820312,4761.76025390625,True
1599388746.8714938,0.0,10,0.5,0.5,-3.9482963333129883,-0.2,-0.03,-0.5,0.08436495522528434,10,1,100,-0.06615559086384218,-10,-1,-100,19160.255625155638,0.010945045771557693,0.012537266165586413,0.9998615018742104,55.80852580057758,3.4195981499062906,284.5901902227902,-90.36362721503382,-81.62100219726562,4761.76025390625,True
1599388746.912385,0.0,10,0.5,0.5,-5.101750831604004,-0.2,-0.03,-0.5,0.07636938253630672,10,1,100,-0.058966070069198476,-10,-1,-100,19156.630143342423,0.010370011560179169,0.011960740562540697,0.9998746939219121,57.704837700926014,3.5357576608266688,295.5149321711792,-90.7281772355248,-76.18487548828125,4761.76025390625,True
1599388746.9542725,0.0,10,0.5,0.5,-8.068950088500976,-0.2,-0.03,-0.5,0.02208553022529998,10,1,100,-0.012491055141488377,-10,-1,-100,19151.164585142396,0.009427943773569935,0.010946586379106579,0.99989563761567,60.07786225894809,3.68071741119553,309.6261896393078,-91.27483212136046,-68.24664306640625,4761.76025390625,True
1599388746.9961607,0.0,10,0.5,0.5,-6.031342910766602,-0.2,-0.03,-0.5,0.08457287174495005,10,1,100,-0.07141801259278915,-10,-1,-100,19149.335444924538,0.009111219697083417,0.010596942859258397,0.9999023404701428,60.75060479939022,3.7217500000342514,313.75325069259407,-91.45700897837276,-65.69723510742188,4761.76025390625,True
1599388747.0360541,0.0,10,0.5,0.5,-8.325640129089354,-0.2,-0.03,-0.5,0.03762680517418303,10,1,100,-0.031430899627180695,-10,-1,-100,19145.666235189186,0.00846399341234049,0.009856739480053882,0.9999155991894207,61.90465409003054,3.7921199306868987,321.0579988085616,-91.82130885083636,-60.81146240234375,4761.76025390625,True
1599388747.0789394,0.0,10,0.5,0.5,-9.248766960144042,-0.2,-0.03,-0.5,0.028323544519330612,10,1,100,-0.023912723870475633,-10,-1,-100,19141.982455266407,0.007811890835356231,0.009104095644198541,0.9999280423130845,62.821822005033994,3.8481099103096943,327.17888121013914,-92.18554714738184,-56.219635009765625,4761.76025390625,True
1599388747.121825,0.0,10,0.5,0.5,-12.909460273742676,-0.2,-0.03,-0.5,-0.07827634946530113,10,1,100,0.057581815666535835,-10,-1,-100,19134.571193150477,0.006483178717227267,0.007456003246813371,0.9999511870132981,64.06416632818802,3.924497346821553,336.43167071478547,-92.91388707236948,-47.92840576171875,4761.76025390625,True
1599388747.163259,0.0,10,0.5,0.5,-8.927823280334474,-0.2,-0.03,-0.5,0.08583114578401559,10,1,100,-0.07464546192493479,-10,-1,-100,19134.571193150477,0.006483178717227267,0.007456003246813371,0.9999511870132981,64.06416632818802,3.924497346821553,336.43167071478547,-92.91388707236948,-47.92840576171875,4761.76025390625,True
1599388747.207141,0.0,10,0.5,0.5,-11.667095489501953,-0.2,-0.03,-0.5,-0.008522047645700692,10,1,100,-0.00043173161453438635,-10,-1,-100,19130.84371367423,0.005813983985460388,0.006604252690780102,0.9999612899690735,64.45084817897025,3.948722142552402,339.8628817681309,-93.2780096120797,-44.228668212890625,4761.76025390625,True
1599388747.2475712,0.0,10,0.5,0.5,-12.32857778930664,-0.2,-0.03,-0.5,-0.013392211977074076,10,1,100,0.008383438060202884,-10,-1,-100,19127.10167007346,0.005130664149952305,0.0057915606584338815,0.999970066607256,64.72070868836371,3.9660514312549595,342.6933168434334,-93.6421119933954,-40.82513427734375,4761.76025390625,True
1599388747.2884607,0.0,10,0.5,0.5,-14.906084289550781,-0.2,-0.03,-0.5,-0.126965568486197,10,1,100,0.09036668411053445,-10,-1,-100,19119.57389187545,0.0037699601802063695,0.004026904347853024,0.9999847856050674,65.0169000165462,3.986472470139585,347.0931771477403,-94.3702804296008,-34.91058349609375,4761.76025390625,True
1599388747.3313463,0.0,10,0.5,0.5,-12.088940155029297,-0.2,-0.03,-0.5,0.04864902639011542,10,1,100,-0.04498620430492398,-10,-1,-100,19119.57389187545,0.0037699601802063695,0.004026904347853024,0.9999847856050674,65.0169000165462,3.986472470139585,347.0931771477403,-94.3702804296008,-34.91058349609375,4761.76025390625,True
1599388747.3722363,0.0,10,0.5,0.5,-15.523364837646486,-0.2,-0.03,-0.5,-0.1376240984053116,10,1,100,0.11196972263715715,-10,-1,-100,19111.987861911766,0.002349088163805607,0.0023407248826352216,0.9999945013807939,65.14555721387798,3.997303432221535,350.62318832036635,-95.0984239110849,-30.18115234375,4761.76025390625,True
1599388747.41213,0.0,10,0.5,0.5,-13.27284573364258,-0.2,-0.03,-0.5,0.030133261966821496,10,1,100,-0.029409593441942643,-10,-1,-100,19111.987861911766,0.002349088163805607,0.0023407248826352216,0.9999945013807939,65.14555721387798,3.997303432221535,350.62318832036635,-95.0984239110849,-30.18115234375,4761.76025390625,True
1599388747.4540188,0.0,10,0.5,0.5,-14.72286932373047,-0.2,-0.03,-0.5,-0.06907692321541306,10,1,100,0.04865954063272844,-10,-1,-100,19108.173002740717,0.001645516155429759,0.0014463197609572921,0.9999976002149862,65.1975404054163,4.002131785429253,352.32809578987775,-95.46248986421115,-28.26190185546875,4761.76025390625,True
1599388747.4959052,0.0,10,0.5,0.5,-15.488807189941408,-0.2,-0.03,-0.5,-0.11187453368622483,10,1,100,0.10368291237540675,-10,-1,-100,19102.42340938747,0.0005118913840245585,0.00025180084580551877,0.9999998372817593,65.3041385601482,4.011266003492105,355.0483244564703,-96.00858023872479,-25.936309814453125,4761.76025390625,True
1599388747.5417829,0.0,10,0.5,0.5,-14.85557879638672,-0.2,-0.03,-0.5,-0.039628249286309564,10,1,100,0.03204951132954659,-10,-1,-100,19100.499597015558,0.00013917250993795193,-0.00016929349633468808,0.9999999759853618,65.35381521254735,4.015204930018309,356.0344523275067,-96.19060720595165,-25.3095703125,4761.76025390625,True
1599388747.5856655,0.0,10,0.5,0.5,-15.332880493164064,-0.2,-0.03,-0.5,-0.08278324626098535,10,1,100,0.08226172794898734,-10,-1,-100,19096.64105118299,-0.0006503702483108888,-0.000937492601010885,0.9999993490628698,65.48213634988389,4.0248884954019655,358.1695404697271,-96.55465477177898,-24.2769775390625,4761.76025390625,True
1599388747.6285572,0.0,10,0.5,0.5,-15.403480773925782,-0.2,-0.03,-0.5,-0.08753562121760824,10,1,100,0.09333990100952079,-10,-1,-100,19092.767943496583,-0.0014623620118460134,-0.0016714283813696138,0.9999975339092154,65.6563579517174,4.037418571289024,360.56375870352696,-96.9186913989661,-23.5399169921875,4761.76025390625,True
1599388747.6704419,0.0,10,0.5,0.5,-15.405659332275391,-0.2,-0.03,-0.5,-0.09731900114941908,10,1,100,0.10304495138952695,-10,-1,-100,19088.880274996627,-0.0022821492130622677,-0.002420059198282966,0.999994467538919,65.88217248430915,4.053139458428369,363.25144819299396,-97.28271392499914,-23.0989990234375,4761.76025390625,True
1599388747.7133281,0.0,10,0.5,0.5,-15.34074691772461,-0.2,-0.03,-0.5,-0.09800068447934336,10,1,100,0.11617559870569336,-10,-1,-100,19084.978046208387,-0.0031400409048939985,-0.0030993646804246735,0.9999902669934809,66.16358773157909,4.0722943672625425,366.25811799396996,-97.64671889859147,-22.9527587890625,4761.76025390625,True
1599388747.757248,0.0,10,0.5,0.5,-14.888452056884766,-0.2,-0.03,-0.5,-0.16808047923598404,10,1,100,0.22815494193822172,-10,-1,-100,19077.129910631105,-0.004931654653141193,-0.004347525735588161,0.9999783886676555,66.89608505179922,4.121071609596027,373.25873006723623,-98.37466164776255,-23.545684814453125,4761.76025390625,True
1599388747.799136,0.0,10,0.5,0.5,-14.701999267578126,-0.2,-0.03,-0.5,-0.10448613530716169,10,1,100,0.15284584804175855,-10,-1,-100,19073.18400589784,-0.005867855739004116,-0.004896474086308,0.9999707959788368,67.34316736293619,4.150439806638294,377.23757108452287,-98.73859226662864,-24.284271240234375,4761.76025390625,True
1599388747.8430223,0.0,10,0.5,0.5,-15.088983123779297,-0.2,-0.03,-0.5,-0.0503150201320721,10,1,100,0.06004743384574722,-10,-1,-100,19073.18400589784,-0.005867855739004116,-0.004896474086308,0.9999707959788368,67.34316736293619,4.150439806638294,377.23757108452287,-98.73859226662864,-24.284271240234375,4761.76025390625,True
1599388747.8849103,0.0,10,0.5,0.5,-14.384115173339845,-0.2,-0.03,-0.5,-0.09899935562190769,10,1,100,0.16777783504683513,-10,-1,-100,19069.223544887966,-0.006839753073647815,-0.005332479682607466,0.9999623905119263,67.83696586086467,4.182674829836209,381.4997317762655,-99.10249129020931,-25.316497802734375,4761.76025390625,True
1599388747.926842,0.0,10,0.5,0.5,-13.980060760498047,-0.2,-0.03,-0.5,-0.10132733163678168,10,1,100,0.18008646744327325,-10,-1,-100,19065.248529012664,-0.007827478882174181,-0.005743849279884413,0.9999528682741998,68.36836115359172,4.217200583198972,385.9967384100497,-99.46635592932633,-26.643646240234375,4761.76025390625,True
1599388747.970244,0.0,10,0.5,0.5,-13.506341461181641,-0.2,-0.03,-0.5,-0.10159541816255561,10,1,100,0.19356654487971342,-10,-1,-100,19061.258959844243,-0.008840376348196517,-0.006114808200256228,0.9999422267644749,68.92752258733384,4.253389447015638,390.6752820478091,-99.83018388825522,-28.26531982421875,4761.76025390625,True
1599388748.0121577,0.0,10,0.5,0.5,-12.967869110107424,-0.2,-0.03,-0.5,-0.09286536853226743,10,1,100,0.2064051537678223,-10,-1,-100,19057.254838604014,-0.009869743626419509,-0.006367274481497147,0.9999310206091347,69.50224289979823,4.290456408122949,395.4676813094021,-100.1939735294732,-30.18023681640625,4761.76025390625,True
1599388748.0555675,0.0,10,0.5,0.5,-10.609406158447266,-0.2,-0.03,-0.5,-0.10324429349962476,10,1,100,0.3341322209408862,-10,-1,-100,19049.202946105972,-0.011958305968760892,-0.006686206980618971,0.9999061423726577,70.6253322838574,4.362545129936,404.97932295653925,-100.92143700221344,-34.8919677734375,4761.76025390625,True
1599388748.0984473,0.0,10,0.5,0.5,-12.931215484619141,-0.2,-0.03,-0.5,-0.07185252144736731,10,1,100,0.12632558110243938,-10,-1,-100,19049.202946105972,-0.011958305968760892,-0.006686206980618971,0.9999061423726577,70.6253322838574,4.362545129936,404.97932295653925,-100.92143700221344,-34.8919677734375,4761.76025390625,True
1599388748.488375,0.0,10,0.5,0.5,-10.93853677368164,-0.2,-0.03,-0.5,-0.07644119835945935,10,1,100,0.24213387929873195,-10,-1,-100,19045.155178044573,-0.013002312173494734,-0.006724043909108593,0.9998928578161019,71.13166298967418,4.394866470772111,409.4554925566687,-101.28511367254423,-37.6881103515625,4761.76025390625,True
1599388748.522283,0.0,10,0.5,0.5,-11.237018707275391,-0.2,-0.03,-0.5,-0.06896823964818984,10,1,100,0.1941873117171808,-10,-1,-100,19043.125839252607,-0.01350656513499449,-0.006687209965606996,0.9998864205104149,71.36025674820519,4.409405965549676,411.5605448163262,-101.46693975124299,-39.19580078125,4761.76025390625,True
1599388748.5612123,0.0,10,0.5,0.5,-10.837196655273438,-0.2,-0.03,-0.5,-0.0665516310610639,10,1,100,0.199734529941556,-10,-1,-100,19041.092863944243,-0.014007610801595993,-0.0066296284077862,0.9998799102226256,71.56737324176959,4.42254024229623,413.5467721085091,-101.64875849137519,-40.776824951171875,4761.76025390625,True
1599388748.6011152,0.0,10,0.5,0.5,-9.210369140625001,-0.2,-0.03,-0.5,-0.05852461779133972,10,1,100,0.2626692436541705,-10,-1,-100,19037.016004777048,-0.015027840845836953,-0.006502733094295731,0.9998659302435584,71.90228768933912,4.443648483408074,417.07368711166777,-102.01237758872327,-44.15948486328125,4761.76025390625,True
1599388748.642999,0.0,10,0.5,0.5,-8.26926156616211,-0.2,-0.03,-0.5,-0.04606352367975887,10,1,100,0.26981323272865376,-10,-1,-100,19032.92460158991,-0.01601194080027237,-0.006272630809191854,0.9998521249937614,72.10855925095859,4.456428369179342,419.8677557675032,-102.37597927607052,-47.834930419921875,4761.76025390625,True
1599388748.6988552,0.0,10,0.5,0.5,-4.2786349792480465,-0.2,-0.03,-0.5,0.007804552658549457,10,1,100,0.3754676952362511,-10,-1,-100,19024.698163183173,-0.01785873388371307,-0.005572882445906813,0.9998249889882304,72.00025222310529,4.4486210995095625,422.4334847818845,-103.10317473992856,-56.06463623046875,4761.76025390625,True
1599388748.7387052,0.0,10,0.5,0.5,-5.117285461425782,-0.2,-0.03,-0.5,-0.012041402825070303,10,1,100,0.28452957552470415,-10,-1,-100,19020.56312731048,-0.018701807184916423,-0.00511732077171148,0.9998120100479578,71.61082946469128,4.4234879826660425,421.7423709907547,-103.46679638699686,-60.61883544921875,4761.76025390625,True
1599388748.7796302,0.0,10,0.5,0.5,-3.904456481933595,-0.2,-0.03,-0.5,-3.3087337779423576e-05,10,1,100,0.28080643558923957,-10,-1,-100,19016.413545730175,-0.01942542579492732,-0.004594914097493574,0.9998007499482698,70.94540060951876,4.38110062183692,419.4057845771879,-103.83045572646243,-65.46578979492188,4761.76025390625,True
1599388748.819488,0.0,10,0.5,0.5,-6.22207699584961,-0.2,-0.03,-0.5,-0.05209651872116966,10,1,100,0.20940014280500052,-10,-1,-100,19016.413545730175,-0.01942542579492732,-0.004594914097493574,0.9998007499482698,70.94540060951876,4.38110062183692,419.4057845771879,-103.83045572646243,-65.46578979492188,4761.76025390625,True
1599388748.8614104,0.0,10,0.5,0.5,-2.532494812011719,-0.2,-0.03,-0.5,0.010932125067746545,10,1,100,0.2849964745445753,-10,-1,-100,19012.249416199862,-0.02010587688362694,-0.004023827602033541,0.9997897591624799,69.96286252096745,4.319100526807307,415.1617069824855,-104.1941708037008,-70.6055908203125,4761.76025390625,True
1599388748.9152343,0.0,10,0.5,0.5,-1.1923796997070317,-0.2,-0.03,-0.5,0.021558535532743596,10,1,100,0.28068370758776817,-10,-1,-100,19008.070735818357,-0.020677854927460288,-0.0034104746740958878,0.9997803733711202,68.63055589839885,4.235702503718309,408.7943865711397,-104.55795950128044,-76.03826904296875,4761.76025390625,True
1599388748.9551723,0.0,10,0.5,0.5,0.21398547363281217,-0.2,-0.03,-0.5,0.03337921568187467,10,1,100,0.2807194591345269,-10,-1,-100,19003.877500952687,-0.02119118221523026,-0.002748432710283205,0.999771663888289,66.91788424592724,4.129278780835913,400.0969898188193,-104.92183910082568,-81.76348876953125,4761.76025390625,True
1599388748.9960487,0.0,10,0.5,0.5,3.8752517700195312,-0.2,-0.03,-0.5,0.07694045051524674,10,1,100,0.29109642155210935,-10,-1,-100,18997.560351029388,-0.02174519339238077,-0.0017541458603822233,0.9997620064478488,64.81502779685009,3.9997838880936474,389.7147292683597,-105.4678293670078,-90.90087890625,4761.76025390625,True
1599388749.0369413,0.0,10,0.5,0.5,3.939744415283203,-0.2,-0.03,-0.5,0.05099733504371377,10,1,100,0.26581958923391596,-10,-1,-100,18993.330720259226,-0.02201201636636058,-0.0010905274852565433,0.9997571114452206,67.15110535047712,4.145231773777784,405.2755902167244,-105.8317402984302,-97.30490112304688,4761.76025390625,True
1599388749.0768402,0.0,10,0.5,0.5,7.53044287109375,-0.2,-0.03,-0.5,0.08796573398368553,10,1,100,0.26494354393684083,-10,-1,-100,18986.95898959227,-0.022240269407713793,-0.000156081886241672,0.9997526424346759,70.3533068994031,4.34615398425525,426.980662846118,-106.37735434445642,-106.781005859375,4761.76025390625,True
1599388749.1197143,0.0,10,0.5,0.5,2.969228729248047,-0.2,-0.03,-0.5,-0.004867171025506572,10,1,100,0.24274107266226358,-10,-1,-100,18986.95898959227,-0.022240269407713793,-0.000156081886241672,0.9997526424346759,70.3533068994031,4.34615398425525,426.980662846118,-106.37735434445642,-106.781005859375,4761.76025390625,True
1599388749.1625705,0.0,10,0.5,0.5,11.304983032226563,-0.2,-0.03,-0.5,0.11538223963691707,10,1,100,0.2466242087764951,-10,-1,-100,18978.41244536871,-0.02227158743100317,0.0009321702101806656,0.9997515228555556,73.69570223669245,4.557791911140659,450.5813841082153,-107.10440599326053,-118.47187042236328,4761.76025390625,True
1599388749.2044995,0.0,10,0.5,0.5,9.414883995056153,-0.2,-0.03,-0.5,0.06025817536960214,10,1,100,0.23291421575125454,-10,-1,-100,18974.11736740044,-0.02217217680626761,0.0014148629036054802,0.9997531659057829,74.81990808988547,4.629534117569927,459.13504037049387,-107.46778549601359,-123.87440490722656,4761.76025390625,True
1599388749.2463834,0.0,10,0.5,0.5,6.8888425979614265,-0.2,-0.03,-0.5,0.012589883727230583,10,1,100,0.24312995332594456,-10,-1,-100,18974.11736740044,-0.02217217680626761,0.0014148629036054802,0.9997531659057829,74.81990808988547,4.629534117569927,459.13504037049387,-107.46778549601359,-123.87440490722656,4761.76025390625,True
1599388749.2892313,0.0,10,0.5,0.5,14.006294090270996,-0.2,-0.03,-0.5,0.08886314492205001,10,1,100,0.20851789884160976,-10,-1,-100,18965.483613799093,-0.021855024719126984,0.002102792753557385,0.9997589390233838,76.04220875024258,4.708018882156857,470.0491683522711,-108.19437106504672,-133.7918701171875,4761.76025390625,True
1599388749.3301165,0.0,10,0.5,0.5,12.397214012145998,-0.2,-0.03,-0.5,0.047861695673274224,10,1,100,0.2138511024289934,-10,-1,-100,18961.144941332983,-0.02161359817448854,0.002349873423656072,0.9997636373007595,76.22900451840866,4.720110222363649,472.91575968164057,-108.5576196730061,-138.30628967285156,4761.76025390625,True
1599388749.3729997,0.0,10,0.5,0.5,10.326808296203614,-0.2,-0.03,-0.5,0.0237296634731807,10,1,100,0.23808733121754072,-10,-1,-100,18961.144941332983,-0.02161359817448854,0.002349873423656072,0.9997636373007595,76.22900451840866,4.720110222363649,472.91575968164057,-108.5576196730061,-138.30628967285156,4761.76025390625,True
1599388749.4138904,0.0,10,0.5,0.5,16.195611198425294,-0.2,-0.03,-0.5,0.05120104773159762,10,1,100,0.1811094515699402,-10,-1,-100,18952.424006917747,-0.021095233435911027,0.002594978456792645,0.9997741030918401,75.96837295738678,4.703465539501669,474.7170617691813,-109.28411278150871,-146.44796752929688,4761.76025390625,True
1599388749.455818,0.0,10,0.5,0.5,12.291413536071778,-0.2,-0.03,-0.5,0.02712545684965784,10,1,100,0.23288092943204441,-10,-1,-100,18952.424006917747,-0.021095233435911027,0.002594978456792645,0.9997741030918401,75.96837295738678,4.703465539501669,474.7170617691813,-109.28411278150871,-146.44796752929688,4761.76025390625,True
1599388749.4977086,0.0,10,0.5,0.5,17.310238609313966,-0.2,-0.03,-0.5,0.0207128470935959,10,1,100,0.16657495720670212,-10,-1,-100,18943.644950264134,-0.02049328530925378,0.0025333315445174916,0.9997867810130914,75.13464131120229,4.649959370145189,472.8991726665352,-110.01067445673633,-153.4071044921875,4761.76025390625,True
1599388749.5405924,0.0,10,0.5,0.5,16.096215232849122,-0.2,-0.03,-0.5,0.009528390034577054,10,1,100,0.19058800924727115,-10,-1,-100,18939.23362339323,-0.02016594838002369,0.002373167093339218,0.9997938300489163,74.59422473024503,4.615327238658029,471.18628509313294,-110.37399722367032,-156.4437713623047,4761.76025390625,True
1599388749.5804844,0.0,10,0.5,0.5,16.645600257873536,-0.2,-0.03,-0.5,0.0028491726524567454,10,1,100,0.18807720670022426,-10,-1,-100,18934.80776293634,-0.019847429622139263,0.002164543571540075,0.9998006772794871,74.01278194320983,4.578132075041073,469.19193596511695,-110.7373513815739,-159.184814453125,4761.76025390625,True
1599388749.62337,0.0,10,0.5,0.5,17.109470352172853,-0.2,-0.03,-0.5,-0.008719085647146213,10,1,100,0.1833064368002441,-10,-1,-100,18930.367367237224,-0.01951670025934348,0.001868599500488682,0.9998077849001246,73.41949816532646,4.540252367586922,467.0987868742757,-111.1007367336498,-161.63088989257812,4761.76025390625,True
1599388749.6642609,0.0,10,0.5,0.5,15.999702087402344,-0.2,-0.03,-0.5,0.020920695117681395,10,1,100,0.21611382542513016,-10,-1,-100,18930.367367237224,-0.01951670025934348,0.001868599500488682,0.9998077849001246,73.41949816532646,4.540252367586922,467.0987868742757,-111.1007367336498,-161.63088989257812,4761.76025390625,True
1599388749.705151,0.0,10,0.5,0.5,18.294062850952148,-0.2,-0.03,-0.5,-0.04154983144876602,10,1,100,0.16085416056142854,-10,-1,-100,18923.67951786192,-0.019016753739261576,0.001300273134796539,0.9998183196796282,72.55799516024926,4.485385862820485,464.0952477735801,-111.64586976913019,-164.74673461914062,4761.76025390625,True
1599388749.7474382,0.0,10,0.5,0.5,17.452805740356446,-0.2,-0.03,-0.5,-0.00935691471232655,10,1,100,0.19203079833345596,-10,-1,-100,18921.442965854774,-0.01884826112891452,0.0010770052450610958,0.9998217756741041,72.28871644832506,4.468268944500377,463.19681414240347,-111.8275939620521,-165.63787841796875,4761.76025390625,True
1599388749.789323,0.0,10,0.5,0.5,19.068809295654297,-0.2,-0.03,-0.5,-0.1052748388720048,10,1,100,0.13416303271700022,-10,-1,-100,18912.46041085408,-0.018171529374854483,3.2104603759769364e-06,0.9998348841233095,71.35635666961048,4.409097132515354,460.48095441232016,-112.5545432178873,-168.46585083007812,4761.76025390625,True
1599388749.830213,0.0,10,0.5,0.5,17.74530177307129,-0.2,-0.03,-0.5,0.0018699733001790743,10,1,100,0.20149200124304045,-10,-1,-100,18912.46041085408,-0.018171529374854483,3.2104603759769364e-06,0.9998348841233095,71.35635666961048,4.409097132515354,460.48095441232016,-112.5545432178873,-168.46585083007812,4761.76025390625,True
1599388749.8730981,0.0,10,0.5,0.5,18.49197981262207,-0.2,-0.03,-0.5,-0.06974481134479957,10,1,100,0.16421954791925475,-10,-1,-100,18907.947324121953,-0.017835346802875574,-0.000645476883672541,0.9998407291984128,71.00038505954981,4.386511395429421,459.80751994212966,-112.91804073063466,-169.43817138671875,4761.76025390625,True
1599388749.9139888,0.0,10,0.5,0.5,18.548958541870118,-0.2,-0.03,-0.5,-0.07971266472266329,10,1,100,0.15569710051010466,-10,-1,-100,18903.419697187725,-0.01745521302156887,-0.0013228636313877139,0.999846771045536,70.73146872101864,4.369401124729343,459.68513162977825,-113.28154623084862,-170.1155548095703,4761.76025390625,True
1599388749.9583843,0.0,10,0.5,0.5,18.591390411376956,-0.2,-0.03,-0.5,-0.18751631386527368,10,1,100,0.1121587709236273,-10,-1,-100,18894.32082243834,-0.016716595744401784,-0.0029151973077198696,0.9998560181603026,70.48103667839396,4.353096081867507,461.2884692147132,-114.00855816083508,-170.58840942382812,4761.76025390625,True
1599388750.0022671,0.0,10,0.5,0.5,18.39739701843262,-0.2,-0.03,-0.5,-0.028811782672164006,10,1,100,0.1856755633767736,-10,-1,-100,18894.32082243834,-0.016716595744401784,-0.0029151973077198696,0.9998560181603026,70.48103667839396,4.353096081867507,461.2884692147132,-114.00855816083508,-170.58840942382812,4761.76025390625,True
1599388750.0441551,0.0,10,0.5,0.5,18.288245376586914,-0.2,-0.03,-0.5,-0.12558070578059216,10,1,100,0.14104091602996238,-10,-1,-100,18889.749574896414,-0.01631367243568326,-0.003790296844269889,0.9998597390341776,70.50791883020678,4.3543441126538065,463.0822673533602,-114.37205246426625,-170.38360595703125,4761.76025390625,True
1599388750.0880377,0.0,10,0.5,0.5,18.067535446166993,-0.2,-0.03,-0.5,-0.13804822816379148,10,1,100,0.12953741067944696,-10,-1,-100,18885.163788250997,-0.015845713040774156,-0.004694038538849211,0.9998634303645799,70.63715336917483,4.3618642947500135,465.5529209926168,-114.73553082014487,-169.88450622558594,4761.76025390625,True
1599388750.13192,0.0,10,0.5,0.5,17.026750640869142,-0.2,-0.03,-0.5,-0.26928544828501744,10,1,100,0.07096299819278068,-10,-1,-100,18875.94860056904,-0.014891138011176702,-0.00670272150044216,0.9998666548761487,71.19340954901551,4.394988598187142,472.4909455280373,-115.46241429408428,-168.00579833984375,4761.76025390625,True
1599388750.1718125,0.0,10,0.5,0.5,17.009942443847656,-0.2,-0.03,-0.5,-0.1856865213301453,10,1,100,0.10573440119656663,-10,-1,-100,18871.319201886654,-0.014343196753148057,-0.007761531225359422,0.999867006826377,71.61300283217314,4.420058338219135,476.9222461021973,-115.8258069439232,-166.62588500976562,4761.76025390625,True
1599388750.2137005,0.0,10,0.5,0.5,17.70286312866211,-0.2,-0.03,-0.5,-0.0806894024854611,10,1,100,0.1600780205618545,-10,-1,-100,18871.319201886654,-0.014343196753148057,-0.007761531225359422,0.999867006826377,71.61300283217314,4.420058338219135,476.9222461021973,-115.8258069439232,-166.62588500976562,4761.76025390625,True
1599388750.2565858,0.0,10,0.5,0.5,15.14858529663086,-0.2,-0.03,-0.5,-0.3198393181999038,10,1,100,0.015643286146189844,-10,-1,-100,18862.016802869854,-0.01303363401538902,-0.009928562512140051,0.999865765005881,72.69077359700934,4.4843230327164205,487.44360313196086,-116.55246489886434,-162.98480224609375,4761.76025390625,True
1599388750.2974777,0.0,10,0.5,0.5,15.370633972167969,-0.2,-0.03,-0.5,-0.23116814146965176,10,1,100,0.0680040507165,-10,-1,-100,18857.343806298566,-0.012323800200210412,-0.011083460463508771,0.9998626309912674,73.32525707005196,4.522022432824356,493.38467749757973,-116.91571942577413,-160.7247314453125,4761.76025390625,True
1599388750.3387856,0.0,10,0.5,0.5,14.686183715820313,-0.2,-0.03,-0.5,-0.23480787523449334,10,1,100,0.04480228695556267,-10,-1,-100,18852.656281346688,-0.011472582103678306,-0.012156967104815408,0.9998602842450973,74.00627717100208,4.562370332191714,499.66872674268404,-117.27891820297287,-158.16995239257812,4761.76025390625,True
1599388750.3817081,0.0,10,0.5,0.5,13.934633407592774,-0.2,-0.03,-0.5,-0.2524521202475244,10,1,100,0.03271085774561186,-10,-1,-100,18847.954230085248,-0.010594264142120375,-0.013283435275691334,0.9998556455381764,74.71330885214527,4.6041214291875585,506.15958909999,-117.64205768496882,-155.32266235351562,4761.76025390625,True
1599388750.4225948,0.0,10,0.5,0.5,14.23882243347168,-0.2,-0.03,-0.5,-0.20104735949040123,10,1,100,0.06803835123281288,-10,-1,-100,18845.59775808896,-0.010122518055680704,-0.013830755571451992,0.9998531116261703,75.07008312022559,4.625135146535948,509.4389498452297,-117.82360453083332,-153.7888641357422,4761.76025390625,True
1599388750.463451,0.0,10,0.5,0.5,13.830298492431641,-0.2,-0.03,-0.5,-0.20690737178898216,10,1,100,0.060392645950285456,-10,-1,-100,18843.23765518621,-0.0096301461815205,-0.014371669080981751,0.9998503465080909,75.42556486331179,4.646036829647878,512.717426041165,-118.00513574544914,-152.1816864013672,4761.76025390625,True
1599388750.507374,0.0,10,0.5,0.5,9.566114791870117,-0.2,-0.03,-0.5,-0.38501526223398963,10,1,100,-0.12812485791837297,-10,-1,-100,18833.760943892295,-0.007474815830072657,-0.01647295184620277,0.9998363711056821,76.7692272197377,4.724694353349824,525.3738923178936,-118.73110646174254,-145.02001953125,4761.76025390625,True
1599388750.555205,0.0,10,0.5,0.5,13.072354766845704,-0.2,-0.03,-0.5,-0.17606487704262302,10,1,100,0.08657108750534105,-10,-1,-100,18833.760943892295,-0.007474815830072657,-0.01647295184620277,0.9998363711056821,76.7692272197377,4.724694353349824,525.3738923178936,-118.73110646174254,-145.02001953125,4761.76025390625,True
1599388750.5971265,0.0,10,0.5,0.5,10.18906332397461,-0.2,-0.03,-0.5,-0.2872118136817797,10,1,100,-0.044359383081416695,-10,-1,-100,18829.000812325743,-0.006291280935812227,-0.017474496515335322,0.9998275160024963,77.3444875472672,4.758172983873662,531.0830461706933,-119.09400393903742,-140.99954223632812,4761.76025390625,True
1599388750.6420045,0.0,10,0.5,0.5,5.877377471923829,-0.2,-0.03,-0.5,-0.3818022053153842,10,1,100,-0.20873550395858553,-10,-1,-100,18819.43700806005,-0.003728331674707879,-0.01923607435186134,0.9998080180646949,78.14141663709418,4.804138869177777,540.1327129193702,-119.81965462776618,-132.0780487060547,4761.76025390625,True
1599388750.683505,0.0,10,0.5,0.5,10.234480728149414,-0.2,-0.03,-0.5,-0.20679187597543255,10,1,100,0.04649793564400527,-10,-1,-100,18819.43700806005,-0.003728331674707879,-0.01923607435186134,0.9998080180646949,78.14141663709418,4.804138869177777,540.1327129193702,-119.81965462776618,-132.0780487060547,4761.76025390625,True
1599388750.7254288,0.0,10,0.5,0.5,3.0744692077636717,-0.2,-0.03,-0.5,-0.3530398496116308,10,1,100,-0.25426029525588767,-10,-1,-100,18809.815158013604,-0.001002625305018563,-0.020557140010517942,0.9997881769340371,78.22117269119576,4.807723205579519,544.264072914749,-120.54519094793382,-121.98191833496094,4761.76025390625,True
1599388750.773298,0.0,10,0.5,0.5,4.1657854766845706,-0.2,-0.03,-0.5,-0.28796238641817373,10,1,100,-0.14241621277585612,-10,-1,-100,18804.982467300957,0.00044823321315762727,-0.021157883053404325,0.9997760464582481,77.896891109557,4.78790943144539,543.7920068051927,-120.90795721799628,-116.4954605102539,4761.76025390625,True
1599388750.8141544,0.0,10,0.5,0.5,6.783990913391114,-0.2,-0.03,-0.5,-0.22878817372439433,10,1,100,0.0014775575100793095,-10,-1,-100,18804.982467300957,0.00044823321315762727,-0.021157883053404325,0.9997760464582481,77.896891109557,4.78790943144539,543.7920068051927,-120.90795721799628,-116.4954605102539,4761.76025390625,True
1599388750.85704,0.0,10,0.5,0.5,2.6201643371582026,-0.2,-0.03,-0.5,-0.26726806985839313,10,1,100,-0.14933007911213755,-10,-1,-100,18800.135265199933,0.0018091730939457098,-0.021500541702097302,0.9997671997016268,77.27596288103508,4.750332680864362,541.2298591302434,-121.27075024049049,-110.71353912353516,4761.76025390625,True
1599388750.9009635,0.0,10,0.5,0.5,-3.3266367111206057,-0.2,-0.03,-0.5,-0.28529035076299764,10,1,100,-0.3228650296657353,-10,-1,-100,18790.39731852291,0.004613134635013377,-0.02196891594901401,0.9997480111112321,75.00520599026295,4.612714616406407,528.776908357139,-121.99651067356635,-98.27277374267578,4761.76025390625,True
1599388750.9573925,0.0,10,0.5,0.5,-1.9299459381103514,-0.2,-0.03,-0.5,-0.24302602206357224,10,1,100,-0.1872967747346198,-10,-1,-100,18785.50656804873,0.005916803463140629,-0.022003582960881663,0.9997403831863861,73.42912591237523,4.51671611321839,519.3606207664667,-122.3595220599903,-91.61282348632812,4761.76025390625,True
1599388750.9992828,0.0,10,0.5,0.5,-3.4159785308837893,-0.2,-0.03,-0.5,-0.23329344916522043,10,1,100,-0.18910640015678853,-10,-1,-100,18780.60129377246,0.007106233884100381,-0.021941592644308443,0.9997339985977348,71.58454093952379,4.403783763185841,507.9691711709774,-122.72263718904418,-84.96170043945312,4761.76025390625,True
1599388751.0411685,0.0,10,0.5,0.5,-4.749904098510743,-0.2,-0.03,-0.5,-0.22413655164869567,10,1,100,-0.19999420623933245,-10,-1,-100,18775.681491435156,0.00827325882234676,-0.02179702179654792,0.9997281845728164,69.66545476496782,4.285660065735032,495.9634687351935,-123.08586082320718,-78.56268310546875,4761.76025390625,True
1599388751.0820608,0.0,10,0.5,0.5,-1.737706008911133,-0.2,-0.03,-0.5,-0.23902588895286908,10,1,100,-0.08474816639051037,-10,-1,-100,18775.681491435156,0.00827325882234676,-0.02179702179654792,0.9997281845728164,69.66545476496782,4.285660065735032,495.9634687351935,-123.08586082320718,-78.56268310546875,4761.76025390625,True
1599388751.1239796,0.0,10,0.5,0.5,-8.233905792236328,-0.2,-0.03,-0.5,-0.19854373276598541,10,1,100,-0.2526339234824699,-10,-1,-100,18768.27454308758,0.009788582440912706,-0.021426674060808355,0.9997225021437146,70.06006094939491,4.308560638955407,501.2038900556088,-123.63074837595491,-69.51174926757812,4761.76025390625,True
1599388751.1659188,0.0,10,0.5,0.5,-9.76314521789551,-0.2,-0.03,-0.5,-0.17719426655440876,10,1,100,-0.2461777211718693,-10,-1,-100,18760.8349128057,0.011095168514862088,-0.020893916790295373,0.9997201315752258,72.75074603902036,4.4715771051185556,522.9729057449781,-124.17534432045748,-61.13031005859375,4761.76025390625,True
1599388751.2098067,0.0,10,0.5,0.5,-9.404751556396484,-0.2,-0.03,-0.5,-0.18981414301689284,10,1,100,-0.1926368926755493,-10,-1,-100,18755.85701118887,0.011785241237740543,-0.020524011987869992,0.9997198972816785,74.12741094108537,4.554381054835223,534.5781359188707,-124.53826371712859,-55.916351318359375,4761.76025390625,True
1599388751.2506921,0.0,10,0.5,0.5,-6.979509513854981,-0.2,-0.03,-0.5,-0.22674123615287745,10,1,100,-0.12476332119016209,-10,-1,-100,18755.85701118887,0.011785241237740543,-0.020524011987869992,0.9997198972816785,74.12741094108537,4.554381054835223,534.5781359188707,-124.53826371712859,-55.916351318359375,4761.76025390625,True
1599388751.298529,0.0,10,0.5,0.5,-10.602051895141603,-0.2,-0.03,-0.5,-0.18254583717895986,10,1,100,-0.19180122064259,-10,-1,-100,18750.864595266758,0.01238437031637663,-0.020122811879984864,0.9997208109336875,75.2121209613719,4.619311660585974,544.1327766603341,-124.90109020000136,-51.00091552734375,4761.76025390625,True
1599388751.3384326,0.0,10,0.5,0.5,-11.555332221984862,-0.2,-0.03,-0.5,-0.17566234800249714,10,1,100,-0.18657843389391823,-10,-1,-100,18745.857668912737,0.012871939419946575,-0.019696759816505188,0.999723137087614,76.04040385478541,4.66871651086805,551.8751174783756,-125.26384246491136,-46.38397216796875,4761.76025390625,True
1599388751.3793974,0.0,10,0.5,0.5,-15.239264007568359,-0.2,-0.03,-0.5,-0.1225937767729776,10,1,100,-0.2078983104388634,-10,-1,-100,18735.80029273522,0.013501493114705177,-0.018829063798648495,0.9997315519879024,77.06635937171805,4.729846620290538,562.8679082029142,-125.98919043585212,-38.0457763671875,4761.76025390625,True
1599388751.4222667,0.0,10,0.5,0.5,-13.835701232910157,-0.2,-0.03,-0.5,-0.163006105799838,10,1,100,-0.16251993933361378,-10,-1,-100,18730.749846155057,0.013654388836572943,-0.018410519972806808,0.9997372706965718,77.33324509717082,4.745890841922263,566.5979221033251,-126.35181387675324,-34.3245849609375,4761.76025390625,True
1599388751.4627419,0.0,10,0.5,0.5,-14.522585723876954,-0.2,-0.03,-0.5,-0.16288213874634605,10,1,100,-0.15457669744281535,-10,-1,-100,18725.68489527097,0.01371522078930686,-0.01803210867852944,0.999743334949179,77.48035632403561,4.7549556004230285,569.4615732966131,-126.71441799342632,-30.90234375,4761.76025390625,True
1599388751.5036318,0.0,10,0.5,0.5,-15.141369354248047,-0.2,-0.03,-0.5,-0.1590390084090533,10,1,100,-0.14398883857229375,-10,-1,-100,18720.605440549203,0.013669322063908442,-0.017656583510772823,0.9997506662628639,77.53769647518236,4.758839464506296,571.6722492414794,-127.07701065783858,-27.778167724609375,4761.76025390625,True
1599388751.546517,0.0,10,0.5,0.5,-15.709570678710937,-0.2,-0.03,-0.5,-0.15901672117189058,10,1,100,-0.13397832471396978,-10,-1,-100,18715.51148253109,0.013531685766432789,-0.01731875841818876,0.9997584478698698,77.53338818441111,4.759215341457908,573.4320526369595,-127.43959739103148,-24.952545166015625,4761.76025390625,True
1599388751.5879443,0.0,10,0.5,0.5,-14.43043701171875,-0.2,-0.03,-0.5,-0.1923884388660348,10,1,100,-0.14811626479408713,-10,-1,-100,18715.51148253109,0.013531685766432789,-0.01731875841818876,0.9997584478698698,77.53338818441111,4.759215341457908,573.4320526369595,-127.43959739103148,-24.952545166015625,4761.76025390625,True
1599388751.6298747,0.0,10,0.5,0.5,-16.30817501831055,-0.2,-0.03,-0.5,-0.15799841738240375,10,1,100,-0.12347153406711583,-10,-1,-100,18710.40302099532,0.013305427744140712,-0.017009372003221303,0.999766796236303,77.49294590713068,4.757594578561267,574.9261936347546,-127.80218161003087,-22.42510986328125,4761.76025390625,True
1599388751.6712031,0.0,10,0.5,0.5,-16.705575622558595,-0.2,-0.03,-0.5,-0.15750725213507943,10,1,100,-0.11161758361619015,-10,-1,-100,18705.28005596937,0.0129905934593155,-0.016726841614624892,0.9997757034711207,77.4387297008724,4.75529863838845,576.3186742943118,-128.16476490581644,-20.19561767578125,4761.76025390625,True
1599388751.713058,0.0,10,0.5,0.5,-17.050076080322267,-0.2,-0.03,-0.5,-0.15793616508394429,10,1,100,-0.09718368611218664,-10,-1,-100,18700.14258786931,0.01257206744832748,-0.016477346988502603,0.999785197007985,77.39130643241839,4.753546110403006,577.7621005795882,-128.527347172324,-18.264068603515625,4761.76025390625,True
1599388751.7559764,0.0,10,0.5,0.5,-17.326271240234377,-0.2,-0.03,-0.5,-0.15785609009771925,10,1,100,-0.08536564381445351,-10,-1,-100,18694.990616479772,0.01208398187460266,-0.016253119796599824,0.9997948857035285,77.36993293027155,4.753484474939031,579.4011320122663,-128.88992724759825,-16.630126953125,4761.76025390625,True
1599388751.7978327,0.0,10,0.5,0.5,-18.261660095214843,-0.2,-0.03,-0.5,-0.1392416848371773,10,1,100,0.0020437832268146577,-10,-1,-100,18684.643164615263,0.010846352886791607,-0.015883185610701376,0.9998150234137869,77.45736292248579,4.761535069618517,583.6650915080091,-129.6150693269465,-14.2542724609375,4761.76025390625,True
1599388751.8399565,0.0,10,0.5,0.5,-17.145107360839845,-0.2,-0.03,-0.5,-0.1759405156082274,10,1,100,-0.12145360153149926,-10,-1,-100,18684.643164615263,0.010846352886791607,-0.015883185610701376,0.9998150234137869,77.45736292248579,4.761535069618517,583.6650915080091,-129.6150693269465,-14.2542724609375,4761.76025390625,True
1599388751.8808475,0.0,10,0.5,0.5,-18.03729461669922,-0.2,-0.03,-0.5,-0.14067974759378093,10,1,100,0.047956191275204854,-10,-1,-100,18674.23770385515,0.009308816621230462,-0.015564930750899231,0.9998355259060521,77.78700598140982,4.784627946607255,589.7837609270481,-130.34016106088282,-13.06573486328125,4761.76025390625,True
1599388751.9237366,0.0,10,0.5,0.5,-17.49653564453125,-0.2,-0.03,-0.5,-0.1722585157812324,10,1,100,-0.10535679486410202,-10,-1,-100,18674.23770385515,0.009308816621230462,-0.015564930750899231,0.9998355259060521,77.78700598140982,4.784627946607255,589.7837609270481,-130.34016106088282,-13.06573486328125,4761.76025390625,True
1599388751.9655826,0.0,10,0.5,0.5,-17.644920989990236,-0.2,-0.03,-0.5,-0.1607282827487798,10,1,100,-0.00557935651673995,-10,-1,-100,18669.013221675996,0.008405713095747787,-0.015462011953113183,0.9998451230934288,78.05742675483836,4.802720541405022,593.6613530670353,-130.702676291783,-12.91680908203125,4761.76025390625,True
1599388752.007505,0.0,10,0.5,0.5,-17.194208740234377,-0.2,-0.03,-0.5,-0.14122756695310434,10,1,100,0.12354973654755007,-10,-1,-100,18658.520759383333,0.006415469019879705,-0.015192858126497068,0.9998640001616236,78.83390933233511,4.853532390842677,603.2644381548052,-131.42761774764867,-13.505889892578125,4761.76025390625,True
1599388752.0489547,0.0,10,0.5,0.5,-17.523089111328126,-0.2,-0.03,-0.5,-0.1679303595855467,10,1,100,-0.07476304936460285,-10,-1,-100,18658.520759383333,0.006415469019879705,-0.015192858126497068,0.9998640001616236,78.83390933233511,4.853532390842677,603.2644381548052,-131.42761774764867,-13.505889892578125,4761.76025390625,True
1599388752.0908356,0.0,10,0.5,0.5,-16.310640838623048,-0.2,-0.03,-0.5,-0.1294762579700132,10,1,100,0.17462607407571787,-10,-1,-100,18647.970309327706,0.004154558769262481,-0.01484492676078924,0.9998811768359777,79.9249600577066,4.923921780823108,615.3706522203122,-132.15240308778155,-15.27618408203125,4761.76025390625,True
1599388752.1326895,0.0,10,0.5,0.5,-16.280474212646485,-0.2,-0.03,-0.5,-0.1491333160763269,10,1,100,0.08824539474633378,-10,-1,-100,18642.67334351316,0.002892497475959454,-0.01470903687916119,0.9998876325329956,80.57343400569586,4.965544589662519,622.2601087886762,-132.51472356494742,-16.6048583984375,4761.76025390625,True
1599388752.1746118,0.0,10,0.5,0.5,-16.949789001464843,-0.2,-0.03,-0.5,-0.1625454732281978,10,1,100,-0.03699277758673213,-10,-1,-100,18642.67334351316,0.002892497475959454,-0.01470903687916119,0.9998876325329956,80.57343400569586,4.965544589662519,622.2601087886762,-132.51472356494742,-16.6048583984375,4761.76025390625,True
1599388752.2155104,0.0,10,0.5,0.5,-15.814885559082033,-0.2,-0.03,-0.5,-0.13168105109365905,10,1,100,0.10399742487055257,-10,-1,-100,18637.361886188155,0.0016191242576192688,-0.014429854935135782,0.9998945733042006,81.28626533351168,5.011184778255414,629.680328225485,-132.8769891874611,-18.22625732421875,4761.76025390625,True
1599388752.2583985,0.0,10,0.5,0.5,-13.72467370605469,-0.2,-0.03,-0.5,-0.09904515112526704,10,1,100,0.2847861704035708,-10,-1,-100,18626.69550780335,-0.0011736334196909089,-0.013880684377832362,0.999902969885478,82.83970510692347,5.110422275224837,645.6218555356322,-133.60133998599693,-22.3533935546875,4761.76025390625,True
1599388752.3032634,0.0,10,0.5,0.5,-14.011487792968751,-0.2,-0.03,-0.5,-0.11161274840253652,10,1,100,0.16643883317061858,-10,-1,-100,18621.340591256274,-0.002625691891212884,-0.013497509756652492,0.999905457017043,83.66208224585748,5.1628276399392385,654.0064444273077,-133.96341904833469,-24.856903076171875,4761.76025390625,True
1599388752.346156,0.0,10,0.5,0.5,-13.270611968994142,-0.2,-0.03,-0.5,-0.09642426493256381,10,1,100,0.18309171380888573,-10,-1,-100,18615.97119388159,-0.004086285317933069,-0.013012971543120356,0.999906978095422,84.4847874119709,5.21516095881075,662.4336155566972,-134.3254320036982,-27.652984619140625,4761.76025390625,True
1599388752.3890069,0.0,10,0.5,0.5,-14.624890991210938,-0.2,-0.03,-0.5,-0.14462289036499953,10,1,100,0.03837188133078359,-10,-1,-100,18615.97119388159,-0.004086285317933069,-0.013012971543120356,0.999906978095422,84.4847874119709,5.21516095881075,662.4336155566972,-134.3254320036982,-27.652984619140625,4761.76025390625,True
