Timestamp,Input Throttle,horizon,dT,dt,Input Roll,Roll P,Roll I,Roll D,Input Pitch,Pitch P,Pitch I,Pitch D,Input Yaw,Yaw P,Yaw I,Yaw D,Altitude,Direction X,Direction Y,Direction Z,Drag X,Drag Y,Drag Z,Vertical Velocity,Roll,Mass,Has Fuel
1599385445.5920234,0.0,10,0.5,0.5,-2.845593460083008,-0.05075,-0.001,-0.37525,-0.0010588651548613696,10,1,100,0.4926923921173676,-10,-1,-100,19352.46380126907,-0.04879417959824013,-0.00018472190464568017,0.9988088375235538,60.89728403230469,3.6746281642691487,231.77102402562352,-68.29941029066991,-33.921295166015625,4761.76025390625,True
1599385445.614992,0.0,10,0.5,0.5,-2.8511471237182624,-0.05075,-0.001,-0.37525,-0.0009968723795051697,10,1,100,0.49820672247861675,-10,-1,-100,19351.094163765898,-0.04884313876675278,-0.00017682355139644199,0.998806445978821,60.98673587481764,3.680693787761713,232.75485404412765,-68.48187370359086,-33.92236328125,4761.76025390625,True
1599385445.6339428,0.0,10,0.5,0.5,-2.8372649505615235,-0.05075,-0.001,-0.37525,0.011618378334341265,10,1,100,0.5085331837277078,-10,-1,-100,19346.96335600107,-0.04893712116878624,-5.479838417907928e-05,0.9988018598144721,61.25657549789111,3.6990024121659513,235.72442931355945,-69.02924356379098,-33.96905517578125,4761.76025390625,True
1599385445.6588786,0.0,10,0.5,0.5,-2.860389178466797,-0.05075,-0.001,-0.37525,-0.0005896182258129129,10,1,100,0.5040286556412403,-10,-1,-100,19346.96335600107,-0.04893712116878624,-5.479838417907928e-05,0.9988018598144721,61.25657549789111,3.6990024121659513,235.72442931355945,-69.02924356379098,-33.96905517578125,4761.76025390625,True
1599385445.6930847,0.0,10,0.5,0.5,-2.8206725708007814,-0.05075,-0.001,-0.37525,0.010841746210843328,10,1,100,0.5081115902752017,-10,-1,-100,19345.579122064053,-0.048929750464396085,4.9172927412503885e-05,0.9988022212137471,61.34981505627814,3.7053098262389073,236.73113996514348,-69.21169319335306,-34.075439453125,4761.76025390625,True
1599385445.7140417,0.0,10,0.5,0.5,-2.5499358489990236,-0.05075,-0.001,-0.37525,0.04747062137654976,10,1,100,0.5033219008285326,-10,-1,-100,19341.404526717495,-0.04883502560137677,0.00047663737315908113,0.9988067446164585,61.64992576096657,3.725453702538446,239.84339191003332,-69.75901907397642,-34.81781005859375,4761.76025390625,True
1599385445.7329783,0.0,10,0.5,0.5,-2.8340286376953125,-0.05075,-0.001,-0.37525,0.004771840539207942,10,1,100,0.5176778896906015,-10,-1,-100,19341.404526717495,-0.04883502560137677,0.00047663737315908113,0.9988067446164585,61.64992576096657,3.725453702538446,239.84339191003332,-69.75901907397642,-34.81781005859375,4761.76025390625,True
1599385445.9060767,0.0,10,0.5,0.5,-2.6721785705566408,-0.05075,-0.001,-0.37525,0.028100952589070215,10,1,100,0.5139787881403592,-10,-1,-100,19340.0056976137,-0.048757001927646045,0.000688286903273139,0.9988104329772324,61.75596083352654,3.7325184909941025,240.90873744939404,-69.94145280062959,-35.210693359375,4761.76025390625,True
1599385445.9320416,0.0,10,0.5,0.5,-2.6265045013427737,-0.05075,-0.001,-0.37525,0.03437042056900057,10,1,100,0.5153097479914712,-10,-1,-100,19338.603219952085,-0.04865384640296672,0.000937065015100492,0.9988152607661509,61.86389271758623,3.7396869788957856,241.98388216604184,-70.12388201831763,-35.676849365234375,4761.76025390625,True
1599385445.9650927,0.0,10,0.5,0.5,-2.3159634201049806,-0.05075,-0.001,-0.37525,0.07616836987258452,10,1,100,0.49844660351442754,-10,-1,-100,19335.787319026655,-0.048362536570373336,0.0015423564149623938,0.9988286570744597,62.08140797200363,3.754077871700992,244.1479072289335,-70.48872678392188,-36.829193115234375,4761.76025390625,True
1599385446.0530324,0.0,10,0.5,0.5,-2.46136851348877,-0.05075,-0.001,-0.37525,0.05511970532872182,10,1,100,0.5118086604259047,-10,-1,-100,19334.37389609241,-0.04817521675214698,0.0018998676858790415,0.9988370933208577,62.188668332452785,3.7611530888153184,245.22765429304397,-70.67114227165821,-37.515411376953125,4761.76025390625,True
1599385446.0769675,0.0,10,0.5,0.5,-2.040095024108887,-0.05075,-0.001,-0.37525,0.1098090438891044,10,1,100,0.47944690420363145,-10,-1,-100,19331.53610568971,-0.047711290917962446,0.0027201586558153585,0.9988574640336974,62.393112105854215,3.774616004799272,247.35436237555533,-71.03595917445077,-39.107940673828125,4761.76025390625,True
1599385446.12987,0.0,10,0.5,0.5,-1.3850310562133794,-0.05075,-0.001,-0.37525,0.18921678572227604,10,1,100,0.42228602106352653,-10,-1,-100,19327.25205978914,-0.0467709247200199,0.004185132661325196,0.9988968741894438,62.64815357840258,3.7914332401827395,250.3552280845161,-71.58315104520831,-42.0472412109375,4761.76025390625,True
1599385446.1639044,0.0,10,0.5,0.5,-1.496103540039063,-0.05075,-0.001,-0.37525,0.16670359445917327,10,1,100,0.4283483076060931,-10,-1,-100,19324.37779029354,-0.04597312732359435,0.005308407353900929,0.9989285722089711,62.75942227301824,3.7988720415107506,252.12936017213795,-71.94792596847694,-44.373748779296875,4761.76025390625,True
1599385446.1935787,0.0,10,0.5,0.5,-2.3680850357055667,-0.05075,-0.001,-0.37525,0.05491244577540801,10,1,100,0.5078316478641294,-10,-1,-100,19324.37779029354,-0.04597312732359435,0.005308407353900929,0.9989285722089711,62.75942227301824,3.7988720415107506,252.12936017213795,-71.94792596847694,-44.373748779296875,4761.76025390625,True
1599385446.2296178,0.0,10,0.5,0.5,-1.2505602706909182,-0.05075,-0.001,-0.37525,0.18474223037107473,10,1,100,0.40290535259472293,-10,-1,-100,19321.48892999615,-0.0450219397512732,0.006483897000746546,0.9989649563526822,62.800909484799185,3.8018781106897137,253.62694477562846,-72.31268888897377,-46.99462890625,4761.76025390625,True
1599385446.2605026,0.0,10,0.5,0.5,-1.6276811279296877,-0.05075,-0.001,-0.37525,0.1368020380821212,10,1,100,0.439449907606277,-10,-1,-100,19320.03902861837,-0.04449291344549547,0.007111242877408813,0.9989843897068013,62.788445932684226,3.8012841398262953,254.24217258326124,-72.49506713813226,-48.4151611328125,4761.76025390625,True
1599385446.2937424,0.0,10,0.5,0.5,-0.8552971313476565,-0.05075,-0.001,-0.37525,0.22054219228585198,10,1,100,0.36255258692620534,-10,-1,-100,19317.128283025464,-0.043316861263293135,0.008436799980313655,0.9990257603967923,62.68225077561892,3.7949910943294842,255.1416019332369,-72.85982105428026,-51.47637939453125,4761.76025390625,True
1599385446.3276825,0.0,10,0.5,0.5,-0.5727290191650392,-0.05075,-0.001,-0.37525,0.23425079918747782,10,1,100,0.33267189396058794,-10,-1,-100,19314.202947334736,-0.041981025834934814,0.009759431488353709,0.9990707417229626,62.44712754205283,3.7806416221887775,255.50988233131102,-73.22457738582985,-54.8323974609375,4761.76025390625,True
1599385446.3626788,0.0,10,0.5,0.5,0.5464340179443354,-0.05075,-0.001,-0.37525,0.3313236484434647,10,1,100,0.21223887910245678,-10,-1,-100,19309.78758611984,-0.03967785060186972,0.011836283883014317,0.9991424175539023,61.79336955840119,3.7404544239910633,254.804202505169,-73.77173471133237,-60.4112548828125,4761.76025390625,True
1599385446.3939137,0.0,10,0.5,0.5,0.16303111572265605,-0.05075,-0.001,-0.37525,0.27429658757886416,10,1,100,0.25237123089160046,-10,-1,-100,19306.825772494543,-0.037956789666228674,0.013196545572602091,0.9991922404138175,61.12248429400123,3.699210989338329,253.3380751224926,-74.13653545741698,-64.41995239257812,4761.76025390625,True
1599385446.4267845,0.0,10,0.5,0.5,-1.338542170715332,-0.05075,-0.001,-0.37525,0.13940008640875906,10,1,100,0.42345548174711334,-10,-1,-100,19306.825772494543,-0.037956789666228674,0.013196545572602091,0.9991922404138175,61.12248429400123,3.699210989338329,253.3380751224926,-74.13653545741698,-64.41995239257812,4761.76025390625,True
1599385446.4608052,0.0,10,0.5,0.5,-0.47466361846923844,-0.05075,-0.001,-0.37525,0.2113900831762078,10,1,100,0.32312508131561546,-10,-1,-100,19305.339393307688,-0.03705356284526209,0.013841476100563637,0.9992174172920675,60.71281256238837,3.6740579877245056,252.28642941579577,-74.31894821065225,-66.44189453125,4761.76025390625,True
1599385446.4958599,0.0,10,0.5,0.5,0.4613806213378904,-0.05075,-0.001,-0.37525,0.2881678597219969,10,1,100,0.20170734346730282,-10,-1,-100,19302.35568965599,-0.03513748390201213,0.015116977873272909,0.9992681492997836,59.78200152566964,3.616992115219902,249.6925878014325,-74.68380238258328,-70.41452026367188,4761.76025390625,True
1599385446.5268621,0.0,10,0.5,0.5,0.7143992874145506,-0.05075,-0.001,-0.37525,0.3034526962622225,10,1,100,0.16071508080215985,-10,-1,-100,19299.357390445075,-0.033032787605212305,0.016406561116538505,0.9993195983744932,58.706679609842,3.5512478489158465,246.45396745611194,-75.04869869226545,-74.501708984375,4761.76025390625,True
1599385446.5618005,0.0,10,0.5,0.5,0.08608440856933586,-0.05075,-0.001,-0.37525,0.24024937042645916,10,1,100,0.25092993213799797,-10,-1,-100,19297.85276708915,-0.031951326292736795,0.01699424459939789,0.9993449396472827,58.091196038945895,3.5137244099240745,244.49049155765383,-75.23116463274182,-76.6199951171875,4761.76025390625,True
1599385446.5946705,0.0,10,0.5,0.5,1.13005002746582,-0.05075,-0.001,-0.37525,0.30567264085803825,10,1,100,0.11063801970945308,-10,-1,-100,19294.832571404288,-0.029704680998825502,0.01811370445355837,0.9993945795519041,56.70580464819759,3.4295162443969853,239.87194863083096,-75.59613562081717,-80.92959594726562,4761.76025390625,True
1599385446.6306665,0.0,10,0.5,0.5,2.1762836715698244,-0.05075,-0.001,-0.37525,0.3620046846431956,10,1,100,-0.05779231889050873,-10,-1,-100,19290.274901159108,-0.026144535137494374,0.01963350248122737,0.9994653515068763,54.382945875044285,3.2890020422870023,231.79199514861497,-76.14369243048743,-87.17410278320312,4761.76025390625,True
1599385446.6612923,0.0,10,0.5,0.5,1.5534402359008788,-0.05075,-0.001,-0.37525,0.3075559068422655,10,1,100,0.024908827821768786,-10,-1,-100,19287.218200313044,-0.02367547871196478,0.020509969342280814,0.99950928603257,52.73276693598602,3.1896471287661976,225.88822171763374,-76.50879381062148,-91.20423889160156,4761.76025390625,True
1599385446.694508,0.0,10,0.5,0.5,1.6567708900451659,-0.05075,-0.001,-0.37525,0.30141752672805966,10,1,100,0.002913368129224936,-10,-1,-100,19284.14689462958,-0.021247564643481084,0.02124118072596941,0.9995485747266553,52.5438547258322,3.1790797226284737,226.20495687078986,-76.87391360320929,-94.98828125,4761.76025390625,True
1599385446.7280207,0.0,10,0.5,0.5,1.000639256286621,-0.05075,-0.001,-0.37525,0.2658306643370284,10,1,100,0.10633114779975478,-10,-1,-100,19282.605765671004,-0.019997286474553806,0.021573851510456075,0.9995672450939255,53.10973433563829,3.2138919092688587,229.21019220491493,-77.05645088224728,-96.773193359375,4761.76025390625,True
1599385446.7639813,0.0,10,0.5,0.5,1.7615334243774414,-0.05075,-0.001,-0.37525,0.2951487616677502,10,1,100,-0.04295636841823039,-10,-1,-100,19279.512556241476,-0.01751983754008521,0.022135191921234282,0.9996014648704649,54.087583248590214,3.2744615958102172,234.58943404830484,-77.42148231336232,-100.12400817871094,4761.76025390625,True
1599385446.7942808,0.0,10,0.5,0.5,0.5077105690002441,-0.05075,-0.001,-0.37525,0.23990858522479275,10,1,100,0.2027448298160149,-10,-1,-100,19279.512556241476,-0.01751983754008521,0.022135191921234282,0.9996014648704649,54.087583248590214,3.2744615958102172,234.58943404830484,-77.42148231336232,-100.12400817871094,4761.76025390625,True
1599385446.828362,0.0,10,0.5,0.5,1.8133766929626463,-0.05075,-0.001,-0.37525,0.28913079906891037,10,1,100,-0.07392780809947042,-10,-1,-100,19276.40474731999,-0.01502238967294914,0.022575126850889287,0.9996322781183989,54.8780568465635,3.323965257846783,239.19366424602708,-77.78646032325385,-103.18104553222656,4761.76025390625,True
1599385446.8607676,0.0,10,0.5,0.5,1.2736685203552247,-0.05075,-0.001,-0.37525,0.26519869615111097,10,1,100,0.04125391380809387,-10,-1,-100,19274.845368424198,-0.013817375533102446,0.02275072298861601,0.9996456795969622,55.20923442335692,3.3449171349807467,241.2284754026754,-77.96893086158673,-104.59928131103516,4761.76025390625,True
1599385446.8967562,0.0,10,0.5,0.5,2.8845964313507078,-0.05075,-0.001,-0.37525,0.2954574533587073,10,1,100,-0.3710514192416968,-10,-1,-100,19268.57136402419,-0.008991146389218363,0.02317966803218929,0.9996908833617145,56.33568287807842,3.4170544973908448,248.5630770310537,-78.69870079985117,-109.62301635742188,4761.76025390625,True
1599385446.9277477,0.0,10,0.5,0.5,1.0027401573181152,-0.05075,-0.001,-0.37525,0.2531814913446584,10,1,100,0.10927547715635962,-10,-1,-100,19268.57136402419,-0.008991146389218363,0.02317966803218929,0.9996908833617145,56.33568287807842,3.4170544973908448,248.5630770310537,-78.69870079985117,-109.62301635742188,4761.76025390625,True
1599385446.96153,0.0,10,0.5,0.5,1.8997343315124513,-0.05075,-0.001,-0.37525,0.2594559179487264,10,1,100,-0.1556539404941195,-10,-1,-100,19265.412470979267,-0.006601527623859104,0.023232102852609335,0.9997083020711978,56.812666387683095,3.448013177338656,251.88374990156547,-79.06352373520369,-111.7219009399414,4761.76025390625,True
1599385446.994703,0.0,10,0.5,0.5,1.5146726985931396,-0.05075,-0.001,-0.37525,0.2566442943823299,10,1,100,-0.037659294715967795,-10,-1,-100,19263.827552580857,-0.005519591896528099,0.02325093920204997,0.9997144231887017,57.012928422601235,3.4611844319946066,253.381750654768,-79.24592131786721,-112.66107940673828,4761.76025390625,True
1599385447.0308762,0.0,10,0.5,0.5,2.177350708389282,-0.05075,-0.001,-0.37525,0.2374045281524405,10,1,100,-0.30770296266123726,-10,-1,-100,19259.050910822465,-0.0020975768783751325,0.023090664399579033,0.9997311745608544,57.45811495255553,3.491251746219281,257.2047092745971,-79.79306701776198,-115.0389175415039,4761.76025390625,True
1599385447.0610776,0.0,10,0.5,0.5,1.8056192378997804,-0.05075,-0.001,-0.37525,0.232297524805178,10,1,100,-0.20402493233658245,-10,-1,-100,19255.84824591421,5.3409237207879075e-05,0.022896851381745242,0.9997378313059156,57.6408570859733,3.5043425303400815,259.2561660357845,-80.1577977988186,-116.25616455078125,4761.76025390625,True
1599385447.0950677,0.0,10,0.5,0.5,1.3507955947875976,-0.05075,-0.001,-0.37525,0.25181112657568605,10,1,100,0.009068609650542524,-10,-1,-100,19255.84824591421,5.3409237207879075e-05,0.022896851381745242,0.9997378313059156,57.6408570859733,3.5043425303400815,259.2561660357845,-80.1577977988186,-116.25616455078125,4761.76025390625,True
1599385447.128098,0.0,10,0.5,0.5,1.894750180053711,-0.05075,-0.001,-0.37525,0.21228170019228265,10,1,100,-0.32091007004189687,-10,-1,-100,19251.016895283246,0.0030372397373416068,0.022536800542386565,0.9997414004611845,57.782407257412856,3.5158535853366324,261.747595289921,-80.70485546411203,-117.52926635742188,4761.76025390625,True
1599385447.15303,0.0,10,0.5,0.5,1.4187592529296875,-0.05075,-0.001,-0.37525,0.24832694499026559,10,1,100,-0.02458272775626674,-10,-1,-100,19251.016895283246,0.0030372397373416068,0.022536800542386565,0.9997414004611845,57.782407257412856,3.5158535853366324,261.747595289921,-80.70485546411203,-117.52926635742188,4761.76025390625,True
1599385447.1729743,0.0,10,0.5,0.5,1.6251857742309572,-0.05075,-0.001,-0.37525,0.21078166034989493,10,1,100,-0.23737333095414442,-10,-1,-100,19247.777760267374,0.004955281921494776,0.02219551461502729,0.9997413687109544,57.806084220283566,3.5191803259273633,263.0920497412525,-81.06954027599579,-118.01046752929688,4761.76025390625,True
1599385447.1938818,0.0,10,0.5,0.5,1.5011692268371584,-0.05075,-0.001,-0.37525,0.2280705278893273,10,1,100,-0.14292987521009476,-10,-1,-100,19246.1527224537,0.00582331371172939,0.02204293093903514,0.9997400653234978,57.79807284970671,3.519622142465242,263.6741892160546,-81.25187793391457,-118.14007568359375,4761.76025390625,True
1599385447.2275596,0.0,10,0.5,0.5,1.4772413688659667,-0.05075,-0.001,-0.37525,0.22513240257462086,10,1,100,-0.15032604137451364,-10,-1,-100,19244.524038290838,0.006666203704254713,0.021878541673538723,0.9997384113568971,57.77869828991495,3.519363610935384,264.2042657470628,-81.43421277952332,-118.19607543945312,4761.76025390625,True
1599385447.2614765,0.0,10,0.5,0.5,1.4498824958801269,-0.05075,-0.001,-0.37525,0.2173168050434019,10,1,100,-0.16418777222382253,-10,-1,-100,19242.89170728519,0.007544249114186475,0.02165922884222058,0.9997369464570486,57.748877991990994,3.518461252796495,264.68613233265194,-81.6165453179057,-118.17916870117188,4761.76025390625,True
1599385447.296478,0.0,10,0.5,0.5,1.3479933868408203,-0.05075,-0.001,-0.37525,0.19402165218224143,10,1,100,-0.2538124279545039,-10,-1,-100,19239.616105283378,0.009144382014641503,0.02124950930956662,0.9997323835065426,57.65550862665342,3.5145813827204644,265.4929158277927,-81.98120482802591,-117.923583984375,4761.76025390625,True
1599385447.317422,0.0,10,0.5,0.5,1.0461285926818849,-0.05075,-0.001,-0.37525,0.15715117989017702,10,1,100,-0.3402573023885419,-10,-1,-100,19234.675353268743,0.011371579897263537,0.020543670377128325,0.9997242843794863,57.433678469775366,3.503733766949083,266.31723970951697,-82.52818526929073,-116.98860931396484,4761.76025390625,True
1599385447.3383663,0.0,10,0.5,0.5,1.2017267162322998,-0.05075,-0.001,-0.37525,0.19945123841055767,10,1,100,-0.1950527331819596,-10,-1,-100,19233.021142910933,0.01206401901888224,0.020288860056026474,0.999721371984584,57.3371388669679,3.4987297130916297,266.48408627107125,-82.71051116404333,-116.52981567382812,4761.76025390625,True
1599385447.361307,0.0,10,0.5,0.5,1.3739163948059083,-0.05075,-0.001,-0.37525,0.2246714713881709,10,1,100,-0.12700988199825677,-10,-1,-100,19233.021142910933,0.01206401901888224,0.020288860056026474,0.999721371984584,57.3371388669679,3.4987297130916297,266.48408627107125,-82.71051116404333,-116.52981567382812,4761.76025390625,True
1599385447.3944192,0.0,10,0.5,0.5,1.1470754890441897,-0.05075,-0.001,-0.37525,0.19669618771198621,10,1,100,-0.20000077729991775,-10,-1,-100,19231.363286049105,0.012716653876368545,0.020036910196539085,0.999718364812793,57.22863508437902,3.4929908330844834,266.59327618660006,-82.89283721419474,-115.99726104736328,4761.76025390625,True
1599385447.4163616,0.0,10,0.5,0.5,0.7989910884857179,-0.05075,-0.001,-0.37525,0.16367813247464447,10,1,100,-0.2709934908453425,-10,-1,-100,19228.036632793024,0.013946547129824478,0.019509973358798213,0.9997123860204467,56.97506992197422,3.479266183550206,266.63407374227324,-83.25749138930436,-114.71141052246094,4761.76025390625,True
1599385447.440297,0.0,10,0.5,0.5,0.9604994163513185,-0.05075,-0.001,-0.37525,0.1833194557402174,10,1,100,-0.21485169713070063,-10,-1,-100,19226.36783639819,0.014544334410658142,0.019212249015251346,0.9997096337558856,56.82825402207212,3.4711719621981714,266.55668495434406,-83.43982028304056,-113.95853424072266,4761.76025390625,True
1599385447.4642322,0.0,10,0.5,0.5,0.890515573501587,-0.05075,-0.001,-0.37525,0.17978139754968336,10,1,100,-0.21837357872714092,-10,-1,-100,19224.695393242408,0.01511107717821169,0.0189121384153855,0.9997069502444561,56.666409219259336,3.462152824611665,266.4056776387511,-83.6221510365124,-113.13201904296875,4761.76025390625,True
1599385447.4954684,0.0,10,0.5,0.5,0.40555850143432637,-0.05075,-0.001,-0.37525,0.1446927758708235,10,1,100,-0.2746770037433812,-10,-1,-100,19221.33956691879,0.016129703772983936,0.01832316930253932,0.9997020026602458,56.29326001638094,3.441064635827173,265.86025238347787,-83.98681991422339,-111.2667465209961,4761.76025390625,True
1599385447.5283244,0.0,10,0.5,0.5,0.6647588047027588,-0.05075,-0.001,-0.37525,0.16840301342574637,10,1,100,-0.22667433633092238,-10,-1,-100,19219.656183599844,0.016610736882601142,0.018006522607152093,0.999699879245674,56.08229964035045,3.4290120866584717,265.4664134572059,-84.16915892731105,-110.2337646484375,4761.76025390625,True
1599385447.5641513,0.0,10,0.5,0.5,-0.43373457489013645,-0.05075,-0.001,-0.37525,0.09117460696563384,10,1,100,-0.3200648268194952,-10,-1,-100,19214.584152343334,0.01788880190690525,0.017019906194649107,0.9996951103008661,55.35097267685648,3.386730762825967,263.789879959009,-84.71620024662583,-106.74708557128906,4761.76025390625,True
1599385447.595319,0.0,10,0.5,0.5,0.873524098968506,-0.05075,-0.001,-0.37525,0.18941328790444065,10,1,100,-0.19313276637831064,-10,-1,-100,19214.584152343334,0.01788880190690525,0.017019906194649107,0.9996951103008661,55.35097267685648,3.386730762825967,263.789879959009,-84.71620024662583,-106.74708557128906,4761.76025390625,True
1599385447.6293745,0.0,10,0.5,0.5,-0.22261893463134763,-0.05075,-0.001,-0.37525,0.11176192565031723,10,1,100,-0.2737331037579528,-10,-1,-100,19211.18456264597,0.018615607499438688,0.016317188141595693,0.9996935573107285,54.85273314171038,3.3577726459771675,262.59598323718507,-85.08091645207996,-104.17638397216797,4761.76025390625,True
1599385447.6532836,0.0,10,0.5,0.5,0.18294079475402847,-0.05075,-0.001,-0.37525,0.14418957076656266,10,1,100,-0.2354231339086685,-10,-1,-100,19209.479296768666,0.018922111413584176,0.015976760932526122,0.9996933013728545,54.57814739617567,3.3416899787102543,261.86916081786995,-85.26328185978662,-102.86685180664062,4761.76025390625,True
1599385447.6752586,0.0,10,0.5,0.5,-0.4389065673828124,-0.05075,-0.001,-0.37525,0.0966934468479565,10,1,100,-0.2669148548718192,-10,-1,-100,19206.057822960196,0.01948080507847717,0.015239418796951456,0.9996940823813181,54.07305854776648,3.3121207752787396,260.61092477962427,-85.62802665643183,-100.25679779052734,4761.76025390625,True
1599385447.69521,0.0,10,0.5,0.5,-0.024534757614135705,-0.05075,-0.001,-0.37525,0.12929328046525573,10,1,100,-0.23746017916510925,-10,-1,-100,19204.341614679084,0.01971478940268061,0.014869831244222287,0.9996950611049233,53.81862477898888,3.2971644981598494,259.96485094138103,-85.81040564272669,-98.93408203125,4761.76025390625,True
1599385447.729268,0.0,10,0.5,0.5,-0.6505712478637695,-0.05075,-0.001,-0.37525,0.08107304518004475,10,1,100,-0.25776849416828385,-10,-1,-100,19200.89825518534,0.020106879613555458,0.014099695095616193,0.9996984105171003,53.293054253768226,3.2661047964347714,258.5758327240326,-86.17517746783967,-96.3030776977539,4761.76025390625,True
1599385447.762219,0.0,10,0.5,0.5,-0.2187139621734619,-0.05075,-0.001,-0.37525,0.11455251028175738,10,1,100,-0.23618462138817753,-10,-1,-100,19199.171103650588,0.020262051375256263,0.013708577874098618,0.9997007172983003,53.02179857673899,3.2499900228149827,257.83192680076746,-86.35757022334593,-95.00340270996094,4761.76025390625,True
1599385447.798255,0.0,10,0.5,0.5,-1.3372952964782714,-0.05075,-0.001,-0.37525,0.018011916143981593,10,1,100,-0.25652729170444144,-10,-1,-100,19193.967761206557,0.02058336727586208,0.012480105508322212,0.9997102439997742,52.20470592623798,3.2011631635418776,255.54986218265455,-86.90477537039034,-91.2370376586914,4761.76025390625,True
1599385447.8191657,0.0,10,0.5,0.5,0.07403021812438965,-0.05075,-0.001,-0.37525,0.14027484634220042,10,1,100,-0.2248410679941474,-10,-1,-100,19193.967761206557,0.02058336727586208,0.012480105508322212,0.9997102439997742,52.20470592623798,3.2011631635418776,255.54986218265455,-86.90477537039034,-91.2370376586914,4761.76025390625,True
1599385447.841151,0.0,10,0.5,0.5,-0.4346999904632568,-0.05075,-0.001,-0.37525,0.09208305900641277,10,1,100,-0.23197237337525867,-10,-1,-100,19192.226017383044,0.020644585842605583,0.012047022366268534,0.9997142943498877,51.94218359053675,3.1853972050772135,254.8260124571577,-87.0871854937077,-90.04729461669922,4761.76025390625,True
1599385447.8650765,0.0,10,0.5,0.5,-0.48797734947204585,-0.05075,-0.001,-0.37525,0.08638074169935461,10,1,100,-0.2301998488715763,-10,-1,-100,19190.480625321157,0.020681619967851925,0.01160599197418137,0.9997187462210562,51.68412019021912,3.1698581352707254,254.11855487003976,-87.26959929939424,-88.87814331054688,4761.76025390625,True
1599385447.8959932,0.0,10,0.5,0.5,-1.451088800048828,-0.05075,-0.001,-0.37525,-0.01949315501423292,10,1,100,-0.2231466648856238,-10,-1,-100,19185.222560904338,0.02064862857451181,0.010247487024179033,0.99973427626929,52.69226157865057,3.2323146269553407,260.7846013245548,-87.81679296859976,-85.59164428710938,4761.76025390625,True
1599385447.931893,0.0,10,0.5,0.5,-0.21968851547241214,-0.05075,-0.001,-0.37525,0.11575036987425913,10,1,100,-0.22664910632714277,-10,-1,-100,19185.222560904338,0.02064862857451181,0.010247487024179033,0.99973427626929,52.69226157865057,3.2323146269553407,260.7846013245548,-87.81679296859976,-85.59164428710938,4761.76025390625,True
1599385447.9619548,0.0,10,0.5,0.5,-1.4988960166931151,-0.05075,-0.001,-0.37525,-0.04166542125989392,10,1,100,-0.20119127566827263,-10,-1,-100,19179.93166830961,0.020415624189284873,0.008821642808330685,0.9997526598649908,53.80133114839488,3.300655604006893,268.0199400395028,-88.36389743565466,-82.59286499023438,4761.76025390625,True
1599385447.996193,0.0,10,0.5,0.5,-1.1459484207153319,-0.05075,-0.001,-0.37525,-0.01364822152940981,10,1,100,-0.19624885785844576,-10,-1,-100,19176.38617144141,0.020158021114343044,0.007785956951462606,0.9997664892659204,54.45808643580746,3.3410010603070606,272.47068589161546,-88.72858741885875,-80.78399658203125,4761.76025390625,True
1599385448.0281172,0.0,10,0.5,0.5,-0.46898555908203127,-0.05075,-0.001,-0.37525,0.0892119767281221,10,1,100,-0.22205348852379492,-10,-1,-100,19176.38617144141,0.020158021114343044,0.007785956951462606,0.9997664892659204,54.45808643580746,3.3410010603070606,272.47068589161546,-88.72858741885875,-80.78399658203125,4761.76025390625,True
1599385448.0651705,0.0,10,0.5,0.5,-1.4571055213928221,-0.05075,-0.001,-0.37525,-0.07830132767860451,10,1,100,-0.16238057470758244,-10,-1,-100,19171.040576665895,0.01961549358737676,0.0062688484915325035,0.9997879444911874,55.341889641430534,3.395115232009432,278.69074129366044,-89.27555810015632,-78.46810913085938,4761.76025390625,True
1599385448.0901055,0.0,10,0.5,0.5,-0.5897222846984863,-0.05075,-0.001,-0.37525,0.07266554537614912,10,1,100,-0.2165686716254229,-10,-1,-100,19171.040576665895,0.01961549358737676,0.0062688484915325035,0.9997879444911874,55.341889641430534,3.395115232009432,278.69074129366044,-89.27555810015632,-78.46810913085938,4761.76025390625,True
1599385448.110052,0.0,10,0.5,0.5,-1.1299604202270508,-0.05075,-0.001,-0.37525,-0.049192869489167027,10,1,100,-0.1657198609647286,-10,-1,-100,19167.45861586393,0.01915411155745089,0.00516669131731762,0.9998031932891974,55.83933739946169,3.42545891933385,282.40595733091357,-89.6401671232775,-77.20294189453125,4761.76025390625,True
1599385448.1309955,0.0,10,0.5,0.5,-1.0978593971252442,-0.05075,-0.001,-0.37525,-0.05424101979093536,10,1,100,-0.1532958121482676,-10,-1,-100,19163.862071410753,0.01862302677347628,0.004125486532734382,0.9998180650671714,56.28519610244262,3.4525680575235898,285.88128138005436,-90.00474881766479,-76.16714477539062,4761.76025390625,True
1599385448.16288,0.0,10,0.5,0.5,-0.7105645431518556,-0.05075,-0.001,-0.37525,0.049087305084035054,10,1,100,-0.20620213463881554,-10,-1,-100,19163.862071410753,0.01862302677347628,0.004125486532734382,0.9998180650671714,56.28519610244262,3.4525680575235898,285.88128138005436,-90.00474881766479,-76.16714477539062,4761.76025390625,True
1599385448.197883,0.0,10,0.5,0.5,-1.049536326599121,-0.05075,-0.001,-0.37525,-0.07444172341529158,10,1,100,-0.13879237121230065,-10,-1,-100,19160.250944502768,0.018012082190684668,0.00300929582405091,0.9998332406125531,56.66875882095856,3.4757961346900954,289.0588195801195,-90.36930626022551,-75.37442016601562,4761.76025390625,True
1599385448.228778,0.0,10,0.5,0.5,-0.877905827331543,-0.05075,-0.001,-0.37525,-0.02321652947661542,10,1,100,-0.16349642008628837,-10,-1,-100,19158.439912903472,0.017683657147350207,0.002466840753054017,0.9998405887773281,56.838174962289294,3.486018904676869,290.5397672366713,-90.55157695811475,-75.0814208984375,4761.76025390625,True
1599385448.2615821,0.0,10,0.5,0.5,-0.9435534301757813,-0.05075,-0.001,-0.37525,-0.09645586908301741,10,1,100,-0.11645377732475201,-10,-1,-100,19154.806913550594,0.016960123965965967,0.0013149609159723913,0.9998553020676785,57.129610029375925,3.5035239277491015,293.269961000983,-90.9161042908908,-74.67169189453125,4761.76025390625,True
1599385448.2955747,0.0,10,0.5,0.5,-0.8379165161132813,-0.05075,-0.001,-0.37525,-0.04217305637023891,10,1,100,-0.14660826900779816,-10,-1,-100,19152.984946432873,0.01657963963475646,0.000768101799552862,0.9998622532975264,57.25546075642617,3.5110433033143233,294.53791146637917,-91.09836176821703,-74.56060791015625,4761.76025390625,True
1599385448.3225024,0.0,10,0.5,0.5,-0.8075409912109375,-0.05075,-0.001,-0.37525,-0.11372602615943088,10,1,100,-0.09389319594461268,-10,-1,-100,19149.330076573417,0.015757769925336663,-0.0003731445269558098,0.9998757690084014,57.46038513401191,3.523188645442314,296.84103242092374,-91.46286614849815,-74.5355224609375,4761.76025390625,True
1599385448.3464384,0.0,10,0.5,0.5,-0.6002350677490236,-0.05075,-0.001,-0.37525,-0.1857384942849002,10,1,100,-0.027279000610419213,-10,-1,-100,19143.82043474284,0.014409032278452368,-0.002057882623578489,0.9998940668430363,57.64612342705272,3.5339041970784573,299.6818584961936,-92.00960356455185,-75.00152587890625,4761.76025390625,True
1599385448.3683803,0.0,10,0.5,0.5,-0.7754495086669922,-0.05075,-0.001,-0.37525,-0.01809735773414341,10,1,100,-0.1616321191679563,-10,-1,-100,19143.82043474284,0.014409032278452368,-0.002057882623578489,0.9998940668430363,57.64612342705272,3.5339041970784573,299.6818584961936,-92.00960356455185,-75.00152587890625,4761.76025390625,True
1599385448.3953083,0.0,10,0.5,0.5,-0.6552556396484376,-0.05075,-0.001,-0.37525,-0.07929014332025128,10,1,100,-0.10864890922710307,-10,-1,-100,19141.976597603527,0.013932099880179996,-0.0026066109188020957,0.9998995460407244,57.67370611507427,3.535365626684422,300.4531867911248,-92.19184612657963,-75.28448486328125,4761.76025390625,True
1599385448.429485,0.0,10,0.5,0.5,-0.6153593505859375,-0.05075,-0.001,-0.37525,-0.08511846560126896,10,1,100,-0.10165164252355766,-10,-1,-100,19140.12911577907,0.013439660740515856,-0.0031513729331636084,0.9999047176445444,57.684407186589354,3.5357922545347846,301.13727197899044,-92.37408782480897,-75.62783813476562,4761.76025390625,True
1599385448.4647274,0.0,10,0.5,0.5,-0.5765242965698243,-0.05075,-0.001,-0.37525,-0.08876536323265567,10,1,100,-0.09573388924724482,-10,-1,-100,19138.277988989605,0.012942903189248303,-0.0036731494160813193,0.9999094905192174,57.67800427123149,3.535172444208411,301.7324093455769,-92.55632913558858,-76.02157592773438,4761.76025390625,True
1599385448.4956417,0.0,10,0.5,0.5,0.16539945526123045,-0.05075,-0.001,-0.37525,-0.27244451494743427,10,1,100,0.09466775936362742,-10,-1,-100,19130.83703382779,0.010765545085800987,-0.005810212474369211,0.9999251694351975,57.49023785701857,3.5228193309514926,303.2593118020124,-93.2852989999612,-78.11004638671875,4761.76025390625,True
1599385448.529759,0.0,10,0.5,0.5,-0.3466533294677735,-0.05075,-0.001,-0.37525,-0.11601613707669459,10,1,100,-0.05910245076190045,-10,-1,-100,19128.967682885588,0.010190627390267212,-0.006322903175534734,0.9999280834184153,57.40085907191513,3.5171592408303884,303.4149697442521,-93.46754482838432,-78.7470703125,4761.76025390625,True
1599385448.562867,0.0,10,0.5,0.5,-0.002102087402343855,-0.05075,-0.001,-0.37525,-0.17101160252290976,10,1,100,0.011153152653766665,-10,-1,-100,19125.21804590372,0.00903609948123688,-0.007280953731624812,0.9999326660425307,57.169433582479634,3.502666751796784,303.441885007384,-93.83204327072286,-80.11614990234375,4761.76025390625,True
1599385448.5977824,0.0,10,0.5,0.5,-0.5153047576904297,-0.05075,-0.001,-0.37525,-0.07606613837866169,10,1,100,-0.10350723580079352,-10,-1,-100,19125.21804590372,0.00903609948123688,-0.007280953731624812,0.9999326660425307,57.169433582479634,3.502666751796784,303.441885007384,-93.83204327072286,-80.11614990234375,4761.76025390625,True
1599385448.62981,0.0,10,0.5,0.5,0.41436969299316395,-0.05075,-0.001,-0.37525,-0.23164418366632833,10,1,100,0.09896346770628606,-10,-1,-100,19119.56625224743,0.007202314485857539,-0.008687982274666165,0.9999363207874998,56.739433976464916,3.4760268049192375,303.02325734048566,-94.37881179272878,-82.29718017578125,4761.76025390625,True
1599385448.6629279,0.0,10,0.5,0.5,-0.4032857513427735,-0.05075,-0.001,-0.37525,-0.09177281313696402,10,1,100,-0.08355948628770023,-10,-1,-100,19119.56625224743,0.007202314485857539,-0.008687982274666165,0.9999363207874998,56.739433976464916,3.4760268049192375,303.02325734048566,-94.37881179272878,-82.29718017578125,4761.76025390625,True
1599385448.6961253,0.0,10,0.5,0.5,0.2417740142822265,-0.05075,-0.001,-0.37525,-0.1885049539639484,10,1,100,0.05610838070696929,-10,-1,-100,19115.780163782998,0.0059391581657174475,-0.009561338009774125,0.999936651601363,56.40673131742142,3.4555919978681806,302.4832522259854,-94.74334055307209,-83.8096923828125,4761.76025390625,True
1599385448.7321227,0.0,10,0.5,0.5,0.3122645568847655,-0.05075,-0.001,-0.37525,-0.18570772230756535,10,1,100,0.06530934892515107,-10,-1,-100,19111.97949415038,0.004714888958254562,-0.010323047067190429,0.9999356001870121,56.85871741957658,3.4833658017332603,306.15507438220413,-95.10786064611337,-85.305419921875,4761.76025390625,True
1599385448.7633047,0.0,10,0.5,0.5,0.06990883178710935,-0.05075,-0.001,-0.37525,-0.1541075427483481,10,1,100,0.01662709325199086,-10,-1,-100,19110.073692031903,0.004052862194791509,-0.010721220545077468,0.9999343127116169,57.28171551094147,3.5093735230916807,309.0618304451667,-95.29010530096116,-86.05169677734375,4761.76025390625,True
1599385448.7963336,0.0,10,0.5,0.5,0.44354833984375,-0.05075,-0.001,-0.37525,-0.19363887214248743,10,1,100,0.09345804245626069,-10,-1,-100,19106.251153921476,0.002761089961191485,-0.011435690476183393,0.999930798288341,58.131113014989744,3.561703590703507,314.92255819571955,-95.65456329331123,-87.58370971679688,4761.76025390625,True
1599385448.8293986,0.0,10,0.5,0.5,0.8061248641967773,-0.05075,-0.001,-0.37525,-0.22693235676309356,10,1,100,0.1775517706536774,-10,-1,-100,19100.490015060408,0.0008315193226949989,-0.012380819781866925,0.9999230089747633,59.36570493930754,3.638045455034311,323.5706027890688,-96.20117157488019,-89.7816162109375,4761.76025390625,True
1599385448.8553302,0.0,10,0.5,0.5,0.5782262329101562,-0.05075,-0.001,-0.37525,-0.1937992188721343,10,1,100,0.12685492281087687,-10,-1,-100,19096.631037382293,-0.0004527244357644327,-0.012932844617745508,0.9999162647795456,60.14684850858811,3.6865405886920923,329.1532937130989,-96.56552562614786,-91.17996978759766,4761.76025390625,True
1599385448.875242,0.0,10,0.5,0.5,0.05473734321594238,-0.05075,-0.001,-0.37525,-0.13925772942849707,10,1,100,-0.0005051178524631125,-10,-1,-100,19096.631037382293,-0.0004527244357644327,-0.012932844617745508,0.9999162647795456,60.14684850858811,3.6865405886920923,329.1532937130989,-96.56552562614786,-91.17996978759766,4761.76025390625,True
1599385448.8962247,0.0,10,0.5,0.5,0.3295202541351318,-0.05075,-0.001,-0.37525,-0.16633098567239518,10,1,100,0.06777070216519648,-10,-1,-100,19094.696083519026,-0.0010647875050913368,-0.013173827046429927,0.9999126544396364,60.52301479077783,3.7099535081044945,331.87897111356494,-96.74768750028,-91.82240295410156,4761.76025390625,True
1599385448.9301844,0.0,10,0.5,0.5,0.5709316612243652,-0.05075,-0.001,-0.37525,-0.19157583938256093,10,1,100,0.14279728604172712,-10,-1,-100,19090.81524697889,-0.0022940857060966846,-0.013617043494131082,0.9999046521030153,61.21878306622729,3.7533978499811402,337.04461425229647,-97.11198278843001,-92.9522476196289,4761.76025390625,True
1599385448.9632692,0.0,10,0.5,0.5,0.14802295722961428,-0.05075,-0.001,-0.37525,-0.14774710073439187,10,1,100,0.02081710596038778,-10,-1,-100,19090.81524697889,-0.0022940857060966846,-0.013617043494131082,0.9999046521030153,61.21878306622729,3.7533978499811402,337.04461425229647,-97.11198278843001,-92.9522476196289,4761.76025390625,True
1599385448.9982793,0.0,10,0.5,0.5,0.582004723739624,-0.05075,-0.001,-0.37525,-0.19121153689204431,10,1,100,0.15856161346486655,-10,-1,-100,19086.91983956739,-0.0035376754105083514,-0.014007693767182954,0.9998956292373793,61.851212053368975,3.7930594509347917,341.8919403285348,-97.47624219227045,-93.9684829711914,4761.76025390625,True
1599385449.019256,0.0,10,0.5,0.5,0.578100925064087,-0.05075,-0.001,-0.37525,-0.18649879870510105,10,1,100,0.16256413850243429,-10,-1,-100,19083.00986294914,-0.00469598279342755,-0.014315945163023891,0.9998864942880733,62.44418789188336,3.8303923131141446,346.5493472834868,-97.84046745331577,-94.85210418701172,4761.76025390625,True
1599385449.0401676,0.0,10,0.5,0.5,0.5814462757110596,-0.05075,-0.001,-0.37525,-0.18504710574588995,10,1,100,0.17906398800460574,-10,-1,-100,19079.085318043246,-0.005890432799054123,-0.014579346588617521,0.9998763650844482,62.98905981142353,3.8648539686341845,350.96605789645946,-98.2046605659571,-95.63607025146484,4761.76025390625,True
1599385449.0656133,0.0,10,0.5,0.5,0.5715670894622803,-0.05075,-0.001,-0.37525,-0.17988784720596848,10,1,100,0.18115065852267875,-10,-1,-100,19075.146206352976,-0.006986226813429994,-0.014768392692391044,0.999866534699604,63.50353653706791,3.8975230532560117,355.2379840783791,-98.56882297872758,-96.30120086669922,4761.76025390625,True
1599385449.0966313,0.0,10,0.5,0.5,0.4387089267730713,-0.05075,-0.001,-0.37525,-0.1695797506793537,10,1,100,0.13178195909968804,-10,-1,-100,19073.17118857149,-0.007524735634676669,-0.014843513089019378,0.9998615146473058,63.74259767433541,3.91276628350938,357.2810405473087,-98.75089326547597,-96.57317352294922,4761.76025390625,True
1599385449.1323366,0.0,10,0.5,0.5,0.33733034324646,-0.05075,-0.001,-0.37525,-0.16231398034723557,10,1,100,0.07876670247075772,-10,-1,-100,19073.17118857149,-0.007524735634676669,-0.014843513089019378,0.9998615146473058,63.74259767433541,3.91276628350938,357.2810405473087,-98.75089326547597,-96.57317352294922,4761.76025390625,True
1599385449.1634455,0.0,10,0.5,0.5,0.43566583671569825,-0.05075,-0.001,-0.37525,-0.169130953397444,10,1,100,0.13757303984116132,-10,-1,-100,19071.192529255757,-0.008052909600590418,-0.014903748599956478,0.99985650416679,63.96842863364813,3.927211756607845,359.25538839936837,-98.93295676130018,-96.80274200439453,4761.76025390625,True
1599385449.197392,0.0,10,0.5,0.5,0.5857326419830322,-0.05075,-0.001,-0.37525,-0.1743080523672209,10,1,100,0.3086793494888028,-10,-1,-100,19063.24148214038,-0.010081670398067998,-0.015003780960549804,0.9998366098912723,64.75140935959449,3.977721871940251,366.5247302779702,-99.66114854311105,-97.35591125488281,4761.76025390625,True
1599385449.2294288,0.0,10,0.5,0.5,0.37870923156738284,-0.05075,-0.001,-0.37525,-0.1644878116993003,10,1,100,0.1067049580303425,-10,-1,-100,19063.24148214038,-0.010081670398067998,-0.015003780960549804,0.9998366098912723,64.75140935959449,3.977721871940251,366.5247302779702,-99.66114854311105,-97.35591125488281,4761.76025390625,True
1599385449.2653775,0.0,10,0.5,0.5,0.41781305007934577,-0.05075,-0.001,-0.37525,-0.15715135580418776,10,1,100,0.25522902618271676,-10,-1,-100,19057.23996944353,-0.011424809577005972,-0.014935825236533855,0.9998231817929772,65.2358452485926,4.00938654983666,371.4404332763301,-100.20723416276499,-97.44667053222656,4761.76025390625,True
1599385449.2885184,0.0,10,0.5,0.5,0.38420507354736333,-0.05075,-0.001,-0.37525,-0.16407880638002298,10,1,100,0.1218281806760103,-10,-1,-100,19057.23996944353,-0.011424809577005972,-0.014935825236533855,0.9998231817929772,65.2358452485926,4.00938654983666,371.4404332763301,-100.20723416276499,-97.44667053222656,4761.76025390625,True
1599385449.3104615,0.0,10,0.5,0.5,0.33929169235229495,-0.05075,-0.001,-0.37525,-0.15151003697460308,10,1,100,0.22023054223165942,-10,-1,-100,19053.220758718555,-0.012312206378269602,-0.014820719940603355,0.9998143606862933,65.49684700532109,4.026720521434599,374.3830767548445,-100.57126766505226,-97.34042358398438,4761.76025390625,True
1599385449.3304071,0.0,10,0.5,0.5,0.337505867767334,-0.05075,-0.001,-0.37525,-0.1552394211820989,10,1,100,0.17437638244335177,-10,-1,-100,19051.20569304761,-0.012695150905356613,-0.0147495233691187,0.999810624420382,65.61288305619416,4.034504629001681,375.77643850750945,-100.75327824404681,-97.24205780029297,4761.76025390625,True
1599385449.3634634,0.0,10,0.5,0.5,0.3195764110565186,-0.05075,-0.001,-0.37525,-0.15312995773211452,10,1,100,0.17752135342285222,-10,-1,-100,19049.186987130553,-0.013065686831516352,-0.014665467566605063,0.999807087336689,65.71907550171512,4.041686337157605,377.116256043068,-100.93528503575429,-97.11294555664062,4761.76025390625,True
1599385449.399409,0.0,10,0.5,0.5,0.22163695373535164,-0.05075,-0.001,-0.37525,-0.138262911450954,10,1,100,0.22217531953526853,-10,-1,-100,19045.138655279647,-0.01380295603812164,-0.014453991802787376,0.9998002603148164,65.89973278528204,4.05410233755572,379.6213054917581,-101.2992881394685,-96.76911926269531,4761.76025390625,True
1599385449.4304576,0.0,10,0.5,0.5,0.2607984893798828,-0.05075,-0.001,-0.37525,-0.14587172686664057,10,1,100,0.18649675941022997,-10,-1,-100,19043.109029500047,-0.014143142751713873,-0.014331266267901386,0.9997972726109343,65.97438121946041,4.059345388385081,380.7869014599541,-101.48128507339538,-96.55813598632812,4761.76025390625,True
1599385449.4643428,0.0,10,0.5,0.5,0.010399581909179667,-0.05075,-0.001,-0.37525,-0.11027287937826383,10,1,100,0.25402906332444597,-10,-1,-100,19036.998312909738,-0.015060316702275105,-0.013896537392493531,0.9997900145077097,66.13755213961359,4.07131888050499,383.94312215902204,-102.02726003575002,-95.78450012207031,4761.76025390625,True
1599385449.49737,0.0,10,0.5,0.5,0.03835876617431644,-0.05075,-0.001,-0.37525,-0.11528317215055843,10,1,100,0.22235187738960138,-10,-1,-100,19032.90630326653,-0.01559976641510338,-0.013547793086604944,0.9997865295103134,66.19791340321044,4.076295080450332,385.7730701794034,-102.3912328088812,-95.16889953613281,4761.76025390625,True
1599385449.532146,0.0,10,0.5,0.5,0.13048097686767585,-0.05075,-0.001,-0.37525,-0.1299921815567885,10,1,100,0.19429872314365176,-10,-1,-100,19030.85483872448,-0.01583013011905951,-0.013365794701193725,0.9997853582206628,66.2136853706307,4.077884372023297,386.6054966528457,-102.5732166266522,-94.84339904785156,4761.76025390625,True
1599385449.5631337,0.0,10,0.5,0.5,0.25237378387451176,-0.05075,-0.001,-0.37525,-0.14802822147197484,10,1,100,0.1718371987201379,-10,-1,-100,19030.85483872448,-0.01583013011905951,-0.013365794701193725,0.9997853582206628,66.2136853706307,4.077884372023297,386.6054966528457,-102.5732166266522,-94.84339904785156,4761.76025390625,True
1599385449.5971415,0.0,10,0.5,0.5,-0.029750129699707,-0.05075,-0.001,-0.37525,-0.10397691830096767,10,1,100,0.2186030859816812,-10,-1,-100,19026.740990863647,-0.01625126971185349,-0.012966755609216696,0.9997838563818299,66.22527744967941,4.079806200696449,388.1555996956126,-102.93718003793484,-94.18174743652344,4761.76025390625,True
1599385449.6310587,0.0,10,0.5,0.5,-0.0747091064453125,-0.05075,-0.001,-0.37525,-0.09462124918473142,10,1,100,0.21732319904258493,-10,-1,-100,19022.61258471303,-0.0166181008602791,-0.01252073132420572,0.9997835115718324,66.21253189714659,4.0801857659690075,389.56451431867936,-103.3011387120656,-93.49414825439453,4761.76025390625,True
1599385449.6660652,0.0,10,0.5,0.5,0.028404055404663092,-0.05075,-0.001,-0.37525,-0.11248440352954861,10,1,100,0.1987427715539988,-10,-1,-100,19020.542922333116,-0.016778756295786137,-0.012279737912436259,0.9997838173195086,66.1955522536394,4.079703374251887,390.20677789119713,-103.48311640515253,-93.13141632080078,4761.76025390625,True
1599385449.6970813,0.0,10,0.5,0.5,-0.4872130634307861,-0.05075,-0.001,-0.37525,-0.022426367428704602,10,1,100,0.23398257373062376,-10,-1,-100,19012.227877488127,-0.017241456161134188,-0.011244188833053333,0.9997881277585418,66.043410050093,4.072428762754435,392.27535277215617,-104.21102197210587,-91.60249328613281,4761.76025390625,True
1599385449.7309604,0.0,10,0.5,0.5,0.08596426010131837,-0.05075,-0.001,-0.37525,-0.12563914749364202,10,1,100,0.18813016412878047,-10,-1,-100,19012.227877488127,-0.017241456161134188,-0.011244188833053333,0.9997881277585418,66.043410050093,4.072428762754435,392.27535277215617,-104.21102197210587,-91.60249328613281,4761.76025390625,True
1599385449.7640064,0.0,10,0.5,0.5,-0.076414981842041,-0.05075,-0.001,-0.37525,-0.09379974446822223,10,1,100,0.19733796330773254,-10,-1,-100,19010.14001733146,-0.01732203751719465,-0.010957657717340185,0.9997899163092228,65.99224901663473,4.069757895598636,392.7131214614252,-104.39299746753669,-91.2225341796875,4761.76025390625,True
1599385449.8029106,0.0,10,0.5,0.5,-0.24987448730468748,-0.05075,-0.001,-0.37525,-0.05861219457178231,10,1,100,0.20106928696465176,-10,-1,-100,19005.953378920443,-0.01742632451525299,-0.01038035498449747,0.9997942645586066,65.87464297403335,4.0634172888455735,393.4949149911668,-104.75694812983609,-90.4819107055664,4761.76025390625,True
1599385449.8298419,0.0,10,0.5,0.5,-0.27597243614196776,-0.05075,-0.001,-0.37525,-0.04558719050234353,10,1,100,0.1968820289550292,-10,-1,-100,19001.752182185068,-0.01748091397902493,-0.009740321719834645,0.9997997518399633,65.75309921694632,4.056758751425418,394.2490919679284,-105.1208979581866,-89.76950073242188,4761.76025390625,True
1599385449.8638146,0.0,10,0.5,0.5,-0.30919280166625973,-0.05075,-0.001,-0.37525,-0.037268988762839114,10,1,100,0.19020576148608465,-10,-1,-100,18997.536427588668,-0.017468137289496363,-0.009086314619206374,0.9998061327408811,65.6135447451044,4.048911224442991,394.89063030724293,-105.48484748921801,-89.06524658203125,4761.76025390625,True
1599385449.886798,0.0,10,0.5,0.5,-0.1890116371154785,-0.05075,-0.001,-0.37525,-0.06551839452034819,10,1,100,0.1885046392722075,-10,-1,-100,18995.423091129982,-0.01743956827237111,-0.008752465925596198,0.9998096097751284,65.53886523052721,4.044654899258321,395.1799260993559,-105.66682223020439,-88.72836303710938,4761.76025390625,True
1599385449.9086962,0.0,10,0.5,0.5,-0.44794404067993165,-0.05075,-0.001,-0.37525,0.016454698460791076,10,1,100,0.17282832546543203,-10,-1,-100,18989.061244615586,-0.017269621369329004,-0.007707951112281679,0.9998211578414465,65.32058131036912,4.032125616869742,396.0742951922771,-106.2127456687873,-87.82522583007812,4761.76025390625,True
1599385449.930662,0.0,10,0.5,0.5,-0.10967745590209961,-0.05075,-0.001,-0.37525,-0.0874709024209673,10,1,100,0.1899248509353903,-10,-1,-100,18989.061244615586,-0.017269621369329004,-0.007707951112281679,0.9998211578414465,65.32058131036912,4.032125616869742,396.0742951922771,-106.2127456687873,-87.82522583007812,4761.76025390625,True
1599385450.1183817,0.0,10,0.5,0.5,-0.22030648193359376,-0.05075,-0.001,-0.37525,-0.04750401604972321,10,1,100,0.18068160411933434,-10,-1,-100,18986.933350228122,-0.01718499956144754,-0.007348991036372118,0.99982531880365,65.25395690102803,4.0282924864863325,396.40695783232536,-106.39471960240012,-87.56686401367188,4761.76025390625,True
1599385450.1443136,0.0,10,0.5,0.5,-0.3177889472961426,-0.05075,-0.001,-0.37525,-0.0031800472948753933,10,1,100,0.16627452164787745,-10,-1,-100,18982.666642865748,-0.01697672785611873,-0.006624201021297595,0.9998339415483598,65.13213068711255,4.0212848063506215,397.13818984329004,-106.7586656823936,-87.11175537109375,4761.76025390625,True
1599385450.1803863,0.0,10,0.5,0.5,-0.3098736030578613,-0.05075,-0.001,-0.37525,0.008707238178749022,10,1,100,0.1579762728276115,-10,-1,-100,18978.3853776725,-0.016712191978640132,-0.005861434764934858,0.9998431608116173,65.0291643330245,4.015388214229357,397.98033400276796,-107.12260849275677,-86.73049926757812,4761.76025390625,True
1599385450.263221,0.0,10,0.5,0.5,-0.16729444961547854,-0.05075,-0.001,-0.37525,-0.06703111205071285,10,1,100,0.18437693415722176,-10,-1,-100,18978.3853776725,-0.016712191978640132,-0.005861434764934858,0.9998431608116173,65.0291643330245,4.015388214229357,397.98033400276796,-107.12260849275677,-86.73049926757812,4761.76025390625,True
1599385450.3200688,0.0,10,0.5,0.5,-0.300582642364502,-0.05075,-0.001,-0.37525,0.016914818834371834,10,1,100,0.14990242398070436,-10,-1,-100,18974.08955499751,-0.01639934174570684,-0.0051029228686635475,0.9998525000061279,64.93699068035089,4.010113125960073,398.8850746814727,-107.4865471080348,-86.41867065429688,4761.76025390625,True
1599385450.3489914,0.0,10,0.5,0.5,-0.34575335540771485,-0.05075,-0.001,-0.37525,0.11441930378532174,10,1,100,0.09578613721835738,-10,-1,-100,18965.454237857484,-0.015623899820445738,-0.0035317598562408423,0.9998717019831685,64.8138165029217,4.0032471202620155,401.06331471644364,-108.21440708348455,-86.03890991210938,4761.76025390625,True
1599385450.3739595,0.0,10,0.5,0.5,-0.23842350311279298,-0.05075,-0.001,-0.37525,0.04322397387885386,10,1,100,0.12356311211825263,-10,-1,-100,18961.114743797807,-0.015173158763987945,-0.0027563042639731764,0.9998810819492121,64.77715592975213,4.001328037728881,402.30437897582857,-108.57832621520878,-85.95721435546875,4761.76025390625,True
1599385450.397621,0.0,10,0.5,0.5,-0.2080780487060547,-0.05075,-0.001,-0.37525,-0.03368858431238942,10,1,100,0.16840771991148107,-10,-1,-100,18961.114743797807,-0.015173158763987945,-0.0027563042639731764,0.9998810819492121,64.77715592975213,4.001328037728881,402.30437897582857,-108.57832621520878,-85.95721435546875,4761.76025390625,True
1599385450.4318192,0.0,10,0.5,0.5,-0.211072265625,-0.05075,-0.001,-0.37525,0.007811189038918531,10,1,100,0.14252636593830997,-10,-1,-100,18958.939538099803,-0.014939934100148556,-0.002384484653199125,0.9998855497515813,64.79961406684535,4.002886308663688,403.17838819590577,-108.76028174065155,-85.95083618164062,4761.76025390625,True
1599385450.4668276,0.0,10,0.5,0.5,-0.16047847747802735,-0.05075,-0.001,-0.37525,0.09869611159541707,10,1,100,0.07975907181302624,-10,-1,-100,18952.392087039538,-0.014159417811218515,-0.0012250797714900758,0.9998989999328936,65.01947757065996,4.016996869516044,406.75869848757975,-109.30612192706164,-86.06442260742188,4761.76025390625,True
1599385450.4984024,0.0,10,0.5,0.5,-0.20327786407470705,-0.05075,-0.001,-0.37525,-0.016596089441408696,10,1,100,0.15749968035021933,-10,-1,-100,18952.392087039538,-0.014159417811218515,-0.0012250797714900758,0.9998989999328936,65.01947757065996,4.016996869516044,406.75869848757975,-109.30612192706164,-86.06442260742188,4761.76025390625,True
1599385450.5316045,0.0,10,0.5,0.5,-0.0907528762817383,-0.05075,-0.001,-0.37525,0.10624716560081537,10,1,100,0.06393009836114089,-10,-1,-100,18945.811887349235,-0.013311535776545282,-0.00011389009952884062,0.9999113910963885,65.1876865336372,4.027969883858622,410.03094340769405,-109.85192435439521,-86.32891845703125,4761.76025390625,True
1599385450.56466,0.0,10,0.5,0.5,-0.08425925292968753,-0.05075,-0.001,-0.37525,0.07984641369550187,10,1,100,0.07911492963204386,-10,-1,-100,18941.406894558808,-0.012682109840286528,0.0006503570295496424,0.9999193673120512,65.26158226928759,4.032966461284393,411.9784065772612,-110.21577425445999,-86.57733154296875,4761.76025390625,True
1599385450.586601,0.0,10,0.5,0.5,-0.17749158020019534,-0.05075,-0.001,-0.37525,0.004072879967102016,10,1,100,0.14165451504408388,-10,-1,-100,18941.406894558808,-0.012682109840286528,0.0006503570295496424,0.9999193673120512,65.26158226928759,4.032966461284393,411.9784065772612,-110.21577425445999,-86.57733154296875,4761.76025390625,True
1599385450.6075459,0.0,10,0.5,0.5,-0.05294921875000003,-0.05075,-0.001,-0.37525,0.0809191107839336,10,1,100,0.07283798993884025,-10,-1,-100,18936.987348163384,-0.012060168777637362,0.0013430393171622163,0.9999263715766513,65.30783943954482,4.036299251287493,413.75492505868,-110.57961105292432,-86.86972045898438,4761.76025390625,True
1599385450.6364677,0.0,10,0.5,0.5,-0.16262305450439454,-0.05075,-0.001,-0.37525,0.012295478241258782,10,1,100,0.13459817890694992,-10,-1,-100,18936.987348163384,-0.012060168777637362,0.0013430393171622163,0.9999263715766513,65.30783943954482,4.036299251287493,413.75492505868,-110.57961105292432,-86.86972045898438,4761.76025390625,True
1599385450.6643949,0.0,10,0.5,0.5,-0.024201777648925782,-0.05075,-0.001,-0.37525,0.09145713510007718,10,1,100,0.059905089319557486,-10,-1,-100,18932.553248866694,-0.011384380445972711,0.0020582591075392898,0.9999330774863423,65.33445676320684,4.0384669144591205,415.40945761138977,-110.94343582200756,-87.1944580078125,4761.76025390625,True
1599385450.697795,0.0,10,0.5,0.5,-0.07149502258300786,-0.05075,-0.001,-0.37525,0.05734083593228295,10,1,100,0.09013727089417309,-10,-1,-100,18930.330742007354,-0.011048309775426821,0.002393933866928034,0.9999360999242637,65.33990782311284,4.039084572010222,416.1874216354281,-111.12534402424825,-87.36920166015625,4761.76025390625,True
1599385450.7338147,0.0,10,0.5,0.5,-0.060314501953125016,-0.05075,-0.001,-0.37525,0.06053888962234724,10,1,100,0.0857896299359265,-10,-1,-100,18928.10459697491,-0.010707016838027007,0.002723483919799385,0.9999389693505143,65.34139783790572,4.03947093083693,416.940425320428,-111.30724952233987,-87.54904174804688,4761.76025390625,True
1599385450.7654283,0.0,10,0.5,0.5,0.03552945404052733,-0.05075,-0.001,-0.37525,0.10063085404584365,10,1,100,0.041135506663901616,-10,-1,-100,18923.64139265404,-0.009994652062701606,0.003382903673011491,0.9999443298968622,65.36549779375544,4.041591670891046,418.58235091815754,-111.67105193544121,-87.93206787109375,4761.76025390625,True
1599385450.7984624,0.0,10,0.5,0.5,0.15316547546386716,-0.05075,-0.001,-0.37525,0.1388170730049939,10,1,100,-0.009361411068355113,-10,-1,-100,18916.91930192255,-0.008891770983702104,0.004325334545156134,0.9999511127499413,65.53046988535137,4.0528514133352935,421.8780324333867,-112.21672666451134,-88.545166015625,4761.76025390625,True
1599385450.8315198,0.0,10,0.5,0.5,-0.07665152893066407,-0.05075,-0.001,-0.37525,0.045129027222194265,10,1,100,0.10039993214884338,-10,-1,-100,18916.91930192255,-0.008891770983702104,0.004325334545156134,0.9999511127499413,65.53046988535137,4.0528514133352935,421.8780324333867,-112.21672666451134,-88.545166015625,4761.76025390625,True
1599385450.8684955,0.0,10,0.5,0.5,0.10623995666503905,-0.05075,-0.001,-0.37525,0.1103352205028378,10,1,100,0.01760592177011447,-10,-1,-100,18912.419720063685,-0.00814311613007079,0.004914082461666816,0.9999547697037362,65.66089948984732,4.061702213493373,424.2144361295465,-112.58048768040197,-88.97396850585938,4761.76025390625,True
1599385450.8984566,0.0,10,0.5,0.5,0.11903700103759762,-0.05075,-0.001,-0.37525,0.11108486055453237,10,1,100,0.01128733114152608,-10,-1,-100,18907.90558780078,-0.0074092054335189875,0.005452246635844553,0.9999576874455567,65.79149452127098,4.070627666522026,426.55857282892464,-112.94423098254116,-89.38116455078125,4761.76025390625,True
1599385450.9323876,0.0,10,0.5,0.5,0.13704447326660155,-0.05075,-0.001,-0.37525,0.11772839907517621,10,1,100,-0.0025141605407483503,-10,-1,-100,18903.376906627207,-0.00662133933445737,0.0059975172447335355,0.9999600930298753,65.9168123004676,4.07928673622058,428.8750346830677,-113.30795644593752,-89.78146362304688,4761.76025390625,True
1599385450.965298,0.0,10,0.5,0.5,0.07187360382080077,-0.05075,-0.001,-0.37525,0.09008458728198254,10,1,100,0.034821182783966224,-10,-1,-100,18901.107110360637,-0.006249454028665287,0.00623767907476033,0.999961017082218,65.97973333037308,4.083654799751318,430.0373839095826,-113.48981261981625,-89.98040771484375,4761.76025390625,True
1599385451.0012531,0.0,10,0.5,0.5,0.15878895874023435,-0.05075,-0.001,-0.37525,0.117306759484874,10,1,100,-0.01130676633219535,-10,-1,-100,18896.55660651438,-0.005497313953933717,0.006699032631394977,0.999962450545567,66.103035890279,4.0922767369894855,432.3502971631113,-113.85351161233888,-90.35894775390625,4761.76025390625,True
1599385451.032341,0.0,10,0.5,0.5,0.0922758331298828,-0.05075,-0.001,-0.37525,0.09549371161247693,10,1,100,0.02210946582775109,-10,-1,-100,18894.275899465545,-0.005122686056988202,0.006915925635382995,0.9999629633442267,66.16239782350898,4.096466359605438,433.4941233249233,-114.03535457849203,-90.53551483154297,4761.76025390625,True
1599385451.0649443,0.0,10,0.5,0.5,0.16569765281677246,-0.05075,-0.001,-0.37525,0.1193126068354692,10,1,100,-0.02381359964625234,-10,-1,-100,18889.703574839397,-0.004370019758836283,0.007325525603064346,0.9999636191391896,66.27526170318438,4.104520162008418,435.74783104801463,-114.39902763261577,-90.86265563964844,4761.76025390625,True
1599385451.098853,0.0,10,0.5,0.5,0.16698207244873048,-0.05075,-0.001,-0.37525,0.11852270413733325,10,1,100,-0.029278004218561186,-10,-1,-100,18885.116703907377,-0.003641862170840086,0.007686524602170461,0.9999638264354709,66.38104335073344,4.112180767498772,437.9606624063614,-114.76268400821989,-91.15306091308594,4761.76025390625,True
1599385451.1351633,0.0,10,0.5,0.5,0.11434544677734373,-0.05075,-0.001,-0.37525,0.10160209421505373,10,1,100,0.002348932004786815,-10,-1,-100,18882.817813642323,-0.003273193592775672,0.007856969401219698,0.9999637764616939,66.43079672332425,4.115831872953691,439.04841494033,-114.94450601318707,-91.28455352783203,4761.76025390625,True
1599385451.1651707,0.0,10,0.5,0.5,0.21074249534606931,-0.05075,-0.001,-0.37525,0.13322486445755227,10,1,100,-0.07816153001554735,-10,-1,-100,18875.89932521223,-0.002211234846524009,0.00829618837087257,0.9999631411701976,66.57027205221785,4.126232001413461,442.25454400058044,-115.48994808396829,-91.62602233886719,4761.76025390625,True
1599385451.199083,0.0,10,0.5,0.5,0.12175661849975586,-0.05075,-0.001,-0.37525,0.10351924280788696,10,1,100,-0.010526674353541612,-10,-1,-100,18873.585889964947,-0.001866753343347257,0.008421817370263936,0.9999627934199038,66.61311571454692,4.1294879740659,443.3014545054001,-115.6717543095877,-91.71720123291016,4761.76025390625,True
1599385451.232633,0.0,10,0.5,0.5,0.12253386573791505,-0.05075,-0.001,-0.37525,0.1043918858285715,10,1,100,-0.014884996406848237,-10,-1,-100,18871.268818736193,-0.0015196730152353525,0.008540769819981767,0.9999623722144793,66.65393666931533,4.132624935757682,444.3360394413944,-115.85355670790507,-91.79869842529297,4761.76025390625,True
1599385451.2677088,0.0,10,0.5,0.5,0.1488369251251221,-0.05075,-0.001,-0.37525,0.11462987505502636,10,1,100,-0.05309529301405355,-10,-1,-100,18866.623768552672,-0.0008621332318120126,0.008739173291616532,0.9999614410448384,66.73091908339042,4.138626513884696,446.37738706246586,-116.217150398113,-91.9316635131836,4761.76025390625,True
1599385451.2993987,0.0,10,0.5,0.5,0.16058085289001467,-0.05075,-0.001,-0.37525,0.1265087385508147,10,1,100,-0.12828929614632414,-10,-1,-100,18857.290038677515,0.00041397641240926075,0.009025037337567229,0.9999591878294761,66.86659487841854,4.149541616587862,450.3496880146813,-116.94429463184007,-92.07585144042969,4761.76025390625,True
1599385451.3326085,0.0,10,0.5,0.5,0.10668387756347657,-0.05075,-0.001,-0.37525,0.09820106978202575,10,1,100,-0.001344674768304274,-10,-1,-100,18857.290038677515,0.00041397641240926075,0.009025037337567229,0.9999591878294761,66.86659487841854,4.149541616587862,450.3496880146813,-116.94429463184007,-92.07585144042969,4761.76025390625,True
1599385451.3655274,0.0,10,0.5,0.5,0.10938091278076173,-0.05075,-0.001,-0.37525,0.10957045817035267,10,1,100,-0.09566321326292437,-10,-1,-100,18850.25156788621,0.0012660437711182226,0.009126280864091863,0.9999575531645126,66.95636282175515,4.157004994814269,453.25789873630686,-117.48961657180611,-92.08177947998047,4761.76025390625,True
1599385451.4015157,0.0,10,0.5,0.5,0.10731104240417481,-0.05075,-0.001,-0.37525,0.09966714104076019,10,1,100,-0.011095350374838832,-10,-1,-100,18850.25156788621,0.0012660437711182226,0.009126280864091863,0.9999575531645126,66.95636282175515,4.157004994814269,453.25789873630686,-117.48961657180611,-92.08177947998047,4761.76025390625,True
1599385451.4324803,0.0,10,0.5,0.5,0.07416795539855958,-0.05075,-0.001,-0.37525,0.10210489565472869,10,1,100,-0.10131604227306891,-10,-1,-100,18843.180378903053,0.00208110818516581,0.009146805219436097,0.9999560015035659,67.03964875655205,4.164065583092055,456.12995526978125,-118.03490869193196,-92.00369262695312,4761.76025390625,True
