Timestamp,Input Throttle,horizon,dT,dt,Input Roll,Roll P,Roll I,Roll D,Input Pitch,Pitch P,Pitch I,Pitch D,Input Yaw,Yaw P,Yaw I,Yaw D,Altitude,Direction X,Direction Y,Direction Z,Drag X,Drag Y,Drag Z,Vertical Velocity,Roll,Mass,Has Fuel
1599387143.0682595,0.0,10,0.5,0.5,-8.424517349243164,-0.15025,-0.001,-0.5,-0.00014882111979381434,10,1,100,0.4980629962453854,-10,-1,-100,19351.09416752786,-0.04884340309287716,-0.00017493868776219583,0.9988064333847486,60.98676708879786,3.6806958066326394,232.7549736967412,-68.48187374083241,-33.92279052734375,4761.76025390625,True
1599387143.0951881,0.0,10,0.5,0.5,-8.430434526062012,-0.15025,-0.001,-0.5,-0.0008415322453336881,10,1,100,0.4989218401074096,-10,-1,-100,19349.72088073357,-0.04889434371896216,-0.00016652642866160956,0.9988039424337694,61.07644776189255,3.686778928393948,233.74174160529705,-68.66433384255174,-33.923980712890625,4761.76025390625,True
1599387143.1271048,0.0,10,0.5,0.5,-8.435863302612304,-0.15025,-0.001,-0.5,-0.0007445687482978758,10,1,100,0.5045344471703204,-10,-1,-100,19348.343944887747,-0.04894722767623048,-0.00015784604638924046,0.9988013536171428,61.16637720146284,3.6928807641912007,234.73153113638594,-68.84679045419222,-33.9251708984375,4761.76025390625,True
1599387143.1580126,0.0,10,0.5,0.5,-8.44125227203369,-0.15025,-0.001,-0.5,-0.0006367056845916986,10,1,100,0.5101279273474721,-10,-1,-100,19346.963359895046,-0.04900165634110648,-0.00014883072006576764,0.9987986861851814,61.2565993450781,3.6990039920004554,235.72452075614984,-69.02924366688164,-33.926422119140625,4761.76025390625,True
1599387143.1888947,0.0,10,0.5,0.5,-8.23529275817871,-0.15025,-0.001,-0.5,0.034281038517615596,10,1,100,0.5067613718181487,-10,-1,-100,19342.799711319618,-0.04897598493496254,0.00017693436999387921,0.9987999407258087,61.537383935038925,3.718000099402241,238.75522439746715,-69.57658214628825,-34.25274658203125,4761.76025390625,True
1599387143.2220373,0.0,10,0.5,0.5,-8.40402971496582,-0.15025,-0.001,-0.5,0.0017222229486502988,10,1,100,0.5142261109260392,-10,-1,-100,19342.799711319618,-0.04897598493496254,0.00017693436999387921,0.9987999407258087,61.537383935038925,3.718000099402241,238.75522439746715,-69.57658214628825,-34.25274658203125,4761.76025390625,True
1599387143.2579067,0.0,10,0.5,0.5,-8.040901895141602,-0.15025,-0.001,-0.5,0.03683067116611559,10,1,100,0.5105055562991664,-10,-1,-100,19340.0057016426,-0.04889763808841373,0.0004959412316344783,0.9988036719153917,61.74125948239494,3.7316635739529453,240.8514839443335,-69.94145520263382,-34.81976318359375,4761.76025390625,True
1599387143.2886229,0.0,10,0.5,0.5,-7.771238690185546,-0.15025,-0.001,-0.5,0.05524397017738454,10,1,100,0.5026481978155519,-10,-1,-100,19337.197097496595,-0.04871053075252885,0.0009528902411996184,0.9988124829986833,61.95551771672599,3.745922600110279,242.99767217460686,-70.30631119074505,-35.678955078125,4761.76025390625,True
1599387143.3215723,0.0,10,0.5,0.5,-7.855463534545898,-0.15025,-0.001,-0.5,0.04158332881070553,10,1,100,0.5122765205923776,-10,-1,-100,19335.787322780816,-0.04858368108082962,0.0012432445190697552,0.9988183419800128,62.064382430907486,3.753137363999865,244.08119443472037,-70.48873244216068,-36.21844482421875,4761.76025390625,True
1599387143.3554556,0.0,10,0.5,0.5,-7.285825134277344,-0.15025,-0.001,-0.5,0.08780605800948935,10,1,100,0.49200326979896847,-10,-1,-100,19332.956828419352,-0.048239893934725844,0.0019262793602869417,0.998833921170578,62.280476469006274,3.76741186167248,246.24905961056257,-70.85356095783249,-37.517578125,4761.76025390625,True
1599387143.391005,0.0,10,0.5,0.5,-6.315590504455566,-0.15025,-0.001,-0.5,0.16008802462671323,10,1,100,0.4493024381957383,-10,-1,-100,19328.68372583436,-0.047495316338297844,0.00320257774940434,0.9988663266031567,62.578943324755706,3.787075089771463,249.41657916936992,-71.40076888044017,-40.016693115234375,4761.76025390625,True
1599387143.423953,0.0,10,0.5,0.5,-6.2425673416137695,-0.15025,-0.001,-0.5,0.14394545827814093,10,1,100,0.4513529207521577,-10,-1,-100,19325.816751424223,-0.046838293898198546,0.004213027939581167,0.9988936002499397,62.74033895348598,3.797732829150381,251.3887918624185,-71.76555201513688,-42.049713134765625,4761.76025390625,True
1599387143.4554448,0.0,10,0.5,0.5,-7.258264778137207,-0.15025,-0.001,-0.5,0.043338394697282574,10,1,100,0.5168495597800111,-10,-1,-100,19325.816751424223,-0.046838293898198546,0.004213027939581167,0.9988936002499397,62.74033895348598,3.797732829150381,251.3887918624185,-71.76555201513688,-42.049713134765625,4761.76025390625,True
1599387143.4884815,0.0,10,0.5,0.5,-5.744224052429199,-0.15025,-0.001,-0.5,0.16316559888750196,10,1,100,0.4278968608504178,-10,-1,-100,19322.935185961192,-0.04603155021136409,0.005298392637686824,0.9989259349023808,62.851723619290624,3.805184418704471,253.1668952816672,-72.13031969720107,-44.376861572265625,4761.76025390625,True
1599387143.525375,0.0,10,0.5,0.5,-6.078581428527832,-0.15025,-0.001,-0.5,0.11964513662055506,10,1,100,0.4583177257545398,-10,-1,-100,19321.488931922708,-0.04557740027348819,0.0058844952304854025,0.9989434785312893,62.88227573152884,3.807311205175988,253.95638956489802,-72.31269876397047,-45.650482177734375,4761.76025390625,True
1599387143.559287,0.0,10,0.5,0.5,-4.914733502197265,-0.15025,-0.001,-0.5,0.19970540232508974,10,1,100,0.39116130051194664,-10,-1,-100,19318.58548119187,-0.04455711335926968,0.0071399476750157965,0.9989813235472861,62.87977510398377,3.8075420281771346,255.27956313509975,-72.67745015069958,-48.41790771484375,4761.76025390625,True
1599387143.8660207,0.0,10,0.5,0.5,-4.305996322631835,-0.15025,-0.001,-0.5,0.21556724089549553,10,1,100,0.3628391161361739,-10,-1,-100,19315.667440591496,-0.043376122553451,0.008419136599497097,0.9990233381313706,62.77341228016633,3.8012390045861797,256.1794891934919,-73.04219693659458,-51.4798583984375,4761.76025390625,True
1599387143.8979342,0.0,10,0.5,0.5,-4.768251119995117,-0.15025,-0.001,-0.5,0.16316893794566117,10,1,100,0.40905606594001315,-10,-1,-100,19314.20294900413,-0.04272766819686435,0.009098484508238091,0.9990453262740945,62.67338018816494,3.7951561044514825,256.4363851265935,-73.22457073406082,-53.120849609375,4761.76025390625,True
1599387143.9298491,0.0,10,0.5,0.5,-3.3092423507690434,-0.15025,-0.001,-0.5,0.24663096968290762,10,1,100,0.317429183136269,-10,-1,-100,19311.263023292297,-0.0413106315404385,0.010467414173553019,0.9990915198129997,62.36333417874613,3.7761455019551255,256.4922259811813,-73.58932416993628,-56.623748779296875,4761.76025390625,True
1599387143.9607666,0.0,10,0.5,0.5,-2.5893563995361326,-0.15025,-0.001,-0.5,0.26129001545092595,10,1,100,0.2857835183738302,-10,-1,-100,19308.30850715388,-0.039741340399975005,0.011836774131135408,0.99913988842473,61.883657027110104,3.746640675025733,255.8348044872915,-73.95409285662937,-60.42120361328125,4761.76025390625,True
1599387143.9896889,0.0,10,0.5,0.5,-1.8253009765625001,-0.15025,-0.001,-0.5,0.28006264896181315,10,1,100,0.2506765960637517,-10,-1,-100,19305.339399478748,-0.03800328420903907,0.013243297583790328,0.9991898545614014,61.205751838627634,3.7049632836090707,254.3346720702713,-74.31888681256028,-64.5126953125,4761.76025390625,True
1599387144.021609,0.0,10,0.5,0.5,-2.466257534790039,-0.15025,-0.001,-0.5,0.21395964165898776,10,1,100,0.32262339810779467,-10,-1,-100,19303.849373600562,-0.03708592408325157,0.01391189091087422,0.9992152388380471,60.783653258908956,3.6790517536690204,253.22798359354047,-74.50129659712246,-66.6693115234375,4761.76025390625,True
1599387144.0515263,0.0,10,0.5,0.5,-0.5936938064575195,-0.15025,-0.001,-0.5,0.2930070671975109,10,1,100,0.19938946734101545,-10,-1,-100,19300.858376007294,-0.03514051766176035,0.015229498837690428,0.9992663340589516,59.75548133340964,3.616080543129159,250.21853075741478,-74.86614849124035,-71.20358276367188,4761.76025390625,True
1599387144.083442,0.0,10,0.5,0.5,-1.3117446365356447,-0.15025,-0.001,-0.5,0.23199877861474655,10,1,100,0.2807303830025117,-10,-1,-100,19299.35740423575,-0.0341220635811787,0.01586268844686357,0.9992917791577192,59.142516484914,3.5786363615585453,248.28292048235824,-75.04859321582872,-73.58139038085938,4761.76025390625,True
1599387144.1121268,0.0,10,0.5,0.5,0.738460369873047,-0.15025,-0.001,-0.5,0.3049798308386961,10,1,100,0.1449093227829225,-10,-1,-100,19296.344512412325,-0.03197228613013564,0.017092175570139444,0.9993425991390001,57.70299827990071,3.490962613377261,243.4725349507068,-75.41352654452865,-78.5582275390625,4761.76025390625,True
1599387144.1460373,0.0,10,0.5,0.5,-0.06811833953857405,-0.15025,-0.001,-0.5,0.24524505068355856,10,1,100,0.23736245001004738,-10,-1,-100,19294.832592022605,-0.030870794253200683,0.0176566588804893,0.9993674181497787,56.87026678200283,3.44039735841927,240.56700554620676,-75.59601712496756,-81.13961791992188,4761.76025390625,True
1599387144.174959,0.0,10,0.5,0.5,2.106194534301758,-0.15025,-0.001,-0.5,0.3078872694611543,10,1,100,0.09284334204734909,-10,-1,-100,19291.797800210654,-0.028568070037331708,0.01872973959587143,0.9994163607971469,54.990212424315295,3.326585107818684,233.79121839230228,-75.96104985135742,-86.46331787109375,4761.76025390625,True
1599387144.2078707,0.0,10,0.5,0.5,4.635510535812378,-0.15025,-0.001,-0.5,0.35348728420914166,10,1,100,-0.07205973750381517,-10,-1,-100,19287.218230749713,-0.02498902734745489,0.02011043983211291,0.999485426968291,52.37734921373454,3.169343971385854,224.36588886957756,-76.50871795419414,-94.44127655029297,4761.76025390625,True
1599387144.2417803,0.0,10,0.5,0.5,0.6506632389068603,-0.15025,-0.001,-0.5,0.21651845611738113,10,1,100,0.2840706673989255,-10,-1,-100,19287.218230749713,-0.02498902734745489,0.02011043983211291,0.999485426968291,52.37734921373454,3.169343971385854,224.36588886957756,-76.50871795419414,-94.44127655029297,4761.76025390625,True
1599387144.2726984,0.0,10,0.5,0.5,3.9833150135040283,-0.15025,-0.001,-0.5,0.3009487104938799,10,1,100,0.015629345837721076,-10,-1,-100,19284.146929489798,-0.02256348951889211,0.020869221212209663,0.9995275706786316,54.030209667817815,3.2706104074214,232.60396890034278,-76.87378598566914,-99.5606460571289,4761.76025390625,True
1599387144.3066068,0.0,10,0.5,0.5,3.0260225368499754,-0.15025,-0.001,-0.5,0.2622318433623065,10,1,100,0.12551380372216459,-10,-1,-100,19282.605803614482,-0.021373020974494596,0.021198839631936885,0.999546798890719,54.74162972285132,3.3144685961460656,236.25307743947963,-77.05628992609908,-102.0188980102539,4761.76025390625,True
1599387144.340516,0.0,10,0.5,0.5,4.866394952774048,-0.15025,-0.001,-0.5,0.2931462732092617,10,1,100,-0.02967546596069698,-10,-1,-100,19279.512603237294,-0.018895083721774973,0.02177230070116291,0.9995843849987481,56.020777266326256,3.3937664566244425,242.97330873806163,-77.42124021031977,-106.7336196899414,4761.76025390625,True
1599387144.3704352,0.0,10,0.5,0.5,6.785093547058105,-0.15025,-0.001,-0.5,0.30425262002720643,10,1,100,-0.18214680789389467,-10,-1,-100,19274.845436296542,-0.015272847511147589,0.022387449908085805,0.9996327036544544,57.64401252929467,3.4952487833081967,251.86377097542857,-77.96852735794207,-113.30348205566406,4761.76025390625,True
1599387144.4053426,0.0,10,0.5,0.5,4.833943894958496,-0.15025,-0.001,-0.5,0.2591273275899323,10,1,100,0.0442181260038611,-10,-1,-100,19273.282417903305,-0.014055830055239213,0.02252993930034013,0.9996473555592398,58.13109598348556,3.5258537386938165,254.6134925584053,-78.15092232593338,-115.34819030761719,4761.76025390625,True
1599387144.4352622,0.0,10,0.5,0.5,5.097508855819703,-0.15025,-0.001,-0.5,0.2589415414251788,10,1,100,0.034955806197199735,-10,-1,-100,19271.715751718264,-0.012883489673012803,0.02265172500920678,0.9996603998598488,58.55658477975959,3.5527234303553517,257.1029941503715,-78.333302059908,-117.31934356689453,4761.76025390625,True
1599387144.4681747,0.0,10,0.5,0.5,5.349592624282836,-0.15025,-0.001,-0.5,0.2592580650301841,10,1,100,0.025401254822016356,-10,-1,-100,19270.145438233623,-0.011748219582539058,0.022760262641459174,0.9996719210726749,58.92538526520444,3.5761413753293994,259.3519067645097,-78.51566792565848,-119.21674346923828,4761.76025390625,True
1599387144.5020835,0.0,10,0.5,0.5,6.7288311668395995,-0.15025,-0.001,-0.5,0.26225789689267426,10,1,100,-0.11533691224104044,-10,-1,-100,19266.99387031584,-0.009454102140326647,0.02288156477520129,0.9996934799958227,59.51355665050985,3.613829338744535,263.21204978221,-78.88036362852462,-122.79095458984375,4761.76025390625,True
1599387144.5345066,0.0,10,0.5,0.5,7.078058512115478,-0.15025,-0.001,-0.5,0.25247853521703295,10,1,100,-0.1344444230035488,-10,-1,-100,19263.827715668944,-0.007212212520380747,0.022899161767752536,0.9997117646506393,59.92617476332831,3.640703638685446,266.3167289725922,-79.24501949126616,-126.07077026367188,4761.76025390625,True
1599387144.568416,0.0,10,0.5,0.5,6.43580837173462,-0.15025,-0.001,-0.5,0.24861326288529456,10,1,100,-0.031646006616559946,-10,-1,-100,19262.23916880472,-0.006124822846518077,0.022877484992569103,0.9997195142766361,60.075165877950745,3.650588745316276,267.6202469172509,-79.42733530852855,-127.60017395019531,4761.76025390625,True
1599387144.6033225,0.0,10,0.5,0.5,7.51957227859497,-0.15025,-0.001,-0.5,0.24112170306542097,10,1,100,-0.15633744403960076,-10,-1,-100,19259.051136670518,-0.0040198775341615854,0.022787158248439444,0.9997322571586709,60.27672964785537,3.6643474457749794,269.8051804038612,-79.79194772425359,-130.43777465820312,4761.76025390625,True
1599387144.6342392,0.0,10,0.5,0.5,8.512134173583984,-0.15025,-0.001,-0.5,0.22226600065224794,10,1,100,-0.2783836039546563,-10,-1,-100,19254.241744046565,-0.0010136381709594795,0.022531883970896154,0.9997456110143121,60.39283362255375,3.6732814654528103,272.2592718131085,-80.33883056102849,-134.14138793945312,4761.76025390625,True
1599387144.6701436,0.0,10,0.5,0.5,8.029356489562987,-0.15025,-0.001,-0.5,0.2220994069277663,10,1,100,-0.18723283018324496,-10,-1,-100,19251.017253600527,0.0008721547769354821,0.02229709009896246,0.9997510085612136,60.3817672218357,3.673620953956671,273.49905192726453,-80.70340242349715,-136.24183654785156,4761.76025390625,True
1599387144.7060475,0.0,10,0.5,0.5,8.15544214553833,-0.15025,-0.001,-0.5,0.2221339568180048,10,1,100,-0.1924180685574027,-10,-1,-100,19247.778180401074,0.00261568031615169,0.022083478133117812,0.999752708528478,60.32558159153351,3.671050701721321,274.5333938597553,-81.06796482814025,-138.0463104248047,4761.76025390625,True
1599387144.736966,0.0,10,0.5,0.5,7.255679489898681,-0.15025,-0.001,-0.5,0.2434647562249726,10,1,100,-0.019854367418511855,-10,-1,-100,19247.778180401074,0.00261568031615169,0.022083478133117812,0.999752708528478,60.32558159153351,3.671050701721321,274.5333938597553,-81.06796482814025,-138.0463104248047,4761.76025390625,True
1599387144.7708757,0.0,10,0.5,0.5,8.658433573913573,-0.15025,-0.001,-0.5,0.19975529577613238,10,1,100,-0.2904601656948761,-10,-1,-100,19242.892229137477,0.005060577109235555,0.021686525275553103,0.9997520118413336,60.20141307927896,3.664516940238431,275.89842670362475,-81.6147952207821,-140.2000732421875,4761.76025390625,True
1599387144.8077753,0.0,10,0.5,0.5,7.954924069976806,-0.15025,-0.001,-0.5,0.22151105542164223,10,1,100,-0.13281686639343016,-10,-1,-100,19241.256287644967,0.005833776866769334,0.021524316128847688,0.9997513045066028,60.15614285902837,3.6620493031143897,276.334083920424,-81.79706897153076,-140.770751953125,4761.76025390625,True
1599387144.8426816,0.0,10,0.5,0.5,7.994801333618164,-0.15025,-0.001,-0.5,0.21971589818490317,10,1,100,-0.13905664206848029,-10,-1,-100,19239.61670087441,0.0065774273375284,0.021361657244702056,0.9997501773190037,60.110774551958905,3.659554301500338,276.76844631333665,-81.97934120079894,-141.267578125,4761.76025390625,True
1599387144.8736017,0.0,10,0.5,0.5,8.428232148742676,-0.15025,-0.001,-0.5,0.19355691145420956,10,1,100,-0.286846051416935,-10,-1,-100,19234.67606766417,0.008582439187315452,0.020977358295681994,0.9997431130928239,59.987153181589875,3.652728874529547,278.124343047836,-82.52614884239208,-142.31332397460938,4761.76025390625,True
1599387144.9095032,0.0,10,0.5,0.5,7.906983479309082,-0.15025,-0.001,-0.5,0.23179462600900871,10,1,100,-0.08792433160899937,-10,-1,-100,19234.67606766417,0.008582439187315452,0.020977358295681994,0.9997431130928239,59.987153181589875,3.652728874529547,278.124343047836,-82.52614884239208,-142.31332397460938,4761.76025390625,True
1599387144.9454072,0.0,10,0.5,0.5,8.156803144836426,-0.15025,-0.001,-0.5,0.18602361320277477,10,1,100,-0.2848464275404452,-10,-1,-100,19229.7026265912,0.01035926982120693,0.020562985567167947,0.9997348894348621,59.90411269997514,3.64828301772481,279.66286735047004,-83.07294098138819,-142.69525146484375,4761.76025390625,True
1599387144.9783196,0.0,10,0.5,0.5,7.953650566101074,-0.15025,-0.001,-0.5,0.2143844610279544,10,1,100,-0.16659008259198255,-10,-1,-100,19228.037522597122,0.010886440763981004,0.020446130951185238,0.9997316845717251,59.887945182791604,3.647493770129686,280.22863160169055,-83.25520089493496,-142.67462158203125,4761.76025390625,True
1599387145.0192115,0.0,10,0.5,0.5,7.9038876594543455,-0.15025,-0.001,-0.5,0.20835218270776462,10,1,100,-0.1723941897727527,-10,-1,-100,19226.36877338041,0.011407633432750855,0.02028695672739897,0.999729115954019,59.87861211447895,3.6471207569388935,280.8262174443344,-83.43745840500267,-142.58091735839844,4761.76025390625,True
1599387145.0561113,0.0,10,0.5,0.5,7.226797770690918,-0.15025,-0.001,-0.5,0.16701054571931367,10,1,100,-0.31496277254878424,-10,-1,-100,19219.657325722044,0.013167945267182082,0.019768247218036047,0.9997178710113005,59.89805945525479,3.649135531717985,283.48441141498864,-84.16646301867648,-141.46661376953125,4761.76025390625,True
1599387145.0920153,0.0,10,0.5,0.5,7.784291595458984,-0.15025,-0.001,-0.5,0.21864997356409777,10,1,100,-0.1399868156007645,-10,-1,-100,19219.657325722044,0.013167945267182082,0.019768247218036047,0.9997178710113005,59.89805945525479,3.649135531717985,283.48441141498864,-84.16646301867648,-141.46661376953125,4761.76025390625,True
1599387145.1289163,0.0,10,0.5,0.5,7.134621754455567,-0.15025,-0.001,-0.5,0.19054348715669356,10,1,100,-0.22010996901514565,-10,-1,-100,19216.27973231359,0.013886744602811883,0.01951483846061881,0.9997131235530482,59.9372374752357,3.6519992905876273,284.9548199252586,-84.53094814685625,-140.46697998046875,4761.76025390625,True
1599387145.165819,0.0,10,0.5,0.5,5.758725868225097,-0.15025,-0.001,-0.5,0.16703497590437605,10,1,100,-0.26866047203149535,-10,-1,-100,19209.480808914872,0.01497354296490254,0.019072727385050194,0.9997059688134173,60.04514284282089,3.659751095671385,288.04377035931765,-85.25988143419778,-137.58233642578125,4761.76025390625,True
1599387145.1977317,0.0,10,0.5,0.5,7.200728804016113,-0.15025,-0.001,-0.5,0.21100092458685787,10,1,100,-0.16089461243224307,-10,-1,-100,19209.480808914872,0.01497354296490254,0.019072727385050194,0.9997059688134173,60.04514284282089,3.659751095671385,288.04377035931765,-85.25988143419778,-137.58233642578125,4761.76025390625,True
1599387145.2336364,0.0,10,0.5,0.5,5.290062386322021,-0.15025,-0.001,-0.5,0.17999047920924982,10,1,100,-0.2179922177078419,-10,-1,-100,19204.343348852824,0.015484979271383098,0.018792895090580714,0.9997034772926815,60.11051572579406,3.6648952617874566,290.29274381397863,-85.80655049603405,-134.64454650878906,4761.76025390625,True
1599387145.268544,0.0,10,0.5,0.5,6.758190467071533,-0.15025,-0.001,-0.5,0.20775526233568775,10,1,100,-0.16753884106819283,-10,-1,-100,19204.343348852824,0.015484979271383098,0.018792895090580714,0.9997034772926815,60.11051572579406,3.6648952617874566,290.29274381397863,-85.80655049603405,-134.64454650878906,4761.76025390625,True
1599387145.5905502,0.0,10,0.5,0.5,5.244929547882079,-0.15025,-0.001,-0.5,0.18313805442309666,10,1,100,-0.19243495023369112,-10,-1,-100,19200.90015367139,0.01570503250008393,0.01857108816701634,0.9997041895673261,60.1220630982055,3.6665411892347244,291.63975659048026,-86.17098460696748,-132.3185272216797,4761.76025390625,True
1599387145.6216207,0.0,10,0.5,0.5,4.7025849182128905,-0.15025,-0.001,-0.5,0.18444490440674327,10,1,100,-0.18171816981525596,-10,-1,-100,19197.442381267436,0.015802795829027206,0.018383136779445655,0.9997061227811572,60.08780617841522,3.665547766240207,292.76482112052605,-86.53541259860845,-129.697509765625,4761.76025390625,True
1599387145.6505408,0.0,10,0.5,0.5,4.116519991302489,-0.15025,-0.001,-0.5,0.1783045244828641,10,1,100,-0.1725743061836304,-10,-1,-100,19193.97003186075,0.015804076135901728,0.01815832569522953,0.9997102112039451,59.9892962043312,3.660797483399832,293.5748436958441,-86.89983851426912,-126.78282165527344,4761.76025390625,True
1599387145.6825333,0.0,10,0.5,0.5,4.552845512390136,-0.15025,-0.001,-0.5,0.18876557668144384,10,1,100,-0.16842660191330733,-10,-1,-100,19192.228390572942,0.015763536882690946,0.018050987575958476,0.9997127951329224,59.90933896776078,3.656610036613976,293.8280643995216,-87.0820522758417,-125.21505737304688,4761.76025390625,True
1599387145.7164419,0.0,10,0.5,0.5,4.267918976593018,-0.15025,-0.001,-0.5,0.18692395975487142,10,1,100,-0.1654287809265405,-10,-1,-100,19190.483105219086,0.015697070469332802,0.017938226640599658,0.9997158706370882,59.80524655438682,3.6509887269611014,293.9612185021531,-87.26426766668382,-123.57386779785156,4761.76025390625,True
1599387145.7493534,0.0,10,0.5,0.5,2.8091528228759763,-0.15025,-0.001,-0.5,0.17075297248058113,10,1,100,-0.14997762360866795,-10,-1,-100,19186.98160127981,0.015493882185933693,0.017690371379213945,0.9997234569496076,59.51306364832335,3.6347250862445524,293.807071533132,-87.628706619052,-120.07125854492188,4761.76025390625,True
1599387145.7782774,0.0,10,0.5,0.5,0.78422741317749,-0.15025,-0.001,-0.5,0.14828656975932997,10,1,100,-0.11707222237820303,-10,-1,-100,19181.702011035173,0.015008564519309256,0.017262466996016836,0.9997383408793928,58.817832669165234,3.594831096953793,292.27813121222033,-88.17540055205531,-114.26704406738281,4761.76025390625,True
1599387145.8102207,0.0,10,0.5,0.5,0.92947958984375,-0.15025,-0.001,-0.5,0.1547353732076125,10,1,100,-0.11808317752245144,-10,-1,-100,19178.16406004911,0.014576525304094383,0.016933734188448426,0.9997503556170879,58.14592495626037,3.5555396634339487,290.19575037438113,-88.53990022506466,-110.03094482421875,4761.76025390625,True
1599387145.845141,0.0,10,0.5,0.5,3.044774072265625,-0.15025,-0.001,-0.5,0.1873947546447933,10,1,100,-0.16124739727785786,-10,-1,-100,19178.16406004911,0.014576525304094383,0.016933734188448426,0.9997503556170879,58.14592495626037,3.5555396634339487,290.19575037438113,-88.53990022506466,-110.03094482421875,4761.76025390625,True
1599387145.8750167,0.0,10,0.5,0.5,0.11828125991821281,-0.15025,-0.001,-0.5,0.14693735113659062,10,1,100,-0.10654100247179768,-10,-1,-100,19174.611527826986,0.014080020309464099,0.016567629757375794,0.9997636053949492,57.3712339364428,3.5098982114446406,287.5709447774041,-88.90443854143456,-105.53416442871094,4761.76025390625,True
1599387145.908927,0.0,10,0.5,0.5,0.8402082782745359,-0.15025,-0.001,-0.5,0.1610927503365439,10,1,100,-0.12547699258692374,-10,-1,-100,19172.829793333658,0.013802074732630367,0.0163655159630668,0.9997708100461513,56.945592813592015,3.4846804483657565,286.05428387523114,-89.08672331019422,-103.1911392211914,4761.76025390625,True
1599387145.9388459,0.0,10,0.5,0.5,-2.805215773010254,-0.15025,-0.001,-0.5,0.10559728531583117,10,1,100,-0.05050015742593482,-10,-1,-100,19167.462713210844,0.012869519304742942,0.015679276988237553,0.9997942467057864,55.45066748912836,3.3953056370656167,280.3493301597411,-89.63364925987345,-95.78779602050781,4761.76025390625,True
1599387145.9747503,0.0,10,0.5,0.5,0.8930648559570312,-0.15025,-0.001,-0.5,0.17395079681963507,10,1,100,-0.1434623725622489,-10,-1,-100,19167.462713210844,0.012869519304742942,0.015679276988237553,0.9997942467057864,55.45066748912836,3.3953056370656167,280.3493301597411,-89.63364925987345,-95.78779602050781,4761.76025390625,True
1599387146.0076976,0.0,10,0.5,0.5,-5.708867612457276,-0.15025,-0.001,-0.5,0.05374247124871864,10,1,100,0.010343021065952362,-10,-1,-100,19160.255552325863,0.011473956232514893,0.01458872770914467,0.999827743840009,54.669510247383236,3.349074341356232,278.77648074482727,-90.36302473563251,-85.6396484375,4761.76025390625,True
1599387146.0385795,0.0,10,0.5,0.5,-0.6387513618469237,-0.15025,-0.001,-0.5,0.16245117317132565,10,1,100,-0.1287843280918349,-10,-1,-100,19160.255552325863,0.011473956232514893,0.01458872770914467,0.999827743840009,54.669510247383236,3.349074341356232,278.77648074482727,-90.36302473563251,-85.6396484375,4761.76025390625,True
1599387146.071491,0.0,10,0.5,0.5,-2.2743412849426266,-0.15025,-0.001,-0.5,0.12655644340826838,10,1,100,-0.0854406333247881,-10,-1,-100,19158.444645490265,0.011083761838484302,0.014265456983054562,0.9998368101648251,55.61533033201197,3.4071722015217913,284.2043491240677,-90.54533876271101,-83.13015747070312,4761.76025390625,True
1599387146.1054983,0.0,10,0.5,0.5,-4.329785761260986,-0.15025,-0.001,-0.5,0.08640458517582722,10,1,100,-0.0399595178202434,-10,-1,-100,19154.811894526356,0.010319584176003767,0.0136096711703106,0.9998541308776346,57.41504287018821,3.517504475096223,294.6501402973428,-90.90989901934091,-78.04519653320312,4761.76025390625,True
1599387146.1374145,0.0,10,0.5,0.5,-4.9999691719055175,-0.15025,-0.001,-0.5,0.06913826950641555,10,1,100,-0.025814503231122526,-10,-1,-100,19151.16456371802,0.009500548877796096,0.012859856467026623,0.9998721736615476,59.030970868336446,3.616334055092825,304.2269077214397,-91.27437120941939,-73.110107421875,4761.76025390625,True
1599387146.171359,0.0,10,0.5,0.5,-4.085659592437745,-0.15025,-0.001,-0.5,0.10123701437125843,10,1,100,-0.06236859772762376,-10,-1,-100,19149.335432013613,0.00909289580796304,0.012473717033468328,0.9998808557169171,59.75735587450112,3.660691643643422,308.6202071334652,-91.45657618542299,-70.72711181640625,4761.76025390625,True
1599387146.2062294,0.0,10,0.5,0.5,-5.8594205268859865,-0.15025,-0.001,-0.5,0.050330906262199146,10,1,100,-0.01173730631856161,-10,-1,-100,19145.666238170583,0.008267002758483454,0.011663952944837502,0.9998977992110454,61.03976223566176,3.738918397032456,316.57036061894274,-91.82092928619804,-66.1729736328125,4761.76025390625,True
1599387146.240138,0.0,10,0.5,0.5,-7.668983621978759,-0.15025,-0.001,-0.5,-0.013000658931310985,10,1,100,0.04478205499051739,-10,-1,-100,19140.135125016095,0.007007663081193094,0.010356520159607148,0.9999218145176773,62.57073429609126,3.832256741495587,326.55049007775074,-92.36733528808001,-59.894317626953125,4761.76025390625,True
1599387146.2750475,0.0,10,0.5,0.5,-7.014194537353515,-0.15025,-0.001,-0.5,0.01580568736393745,10,1,100,0.012154544626363908,-10,-1,-100,19136.429505333886,0.006165599297559105,0.009435283499175866,0.9999364783877984,63.36659849138725,3.8808569128583796,332.0812957768019,-92.73153788324568,-56.080078125,4761.76025390625,True
1599387146.308993,0.0,10,0.5,0.5,-6.278907893371581,-0.15025,-0.001,-0.5,0.05797922096441644,10,1,100,-0.025444685119258015,-10,-1,-100,19134.571232702816,0.0057479924192222085,0.008986867743778203,0.9999430967766637,63.707155733149236,3.9017050226643244,334.5584392564937,-92.91362220858063,-54.2840576171875,4761.76025390625,True
1599387146.3408694,0.0,10,0.5,0.5,-6.504530541992187,-0.15025,-0.001,-0.5,0.05167325224190611,10,1,100,-0.020400907549548188,-10,-1,-100,19132.70931876439,0.005328971394541778,0.008527974077070651,0.9999494365826789,64.01386489408095,3.9205268978752863,336.86495311351223,-93.09569660296849,-52.56243896484375,4761.76025390625,True
1599387146.3777716,0.0,10,0.5,0.5,-6.718111814880371,-0.15025,-0.001,-0.5,0.04475267670558201,10,1,100,-0.01544958614362961,-10,-1,-100,19130.843763282173,0.004908617527358466,0.008053393469399088,0.9999555231747046,64.28990609815229,3.9375197586284627,339.01653437802497,-93.27776198258861,-50.915252685546875,4761.76025390625,True
1599387146.413675,0.0,10,0.5,0.5,-7.895315112304687,-0.15025,-0.001,-0.5,-0.014221018524569917,10,1,100,0.03506507359045671,-10,-1,-100,19127.10172929219,0.004073221958432085,0.007091773264186964,0.9999665572482145,64.76201348310231,3.966759987118982,342.91471830059197,-93.64186916532957,-47.8436279296875,4761.76025390625,True
1599387146.4486184,0.0,10,0.5,0.5,-9.77868938446045,-0.15025,-0.001,-0.5,-0.1340142052230329,10,1,100,0.13481002716331691,-10,-1,-100,19119.57397192379,0.0024133723540912385,0.005135065638297976,0.9999839032378327,65.46613901498996,4.011126147227921,349.49363348976874,-94.37000885572243,-42.590789794921875,4761.76025390625,True
1599387146.4814925,0.0,10,0.5,0.5,-7.155815757751465,-0.15025,-0.001,-0.5,0.0608090968126646,10,1,100,-0.03038431208857644,-10,-1,-100,19119.57397192379,0.0024133723540912385,0.005135065638297976,0.9999839032378327,65.46613901498996,4.011126147227921,349.49363348976874,-94.37000885572243,-42.590789794921875,4761.76025390625,True
1599387146.517397,0.0,10,0.5,0.5,-9.214989622497558,-0.15025,-0.001,-0.5,-0.09637803553730563,10,1,100,0.10812850308412762,-10,-1,-100,19113.88992866827,0.001160607831179115,0.0037131142449607275,0.9999924328574021,65.86537746084305,4.036955294211307,353.77886928559775,-94.91606327681431,-39.428741455078125,4761.76025390625,True
1599387146.5542984,0.0,10,0.5,0.5,-7.637095289611816,-0.15025,-0.001,-0.5,0.04494104351756848,10,1,100,-0.01635472040940633,-10,-1,-100,19113.88992866827,0.001160607831179115,0.0037131142449607275,0.9999924328574021,65.86537746084305,4.036955294211307,353.77886928559775,-94.91606327681431,-39.428741455078125,4761.76025390625,True
1599387146.589205,0.0,10,0.5,0.5,-8.768916296386719,-0.15025,-0.001,-0.5,-0.06783790125442801,10,1,100,0.07498707620805038,-10,-1,-100,19110.082365369075,0.00033668822095433065,0.0026950791458515565,0.9999963115879176,66.10324253357466,4.05261037114649,356.4991767556747,-95.28007972988736,-37.6922607421875,4761.76025390625,True
1599387146.6231143,0.0,10,0.5,0.5,-8.84060712890625,-0.15025,-0.001,-0.5,-0.06578322387809674,10,1,100,0.08647447686612826,-10,-1,-100,19106.26024202793,-0.0005106959989959641,0.0017952365237314631,0.9999982581561934,66.33466343616809,4.067977053355968,359.19627801563985,-95.64408119297934,-36.25018310546875,4761.76025390625,True
1599387146.6570227,0.0,10,0.5,0.5,-9.166301116943359,-0.15025,-0.001,-0.5,-0.13335388821457372,10,1,100,0.1411161533089116,-10,-1,-100,19100.499757453566,-0.0017717184436155764,0.0003698645069047187,0.9999983621056602,66.69433333949664,4.091943163266927,363.33165756718495,-96.19005480361518,-34.64349365234375,4761.76025390625,True
1599387146.690933,0.0,10,0.5,0.5,-8.364920446777344,-0.15025,-0.001,-0.5,0.008321613144413372,10,1,100,0.01576587993323418,-10,-1,-100,19100.499757453566,-0.0017717184436155764,0.0003698645069047187,0.9999983621056602,66.69433333949664,4.091943163266927,363.33165756718495,-96.19005480361518,-34.64349365234375,4761.76025390625,True
1599387146.7258408,0.0,10,0.5,0.5,-9.08800405883789,-0.15025,-0.001,-0.5,-0.18056107096747379,10,1,100,0.2072827194921523,-10,-1,-100,19092.768157150014,-0.0035063254488437797,-0.001339834339957741,0.9999929552380799,67.23926511513146,4.128063898840978,369.2456747253321,-96.91796031238093,-33.53424072265625,4761.76025390625,True
1599387146.7597845,0.0,10,0.5,0.5,-8.535115695190429,-0.15025,-0.001,-0.5,-0.0105305090621635,10,1,100,0.034663513266952176,-10,-1,-100,19092.768157150014,-0.0035063254488437797,-0.001339834339957741,0.9999929552380799,67.23926511513146,4.128063898840978,369.2456747253321,-96.91796031238093,-33.53424072265625,4761.76025390625,True
1599387146.79366,0.0,10,0.5,0.5,-8.596535212707519,-0.15025,-0.001,-0.5,-0.05974717317232369,10,1,100,0.08298341901248406,-10,-1,-100,19090.826158591197,-0.003938706821614728,-0.0017795934613190657,0.999990659774223,67.39127815617357,4.1380732425661995,370.8192307556657,-97.0999248819283,-33.441986083984375,4761.76025390625,True
1599387146.8285935,0.0,10,0.5,0.5,-8.44428394012451,-0.15025,-0.001,-0.5,-0.14521446941964578,10,1,100,0.187489787630158,-10,-1,-100,19084.97832797095,-0.005276064075952893,-0.002950063847441728,0.9999817299686842,67.8879408227102,4.170581615164187,375.7864914263229,-97.64578617847688,-33.606597900390625,4761.76025390625,True
1599387146.8604825,0.0,10,0.5,0.5,-8.395703897094727,-0.15025,-0.001,-0.5,-0.07202833426370832,10,1,100,0.10381593913195357,-10,-1,-100,19083.02177337557,-0.005724181651340235,-0.0033414492156940445,0.9999780339895279,68.06641441187332,4.182197310964437,377.5217140644222,-97.8277283539279,-33.80926513671875,4761.76025390625,True
1599387146.896382,0.0,10,0.5,0.5,-7.815420378112792,-0.15025,-0.001,-0.5,-0.14684775826018728,10,1,100,0.21109335003410223,-10,-1,-100,19077.13027767185,-0.0071005515558186984,-0.004371017438199909,0.999965237582866,68.63454384452263,4.218969507854734,382.9349468985532,-98.37351753704948,-34.858367919921875,4761.76025390625,True
1599387146.93232,0.0,10,0.5,0.5,-8.34042880706787,-0.15025,-0.001,-0.5,-0.04469934917791687,10,1,100,0.07428247552495568,-10,-1,-100,19077.13027767185,-0.0071005515558186984,-0.004371017438199909,0.999965237582866,68.63454384452263,4.218969507854734,382.9349468985532,-98.37351753704948,-34.858367919921875,4761.76025390625,True
1599387146.9681902,0.0,10,0.5,0.5,-7.646150421142577,-0.15025,-0.001,-0.5,-0.1173827265867673,10,1,100,0.17713754602354728,-10,-1,-100,19073.184421930695,-0.008028836524190647,-0.0050253516904766845,0.9999551408060537,69.03189031966072,4.244521599506043,386.66995868976994,-98.73734410460085,-35.926513671875,4761.76025390625,True
1599387147.0006123,0.0,10,0.5,0.5,-7.294893298339844,-0.15025,-0.001,-0.5,-0.1113164896373907,10,1,100,0.18834423560654057,-10,-1,-100,19069.224013890955,-0.008967776272987634,-0.005558852867357413,0.9999443375226027,69.43303273576832,4.270186840519999,390.444750721644,-99.10114358009052,-37.2880859375,4761.76025390625,True
1599387147.3330343,0.0,10,0.5,0.5,-7.460580804443359,-0.15025,-0.001,-0.5,-0.08990866996635533,10,1,100,0.14722666972495033,-10,-1,-100,19067.238353141234,-0.009441019938580101,-0.005843847651717515,0.9999383563936043,69.631000734035,4.282803649898464,392.32445564241885,-99.28303313678919,-38.079833984375,4761.76025390625,True
1599387147.3639505,0.0,10,0.5,0.5,-5.3198821899414055,-0.15025,-0.001,-0.5,-0.1571980186287405,10,1,100,0.3097148290016117,-10,-1,-100,19059.259334565257,-0.011341434444820206,-0.006709006341558726,0.9999131767801855,70.36404736222971,4.32917199081452,399.55534305208636,-100.01052694092849,-41.980224609375,4761.76025390625,True
1599387147.3998547,0.0,10,0.5,0.5,-7.269232904052734,-0.15025,-0.001,-0.5,-0.07121906684477954,10,1,100,0.12045688927719882,-10,-1,-100,19059.259334565257,-0.011341434444820206,-0.006709006341558726,0.9999131767801855,70.36404736222971,4.32917199081452,399.55534305208636,-100.01052694092849,-41.980224609375,4761.76025390625,True
1599387147.452714,0.0,10,0.5,0.5,-5.713527206420898,-0.15025,-0.001,-0.5,-0.10953533849593437,10,1,100,0.22626645376537585,-10,-1,-100,19055.24800195743,-0.012296216750170928,-0.007052455018385951,0.9998995279186037,70.66243312116092,4.347807474127605,402.808275357783,-100.37423972388713,-44.37139892578125,4761.76025390625,True
1599387147.4876242,0.0,10,0.5,0.5,-6.0593904037475586,-0.15025,-0.001,-0.5,-0.08721338074794129,10,1,100,0.18223057889390387,-10,-1,-100,19053.236880035955,-0.012756276792632242,-0.007156960689104339,0.9998930219358891,70.78558644136936,4.355418130536952,404.29143906633647,-100.55608924351782,-45.676483154296875,4761.76025390625,True
1599387147.5230415,0.0,10,0.5,0.5,-2.8383367584228507,-0.15025,-0.001,-0.5,-0.1104753770295385,10,1,100,0.3385790856705891,-10,-1,-100,19045.15602380503,-0.01458906306309723,-0.007459614086097701,0.999865747686472,71.02787752422658,4.3696916775090715,408.81449095223394,-101.28345981382147,-51.6317138671875,4761.76025390625,True
1599387147.5579767,0.0,10,0.5,0.5,-5.8141698699951165,-0.15025,-0.001,-0.5,-0.08062185381724268,10,1,100,0.15618694676526595,-10,-1,-100,19045.15602380503,-0.01458906306309723,-0.007459614086097701,0.999865747686472,71.02787752422658,4.3696916775090715,408.81449095223394,-101.28345981382147,-51.6317138671875,4761.76025390625,True
1599387147.590859,0.0,10,0.5,0.5,-3.5901964843750003,-0.15025,-0.001,-0.5,-0.08512092769832713,10,1,100,0.25453058356106717,-10,-1,-100,19041.093774736975,-0.015476288387143352,-0.00749770694260947,0.9998521235104524,70.95253042579658,4.364272510784171,409.95171947395755,-101.64714304509688,-55.04931640625,4761.76025390625,True
1599387147.6207795,0.0,10,0.5,0.5,-2.8845368713378896,-0.15025,-0.001,-0.5,-0.0719703744950882,10,1,100,0.25487201592541253,-10,-1,-100,19037.01697792497,-0.01627834648792358,-0.007409943883495807,0.999840041290237,70.70649561720953,4.348075058307559,410.09812770208976,-102.01083848267037,-58.75933837890625,4761.76025390625,True
1599387147.6596828,0.0,10,0.5,0.5,-0.7607540466308591,-0.15025,-0.001,-0.5,-0.05807966167110977,10,1,100,0.3066160913951592,-10,-1,-100,19030.874503908446,-0.017470391347481726,-0.007201712265726292,0.9998214444422601,69.94480865691692,4.299270650319455,408.012497996498,-102.55643191019573,-64.87469482421875,4761.76025390625,True
1599387147.695588,0.0,10,0.5,0.5,-3.8156736083984373,-0.15025,-0.001,-0.5,-0.07906710938789815,10,1,100,0.18826186694679395,-10,-1,-100,19030.874503908446,-0.017470391347481726,-0.007201712265726292,0.9998214444422601,69.94480865691692,4.299270650319455,408.012497996498,-102.55643191019573,-64.87469482421875,4761.76025390625,True
1599387147.7275023,0.0,10,0.5,0.5,-0.9240171936035155,-0.15025,-0.001,-0.5,-0.05307441061285467,10,1,100,0.26609617617376674,-10,-1,-100,19026.761333038914,-0.018170676548264295,-0.0069641805817586165,0.9998106454237237,69.13009033364004,4.247797420026933,404.80085126028666,-102.92021465412722,-69.31756591796875,4761.76025390625,True
1599387147.7622104,0.0,10,0.5,0.5,-1.6336976745605467,-0.15025,-0.001,-0.5,-0.06127063094835711,10,1,100,0.2317266442819837,-10,-1,-100,19024.699290362652,-0.01848864076622911,-0.006822521804619661,0.9998057928212073,68.6177009863132,4.215645575867535,402.5665805413677,-103.10212770280552,-71.63824462890625,4761.76025390625,True
1599387147.796118,0.0,10,0.5,0.5,0.3467303085327149,-0.15025,-0.001,-0.5,-0.040195430041755756,10,1,100,0.26785512529345845,-10,-1,-100,19020.56428878999,-0.019099642422372883,-0.006502045166739633,0.99979644281623,67.3742944953429,4.13810838478075,396.7788818404991,-103.46600588898562,-76.46377563476562,4761.76025390625,True
1599387147.8329883,0.0,10,0.5,0.5,1.2504168716430664,-0.15025,-0.001,-0.5,-0.031892627742097,10,1,100,0.2642290001314216,-10,-1,-100,19016.41472977132,-0.01961594876678307,-0.006135723120353298,0.9997887614170151,65.81683215083376,4.041715745143773,389.08233591032194,-103.8299646294456,-81.55911254882812,4761.76025390625,True
1599387147.864905,0.0,10,0.5,0.5,3.9832678298950195,-0.15025,-0.001,-0.5,-0.0006621232313301223,10,1,100,0.28403039895969845,-10,-1,-100,19010.163088646834,-0.02025909482198198,-0.005519717798603068,0.999779526591947,64.23378140521027,3.944609339646389,381.8890145036875,-104.37604549356634,-89.67434692382812,4761.76025390625,True
1599387147.8978531,0.0,10,0.5,0.5,-0.07054509429931641,-0.15025,-0.001,-0.5,-0.06206866577760366,10,1,100,0.22028279661569572,-10,-1,-100,19010.163088646834,-0.02025909482198198,-0.005519717798603068,0.999779526591947,64.23378140521027,3.944609339646389,381.8890145036875,-104.37604549356634,-89.67434692382812,4761.76025390625,True
1599387147.9478228,0.0,10,0.5,0.5,6.803846548461914,-0.15025,-0.001,-0.5,0.0326244671224434,10,1,100,0.28123951400759434,-10,-1,-100,19001.776610108325,-0.02080809222394571,-0.004660634677954908,0.9997726250415132,68.11471815989766,4.185632444080464,408.0270343844296,-105.10387672523854,-100.24041748046875,4761.76025390625,True
1599387147.9827583,0.0,10,0.5,0.5,1.5253303802490232,-0.15025,-0.001,-0.5,-0.05300013771590714,10,1,100,0.2268729541949017,-10,-1,-100,19001.776610108325,-0.02080809222394571,-0.004660634677954908,0.9997726250415132,68.11471815989766,4.185632444080464,408.0270343844296,-105.10387672523854,-100.24041748046875,4761.76025390625,True
1599387148.0136695,0.0,10,0.5,0.5,4.8010884887695315,-0.15025,-0.001,-0.5,-0.0026924460928260258,10,1,100,0.24537708676889353,-10,-1,-100,18997.561542054173,-0.020972193660312888,-0.004205791398841026,0.9997712130341541,69.78485672220789,4.290341924714722,419.60077205019445,-105.46762661420466,-105.271728515625,4761.76025390625,True
1599387148.0489273,0.0,10,0.5,0.5,6.96992625541687,-0.15025,-0.001,-0.5,0.01818162697257688,10,1,100,0.23715761668024415,-10,-1,-100,18991.211666018236,-0.021043470872283664,-0.003605256772567366,0.9997720612505889,72.04298955926335,4.432675808015434,435.6056896817814,-106.01305565204112,-112.46965789794922,4761.76025390625,True
1599387148.0838122,0.0,10,0.5,0.5,6.265982891845702,-0.15025,-0.001,-0.5,-0.0008569658643797703,10,1,100,0.22567985031950644,-10,-1,-100,18986.960238162545,-0.021000676753046024,-0.0032356638249210617,0.9997742255407098,73.22501013255965,4.507672503258936,444.39568354855413,-106.37655973153005,-116.91450500488281,4761.76025390625,True
1599387148.1157603,0.0,10,0.5,0.5,4.048319032287597,-0.15025,-0.001,-0.5,-0.037443408953326415,10,1,100,0.23024226226374855,-10,-1,-100,18986.960238162545,-0.021000676753046024,-0.0032356638249210617,0.9997742255407098,73.22501013255965,4.507672503258936,444.39568354855413,-106.37655973153005,-116.91450500488281,4761.76025390625,True
1599387148.150194,0.0,10,0.5,0.5,8.028424516296386,-0.15025,-0.001,-0.5,0.01546364526020854,10,1,100,0.2100676058858043,-10,-1,-100,18980.55583874567,-0.02081498711689488,-0.002757951384779561,0.9997795407065913,74.5042516454529,4.58935573376592,454.6648488814328,-106.9216838280976,-123.02842712402344,4761.76025390625,True
1599387148.1851006,0.0,10,0.5,0.5,4.976119921874999,-0.15025,-0.001,-0.5,-0.03193318937574554,10,1,100,0.228808103970371,-10,-1,-100,18980.55583874567,-0.02081498711689488,-0.002757951384779561,0.9997795407065913,74.5042516454529,4.58935573376592,454.6648488814328,-106.9216838280976,-123.02842712402344,4761.76025390625,True
1599387148.2160192,0.0,10,0.5,0.5,7.389990005493163,-0.15025,-0.001,-0.5,-0.001193852939847577,10,1,100,0.20539558732957253,-10,-1,-100,18976.268070534803,-0.020601056021660246,-0.0024815735733037373,0.9997846959637824,75.07765735117574,4.626173162031284,459.8467646990424,-107.28503411603734,-126.73426818847656,4761.76025390625,True
1599387148.251956,0.0,10,0.5,0.5,6.673573355102539,-0.15025,-0.001,-0.5,-0.016262772762911097,10,1,100,0.2138723840177107,-10,-1,-100,18974.11873665452,-0.020483324122066673,-0.00237007314692202,0.9997873854906295,75.2927383348368,4.640020241042708,462.0079112558487,-107.46669451422358,-128.4763641357422,4761.76025390625,True
1599387148.287894,0.0,10,0.5,0.5,7.9276755493164055,-0.15025,-0.001,-0.5,-0.005681849068283538,10,1,100,0.1937814993836368,-10,-1,-100,18969.809169597575,-0.020193446871853586,-0.0021753822208526456,0.9997937249331118,75.60181294203788,4.6599466058454135,465.5993171447243,-107.82999324400629,-131.7386016845703,4761.76025390625,True
1599387148.3227668,0.0,10,0.5,0.5,8.228747196960448,-0.15025,-0.001,-0.5,-0.009206860784773637,10,1,100,0.18618363407645316,-10,-1,-100,18965.485071270843,-0.01986140936464192,-0.0020326953513550355,0.9998006764188845,75.77500185411651,4.671101827967158,468.36553851522723,-108.19327062320315,-134.70521545410156,4761.76025390625,True
1599387148.3577006,0.0,10,0.5,0.5,8.485777409362793,-0.15025,-0.001,-0.5,-0.013388415510656313,10,1,100,0.17675836378903498,-10,-1,-100,18961.146442610887,-0.01947473343079961,-0.0019433831850712323,0.9998084606661395,75.84231186170824,4.675367760140656,470.48393557410736,-108.55653449593503,-137.37632751464844,4761.76025390625,True
1599387148.3945746,0.0,10,0.5,0.5,9.398697383880616,-0.15025,-0.001,-0.5,-0.01845036333992863,10,1,100,0.14453771803124865,-10,-1,-100,18954.611255044932,-0.01883165622062628,-0.0019102647489100412,0.999820843757809,75.80265458807062,4.67252064543302,472.79292775518036,-109.10141698453282,-140.82925415039062,4761.76025390625,True
1599387148.431506,0.0,10,0.5,0.5,8.931972636413574,-0.15025,-0.001,-0.5,-0.02629079480479491,10,1,100,0.1565113889215724,-10,-1,-100,18950.236300443066,-0.018357902869154976,-0.0019529746311928858,0.9998295721233378,75.71806880119173,4.666728339785397,473.9688603111155,-109.46466828842765,-142.76220703125,4761.76025390625,True
1599387148.4699557,0.0,10,0.5,0.5,9.03303203125,-0.15025,-0.001,-0.5,-0.031156338645829555,10,1,100,0.14877376106211498,-10,-1,-100,18945.84681604337,-0.01785927845444408,-0.0020372000947264488,0.9998384349427965,75.61144526842229,4.6593877017229826,475.00424855961035,-109.82791849719415,-144.39996337890625,4761.76025390625,True
1599387148.50585,0.0,10,0.5,0.5,9.090090441131592,-0.15025,-0.001,-0.5,-0.03768770856654323,10,1,100,0.13980874874586213,-10,-1,-100,18941.442801754107,-0.017327339236648785,-0.00217423430060908,0.9998475063829405,75.5008373272542,4.65165556047741,476.0113928453685,-110.19116784552051,-145.74281311035156,4761.76025390625,True
1599387148.540738,0.0,10,0.5,0.5,8.420937014007569,-0.15025,-0.001,-0.5,-0.023925916269863068,10,1,100,0.19265390573736693,-10,-1,-100,18941.442801754107,-0.017327339236648785,-0.00217423430060908,0.9998475063829405,75.5008373272542,4.65165556047741,476.0113928453685,-110.19116784552051,-145.74281311035156,4761.76025390625,True
1599387148.5736494,0.0,10,0.5,0.5,9.104623541259764,-0.15025,-0.001,-0.5,-0.0434325834827968,10,1,100,0.1311292194914358,-10,-1,-100,18937.024257406243,-0.01677119449612236,-0.002352098290803178,0.9998565870507649,75.40013904561123,4.644425388808976,477.07785204994957,-110.55441554230481,-146.79074096679688,4761.76025390625,True
1599387148.60949,0.0,10,0.5,0.5,8.851472831726072,-0.15025,-0.001,-0.5,-0.03695812213218164,10,1,100,0.15471348558848222,-10,-1,-100,18934.809536727727,-0.01648349247973107,-0.0024550517925944933,0.9998611239549051,75.35725965276943,4.641239467806298,477.6572868949871,-110.73603811245597,-147.20413208007812,4761.76025390625,True
1599387148.6449056,0.0,10,0.5,0.5,9.040703377532958,-0.15025,-0.001,-0.5,-0.05423194250188611,10,1,100,0.11725846973477258,-10,-1,-100,18930.369197662105,-0.01588508125856193,-0.002705603362451482,0.9998701635231716,75.2923250226897,4.636104251805518,478.9467577746897,-111.09927955670986,-147.8101348876953,4761.76025390625,True
1599387148.6758196,0.0,10,0.5,0.5,8.94164903564453,-0.15025,-0.001,-0.5,-0.05938698588406085,10,1,100,0.1083767949366213,-10,-1,-100,18925.91432915372,-0.01526424525534615,-0.002979759528394334,0.9998790546110752,75.2602979165046,4.632951658032702,480.4446287897526,-111.46251373557622,-148.12130737304688,4761.76025390625,True
1599387148.7127872,0.0,10,0.5,0.5,8.816852980041505,-0.15025,-0.001,-0.5,-0.049655779944035854,10,1,100,0.134513241819907,-10,-1,-100,18923.68144666415,-0.014941632191461033,-0.003139665930544846,0.9998834382693315,75.25841829227507,4.632234574404019,481.28382649506597,-111.64412716578701,-148.16659545898438,4761.76025390625,True
1599387148.7496886,0.0,10,0.5,0.5,8.710553848266603,-0.15025,-0.001,-0.5,-0.0711343759047581,10,1,100,0.09330874498661548,-10,-1,-100,18919.20478475152,-0.014277882254207674,-0.003479207820555992,0.9998920127650167,75.28428442197806,4.6326118498235465,483.1529588137462,-112.00734500132128,-148.03628540039062,4761.76025390625,True
1599387148.7855914,0.0,10,0.5,0.5,8.032922443389893,-0.15025,-0.001,-0.5,-0.12239269576546466,10,1,100,0.004119342159624617,-10,-1,-100,18910.207876963075,-0.012867800261883267,-0.004252440680143779,0.9999081640154169,75.45538840668934,4.640715771902481,487.66856319075504,-112.733732861555,-146.8928680419922,4761.76025390625,True
1599387149.109382,0.0,10,0.5,0.5,8.605044188690187,-0.15025,-0.001,-0.5,-0.04529935641158105,10,1,100,0.14457853113133817,-10,-1,-100,18910.207876963075,-0.012867800261883267,-0.004252440680143779,0.9999081640154169,75.45538840668934,4.640715771902481,487.66856319075504,-112.733732861555,-146.8928680419922,4761.76025390625,True
1599387149.142294,0.0,10,0.5,0.5,7.9465403015136715,-0.15025,-0.001,-0.5,-0.09092225090701878,10,1,100,0.06200339394639362,-10,-1,-100,18905.687632189365,-0.012121654904013372,-0.004665180411388288,0.9999156472293638,75.59431965696342,4.648086867043892,490.27920540158937,-113.09689696206574,-145.87979125976562,4761.76025390625,True
1599387149.1772013,0.0,10,0.5,0.5,8.051815828704834,-0.15025,-0.001,-0.5,-0.07109986348870492,10,1,100,0.0940672685722279,-10,-1,-100,18903.422062610043,-0.01173956315194163,-0.00485793033043428,0.999919288327766,75.67469850375296,4.652461407264093,491.6579327075288,-113.27847045460175,-145.26268005371094,4761.76025390625,True
1599387149.237066,0.0,10,0.5,0.5,7.415121304321287,-0.15025,-0.001,-0.5,-0.10398577849723858,10,1,100,0.044427442936715175,-10,-1,-100,18898.880029791268,-0.010946015667994208,-0.005329680669617465,0.9999258868761004,75.85223675203916,4.662294630275624,494.530454015875,-113.64159903937508,-143.80908203125,4761.76025390625,True
1599387149.2899358,0.0,10,0.5,0.5,7.004835604858398,-0.15025,-0.001,-0.5,-0.1046408501771959,10,1,100,0.03329090708876774,-10,-1,-100,18894.32347239938,-0.010128663246540784,-0.005761792918348323,0.9999321036566455,76.0414286253639,4.672940311753887,497.48744394271245,-114.0047018495456,-142.06085205078125,4761.76025390625,True
1599387149.3258038,0.0,10,0.5,0.5,6.5508788978576655,-0.15025,-0.001,-0.5,-0.11302035101320089,10,1,100,0.02087616256006515,-10,-1,-100,18889.75239172438,-0.009278531394261456,-0.006227793387407554,0.9999375597729538,76.22998175317517,4.683678996231756,500.44893170025665,-114.36777859996297,-140.0192413330078,4761.76025390625,True
1599387149.3607097,0.0,10,0.5,0.5,6.052110638427735,-0.15025,-0.001,-0.5,-0.11519359004869452,10,1,100,0.008786287255603,-10,-1,-100,18885.166788941482,-0.008401782252934503,-0.006667984905034109,0.9999424723614256,76.40165150504673,4.6935548699253395,503.3078516662316,-114.7308297429299,-137.68353271484375,4761.76025390625,True
1599387149.3907745,0.0,10,0.5,0.5,4.582678128051757,-0.15025,-0.001,-0.5,-0.14233454879941587,10,1,100,-0.05419442847032356,-10,-1,-100,18878.26115740044,-0.007038424220585588,-0.0073115420684496816,0.9999484996423929,76.58766737866098,4.7044056202913085,507.13781535723456,-115.2753631501294,-133.62933349609375,4761.76025390625,True
1599387149.4246836,0.0,10,0.5,0.5,6.608324011230468,-0.15025,-0.001,-0.5,-0.07839602007164914,10,1,100,0.08135105396748045,-10,-1,-100,18878.26115740044,-0.007038424220585588,-0.0073115420684496816,0.9999484996423929,76.58766737866098,4.7044056202913085,507.13781535723456,-115.2753631501294,-133.62933349609375,4761.76025390625,True
1599387149.4586258,0.0,10,0.5,0.5,4.610700351715088,-0.15025,-0.001,-0.5,-0.12262106053041827,10,1,100,-0.022553322926346875,-10,-1,-100,18873.639252448338,-0.006100420301581359,-0.00771010395057677,0.9999516684166366,76.63281276116746,4.707148794367468,509.1746384525201,-115.63836237791435,-130.55946350097656,4761.76025390625,True
1599387149.489546,0.0,10,0.5,0.5,2.7916713527679446,-0.15025,-0.001,-0.5,-0.14115654013405582,10,1,100,-0.08751589377148133,-10,-1,-100,18866.679171283962,-0.004663272803858386,-0.00823779396411589,0.9999551953149509,76.52224601667226,4.700939259305822,511.0445515838581,-116.18284208801639,-125.40401458740234,4761.76025390625,True
1599387149.5234528,0.0,10,0.5,0.5,5.367246924209595,-0.15025,-0.001,-0.5,-0.0887860741085411,10,1,100,0.055378403255013545,-10,-1,-100,18866.679171283962,-0.004663272803858386,-0.00823779396411589,0.9999551953149509,76.52224601667226,4.700939259305822,511.0445515838581,-116.18284208801639,-125.40401458740234,4761.76025390625,True
1599387149.5573618,0.0,10,0.5,0.5,2.891866075515747,-0.15025,-0.001,-0.5,-0.12347857005291574,10,1,100,-0.05341246040074021,-10,-1,-100,18862.02096780995,-0.0036810452998062198,-0.008549932460380452,0.9999566733416121,76.28905948723892,4.687448969407965,511.219928361214,-116.54582851857742,-121.60034942626953,4761.76025390625,True
1599387149.5872822,0.0,10,0.5,0.5,2.126930666732788,-0.15025,-0.001,-0.5,-0.11882417585021655,10,1,100,-0.061693290369123646,-10,-1,-100,18857.348244584166,-0.0027201568580936153,-0.008788025689569202,0.9999576847802845,75.89547959478874,4.664446577660653,510.30811434910737,-116.9088278203909,-117.50284576416016,4761.76025390625,True
1599387149.6281776,0.0,10,0.5,0.5,2.7696505260467528,-0.15025,-0.001,-0.5,-0.10987958943135923,10,1,100,-0.022323363771198937,-10,-1,-100,18855.00643778895,-0.0022120083881632,-0.008920015707733042,0.9999577692776154,75.62991946544999,4.648833709436814,509.3831824429813,-117.09033630547927,-115.34459686279297,4761.76025390625,True
1599387149.6620827,0.0,10,0.5,0.5,0.8960265766143798,-0.15025,-0.001,-0.5,-0.11872199415342681,10,1,100,-0.08126374514096327,-10,-1,-100,18850.311932681012,-0.0012214305438271265,-0.009117521019183162,0.9999576885638167,74.9396850125553,4.608004326632636,506.44194013689633,-117.45338016812934,-110.8077621459961,4761.76025390625,True
1599387149.6930048,0.0,10,0.5,0.5,0.020838901519775632,-0.15025,-0.001,-0.5,-0.11466266385787995,10,1,100,-0.08933680397102518,-10,-1,-100,18845.60290450952,-0.00025483842402143696,-0.009257541274513049,0.9999571155739272,74.0142541121388,4.552845934927442,501.87746148275784,-117.8164727447603,-105.97779846191406,4761.76025390625,True
1599387149.7278738,0.0,10,0.5,0.5,0.7909514854431152,-0.15025,-0.001,-0.5,-0.10733460760541814,10,1,100,-0.04740041267904185,-10,-1,-100,18843.242943628808,0.0002352354514848749,-0.009315859580363767,0.999956578769579,73.45471582130018,4.519312683644187,498.92295482739377,-117.9980424440509,-103.45307922363281,4761.76025390625,True
1599387149.7638123,0.0,10,0.5,0.5,-1.3729499080657959,-0.15025,-0.001,-0.5,-0.10942431252973917,10,1,100,-0.10372445411758308,-10,-1,-100,18838.51212618081,0.0011861814789572874,-0.009386051432711052,0.9999552465045629,72.19213464688976,4.443303716034351,491.999999481795,-118.36123711609592,-98.1885757446289,4761.76025390625,True
1599387149.7977228,0.0,10,0.5,0.5,-2.2560248447418214,-0.15025,-0.001,-0.5,-0.1048411099783019,10,1,100,-0.10983164233568032,-10,-1,-100,18833.766778493882,0.002098720846188053,-0.009406310812228008,0.9999535572653929,70.79553381327148,4.35873878173,484.10573183424594,-118.72450954663556,-92.78791046142578,4761.76025390625,True
1599387149.8296006,0.0,10,0.5,0.5,-4.964538536071777,-0.15025,-0.001,-0.5,-0.09703222552697047,10,1,100,-0.1642529592664191,-10,-1,-100,18826.621505761053,0.0034155875692702202,-0.009352196565084363,0.9999504338620814,68.45366348275232,4.215749409055919,470.4506814335416,-119.26957763705049,-84.47561645507812,4761.76025390625,True
1599387149.8645356,0.0,10,0.5,0.5,-0.8124843727111816,-0.15025,-0.001,-0.5,-0.10255509050143183,10,1,100,-0.03337417299551525,-10,-1,-100,18826.621505761053,0.0034155875692702202,-0.009352196565084363,0.9999504338620814,68.45366348275232,4.215749409055919,470.4506814335416,-119.26957763705049,-84.47561645507812,4761.76025390625,True
1599387149.8994443,0.0,10,0.5,0.5,-4.306134471130371,-0.15025,-0.001,-0.5,-0.0931150279765392,10,1,100,-0.12303511648959359,-10,-1,-100,18821.839818626526,0.004223342637058997,-0.009265364721584459,0.9999481568529172,67.46184405061084,4.154709327842447,465.1850396715482,-119.63304414105048,-79.109130859375,4761.76025390625,True
1599387149.92937,0.0,10,0.5,0.5,-4.932823038482667,-0.15025,-0.001,-0.5,-0.08956446096676193,10,1,100,-0.12359658667602147,-10,-1,-100,18817.043595280964,0.004955583893164625,-0.009153498407167294,0.9999458263602024,69.39924314383059,4.273490654382916,480.13902747361857,-119.9964125406706,-74.02542114257812,4761.76025390625,True
1599387149.9632783,0.0,10,0.5,0.5,-3.9816893814086916,-0.15025,-0.001,-0.5,-0.09236439691930166,10,1,100,-0.0920313478057941,-10,-1,-100,18814.6400342891,0.005327323099211985,-0.009076923472976962,0.9999446130105719,70.25413451276533,4.32570653354842,486.86026633209804,-120.17805106690628,-71.58578491210938,4761.76025390625,True
1599387149.9981525,0.0,10,0.5,0.5,-5.811952423858642,-0.15025,-0.001,-0.5,-0.0820609137948349,10,1,100,-0.12896432750741013,-10,-1,-100,18809.822015937534,0.005994168255190299,-0.008913499224613104,0.9999423080750715,71.75590054392275,4.417107941504057,498.9141670055548,-120.54124521723425,-66.90188598632812,4761.76025390625,True
1599387150.031251,0.0,10,0.5,0.5,-7.688814454650879,-0.15025,-0.001,-0.5,-0.06847469326090833,10,1,100,-0.15938199848261142,-10,-1,-100,18802.567755536642,0.006870355770582398,-0.008641606104696237,0.9999390585708297,73.52740242502827,4.524353267162032,513.7593409907083,-121.08585635611313,-60.420654296875,4761.76025390625,True
1599387150.0671625,0.0,10,0.5,0.5,-7.020833036804199,-0.15025,-0.001,-0.5,-0.07402480924326259,10,1,100,-0.12829050899726724,-10,-1,-100,18797.713431881857,0.007377762521804265,-0.008445446082038503,0.9999371195533484,74.42575821768168,4.57850823164494,521.7407455534511,-121.44883144276785,-56.471282958984375,4761.76025390625,True
1599387150.1020615,0.0,10,0.5,0.5,-7.424988308715821,-0.15025,-0.001,-0.5,-0.07333988644233136,10,1,100,-0.1257134734328944,-10,-1,-100,18792.844590928755,0.007809120584084101,-0.008261683502794211,0.9999353790227662,75.13391808664828,4.6211279581721145,528.4247797168838,-121.81174309451063,-52.820159912109375,4761.76025390625,True
1599387150.1329863,0.0,10,0.5,0.5,-5.603963626861573,-0.15025,-0.001,-0.5,-0.09160370757376887,10,1,100,-0.08323996111542352,-10,-1,-100,18792.844590928755,0.007809120584084101,-0.008261683502794211,0.9999353790227662,75.13391808664828,4.6211279581721145,528.4247797168838,-121.81174309451063,-52.820159912109375,4761.76025390625,True
1599387150.1848466,0.0,10,0.5,0.5,-6.722422384643554,-0.15025,-0.001,-0.5,-0.08080271967203811,10,1,100,-0.10542009397618411,-10,-1,-100,18790.404727490968,0.008005566883056564,-0.008164533273968872,0.9999346235106069,75.42671105069844,4.63875224179522,531.3470480623771,-121.99317893977648,-51.10626220703125,4761.76025390625,True
1599387150.2187915,0.0,10,0.5,0.5,-7.952356884765625,-0.15025,-0.001,-0.5,-0.07010410737010161,10,1,100,-0.12354996284851735,-10,-1,-100,18785.514114967315,0.008344798708858391,-0.007980034466192882,0.9999333394704003,75.90770931282127,4.6677628692965465,536.4724824960261,-122.35601704522374,-47.90203857421875,4761.76025390625,True
1599387150.252693,0.0,10,0.5,0.5,-8.24392961730957,-0.15025,-0.001,-0.5,-0.06736206894670382,10,1,100,-0.12089515262408071,-10,-1,-100,18780.608989885543,0.008624575538329184,-0.00778862807536463,0.9999324747049109,76.27219458432172,4.689882662633682,540.7941418213384,-122.71881807095527,-44.99542236328125,4761.76025390625,True
1599387150.2856102,0.0,10,0.5,0.5,-8.490342407226564,-0.15025,-0.001,-0.5,-0.06752489049610472,10,1,100,-0.11672235465865656,-10,-1,-100,18775.689353719237,0.008836982462797622,-0.007617444949284609,0.9999319388205363,76.54537469395785,4.706662208609695,544.4837279915877,-123.08158934292662,-42.38671875,4761.76025390625,True
1599387150.3205163,0.0,10,0.5,0.5,-9.370730520629882,-0.15025,-0.001,-0.5,-0.05894021618959249,10,1,100,-0.11858100131278193,-10,-1,-100,18768.28269323171,0.009043447910470402,-0.007385177844114373,0.9999318352758358,76.83593245083668,4.724979241833304,549.1915102158507,-123.62570272228031,-39.03173828125,4761.76025390625,True
1599387150.3563893,0.0,10,0.5,0.5,-8.90912621459961,-0.15025,-0.001,-0.5,-0.06675356777710549,10,1,100,-0.1054137193035323,-10,-1,-100,18763.3267833126,0.009108062912987698,-0.007246594349872333,0.9999322627359822,76.98082096770071,4.734467629277654,551.9927679518672,-123.98842141051335,-37.1668701171875,4761.76025390625,True
