Timestamp,Input Throttle,horizon,dT,dt,Input Roll,Roll P,Roll I,Roll D,Input Pitch,Pitch P,Pitch I,Pitch D,Input Yaw,Yaw P,Yaw I,Yaw D,Altitude,Direction X,Direction Y,Direction Z,Drag X,Drag Y,Drag Z,Vertical Velocity,Roll,Mass,Has Fuel
1599388452.293812,0.0,10,0.5,0.5,-11.215226623535157,-0.2,-0.02275,-0.12575,-0.00016726208080423619,10,1,100,0.49811843571781883,-10,-1,-100,19349.72230244754,-0.048845147198368064,-0.00017387581187992439,0.9988063482789703,61.07639122439085,3.686289724125082,233.73100268322526,-68.66499527787397,-33.9224853515625,4761.76025390625,True
1599388452.3277411,0.0,10,0.5,0.5,-11.342323751831056,-0.2,-0.02275,-0.12575,0.00017565955196427235,10,1,100,0.5048015778333993,-10,-1,-100,19346.96475487738,-0.04894937984500335,-0.0001563139459530925,0.9988012483866547,61.2561564390328,3.698489565976067,235.71218745929087,-69.02990516713832,-33.9248046875,4761.76025390625,True
1599388452.3666234,0.0,10,0.5,0.5,-11.45533447265625,-0.2,-0.02275,-0.12575,0.011071707778920626,10,1,100,0.5043457444946802,-10,-1,-100,19344.192611512495,-0.04899549342082435,-4.115152582368473e-05,0.998798998763516,61.437052376512675,3.710772655322118,237.70604490536894,-69.3948013488592,-33.97039794921875,4761.76025390625,True
1599388452.4055216,0.0,10,0.5,0.5,-11.588535169982912,-0.2,-0.02275,-0.12575,-0.0004486493866025175,10,1,100,0.504633936254663,-10,-1,-100,19344.192611512495,-0.04899549342082435,-4.115152582368473e-05,0.998798998763516,61.437052376512675,3.710772655322118,237.70604490536894,-69.3948013488592,-33.97039794921875,4761.76025390625,True
1599388452.448021,0.0,10,0.5,0.5,-11.624156681823733,-0.2,-0.02275,-0.12575,0.02381176766019066,10,1,100,0.50760060292762,-10,-1,-100,19341.4058727331,-0.048977921760195935,0.00017943513053427477,0.998799845305898,61.62745770563234,3.7236379430401443,239.74523353219004,-69.75968333065173,-34.252349853515625,4761.76025390625,True
1599388452.4869206,0.0,10,0.5,0.5,-11.321880443572999,-0.2,-0.02275,-0.12575,0.08767931397661027,10,1,100,0.48603358835355126,-10,-1,-100,19335.788611578522,-0.04872135837098748,0.0009604193890721123,0.9988119476823868,62.045570992121554,3.751570371754309,243.99632414122766,-70.48939865061956,-35.678466796875,4761.76025390625,True
1599388452.526811,0.0,10,0.5,0.5,-11.2494002784729,-0.2,-0.02275,-0.12575,0.07655643871297543,10,1,100,0.48489437306711874,-10,-1,-100,19332.95809043222,-0.04843347027967497,0.0015684149222652188,0.998825179413945,62.26365650765097,3.7660093758133857,246.17166314281076,-70.85422952170525,-36.83087158203125,4761.76025390625,True
1599388452.5657449,0.0,10,0.5,0.5,-11.0441860496521,-0.2,-0.02275,-0.12575,0.09595612341754772,10,1,100,0.47312267583445966,-10,-1,-100,19330.11297664931,-0.048020707976112444,0.0022960730725530044,0.9988437013136331,62.47585670369409,3.7800079032386105,248.3333390383206,-71.21904182884491,-38.27703857421875,4761.76025390625,True
1599388452.6056323,0.0,10,0.5,0.5,-11.34371128616333,-0.2,-0.02275,-0.12575,0.023419915696024467,10,1,100,0.5192009769883236,-10,-1,-100,19330.11297664931,-0.048020707976112444,0.0022960730725530044,0.9988437013136331,62.47585670369409,3.7800079032386105,248.3333390383206,-71.21904182884491,-38.27703857421875,4761.76025390625,True
1599388452.6455257,0.0,10,0.5,0.5,-10.89467861557007,-0.2,-0.02275,-0.12575,0.11876951351652737,10,1,100,0.4659157760718877,-10,-1,-100,19327.25327075494,-0.047492641869621106,0.0031608002590370735,0.9988665868422902,62.66957701295189,3.7927732421126863,250.43062509882384,-71.58383547438092,-40.0167236328125,4761.76025390625,True
1599388452.6853867,0.0,10,0.5,0.5,-10.564740636444093,-0.2,-0.02275,-0.12575,0.1394511916999463,10,1,100,0.4504498423757272,-10,-1,-100,19324.378973837476,-0.046828807246600594,0.0041320576845454565,0.9988943832613899,62.830213513207106,3.803388357244025,252.40368048168622,-71.94861163617227,-42.05023193359375,4761.76025390625,True
1599388452.7252803,0.0,10,0.5,0.5,-10.044054135894777,-0.2,-0.02275,-0.12575,0.1657911377716587,10,1,100,0.42957451919303247,-10,-1,-100,19321.490086235455,-0.04603737859669542,0.005250558550662803,0.9989259188782973,62.94071211585589,3.8107871159360456,254.18156114412938,-72.31337239990576,-44.37689208984375,4761.76025390625,True
1599388452.7662058,0.0,10,0.5,0.5,-8.509616945648194,-0.2,-0.02275,-0.12575,0.32283203212182504,10,1,100,0.2839497063290095,-10,-1,-100,19315.668541352497,-0.04399668334460715,0.0076901066753195255,0.999002079133971,62.930929944753586,3.8109521106176687,256.8113883702667,-73.04286227665537,-49.91253662109375,4761.76025390625,True
1599388452.8070612,0.0,10,0.5,0.5,-9.169455879974366,-0.2,-0.02275,-0.12575,0.07965034547626713,10,1,100,0.4875193505302147,-10,-1,-100,19315.668541352497,-0.04399668334460715,0.0076901066753195255,0.999002079133971,62.930929944753586,3.8109521106176687,256.8113883702667,-73.04286227665537,-49.91253662109375,4761.76025390625,True
1599388452.8465328,0.0,10,0.5,0.5,-6.946453452301026,-0.2,-0.02275,-0.12575,0.3654334519431448,10,1,100,0.19588115735485345,-10,-1,-100,19309.788637715974,-0.04134997141580952,0.01028110649938101,0.9990918269674015,62.45347020676441,3.7818105889783946,257.51526109095556,-73.7723486765669,-56.625457763671875,4761.76025390625,True
1599388452.8884208,0.0,10,0.5,0.5,-7.739704465484619,-0.2,-0.02275,-0.12575,0.10734363667388097,10,1,100,0.459789555200178,-10,-1,-100,19309.788637715974,-0.04134997141580952,0.01028110649938101,0.9990918269674015,62.45347020676441,3.7818105889783946,257.51526109095556,-73.7723486765669,-56.625457763671875,4761.76025390625,True
1599388452.9318137,0.0,10,0.5,0.5,-6.455257794189453,-0.2,-0.02275,-0.12575,0.2647689712369813,10,1,100,0.285654099602043,-10,-1,-100,19306.82680085639,-0.03977362308033118,0.011703772552581641,0.9991401706542987,61.972099113016995,3.752197238712801,256.84803047939454,-74.13711049769525,-60.422210693359375,4761.76025390625,True
1599388452.9707093,0.0,10,0.5,0.5,-4.116546306610108,-0.2,-0.02275,-0.12575,0.4075460179567024,10,1,100,0.049230938353488185,-10,-1,-100,19300.859351917054,-0.03619915026145432,0.014285864518733938,0.999242480880042,60.383739255674186,3.654657548898123,252.83700074819032,-74.8667212813188,-68.902587890625,4761.76025390625,True
1599388453.0115995,0.0,10,0.5,0.5,-5.113280614471435,-0.2,-0.02275,-0.12575,0.15053580048609086,10,1,100,0.40549606446970804,-10,-1,-100,19300.859351917054,-0.03619915026145432,0.014285864518733938,0.999242480880042,60.383739255674186,3.654657548898123,252.83700074819032,-74.8667212813188,-68.902587890625,4761.76025390625,True
1599388453.052059,0.0,10,0.5,0.5,-3.5181256477355953,-0.2,-0.02275,-0.12575,0.2834514670183152,10,1,100,0.18572521990314791,-10,-1,-100,19297.85373670957,-0.0342119803633171,0.015483288949530358,0.999294655325908,59.21957001168734,3.5834718236826806,249.22615812508712,-75.23159172842787,-73.5855712890625,4761.76025390625,True
1599388453.0919523,0.0,10,0.5,0.5,-0.6912468910217284,-0.2,-0.02275,-0.12575,0.40553823591991806,10,1,100,-0.09345110538941648,-10,-1,-100,19291.79871445929,-0.029879569009174774,0.017670534068732136,0.9993973001672316,56.020625503849246,3.389056999590191,238.15924845778332,-75.96151247158186,-83.83697509765625,4761.76025390625,True
1599388453.1348383,0.0,10,0.5,0.5,-0.07105507431030267,-0.2,-0.02275,-0.12575,0.2877754093431619,10,1,100,0.08780820238962872,-10,-1,-100,19288.749301979668,-0.02760423351997982,0.018576059866050345,0.9994463148621977,53.9422558179562,3.263483350710004,230.47901413461383,-76.32657728645093,-89.40640258789062,4761.76025390625,True
1599388453.17377,0.0,10,0.5,0.5,1.2265584583282472,-0.2,-0.02275,-0.12575,0.28283048276978845,10,1,100,0.0661145023613876,-10,-1,-100,19285.685285135638,-0.025355288661433772,0.01934219716629497,0.9994913650180653,52.7062765813391,3.1894398134763584,226.327733437678,-76.69169486045163,-95.2253646850586,4761.76025390625,True
1599388453.2136636,0.0,10,0.5,0.5,0.5979106584548951,-0.2,-0.02275,-0.12575,0.20738196179442359,10,1,100,0.2891448487476749,-10,-1,-100,19285.685285135638,-0.025355288661433772,0.01934219716629497,0.9994913650180653,52.7062765813391,3.1894398134763584,226.327733437678,-76.69169486045163,-95.2253646850586,4761.76025390625,True
1599388453.2555172,0.0,10,0.5,0.5,4.5283684761047365,-0.2,-0.02275,-0.12575,0.342138254099295,10,1,100,-0.2303594545802657,-10,-1,-100,19279.51344671799,-0.020649468989982652,0.020556661559529277,0.9995754214144916,56.2338560326212,3.4061287332824617,243.88545099124428,-77.42169325571194,-106.97477722167969,4761.76025390625,True
1599388453.2959208,0.0,10,0.5,0.5,4.991577480697632,-0.2,-0.02275,-0.12575,0.2653489375035119,10,1,100,-0.02922299220884461,-10,-1,-100,19276.405632692855,-0.01821878303969985,0.02095329398881685,0.9996144433808319,57.660262071151834,3.494619938210089,251.3057946878086,-77.78655416222004,-112.58077239990234,4761.76025390625,True
1599388453.3358133,0.0,10,0.5,0.5,6.16124689617157,-0.2,-0.02275,-0.12575,0.2610836386394506,10,1,100,-0.028908925286739356,-10,-1,-100,19273.28322703659,-0.016032952046349268,0.021265391491687324,0.9996453008809598,58.93028216051594,3.573746978329993,258.1010581207525,-78.15133071714519,-117.94477844238281,4761.76025390625,True
1599388453.376704,0.0,10,0.5,0.5,7.271701697349548,-0.2,-0.02275,-0.12575,0.2519490810425892,10,1,100,-0.06354381978005139,-10,-1,-100,19270.14623228158,-0.013752552712485886,0.021457382680744375,0.9996751712543341,59.893046666889454,3.6341673700746098,263.5972940401267,-78.51603551913234,-123.02264404296875,4761.76025390625,True
1599388453.416599,0.0,10,0.5,0.5,6.7562832258224494,-0.2,-0.02275,-0.12575,0.2334671139530852,10,1,100,0.16225145385138998,-10,-1,-100,19270.14623228158,-0.013752552712485886,0.021457382680744375,0.9996751712543341,59.893046666889454,3.6341673700746098,263.5972940401267,-78.51603551913234,-123.02264404296875,4761.76025390625,True
1599388453.456491,0.0,10,0.5,0.5,8.437875254249573,-0.2,-0.02275,-0.12575,0.24515965841681422,10,1,100,-0.07924842211393607,-10,-1,-100,19266.99465094402,-0.011577505292391075,0.021557158977540083,0.9997005803079348,60.54707756605511,3.6756363051847107,267.7685436086671,-78.88068556596585,-127.80689239501953,4761.76025390625,True
1599388453.4983783,0.0,10,0.5,0.5,9.42197780609131,-0.2,-0.02275,-0.12575,0.2391160039285823,10,1,100,-0.0933327390966005,-10,-1,-100,19263.828484810307,-0.009492727006163321,0.021587400688344974,0.9997218974622429,60.9342447189352,3.7005968747395555,270.781454034105,-79.24529724052763,-132.29612731933594,4761.76025390625,True
1599388453.5372741,0.0,10,0.5,0.5,10.334294309234618,-0.2,-0.02275,-0.12575,0.22401805706333955,10,1,100,-0.11604559218250848,-10,-1,-100,19260.647735116305,-0.007409527028814392,0.021474078302465748,0.999741948139753,61.09597159249863,3.7115215598516302,272.8042791530905,-79.60988508235138,-136.49134826660156,4761.76025390625,True
1599388453.5781975,0.0,10,0.5,0.5,11.183983334732057,-0.2,-0.02275,-0.12575,0.22338685304810646,10,1,100,-0.12171858489790098,-10,-1,-100,19257.4524021548,-0.005482495030621947,0.021362685171131227,0.99975675938226,61.06866458002353,3.710621884838043,273.98626707827964,-79.97446130712903,-140.39041137695312,4761.76025390625,True
1599388453.6190546,0.0,10,0.5,0.5,11.970485578346254,-0.2,-0.02275,-0.12575,0.21399692833177267,10,1,100,-0.136783164010467,-10,-1,-100,19254.242486293893,-0.003611763216360772,0.02117421892885605,0.999769277193104,60.895597932973516,3.7005582641015278,274.5106616412089,-80.3390354827603,-143.9945831298828,4761.76025390625,True
1599388453.658949,0.0,10,0.5,0.5,13.68751501045227,-0.2,-0.02275,-0.12575,0.18172100989638285,10,1,100,-0.33170471690514486,-10,-1,-100,19247.778904970968,-0.00015885065475815268,0.020707803066681834,0.9997855578365897,60.256883356702026,3.6619396665701087,274.20850742713634,-81.06820419814625,-150.31631469726562,4761.76025390625,True
1599388453.6978774,0.0,10,0.5,0.5,13.876309932708741,-0.2,-0.02275,-0.12575,0.20087160836204865,10,1,100,-0.16166413739722107,-10,-1,-100,19244.525238517672,0.001415709479958353,0.02045774759484119,0.9997897160553383,59.854735857023414,3.637357110946313,273.6599496668082,-81.43280652289745,-153.03358459472656,4761.76025390625,True
1599388453.7387354,0.0,10,0.5,0.5,13.626643390846253,-0.2,-0.02275,-0.12575,0.2258276009067156,10,1,100,-0.006171573177536294,-10,-1,-100,19244.525238517672,0.001415709479958353,0.02045774759484119,0.9997897160553383,59.854735857023414,3.637357110946313,273.6599496668082,-81.43280652289745,-153.03358459472656,4761.76025390625,True
1599388453.7776308,0.0,10,0.5,0.5,14.49481962223053,-0.2,-0.02275,-0.12575,0.20767516527211483,10,1,100,-0.16713823320327498,-10,-1,-100,19241.256987702218,0.002863180333350243,0.02029345967443286,0.9997899667894357,59.43472500995586,3.611596293500397,273.0131722017542,-81.79742272055412,-155.4536895751953,4761.76025390625,True
1599388453.8185208,0.0,10,0.5,0.5,15.552569161033631,-0.2,-0.02275,-0.12575,0.17497912701970753,10,1,100,-0.31382305343125977,-10,-1,-100,19234.676730086096,0.005497456081191972,0.019847928419954596,0.9997878963630593,58.63617487450938,3.5624732727282287,271.86092266736796,-82.52669392515118,-159.40855407714844,4761.76025390625,True
1599388453.8614073,0.0,10,0.5,0.5,15.63729978504181,-0.2,-0.02275,-0.12575,0.20380632532411466,10,1,100,-0.1790208577941147,-10,-1,-100,19231.364722585888,0.006649277701807063,0.019706428586160594,0.9997836984960411,58.286831820015664,3.540937305202789,271.49307842120083,-82.89134512645724,-160.94125366210938,4761.76025390625,True
1599388453.9022033,0.0,10,0.5,0.5,15.733314307022097,-0.2,-0.02275,-0.12575,0.21334573770050957,10,1,100,-0.1249383484738541,-10,-1,-100,19229.703249190818,0.00718815928764187,0.019666196786489072,0.9997807615022458,58.131671078476415,3.5313593402191494,271.39494028950344,-83.07367365217327,-161.5962677001953,4761.76025390625,True
1599388453.9485936,0.0,10,0.5,0.5,15.906892616653442,-0.2,-0.02275,-0.12575,0.21312812328522301,10,1,100,-0.12935792737950266,-10,-1,-100,19228.03812905925,0.007703065186366858,0.01962939065928677,0.9997776501848198,57.99203467027037,3.5227289867325093,271.3663133663627,-83.25600336326448,-162.17735290527344,4761.76025390625,True
1599388453.9894817,0.0,10,0.5,0.5,16.19879563484192,-0.2,-0.02275,-0.12575,0.20566518954732835,10,1,100,-0.1849554734003348,-10,-1,-100,19224.69694875751,0.008662854974292429,0.019529762680252163,0.9997717456066396,57.764973302241,3.5086559320137254,271.5460660855665,-83.62066489631982,-163.11837768554688,4761.76025390625,True
1599388454.0283778,0.0,10,0.5,0.5,16.342258151626588,-0.2,-0.02275,-0.12575,0.20924505802920984,10,1,100,-0.18487334086586854,-10,-1,-100,19221.34118233598,0.009521785076634242,0.019473402342320423,0.9997650335004564,57.61117150189879,3.49905466465158,272.06271679590606,-83.98532617895913,-163.76332092285156,4761.76025390625,True
1599388454.0682714,0.0,10,0.5,0.5,16.440449605178834,-0.2,-0.02275,-0.12575,0.2147825756552975,10,1,100,-0.22136465085190224,-10,-1,-100,19216.28018284554,0.010622430216551655,0.019474052937698307,0.9997539323445915,57.52660024106713,3.4935619350219738,273.52127213027586,-84.53230933455961,-164.1756591796875,4761.76025390625,True
1599388454.1051724,0.0,10,0.5,0.5,16.416708339309693,-0.2,-0.02275,-0.12575,0.21686569273252881,10,1,100,-0.14725275378456903,-10,-1,-100,19214.58589005447,0.010939471024163266,0.019494703407043016,0.9997501110341438,57.53888659248222,3.4941954475096537,274.1994193080898,-84.71463274492427,-164.1651611328125,4761.76025390625,True
1599388454.1438224,0.0,10,0.5,0.5,16.415865660858156,-0.2,-0.02275,-0.12575,0.21773326391941045,10,1,100,-0.1485970373244227,-10,-1,-100,19212.887951007695,0.01123125273458685,0.019522239066498765,0.9997463383998175,57.571887581004106,3.4960887210893654,274.97689852500855,-84.89695304167165,-164.08078002929688,4761.76025390625,True
1599388454.183716,0.0,10,0.5,0.5,16.324342978286744,-0.2,-0.02275,-0.12575,0.22503849286210265,10,1,100,-0.17594877776827558,-10,-1,-100,19209.481133636087,0.011736237799684563,0.019614533118690596,0.9997387312757493,57.69936826328232,3.5036111513349866,276.82931629945773,-85.26158274496458,-163.69009399414062,4761.76025390625,True
1599388454.2256029,0.0,10,0.5,0.5,16.0208995010376,-0.2,-0.02275,-0.12575,0.2357151660209392,10,1,100,-0.18937058061371734,-10,-1,-100,19204.34356169449,0.012309265105217106,0.01979611467354145,0.999728260997158,58.03930240596651,3.523922968979811,280.33734966031847,-85.8084922406071,-162.55023193359375,4761.76025390625,True
1599388454.27148,0.0,10,0.5,0.5,15.99948295249939,-0.2,-0.02275,-0.12575,0.2264063137745594,10,1,100,-0.14804292436385333,-10,-1,-100,19202.623746082187,0.012448300499771539,0.019876609988208237,0.9997249422666438,58.18930820327442,3.5329199235736644,281.6893990450858,-85.99078416777716,-162.02252197265625,4761.76025390625,True
1599388454.3103752,0.0,10,0.5,0.5,15.408223195266723,-0.2,-0.02275,-0.12575,0.25144125389050354,10,1,100,-0.1621127751070232,-10,-1,-100,19197.442424699082,0.01269733220812442,0.02017722320132113,0.9997157883212012,58.73708119197718,3.565844165641685,286.2417943195919,-86.53761986261236,-159.99618530273438,4761.76025390625,True
1599388454.3502684,0.0,10,0.5,0.5,15.391283348083496,-0.2,-0.02275,-0.12575,0.2341343148927834,10,1,100,-0.1408317023018899,-10,-1,-100,19195.70802705444,0.012725252033016296,0.02029270756197646,0.9997130958332499,58.9487372717151,3.5785858658320513,287.9092158493778,-86.71988365178964,-159.17312622070312,4761.76025390625,True
1599388454.392158,0.0,10,0.5,0.5,14.175404954910281,-0.2,-0.02275,-0.12575,0.27782585521038644,10,1,100,-0.12106906723695707,-10,-1,-100,19188.733986447216,0.012566407748830749,0.02079428615009343,0.9997047979577762,59.89885105977058,3.635895806280113,295.1349176571243,-87.4488564460764,-155.14382934570312,4761.76025390625,True
1599388454.4320505,0.0,10,0.5,0.5,14.663946939468385,-0.2,-0.02275,-0.12575,0.22779444874567348,10,1,100,-0.13734385093296556,-10,-1,-100,19188.733986447216,0.012566407748830749,0.02079428615009343,0.9997047979577762,59.89885105977058,3.635895806280113,295.1349176571243,-87.4488564460764,-155.14382934570312,4761.76025390625,True
1599388454.4739382,0.0,10,0.5,0.5,13.408017531585694,-0.2,-0.02275,-0.12575,0.272397126907241,10,1,100,-0.09209222968215208,-10,-1,-100,19183.465188810253,0.012152261535030448,0.021198564239009704,0.9997014271340162,60.66453976657133,3.682254425867453,300.8716912275794,-87.99549342273485,-151.34852600097656,4761.76025390625,True
1599388454.513831,0.0,10,0.5,0.5,12.91203356513977,-0.2,-0.02275,-0.12575,0.26210638392798913,10,1,100,-0.08763655521618835,-10,-1,-100,19179.934437247226,0.011733868089777342,0.0214709698279392,0.9997006120805866,61.16430280811054,3.7126503366490775,304.670592155996,-88.35987302264401,-148.45040893554688,4761.76025390625,True
1599388454.5552287,0.0,10,0.5,0.5,12.73276028327942,-0.2,-0.02275,-0.12575,0.2501271152012385,10,1,100,-0.10220728393916532,-10,-1,-100,19178.163596129976,0.01148524940333284,0.02160791222361292,0.999700548752215,61.402604758695006,3.727204048431166,306.52037809966345,-88.54204976123422,-146.89105224609375,4761.76025390625,True
1599388454.598115,0.0,10,0.5,0.5,10.618951713943483,-0.2,-0.02275,-0.12575,0.28579903491217296,10,1,100,0.013570036005761607,-10,-1,-100,19171.04379952303,0.010206480419185099,0.022054799423272875,0.9997046631780068,62.20072998760558,3.776541694500593,313.19074049238793,-89.27067951313596,-139.9200897216797,4761.76025390625,True
1599388454.6380074,0.0,10,0.5,0.5,11.441473491668702,-0.2,-0.02275,-0.12575,0.24135434157663563,10,1,100,-0.11415388667096264,-10,-1,-100,19171.04379952303,0.010206480419185099,0.022054799423272875,0.9997046631780068,62.20072998760558,3.776541694500593,313.19074049238793,-89.27067951313596,-139.9200897216797,4761.76025390625,True
1599388454.6788979,0.0,10,0.5,0.5,8.737226978683472,-0.2,-0.02275,-0.12575,0.2712166184510283,10,1,100,0.06951914769413098,-10,-1,-100,19163.865717123146,0.008538637183762458,0.022324221317813052,0.9997143196021538,62.572791214316794,3.80113775585779,317.7686149825263,-89.99922177587196,-131.7765350341797,4761.76025390625,True
1599388454.719788,0.0,10,0.5,0.5,9.692469360351563,-0.2,-0.02275,-0.12575,0.24451919012997103,10,1,100,-0.09687420951653214,-10,-1,-100,19163.865717123146,0.008538637183762458,0.022324221317813052,0.9997143196021538,62.572791214316794,3.80113775585779,317.7686149825263,-89.99922177587196,-131.7765350341797,4761.76025390625,True
1599388454.7596817,0.0,10,0.5,0.5,8.158661772537233,-0.2,-0.02275,-0.12575,0.2537149932936713,10,1,100,0.012675687337837138,-10,-1,-100,19160.254820397822,0.007546509662381249,0.022405867711922607,0.999720474574764,62.51558479762408,3.799146779472314,318.83074937809374,-90.36348295049788,-127.26507568359375,4761.76025390625,True
1599388454.8005714,0.0,10,0.5,0.5,7.088876366043092,-0.2,-0.02275,-0.12575,0.2394672312564451,10,1,100,0.025201282509712958,-10,-1,-100,19156.629352675052,0.00653541445262731,0.02234864554245656,0.9997288764461844,62.249792566565,3.784781663039942,318.82374563249834,-90.7277541035402,-122.4622802734375,4761.76025390625,True
1599388454.840636,0.0,10,0.5,0.5,5.958499880981446,-0.2,-0.02275,-0.12575,0.23656006189740145,10,1,100,0.05029357716217711,-10,-1,-100,19152.989313320955,0.005393607940825149,0.022268783522048516,0.9997374706760913,61.73648806134515,3.755601086967978,317.5342459180714,-91.09205001024299,-117.36641693115234,4761.76025390625,True
1599388454.8805292,0.0,10,0.5,0.5,2.908432026863098,-0.2,-0.02275,-0.12575,0.19135957265351258,10,1,100,0.1952078902642403,-10,-1,-100,19145.66551376297,0.0030447199017207965,0.0217839276945768,0.9997580658213854,59.96824671632905,3.6522977154693943,311.04916869019996,-91.82077762858123,-106.29986572265625,4761.76025390625,True
1599388454.921455,0.0,10,0.5,0.5,4.1975651391983035,-0.2,-0.02275,-0.12575,0.23990369174624082,10,1,100,-0.03877015948286394,-10,-1,-100,19145.66551376297,0.0030447199017207965,0.0217839276945768,0.9997580658213854,59.96824671632905,3.6522977154693943,311.04916869019996,-91.82077762858123,-106.29986572265625,4761.76025390625,True
1599388455.330326,0.0,10,0.5,0.5,2.1566564638137815,-0.2,-0.02275,-0.12575,0.1980266265022092,10,1,100,0.09600210371649337,-10,-1,-100,19141.9817491445,0.0018274167346248723,0.02140294259429775,0.9997692606778743,58.737013935133014,3.5792457488865397,305.94484619673443,-92.18523175261488,-100.3289794921875,4761.76025390625,True
1599388455.3666933,0.0,10,0.5,0.5,0.7615309728622437,-0.2,-0.02275,-0.12575,0.18488604327039831,10,1,100,0.10265375221572057,-10,-1,-100,19138.283404073794,0.0006690878078798831,0.020937318991599712,0.9997805664219271,57.33247159533513,3.495191925518489,299.8825542830526,-92.54975645234838,-94.06639862060547,4761.76025390625,True
1599388455.403594,0.0,10,0.5,0.5,-0.6901454235076904,-0.2,-0.02275,-0.12575,0.16779235037484705,10,1,100,0.12503316154826985,-10,-1,-100,19134.5704761683,-0.0005787173079920958,0.020359643490488914,0.9997925534845805,56.74536618594779,3.4603712489408704,298.0539918083982,-92.91433270871599,-87.51266479492188,4761.76025390625,True
1599388455.4574492,0.0,10,0.5,0.5,-4.528234007644654,-0.2,-0.02275,-0.12575,0.07389647513413028,10,1,100,0.25081143380009313,-10,-1,-100,19127.100884821266,-0.0028467197085948544,0.01898242612904784,0.9998157648712866,61.793746852317014,3.7686172590635625,327.2771607073591,-93.64315642074068,-73.56640625,4761.76025390625,True
1599388455.5103085,0.0,10,0.5,0.5,-5.2226796516418466,-0.2,-0.02275,-0.12575,0.12441757794562047,10,1,100,0.14294770302714302,-10,-1,-100,19123.344231288414,-0.0039176103776684,0.018192731094377468,0.9998268234370672,63.8458792397517,3.89353995779566,339.54274718804584,-94.0073822314238,-66.4573974609375,4761.76025390625,True
1599388455.547719,0.0,10,0.5,0.5,-4.477322834396363,-0.2,-0.02275,-0.12575,0.20297393239031397,10,1,100,0.03710426087593153,-10,-1,-100,19123.344231288414,-0.0039176103776684,0.018192731094377468,0.9998268234370672,63.8458792397517,3.89353995779566,339.54274718804584,-94.0073822314238,-66.4573974609375,4761.76025390625,True
1599388455.5886083,0.0,10,0.5,0.5,-6.8602316905975345,-0.2,-0.02275,-0.12575,0.11671294213072206,10,1,100,0.14603862476373491,-10,-1,-100,19119.573011788423,-0.004897500849339295,0.01741237039803349,0.9998363985385571,65.43784731082307,3.990479278163975,349.4395705207498,-94.3715034658801,-59.566925048828125,4761.76025390625,True
1599388455.6285014,0.0,10,0.5,0.5,-8.288125813674927,-0.2,-0.02275,-0.12575,0.1004282284478446,10,1,100,0.15265193480264214,-10,-1,-100,19115.787230054964,-0.005838037810028386,0.016559396254371375,0.9998458399724527,66.55800530756513,4.058980860072121,356.8753987607372,-94.73554471407616,-52.96282958984375,4761.76025390625,True
1599388455.6663995,0.0,10,0.5,0.5,-9.658825623130799,-0.2,-0.02275,-0.12575,0.08525364307027035,10,1,100,0.15520215564837098,-10,-1,-100,19111.98688825604,-0.006706044649478864,0.0156512047905803,0.999855023867842,67.24049549479915,4.101293247865196,362.00391323482677,-95.09953305998664,-46.6553955078125,4761.76025390625,True
1599388455.705295,0.0,10,0.5,0.5,-10.959356224632263,-0.2,-0.02275,-0.12575,0.08099450359144536,10,1,100,0.15627773670892775,-10,-1,-100,19108.171987907146,-0.00749605545448327,0.014792431939966367,0.9998624871000636,67.53188575195092,4.1203115955558065,365.0491122546618,-95.46349460046632,-40.6446533203125,4761.76025390625,True
1599388455.7437005,0.0,10,0.5,0.5,-13.977883568382262,-0.2,-0.02275,-0.12575,-0.02499460416924021,10,1,100,0.2341381441094938,-10,-1,-100,19100.49851152231,-0.008912486457804963,0.013054547910451658,0.9998750653776667,67.1395602284706,4.100289496709155,365.87038748606096,-96.19142904725156,-29.516448974609375,4761.76025390625,True
1599388455.7786076,0.0,10,0.5,0.5,-13.585339611625674,-0.2,-0.02275,-0.12575,0.1015537459859585,10,1,100,0.12876180078464095,-10,-1,-100,19098.571042740834,-0.009232420700423813,0.01263268233474359,0.9998775813793606,66.87507156781744,4.085326739285458,365.1634473197416,-96.37342849524798,-26.920196533203125,4761.76025390625,True
1599388455.8191547,0.0,10,0.5,0.5,-13.411618476867677,-0.2,-0.02275,-0.12575,0.14290983989107975,10,1,100,0.09775852737358637,-10,-1,-100,19098.571042740834,-0.009232420700423813,0.01263268233474359,0.9998775813793606,66.87507156781744,4.085326739285458,365.1634473197416,-96.37342849524798,-26.920196533203125,4761.76025390625,True
1599388455.859901,0.0,10,0.5,0.5,-15.16851382751465,-0.2,-0.02275,-0.12575,0.05496098551913836,10,1,100,0.16664906505011312,-10,-1,-100,19094.705184679944,-0.009850831312580936,0.011840171805140255,0.9998813786915306,66.18988273217047,4.045949826375482,362.878108710477,-96.7374582447802,-21.949981689453125,4761.76025390625,True
1599388455.8987958,0.0,10,0.5,0.5,-17.608582497406005,-0.2,-0.02275,-0.12575,-0.03741166732782873,10,1,100,0.222423711006975,-10,-1,-100,19086.929778426653,-0.01091369763996435,0.010286449256277438,0.9998875337584331,64.49951840370616,3.947412821935525,356.4578921476622,-97.4656644223187,-12.90118408203125,4761.76025390625,True
1599388455.9396873,0.0,10,0.5,0.5,-17.921592209625246,-0.2,-0.02275,-0.12575,0.04196966809776513,10,1,100,0.17195476932801967,-10,-1,-100,19083.020226730965,-0.01141477111572032,0.009602810244669458,0.9998887383283104,63.61304749889336,3.895237769323319,352.9668739247116,-97.82984043319706,-8.821197509765625,4761.76025390625,True
1599388455.9785814,0.0,10,0.5,0.5,-17.53965625305176,-0.2,-0.02275,-0.12575,0.10947457717359232,10,1,100,0.122597137826228,-10,-1,-100,19083.020226730965,-0.01141477111572032,0.009602810244669458,0.9998887383283104,63.61304749889336,3.895237769323319,352.9668739247116,-97.82984043319706,-8.821197509765625,4761.76025390625,True
1599388456.0175588,0.0,10,0.5,0.5,-18.887660140991212,-0.2,-0.02275,-0.12575,0.04028398409879181,10,1,100,0.1786909675058128,-10,-1,-100,19079.09610643657,-0.011918790230747107,0.008980904453219784,0.999888636696426,62.8176071599817,3.8482672088745353,349.94597693998486,-98.19405874489763,-5.037445068359375,4761.76025390625,True
1599388456.0604048,0.0,10,0.5,0.5,-20.696304610443114,-0.2,-0.02275,-0.12575,-0.022658646644641164,10,1,100,0.22724935012133,-10,-1,-100,19071.204154411796,-0.012812901311439145,0.007850219355871737,0.9998870954343035,61.14614811464579,3.7481352571414197,343.3509137593807,-98.92261130858213,1.6407470703125,4761.76025390625,True
1599388456.1012957,0.0,10,0.5,0.5,-19.966395673370364,-0.2,-0.02275,-0.12575,0.0896297645466927,10,1,100,0.13844892771832226,-10,-1,-100,19071.204154411796,-0.012812901311439145,0.007850219355871737,0.9998870954343035,61.14614811464579,3.7481352571414197,343.3509137593807,-98.92261130858213,1.6407470703125,4761.76025390625,True
1599388456.1421878,0.0,10,0.5,0.5,-21.852599559783936,-0.2,-0.02275,-0.12575,-0.00416604724414768,10,1,100,0.2422691841269418,-10,-1,-100,19063.25391886977,-0.013751888328011181,0.007003841260122365,0.9998809087961511,63.10121745866015,3.868741105353189,357.13672382949505,-99.65110390848211,7.135772705078125,4761.76025390625,True
1599388456.1850705,0.0,10,0.5,0.5,-21.244983890533447,-0.2,-0.02275,-0.12575,0.07986669166575659,10,1,100,0.14885442265675883,-10,-1,-100,19063.25391886977,-0.013751888328011181,0.007003841260122365,0.9998809087961511,63.10121745866015,3.868741105353189,357.13672382949505,-99.65110390848211,7.135772705078125,4761.76025390625,True
1599388456.2269604,0.0,10,0.5,0.5,-22.72706921463013,-0.2,-0.02275,-0.12575,0.012860397450326876,10,1,100,0.2513825325947128,-10,-1,-100,19055.24541677069,-0.014679853447785683,0.006399810259140841,0.9998717639434561,65.13393374296696,3.9929968319081333,371.5421210328117,-100.37934224194777,11.44769287109375,4761.76025390625,True
1599388456.2678492,0.0,10,0.5,0.5,-22.82996714782715,-0.2,-0.02275,-0.12575,0.0485679199395079,10,1,100,0.2094591634484385,-10,-1,-100,19051.21932178014,-0.015137384352844226,0.00618097125549165,0.9998663186592961,65.96291015693208,4.043343349044408,377.74051057792684,-100.7433794385702,13.16015625,4761.76025390625,True
1599388456.3147235,0.0,10,0.5,0.5,-22.694500441741944,-0.2,-0.02275,-0.12575,0.06988590024946217,10,1,100,0.16423472824661053,-10,-1,-100,19051.21932178014,-0.015137384352844226,0.00618097125549165,0.9998663186592961,65.96291015693208,4.043343349044408,377.74051057792684,-100.7433794385702,13.16015625,4761.76025390625,True
1599388456.3546176,0.0,10,0.5,0.5,-23.58120771560669,-0.2,-0.02275,-0.12575,0.051919400320850934,10,1,100,0.2775049125654222,-10,-1,-100,19043.12345317495,-0.016163273586003533,0.006021371690686807,0.9998512347694264,67.30499450219195,4.1242916179156826,388.42711100564014,-101.47131632567614,15.7001953125,4761.76025390625,True
1599388456.3945112,0.0,10,0.5,0.5,-23.31758397216797,-0.2,-0.02275,-0.12575,0.06752121294593691,10,1,100,0.1753908394965199,-10,-1,-100,19043.12345317495,-0.016163273586003533,0.006021371690686807,0.9998512347694264,67.30499450219195,4.1242916179156826,388.42711100564014,-101.47131632567614,15.7001953125,4761.76025390625,True
1599388456.435401,0.0,10,0.5,0.5,-23.642783921051024,-0.2,-0.02275,-0.12575,0.06835574410012736,10,1,100,0.23276444589397727,-10,-1,-100,19039.053682987345,-0.016680535005552888,0.0060322141907739775,0.9998426736961595,67.83959086077522,4.156276120175955,393.02596355471496,-101.8352260684891,16.527252197265625,4761.76025390625,True
1599388456.4742973,0.0,10,0.5,0.5,-23.761412828826902,-0.2,-0.02275,-0.12575,0.08151472547391461,10,1,100,0.24265326842163962,-10,-1,-100,19034.969357405556,-0.01723634218741759,0.006164378739944422,0.9998324404332704,68.29124936489036,4.183127266700891,397.1672695443003,-102.19910313761314,17.060089111328125,4761.76025390625,True
1599388456.5132291,0.0,10,0.5,0.5,-23.806799533081055,-0.2,-0.02275,-0.12575,0.08606727990577298,10,1,100,0.24776635175947237,-10,-1,-100,19030.87047736696,-0.017784082709569455,0.006327447770948926,0.9998218290309955,68.66775649656797,4.205342769357357,400.8910956408858,-102.56295222643647,17.29742431640625,4761.76025390625,True
1599388456.5541222,0.0,10,0.5,0.5,-23.748851113891604,-0.2,-0.02275,-0.12575,0.11863560498036614,10,1,100,0.2882998070437635,-10,-1,-100,19024.694870478823,-0.01864599534011186,0.006773152364890162,0.9998032062685228,69.09266869434941,4.230078711668965,405.6896467635973,-103.10868329676572,17.101806640625,4761.76025390625,True
1599388456.5950136,0.0,10,0.5,0.5,-23.516628707122802,-0.2,-0.02275,-0.12575,0.14415482272140867,10,1,100,0.29962892635626337,-10,-1,-100,19018.486521388055,-0.019528095082525773,0.00741054096511461,0.9997818448967015,69.3514734645239,4.244667656492847,409.5391969127733,-103.65437700417182,16.243804931640625,4761.76025390625,True
1599388456.640891,0.0,10,0.5,0.5,-23.645243195343017,-0.2,-0.02275,-0.12575,0.08045663266946308,10,1,100,0.2119965727903236,-10,-1,-100,19018.486521388055,-0.019528095082525773,0.00741054096511461,0.9997818448967015,69.3514734645239,4.244667656492847,409.5391969127733,-103.65437700417182,16.243804931640625,4761.76025390625,True
1599388456.6827781,0.0,10,0.5,0.5,-23.35016725921631,-0.2,-0.02275,-0.12575,0.14245230762202593,10,1,100,0.2772804748374419,-10,-1,-100,19014.329432758037,-0.02011717760874072,0.007973219164041569,0.9997658360542336,69.42696807902219,4.248498976469383,411.54216317091647,-104.01816032756818,15.304473876953125,4761.76025390625,True
1599388456.724699,0.0,10,0.5,0.5,-23.07148136138916,-0.2,-0.02275,-0.12575,0.1600598375055744,10,1,100,0.282933716386641,-10,-1,-100,19010.157792751677,-0.02069957319824167,0.008643183936636017,0.9997483798640776,69.41843106419402,4.247253010314112,413.0504374096737,-104.38193924913031,14.071365356445312,4761.76025390625,True
1599388456.7825449,0.0,10,0.5,0.5,-22.138113764572147,-0.2,-0.02275,-0.12575,0.2708672559273905,10,1,100,0.35261224094353627,-10,-1,-100,19001.770859059296,-0.021857408331173035,0.010257344613119168,0.9997084777986691,69.11219833463615,4.227403015108118,414.33862949047267,-105.10950589739488,10.72369384765625,4761.76025390625,True
1599388456.823402,0.0,10,0.5,0.5,-21.85917166786194,-0.2,-0.02275,-0.12575,0.21713926014608229,10,1,100,0.2972018995086423,-10,-1,-100,18997.555564717855,-0.022401078861934178,0.011232476200162473,0.9996859622622667,68.79162668649546,4.207490203702328,413.9680784120333,-105.47330562201687,8.609832763671875,4761.76025390625,True
1599388456.8692791,0.0,10,0.5,0.5,-21.3249038936615,-0.2,-0.02275,-0.12575,0.2433340006790303,10,1,100,0.29512821933168015,-10,-1,-100,18993.325717787608,-0.02287080242894835,0.012352356098220028,0.999662115764661,68.34079687433143,4.179856165300271,412.79859206363096,-105.83712491466643,6.203216552734375,4761.76025390625,True
1599388456.9084883,0.0,10,0.5,0.5,-21.604048701095582,-0.2,-0.02275,-0.12575,0.13197802506401946,10,1,100,0.24877488937260234,-10,-1,-100,18993.325717787608,-0.02287080242894835,0.012352356098220028,0.999662115764661,68.34079687433143,4.179856165300271,412.79859206363096,-105.83712491466643,6.203216552734375,4761.76025390625,True
1599388456.9493785,0.0,10,0.5,0.5,-20.699830280685426,-0.2,-0.02275,-0.12575,0.2653852223147223,10,1,100,0.2981518207723629,-10,-1,-100,18989.081317307777,-0.02331456138690842,0.013559523366537075,0.9996362191084357,67.74368120226545,4.143588424476586,410.72407445060486,-106.20097030782868,3.50323486328125,4761.76025390625,True
1599388456.9942589,0.0,10,0.5,0.5,-20.03308717918396,-0.2,-0.02275,-0.12575,0.2920630124474364,10,1,100,0.2938282734288329,-10,-1,-100,18984.82236206974,-0.02367364593767881,0.014892898906581258,0.9996088035077402,66.98371971930713,4.09774689297898,407.63361823313375,-106.56484898779017,0.510498046875,4761.76025390625,True
1599388457.0331538,0.0,10,0.5,0.5,-18.135726153182986,-0.2,-0.02275,-0.12575,0.486140102084007,10,1,100,0.3171211844029236,-10,-1,-100,18976.260782507947,-0.024207269583054927,0.01786201407918871,0.9995473758418698,67.03964180491693,4.103980408847281,411.01565445175584,-107.29265604487787,-6.353515625,4761.76025390625,True
1599388457.0740452,0.0,10,0.5,0.5,-18.947466968154906,-0.2,-0.02275,-0.12575,0.1902737321346692,10,1,100,0.2642267373153647,-10,-1,-100,18976.260782507947,-0.024207269583054927,0.01786201407918871,0.9995473758418698,67.03964180491693,4.103980408847281,411.01565445175584,-107.29265604487787,-6.353515625,4761.76025390625,True
1599388457.113938,0.0,10,0.5,0.5,-17.63501945152283,-0.2,-0.02275,-0.12575,0.37035722325778,10,1,100,0.27715488700122576,-10,-1,-100,18971.958161688526,-0.024320544421562274,0.01948963538656783,0.9995142146220521,68.35201997305249,4.18661229282662,420.6138962659975,-107.65646389064133,-10.224700927734375,4761.76025390625,True
1599388457.1542358,0.0,10,0.5,0.5,-16.70731865348816,-0.2,-0.02275,-0.12575,0.3962197770680692,10,1,100,0.2568997813285471,-10,-1,-100,18967.640991082415,-0.024235562980623855,0.02119393577680373,0.9994815929136969,69.63600521999979,4.268138744398908,430.09654062176526,-108.02018764643303,-14.388702392578125,4761.76025390625,True
1599388457.196124,0.0,10,0.5,0.5,-15.714486252593996,-0.2,-0.02275,-0.12575,0.42402406117898833,10,1,100,0.25579305243690886,-10,-1,-100,18963.309274154482,-0.024145031417317324,0.022984656212717294,0.9994442070654269,70.93525156539093,4.351190092041702,439.7315488384043,-108.38382341571405,-18.84521484375,4761.76025390625,True
1599388457.2355368,0.0,10,0.5,0.5,-14.660450101470948,-0.2,-0.02275,-0.12575,0.4476596821885279,10,1,100,0.22773196575614035,-10,-1,-100,18958.963014369598,-0.02380554955077154,0.02481588288036217,0.9994085589824884,72.25633383117314,4.436079622694935,449.56015276928315,-108.74736389330853,-23.59478759765625,4761.76025390625,True
1599388457.27542,0.0,10,0.5,0.5,-13.541835469055176,-0.2,-0.02275,-0.12575,0.47064696068303263,10,1,100,0.20974783692923188,-10,-1,-100,18954.60221620591,-0.02333216080031363,0.026677261103916463,0.9993717696695169,73.59273419172858,4.522267900107144,459.54252826365297,-109.11080676011042,-28.6373291015625,4761.76025390625,True
1599388457.318305,0.0,10,0.5,0.5,-12.358600533294679,-0.2,-0.02275,-0.12575,0.491993209494939,10,1,100,0.18602463346812695,-10,-1,-100,18950.22688296053,-0.02268572248809515,0.028550457291796155,0.9993348935084886,74.8149987461468,4.6016030922534155,468.8680013273798,-109.47415351047502,-33.972930908203125,4761.76025390625,True
1599388457.3611903,0.0,10,0.5,0.5,-11.104495749664308,-0.2,-0.02275,-0.12575,0.5094257794247914,10,1,100,0.16019461318436395,-10,-1,-100,18945.8370187612,-0.021863401183444917,0.030397115279054917,0.9992987576652957,75.82494319768617,4.667800201696322,476.91120632406245,-109.83741526992793,-39.601959228515625,4761.76025390625,True
1599388457.4021132,0.0,10,0.5,0.5,-9.78500231781006,-0.2,-0.02275,-0.12575,0.5240279423896659,10,1,100,0.13200662121241455,-10,-1,-100,18941.43262596242,-0.02086090112511195,0.032193335301777634,0.9992639350874201,76.56911586922283,4.717310205090389,483.32071509031755,-110.20060830691578,-45.5245361328125,4761.76025390625,True
1599388457.4449658,0.0,10,0.5,0.5,-8.400024430847168,-0.2,-0.02275,-0.12575,0.5344388887581775,10,1,100,0.10267477538638697,-10,-1,-100,18937.0137068216,-0.019685441332584062,0.033905179892698215,0.9992311655347752,76.99193790602905,4.746482799500162,487.7272909188751,-110.56375436221889,-51.740997314453125,4761.76025390625,True
1599388457.4908428,0.0,10,0.5,0.5,-6.957673282623292,-0.2,-0.02275,-0.12575,0.5406685067952505,10,1,100,0.07280351756884756,-10,-1,-100,18932.5802628299,-0.01834939538489969,0.03550345044313258,0.9992010832138047,77.03739261511377,4.7517165577156275,489.75432488130235,-110.92688000555692,-58.251556396484375,4761.76025390625,True
1599388457.5327652,0.0,10,0.5,0.5,-5.441591621398926,-0.2,-0.02275,-0.12575,0.5425358748603779,10,1,100,0.043222789028448255,-10,-1,-100,18928.132293360773,-0.01687121778590859,0.036957362074697755,0.9991744169057273,76.65109648188384,4.729628772636867,489.03080572540097,-111.29001595719913,-65.0565185546875,4761.76025390625,True
1599388457.5766137,0.0,10,0.5,0.5,-1.4512162712097165,-0.2,-0.02275,-0.12575,0.6606706521566437,10,1,100,-0.17020490805974933,-10,-1,-100,18919.192771757254,-0.013593940292056387,0.03933717269091567,0.9991335204225815,74.38628783793818,4.591948479964907,477.95469045596855,-112.01645111234286,-79.55032348632812,4761.76025390625,True
1599388457.616507,0.0,10,0.5,0.5,-0.6208594322204589,-0.2,-0.02275,-0.12575,0.5224694308942277,10,1,100,-0.03425644604263978,-10,-1,-100,18914.701212896616,-0.011860166427517714,0.04022776829698807,0.9991201444822116,72.42816744777743,4.472066186102512,467.02215070522334,-112.37981477867949,-87.2393798828125,4761.76025390625,True
1599388457.6579714,0.0,10,0.5,0.5,-1.432161548614502,-0.2,-0.02275,-0.12575,0.43513418149541466,10,1,100,0.1378924539122475,-10,-1,-100,18914.701212896616,-0.011860166427517714,0.04022776829698807,0.9991201444822116,72.42816744777743,4.472066186102512,467.02215070522334,-112.37981477867949,-87.2393798828125,4761.76025390625,True
1599388457.698863,0.0,10,0.5,0.5,3.9917621543884283,-0.2,-0.02275,-0.12575,0.5572914974574439,10,1,100,-0.23241416796494152,-10,-1,-100,18905.67447385576,-0.0085046020314735,0.04132427854626413,0.9991095914597743,66.75702501967062,4.125624158903809,433.50271857030594,-113.10696538860388,-103.44546508789062,4761.76025390625,True
1599388457.7397532,0.0,10,0.5,0.5,2.1240354492187503,-0.2,-0.02275,-0.12575,0.44910517427407265,10,1,100,0.10165951576259595,-10,-1,-100,18905.67447385576,-0.0085046020314735,0.04132427854626413,0.9991095914597743,66.75702501967062,4.125624158903809,433.50271857030594,-113.10696538860388,-103.44546508789062,4761.76025390625,True
1599388457.7806816,0.0,10,0.5,0.5,5.041243038177491,-0.2,-0.02275,-0.12575,0.47748680210672434,10,1,100,-0.08570398470923433,-10,-1,-100,18901.13928641472,-0.006814189409417425,0.04157068077996599,0.9991123286809059,68.60620468360574,4.243328363507033,447.0769408117639,-113.47057209116883,-111.91563415527344,4761.76025390625,True
1599388457.822532,0.0,10,0.5,0.5,6.895058498001099,-0.2,-0.02275,-0.12575,0.46255433193474793,10,1,100,-0.07554233800638523,-10,-1,-100,18896.58956013259,-0.005383510370096011,0.04164877529494889,0.9991178095362558,71.09851043735884,4.40168682376382,464.93770277756846,-113.83400231244029,-120.37127685546875,4761.76025390625,True
1599388457.8631723,0.0,10,0.5,0.5,11.25297208595276,-0.2,-0.02275,-0.12575,0.41832348040436496,10,1,100,-0.23675409025572014,-10,-1,-100,18887.44651510741,-0.0026314020327689687,0.04130907580375425,0.9991429507230594,74.53573294126946,4.623052565792561,490.79811876396263,-114.56043366951099,-136.4907989501953,4761.76025390625,True
1599388457.905058,0.0,10,0.5,0.5,9.418747981262207,-0.2,-0.02275,-0.12575,0.45303381911493446,10,1,100,0.03675133954700264,-10,-1,-100,18887.44651510741,-0.0026314020327689687,0.04130907580375425,0.9991429507230594,74.53573294126946,4.623052565792561,490.79811876396263,-114.56043366951099,-136.4907989501953,4761.76025390625,True
1599388457.946946,0.0,10,0.5,0.5,14.463438112258912,-0.2,-0.02275,-0.12575,0.3761253750541049,10,1,100,-0.1942055717777469,-10,-1,-100,18878.245373246027,-0.000546082832864092,0.040604630289237054,0.9991751427015257,75.66055617096274,4.6987704495092215,501.6328855549332,-115.28655063934835,-151.43077087402344,4761.76025390625,True
1599388457.9878364,0.0,10,0.5,0.5,15.069644740295411,-0.2,-0.02275,-0.12575,0.3887177072372645,10,1,100,-0.07649268792067909,-10,-1,-100,18873.623019607854,0.000264703736573321,0.04007538532478238,0.9991966240050063,75.40796993258779,4.684904660539098,501.66956223522516,-115.64959926969142,-158.455810546875,4761.76025390625,True
1599388458.029238,0.0,10,0.5,0.5,16.556476428222656,-0.2,-0.02275,-0.12575,0.39404155241526656,10,1,100,-0.06483222358594241,-10,-1,-100,18868.986143135815,0.0008831794475382452,0.03964198102904736,0.9992135574211132,74.70207272437034,4.642358394782488,498.67281672008335,-116.0126878072435,-165.18096923828125,4761.76025390625,True
1599388458.0711255,0.0,10,0.5,0.5,16.94724465866089,-0.2,-0.02275,-0.12575,0.408929883036122,10,1,100,-0.03202495503857013,-10,-1,-100,18866.662257933524,0.0011355973380983773,0.03938385811790325,0.9992235096005471,74.20383050480083,4.611951748618716,496.19259918821234,-116.194255083061,-168.43235778808594,4761.76025390625,True
1599388458.112015,0.0,10,0.5,0.5,19.754665169143678,-0.2,-0.02275,-0.12575,0.35257777932932466,10,1,100,-0.06263851638697197,-10,-1,-100,18859.66881020018,0.0016315589201697724,0.03863767626514598,0.9992519542079065,72.23211410412888,4.491111576036876,485.48475748202287,-116.73907614639938,-177.73878479003906,4761.76025390625,True
1599388458.1524851,0.0,10,0.5,0.5,-97.55464510803222,-0.2,-0.02275,-0.12575,0.4000903042140135,10,1,100,-0.0228793415013192,-10,-1,-100,18857.330395518686,0.001711771349499976,0.0383937035363921,0.999261223788658,71.44479260150266,4.442861283628965,481.0116550861736,-116.92072783672212,179.30816650390625,4761.76025390625,True
1599388458.1953712,0.0,10,0.5,0.5,-52.361600900268556,-0.2,-0.02275,-0.12575,0.3981399901998505,10,1,100,-0.020177624713610252,-10,-1,-100,18854.988347308128,0.0017508430659291948,0.03815684417831425,0.9992702286123161,70.60605763466069,4.39151476717887,476.17457622175647,-117.10240348917198,176.42971801757812,4761.76025390625,True
1599388458.2372587,0.0,10,0.5,0.5,-51.577200025558476,-0.2,-0.02275,-0.12575,0.3733691873323475,10,1,100,-0.015452444518364195,-10,-1,-100,18850.29334850679,0.0017356202313850236,0.03771943185999495,0.9992868617582099,68.80491432193645,4.281495302871573,465.6075436455357,-117.46582792121023,170.89678955078125,4761.76025390625,True
1599388458.2781503,0.0,10,0.5,0.5,-51.13227992591858,-0.2,-0.02275,-0.12575,0.37165563411934077,10,1,100,0.0039061125703253874,-10,-1,-100,18845.583810258424,0.0015393224713554344,0.03730977867180003,0.9993025622411816,67.88499181472216,4.226892663457546,460.9424805317667,-117.82932166614472,165.3608856201172,4761.76025390625,True
1599388458.318043,0.0,10,0.5,0.5,-50.63183556404114,-0.2,-0.02275,-0.12575,0.3736640583816361,10,1,100,0.021278932911722077,-10,-1,-100,18840.859735203674,0.0011991436641302703,0.03695926080958183,0.9993160536561405,69.81236101597491,4.350282576908165,475.6337178069229,-118.19271489519119,159.5794677734375,4761.76025390625,True
1599388458.3595102,0.0,10,0.5,0.5,-49.033188462066654,-0.2,-0.02275,-0.12575,0.3633121305360375,10,1,100,0.0718296550636143,-10,-1,-100,18833.746376940864,0.00042685586918391984,0.036550454149872735,0.9993317177471678,72.63291579944259,4.5321898036264505,497.3513786404541,-118.73756028668083,150.37234497070312,4761.76025390625,True
1599388458.3994367,0.0,10,0.5,0.5,-49.83057456626893,-0.2,-0.02275,-0.12575,0.39303950134893884,10,1,100,0.030552100370285315,-10,-1,-100,18831.367994472035,9.91420630792756e-05,0.03645274617219935,0.9993353728690666,73.5017731319567,4.588582639982186,504.1434863225444,-118.91911026726622,147.15818786621094,4761.76025390625,True
1599388458.4403276,0.0,10,0.5,0.5,-47.646928333282474,-0.2,-0.02275,-0.12575,0.38347197633909413,10,1,100,0.12797435439179317,-10,-1,-100,18824.21106779552,-0.0010842859229627507,0.03628023654618186,0.999341067283933,76.0126600579422,4.7518633982427465,523.9763545671909,-119.46357362248756,137.07960510253906,4761.76025390625,True
1599388458.4816728,0.0,10,0.5,0.5,-48.460267169570926,-0.2,-0.02275,-0.12575,0.39892269368276884,10,1,100,0.06022744252289581,-10,-1,-100,18821.818167729885,-0.0015424599247650702,0.03626692681154742,0.9993409482439045,76.68965365861665,4.796174611542881,529.5202477956669,-119.64500753819253,133.57481384277344,4761.76025390625,True
1599388458.5225356,0.0,10,0.5,0.5,-47.23394860496522,-0.2,-0.02275,-0.12575,0.40833059835279095,10,1,100,0.12405881741312355,-10,-1,-100,18817.021482723532,-0.0025368323733484643,0.036343187032794814,0.9993361482693444,77.72833337362674,4.8646563943295815,538.4699381455306,-120.00781707318534,126.34806823730469,4761.76025390625,True
1599388458.565961,0.0,10,0.5,0.5,-46.38585720329285,-0.2,-0.02275,-0.12575,0.41842456431941877,10,1,100,0.1497489175027359,-10,-1,-100,18812.210287070135,-0.0036705642444266454,0.036506363732927566,0.9993266795023171,78.28307067491949,4.902120297137593,544.1049621251873,-120.37057960671673,118.83110046386719,4761.76025390625,True
1599388458.60688,0.0,10,0.5,0.5,-42.01380436019898,-0.2,-0.02275,-0.12575,0.4860308428610911,10,1,100,0.314750117115964,-10,-1,-100,18802.54436359147,-0.006196347454987133,0.03727102448324842,0.9992859830960235,77.65185594087994,4.865903819912302,543.2866680598872,-121.09613547192865,102.93017578125,4761.76025390625,True
1599388458.6477416,0.0,10,0.5,0.5,-42.49241468276978,-0.2,-0.02275,-0.12575,0.4407478179528539,10,1,100,0.13906703491275754,-10,-1,-100,18800.118812192115,-0.0068881703622666835,0.03755531204773346,0.9992708099639748,77.0831379229019,4.830858962852567,540.1976791353376,-121.27756395405099,98.77447509765625,4761.76025390625,True
1599388458.6896315,0.0,10,0.5,0.5,-38.64909070510864,-0.2,-0.02275,-0.12575,0.5371403025592411,10,1,100,0.3169840599107095,-10,-1,-100,18792.820380890393,-0.009126687968326155,0.03869019980260726,0.9992095736160473,74.28987041956526,4.657984613340936,523.2068755405919,-121.82203028852447,85.87554931640625,4761.76025390625,True
1599388458.746478,0.0,10,0.5,0.5,-37.17182285194397,-0.2,-0.02275,-0.12575,0.5304513062152282,10,1,100,0.25977977624644055,-10,-1,-100,18787.93660469062,-0.010631968658305338,0.03965985195742804,0.9991566730924453,71.4882199894438,4.484823326333278,505.1402277629487,-122.18520243483022,76.91629028320312,4761.76025390625,True
1599388458.785373,0.0,10,0.5,0.5,-35.09863496513367,-0.2,-0.02275,-0.12575,0.5699940489395994,10,1,100,0.28830067527993686,-10,-1,-100,18783.038301668363,-0.012248930992843255,0.040898378312806814,0.9990882275059171,73.41333028596092,4.609552073701682,520.4540095267569,-122.54834446551062,67.67068481445312,4761.76025390625,True
1599388458.8322487,0.0,10,0.5,0.5,-36.07312357597351,-0.2,-0.02275,-0.12575,0.44657620581801566,10,1,100,0.12787202051234778,-10,-1,-100,18783.038301668363,-0.012248930992843255,0.040898378312806814,0.9990882275059171,73.41333028596092,4.609552073701682,520.4540095267569,-122.54834446551062,67.67068481445312,4761.76025390625,True
1599388458.8721426,0.0,10,0.5,0.5,-29.58847328720093,-0.2,-0.02275,-0.12575,0.7926465993772376,10,1,100,0.4735585318861214,-10,-1,-100,18773.1981485195,-0.015380310120735813,0.04404043131594464,0.9989113506563511,79.85558592632603,5.025036955524104,569.8382569944446,-123.27393508078721,48.31898498535156,4761.76025390625,True
1599388458.9120347,0.0,10,0.5,0.5,-31.820019129943848,-0.2,-0.02275,-0.12575,0.479217318540431,10,1,100,0.1618502215166429,-10,-1,-100,18773.1981485195,-0.015380310120735813,0.04404043131594464,0.9989113506563511,79.85558592632603,5.025036955524104,569.8382569944446,-123.27393508078721,48.31898498535156,4761.76025390625,True
1599388458.9529257,0.0,10,0.5,0.5,-28.33383785324097,-0.2,-0.02275,-0.12575,0.6825938326161394,10,1,100,0.3248440598864002,-10,-1,-100,18768.2563155283,-0.016849492423919088,0.04588224189435618,0.998804742922161,82.32214731482898,5.185497398991913,589.3476387542939,-123.63643529538422,38.21238708496094,4761.76025390625,True
1599388458.993849,0.0,10,0.5,0.5,-22.54105674057007,-0.2,-0.02275,-0.12575,0.998083429116896,10,1,100,0.4554352718233218,-10,-1,-100,18758.329163063783,-0.01935929402619356,0.050416030520317574,0.9985406559581748,84.2503546173014,5.314150475981052,607.0656477003911,-124.361168621667,17.143539428710938,4761.76025390625,True
1599388459.034706,0.0,10,0.5,0.5,-24.959125131988525,-0.2,-0.02275,-0.12575,0.5460955331994952,10,1,100,0.20602398457405122,-10,-1,-100,18758.329163063783,-0.01935929402619356,0.050416030520317574,0.9985406559581748,84.2503546173014,5.314150475981052,607.0656477003911,-124.361168621667,17.143539428710938,4761.76025390625,True
1599388459.0765946,0.0,10,0.5,0.5,-21.192605061721807,-0.2,-0.02275,-0.12575,0.8306607238384864,10,1,100,0.3094104034080863,-10,-1,-100,18753.343844066025,-0.02028720424598369,0.052991036793365615,0.9983888918469827,83.45511934938123,5.2662300140702865,603.288448351482,-124.72357692081454,6.1800537109375,4761.76025390625,True
1599388459.118482,0.0,10,0.5,0.5,-18.69600311088562,-0.2,-0.02275,-0.12575,0.8754313494762479,10,1,100,0.27767321891709257,-10,-1,-100,18748.344024878577,-0.020830058192344125,0.05572492479762018,0.9982288522337966,81.36682624742309,5.136947011773547,590.1091770874527,-125.08612529098764,-5.0697021484375,4761.76025390625,True
1599388459.1593735,0.0,10,0.5,0.5,-16.14526773338318,-0.2,-0.02275,-0.12575,0.9058950755881342,10,1,100,0.2749807695387883,-10,-1,-100,18743.329697513254,-0.0212884455399381,0.05847173437978238,0.9980620513600911,77.95437967497233,4.925361938750295,567.205950064555,-125.44887875714288,-16.607666015625,4761.76025390625,True
1599388459.2022986,0.0,10,0.5,0.5,-9.58526200904846,-0.2,-0.02275,-0.12575,1.24431408238762,10,1,100,0.19159364230526466,-10,-1,-100,18733.25750946696,-0.020937408811190016,0.06402826871408665,0.9977284228274494,82.18305489537983,5.20719272869123,601.858406984698,-126.17427166332311,-40.54669189453125,4761.76025390625,True
1599388459.2441466,0.0,10,0.5,0.5,-12.349399981307984,-0.2,-0.02275,-0.12575,0.6909736379973207,10,1,100,0.22756616296190788,-10,-1,-100,18733.25750946696,-0.020937408811190016,0.06402826871408665,0.9977284228274494,82.18305489537983,5.20719272869123,601.858406984698,-126.17427166332311,-40.54669189453125,4761.76025390625,True
1599388459.286034,0.0,10,0.5,0.5,-3.9276439258575446,-0.2,-0.02275,-0.12575,1.2388114924130131,10,1,100,0.05705908424450079,-10,-1,-100,18723.127343976405,-0.01937944584301509,0.06898758567204633,0.997429270726481,87.22253916306455,5.542626213086423,642.8509607450885,-126.89865136897076,-65.64434814453125,4761.76025390625,True
1599388459.3309515,0.0,10,0.5,0.5,-2.5951948097229005,-0.2,-0.02275,-0.12575,0.9897308655507657,10,1,100,0.08950841901203786,-10,-1,-100,18718.040535945212,-0.018254474246449787,0.07120900706748369,0.9972943655122337,87.41473525948483,5.560364140987917,646.315622970267,-127.26071088568538,-78.62734985351562,4761.76025390625,True
1599388459.371839,0.0,10,0.5,0.5,-1.7884559085845948,-0.2,-0.02275,-0.12575,0.8707248838476339,10,1,100,0.13530082823223916,-10,-1,-100,18715.49170038046,-0.01764545454782342,0.0721219097971696,0.9972397244700041,86.81710883080191,5.524567000611024,642.9181795429147,-127.44177033517667,-85.22918701171875,4761.76025390625,True
1599388459.4137256,0.0,10,0.5,0.5,-0.16360404586791977,-0.2,-0.02275,-0.12575,0.8752956225589108,10,1,100,0.12755602017000817,-10,-1,-100,18712.939242925844,-0.0170206693283938,0.07296951929616585,0.9971889219547618,85.74199147408115,5.458225958421398,635.9686485925912,-127.62287210332147,-91.90364074707031,4761.76025390625,True
1599388459.4555805,0.0,10,0.5,0.5,3.6645667137146,-0.2,-0.02275,-0.12575,0.955158219927609,10,1,100,0.04808620594789306,-10,-1,-100,18707.823457096005,-0.015732355931163827,0.07444559382699074,0.997100971083973,82.14916771580458,5.234023149929032,611.2689550816575,-127.98525819007989,-105.47048950195312,4761.76025390625,True
1599388459.495016,0.0,10,0.5,0.5,6.751589765167237,-0.2,-0.02275,-0.12575,0.9381153917608562,10,1,100,0.03621647034021902,-10,-1,-100,18702.693166554323,-0.014456552462789568,0.07561069990503683,0.9970326123807389,76.68906896136801,4.892287596364877,572.4646247707976,-128.3479542259697,-119.32807159423828,4761.76025390625,True
1599388459.5348797,0.0,10,0.5,0.5,9.86242846660614,-0.2,-0.02275,-0.12575,0.9157738662869039,10,1,100,0.037078918916893744,-10,-1,-100,18697.548371621873,-0.013309872162040189,0.07644621914157763,0.9969848659242466,81.4458944747602,5.204482188074134,609.9013487580909,-128.71047180620533,-133.3507843017578,4761.76025390625,True
1599388459.5778036,0.0,10,0.5,0.5,15.155602441215517,-0.2,-0.02275,-0.12575,0.9219282414592764,10,1,100,0.009567595726645589,-10,-1,-100,18689.80401299533,-0.012024169119656956,0.07724289340877816,0.9969397949599674,86.72559209379439,5.5553864016549035,652.4950329046258,-129.253660610015,-154.11729431152344,4761.76025390625,True
1599388459.616732,0.0,10,0.5,0.5,19.413139753150944,-0.2,-0.02275,-0.12575,0.8930751498605272,10,1,100,0.06305521015466772,-10,-1,-100,18682.02707664529,-0.011350021281763564,0.07768777721985455,0.9969131287567347,87.8798387522909,5.638727569547204,664.2789413463521,-129.7965732071377,-174.24343872070312,4761.76025390625,True
1599388459.6565926,0.0,10,0.5,0.5,-97.9472400686264,-0.2,-0.02275,-0.12575,0.8631745270392996,10,1,100,0.1228843205428946,-10,-1,-100,18679.42752514186,-0.011289776421325658,0.07780797546927123,0.996904438700987,87.24371656267705,5.6003421747522815,660.5031356795527,-129.97757852636914,179.19839477539062,4761.76025390625,True
1599388459.6994774,0.0,10,0.5,0.5,-51.890195682334905,-0.2,-0.02275,-0.12575,0.8658303218792747,10,1,100,0.13033448801949749,-10,-1,-100,18676.8243524438,-0.011311507736523828,0.07792886318841782,0.9968947497478796,86.13225953819567,5.531395216866022,653.1122094924091,-130.15862923331963,172.71595764160156,4761.76025390625,True
1599388459.7403677,0.0,10,0.5,0.5,-47.032182075691225,-0.2,-0.02275,-0.12575,0.9001425783610824,10,1,100,0.1874917964232072,-10,-1,-100,18668.993095865007,-0.011858209861379972,0.078342562285189,0.9968559704357871,80.25637923066941,5.162805357263922,611.4349932817535,-130.7021594063261,153.63552856445312,4761.76025390625,True
1599388459.7812586,0.0,10,0.5,0.5,-47.87819301624299,-0.2,-0.02275,-0.12575,0.8808927354018002,10,1,100,0.16957852437994192,-10,-1,-100,18666.3754271199,-0.012198178651205937,0.07853716875060777,0.9968365550892643,78.84921730702249,5.076304680538543,601.6571388240933,-130.88344233915402,147.24488830566406,4761.76025390625,True
1599388459.825142,0.0,10,0.5,0.5,-42.838930904960634,-0.2,-0.02275,-0.12575,0.9576868054177197,10,1,100,0.2937259416916904,-10,-1,-100,18658.50068502524,-0.013640806141060544,0.07940637957481189,0.9967489931224626,85.91775447351823,5.546687534274051,658.6573948699215,-131.42673301491948,127.68460083007812,4761.76025390625,True
1599388459.867178,0.0,10,0.5,0.5,-43.62913654956817,-0.2,-0.02275,-0.12575,0.9162613243331025,10,1,100,0.21579763496879273,-10,-1,-100,18655.868531501736,-0.014246919128163237,0.07981412425942944,0.9967079466243137,87.68313947645329,5.665691369507761,673.2276199115811,-131.60767575950922,121.02592468261719,4761.76025390625,True
1599388459.9080684,0.0,10,0.5,0.5,-36.07672477931977,-0.2,-0.02275,-0.12575,1.1400053418730132,10,1,100,0.47036695561684855,-10,-1,-100,18645.30374378874,-0.01711354788305983,0.08221395728632418,0.9964677574844941,90.53547172347798,5.8655535209015195,699.4143872303687,-132.33111399319182,93.68894958496094,4761.76025390625,True
1599388459.950954,0.0,10,0.5,0.5,-35.40938540039062,-0.2,-0.02275,-0.12575,1.089041952894503,10,1,100,0.3545848566550703,-10,-1,-100,18639.999644769006,-0.018664594037476685,0.08392631717698631,0.9962971475491257,88.62136100442804,5.747218947729544,686.7497551951961,-132.69294482089586,79.59968566894531,4761.76025390625,True
1599388459.991355,0.0,10,0.5,0.5,-37.66557265701294,-0.2,-0.02275,-0.12575,0.9185539736318301,10,1,100,0.20001571340092847,-10,-1,-100,18639.999644769006,-0.018664594037476685,0.08392631717698631,0.9962971475491257,88.62136100442804,5.747218947729544,686.7497551951961,-132.69294482089586,79.59968566894531,4761.76025390625,True
1599388460.0332434,0.0,10,0.5,0.5,-33.516899048614505,-0.2,-0.02275,-0.12575,1.156994522762091,10,1,100,0.3814629459475678,-10,-1,-100,18634.681064310367,-0.020308077583429934,0.08608788269292668,0.9960805481678249,84.36146422697489,5.477760265511289,655.7763008879525,-133.05505174010378,65.23167419433594,4761.76025390625,True
