Timestamp,Input Throttle,horizon,dT,dt,Input Roll,Roll P,Roll I,Roll D,Input Pitch,Pitch P,Pitch I,Pitch D,Input Yaw,Yaw P,Yaw I,Yaw D,Altitude,Direction X,Direction Y,Direction Z,Drag X,Drag Y,Drag Z,Vertical Velocity,Roll,Mass,Has Fuel
1599386462.5149298,0.0,10,0.5,0.5,-5.634041061401367,-0.1005,-0.00825,-0.5,0.0007504456600285485,10,1,100,0.5036415045701726,-10,-1,-100,19349.720878155553,-0.04889364151687306,-0.0001675659666374651,0.9988039766344877,61.07634501967633,3.686772687864521,233.74134549600672,-68.6643335951371,-33.923492431640625,4761.76025390625,True
1599386462.5448523,0.0,10,0.5,0.5,-5.6812374229431155,-0.1005,-0.00825,-0.5,-0.0007318307017137862,10,1,100,0.499623372078641,-10,-1,-100,19348.34394208633,-0.04894634690558418,-0.0001588333706254232,0.998801396623252,61.16629039108374,3.69287548978514,234.73119531818506,-68.84679018970732,-33.9246826171875,4761.76025390625,True
1599386462.6725085,0.0,10,0.5,0.5,-5.7265736106872565,-0.1005,-0.00825,-0.5,0.00037432021097592296,10,1,100,0.5114023739358895,-10,-1,-100,19345.57912313519,-0.04905684605138238,-0.00014069433561672825,0.9987959781960454,61.34697440724948,3.705140219649969,236.72018216786108,-69.21169325998511,-33.927215576171875,4761.76025390625,True
1599386462.718385,0.0,10,0.5,0.5,-5.429684945678711,-0.1005,-0.00825,-0.5,0.050491477869912704,10,1,100,0.49982713654386207,-10,-1,-100,19340.00569873012,-0.049007473256679236,0.0003315341243229804,0.9987983568519325,61.72894572790432,3.7309407351324797,240.8035121468152,-69.94145665979201,-34.500762939453125,4761.76025390625,True
1599386462.7901936,0.0,10,0.5,0.5,-5.762245497894288,-0.1005,-0.00825,-0.5,0.0033017852883741403,10,1,100,0.5096651633398442,-10,-1,-100,19340.00569873012,-0.049007473256679236,0.0003315341243229804,0.9987983568519325,61.72894572790432,3.7309407351324797,240.8035121468152,-69.94145665979201,-34.500762939453125,4761.76025390625,True
1599386462.8410556,0.0,10,0.5,0.5,-4.775977970886231,-0.1005,-0.00825,-0.5,0.10487331249177133,10,1,100,0.4744661980827441,-10,-1,-100,19334.37389635376,-0.04864293041501771,0.0012546102496953885,0.9988154440504818,62.156260494539566,3.759396086166634,245.10040818274746,-70.6711544273526,-36.21942138671875,4761.76025390625,True
1599386462.8879323,0.0,10,0.5,0.5,-5.311639016723633,-0.1005,-0.00825,-0.5,0.0488044011538914,10,1,100,0.4990593551065615,-10,-1,-100,19332.956824851106,-0.04849088114061919,0.0015829124330989462,0.9988223710122014,62.26505780314125,3.7665933598994688,246.1884022258479,-70.85356761626046,-36.832305908203125,4761.76025390625,True
1599386462.9387963,0.0,10,0.5,0.5,-4.293171874237061,-0.1005,-0.00825,-0.5,0.14276293457723127,10,1,100,0.4466534137031147,-10,-1,-100,19328.683721884503,-0.04783215425918864,0.0027340984378297255,0.9988516455033035,62.57735074580072,3.7871904974854167,249.4107396535828,-71.40077887469269,-39.1116943359375,4761.76025390625,True
1599386462.990656,0.0,10,0.5,0.5,-4.342112566375732,-0.1005,-0.00825,-0.5,0.1318818623722238,10,1,100,0.4529514428954343,-10,-1,-100,19325.8167467023,-0.047247082673946325,0.00367922678714143,0.9988764570601563,62.756830018251556,3.7990268593336802,251.4555139588028,-71.7655635084301,-40.998016357421875,4761.76025390625,True
1599386463.0325446,0.0,10,0.5,0.5,-5.325700213623047,-0.1005,-0.00825,-0.5,0.03773695011976748,10,1,100,0.5161833096870603,-10,-1,-100,19325.8167467023,-0.047247082673946325,0.00367922678714143,0.9988764570601563,62.756830018251556,3.7990268593336802,251.4555139588028,-71.7655635084301,-40.998016357421875,4761.76025390625,True
1599386463.0754318,0.0,10,0.5,0.5,-3.3358108406066895,-0.1005,-0.00825,-0.5,0.209797140899815,10,1,100,0.3939564838487374,-10,-1,-100,19321.488926770515,-0.0460929778184398,0.005240065588062642,0.9989234100312503,62.94326587108891,3.8114511661992867,254.20351853985858,-72.31271013786298,-44.379058837890625,4761.76025390625,True
1599386463.1148384,0.0,10,0.5,0.5,-4.252750458526612,-0.1005,-0.00825,-0.5,0.11712498593546089,10,1,100,0.45908597364600184,-10,-1,-100,19320.039024910424,-0.045638423914953034,0.005811619787810798,0.9989411190545723,62.97364015607084,3.8135678346364448,254.9937737911023,-72.49508566897568,-45.652923583984375,4761.76025390625,True
1599386463.1517408,0.0,10,0.5,0.5,-3.218113020324708,-0.1005,-0.00825,-0.5,0.19822482146177017,10,1,100,0.392615897326378,-10,-1,-100,19317.128279116238,-0.04462392687523269,0.007063058062222446,0.9989788878455057,62.97088975245406,3.8137827097884576,256.31821468830884,-72.85982988798614,-48.420440673828125,4761.76025390625,True
1599386463.1907415,0.0,10,0.5,0.5,-0.735686184692383,-0.1005,-0.00825,-0.5,0.35881662225167016,10,1,100,0.217788792754118,-10,-1,-100,19311.263018155354,-0.04211634945135379,0.009654105816688635,0.9990660695618542,62.628166490276335,3.7930442336807078,257.58213908981645,-73.58931176063633,-54.83880615234375,4761.76025390625,True
1599386463.2286391,0.0,10,0.5,0.5,-3.9280900382995605,-0.1005,-0.00825,-0.5,0.10064410397428779,10,1,100,0.46785742276147557,-10,-1,-100,19311.263018155354,-0.04211634945135379,0.009654105816688635,0.9990660695618542,62.628166490276335,3.7930442336807078,257.58213908981645,-73.58931176063633,-54.83880615234375,4761.76025390625,True
1599386463.2665415,0.0,10,0.5,0.5,0.6267264297485351,-0.1005,-0.00825,-0.5,0.38773078032489877,10,1,100,0.12567567471539864,-10,-1,-100,19305.33939715335,-0.03901187094530339,0.012255509627428402,0.9991635884123875,61.6604910596595,3.7335226458603876,256.22439761774956,-74.318837624507,-62.395904541015625,4761.76025390625,True
1599386463.3059447,0.0,10,0.5,0.5,-0.6279483573913578,-0.1005,-0.00825,-0.5,0.2818865197585786,10,1,100,0.23507237304840595,-10,-1,-100,19302.355699565145,-0.037192888705984646,0.01364820081442734,0.9992148996308219,60.88325676972676,3.685761033346056,254.29137326169177,-74.68364095626681,-66.56289672851562,4761.76025390625,True
1599386463.3418481,0.0,10,0.5,0.5,-2.6869167137146,-0.1005,-0.00825,-0.5,0.14382392989681755,10,1,100,0.4158407977368167,-10,-1,-100,19302.355699565145,-0.037192888705984646,0.01364820081442734,0.9992148996308219,60.88325676972676,3.685761033346056,254.29137326169177,-74.68364095626681,-66.56289672851562,4761.76025390625,True
1599386463.3777514,0.0,10,0.5,0.5,-0.13343905792236344,-0.1005,-0.00825,-0.5,0.27125007658027356,10,1,100,0.20931450429759263,-10,-1,-100,19299.35740846675,-0.03532504900704007,0.014796698418480034,0.999266330178578,59.890534455217086,3.6249162885786697,251.422260042737,-75.04848417000085,-70.77743530273438,4761.76025390625,True
1599386463.4116616,0.0,10,0.5,0.5,1.6606838638305663,-0.1005,-0.00825,-0.5,0.35066790847617924,10,1,100,0.05088368888965672,-10,-1,-100,19294.832605504664,-0.032197570989442766,0.01655266064700768,0.9993444480497626,58.090740158837235,3.515019773898854,245.7279099408404,-75.59583717552049,-77.23342895507812,4761.76025390625,True
1599386463.4465675,0.0,10,0.5,0.5,1.2086849060058593,-0.1005,-0.00825,-0.5,0.29110282205157095,10,1,100,0.11783264098781304,-10,-1,-100,19291.797822956578,-0.029976717366778007,0.017595786038300133,0.9993957097814693,56.61070970449523,3.42508539707598,240.67837715149525,-75.960806528574,-81.80645751953125,4761.76025390625,True
1599386463.482471,0.0,10,0.5,0.5,-1.0469517723083497,-0.1005,-0.00825,-0.5,0.18802585496734947,10,1,100,0.3383063772091227,-10,-1,-100,19291.797822956578,-0.029976717366778007,0.017595786038300133,0.9993957097814693,56.61070970449523,3.42508539707598,240.67837715149525,-75.960806528574,-81.80645751953125,4761.76025390625,True
1599386463.5173783,0.0,10,0.5,0.5,4.2155887908935545,-0.1005,-0.00825,-0.5,0.379214714382963,10,1,100,-0.1678341520732795,-10,-1,-100,19285.684453586233,-0.025389677742890873,0.019323153700032538,0.9994908603860252,53.18473793109715,3.2181354527248263,228.3918681474244,-76.69091977828425,-90.5203857421875,4761.76025390625,True
1599386463.5502899,0.0,10,0.5,0.5,-0.10664286575317385,-0.1005,-0.00825,-0.5,0.20770395777350348,10,1,100,0.2889463854021997,-10,-1,-100,19285.684453586233,-0.025389677742890873,0.019323153700032538,0.9994908603860252,53.18473793109715,3.2181354527248263,228.3918681474244,-76.69091977828425,-90.5203857421875,4761.76025390625,True
1599386463.5891874,0.0,10,0.5,0.5,1.1798484954833985,-0.1005,-0.00825,-0.5,0.25094815186909686,10,1,100,0.15091058983552433,-10,-1,-100,19284.146983870887,-0.024150012939292427,0.019707492693734893,0.9995140777431594,52.309870186818216,3.1655413187678825,225.1956653937147,-76.8734814149875,-92.61373138427734,4761.76025390625,True
1599386463.6250904,0.0,10,0.5,0.5,2.725627890586853,-0.1005,-0.00825,-0.5,0.2831128983879582,10,1,100,0.010778584019040582,-10,-1,-100,19281.061091816053,-0.021765450643609498,0.020340159122838458,0.999556173051389,53.36503688433663,3.2304298444505855,230.88245828047357,-77.23856574934297,-96.87899017333984,4761.76025390625,True
1599386463.6609952,0.0,10,0.5,0.5,3.1642396251678466,-0.1005,-0.00825,-0.5,0.28089646931981904,10,1,100,-0.033342896416317575,-10,-1,-100,19277.960598149104,-0.019212240934759664,0.020887811385499153,0.9995972134483911,54.58362605226262,3.305639476163576,237.32491838766362,-77.60358172942155,-101.11344909667969,4761.76025390625,True
1599386463.6969042,0.0,10,0.5,0.5,3.531767916870117,-0.1005,-0.00825,-0.5,0.27232159687197255,10,1,100,-0.05595411536123651,-10,-1,-100,19274.845506072743,-0.01670193070700712,0.021301142228782023,0.9996335862957024,55.63011689817842,3.370773898534754,243.06723460209682,-77.96853113551549,-105.20379638671875,4761.76025390625,True
1599386463.7298148,0.0,10,0.5,0.5,4.893857344818116,-0.1005,-0.00825,-0.5,0.27784595183967903,10,1,100,-0.217575246357355,-10,-1,-100,19270.14550109417,-0.012969175634539164,0.021720161730187097,0.9996799663181087,57.012164087649964,3.4575209369439395,250.93750437656604,-78.5158341945627,-110.82475280761719,4761.76025390625,True
1599386463.7637239,0.0,10,0.5,0.5,4.147490120315552,-0.1005,-0.00825,-0.5,0.2529749752687941,10,1,100,-0.11690606912527893,-10,-1,-100,19266.993923523696,-0.010511259792016715,0.021868694705082112,0.9997055934671369,57.808048919524865,3.5078791001470964,255.67786526562548,-78.88062944639154,-114.2070541381836,4761.76025390625,True
1599386463.801133,0.0,10,0.5,0.5,2.4868426958084107,-0.1005,-0.00825,-0.5,0.2386532811851,10,1,100,0.12671688400722336,-10,-1,-100,19266.993923523696,-0.010511259792016715,0.021868694705082112,0.9997055934671369,57.808048919524865,3.5078791001470964,255.67786526562548,-78.88062944639154,-114.2070541381836,4761.76025390625,True
1599386463.8360407,0.0,10,0.5,0.5,6.044969683837891,-0.1005,-0.00825,-0.5,0.24652192314965932,10,1,100,-0.3843527513195232,-10,-1,-100,19260.646999388468,-0.005882868068659711,0.021936343351426486,0.9997420610855857,58.91407401760573,3.579085285131607,263.0899638585479,-79.61007387755375,-120.08781433105469,4761.76025390625,True
1599386463.8659601,0.0,10,0.5,0.5,3.136171706771851,-0.1005,-0.00825,-0.5,0.24019111424653458,10,1,100,0.07607703608636537,-10,-1,-100,19260.646999388468,-0.005882868068659711,0.021936343351426486,0.9997420610855857,58.91407401760573,3.579085285131607,263.0899638585479,-79.61007387755375,-120.08781433105469,4761.76025390625,True
1599386464.1444561,0.0,10,0.5,0.5,3.9330662658691407,-0.1005,-0.00825,-0.5,0.23405881593640632,10,1,100,-0.05294358753549219,-10,-1,-100,19259.051150958403,-0.004727686771801216,0.02187821955801496,0.9997494648594513,59.10197510343406,3.5914597846490945,264.5609010057554,-79.7924104939659,-121.3742446899414,4761.76025390625,True
1599386464.175372,0.0,10,0.5,0.5,4.043568455696105,-0.1005,-0.00825,-0.5,0.2318374000955162,10,1,100,-0.06358252459076565,-10,-1,-100,19257.451656149817,-0.0035995879750374523,0.02180286226921641,0.9997558092670827,59.25915712629023,3.6019406754807126,265.8979577445878,-79.9747390415442,-122.58700561523438,4761.76025390625,True
1599386464.20629,0.0,10,0.5,0.5,4.145367703628541,-0.1005,-0.00825,-0.5,0.23637466640244365,10,1,100,-0.06357319471288272,-10,-1,-100,19255.848514885874,-0.0025928106359277437,0.021773698637121173,0.999759562785306,59.38788613169594,3.610662471678846,267.110354377146,-80.1570602327263,-123.72514343261719,4761.76025390625,True
1599386464.2404158,0.0,10,0.5,0.5,4.833674894905091,-0.1005,-0.00825,-0.5,0.2150567354377425,10,1,100,-0.2000713762806888,-10,-1,-100,19252.63129373011,-0.00045409562249130054,0.02155208365416069,0.9997676237443027,59.57722272078756,3.623869677748142,269.2354790148307,-80.52168383891193,-125.78214263916016,4761.76025390625,True
1599386464.2744837,0.0,10,0.5,0.5,5.346316854095459,-0.1005,-0.00825,-0.5,0.19180171280140168,10,1,100,-0.3188617792204797,-10,-1,-100,19247.77811625041,0.002553050647983321,0.02113860230725837,0.9997732950148671,59.719874685766946,3.6348450238840826,271.7950593350519,-81.06858061115449,-128.31468200683594,4761.76025390625,True
1599386464.305394,0.0,10,0.5,0.5,4.891420695877075,-0.1005,-0.00825,-0.5,0.19968010912004505,10,1,100,-0.2252774462057139,-10,-1,-100,19244.524435539148,0.004418548792503297,0.02083447972199077,0.9997731747157864,59.74680096977031,3.637865279147365,273.1949618388121,-81.43315825495432,-129.63409423828125,4761.76025390625,True
1599386464.3322923,0.0,10,0.5,0.5,4.247232286834717,-0.1005,-0.00825,-0.5,0.23000379944598562,10,1,100,-0.04046640419642057,-10,-1,-100,19244.524435539148,0.004418548792503297,0.02083447972199077,0.9997731747157864,59.74680096977031,3.637865279147365,273.1949618388121,-81.43315825495432,-129.63409423828125,4761.76025390625,True
1599386464.3652375,0.0,10,0.5,0.5,4.58954004688263,-0.1005,-0.00825,-0.5,0.21360122470115694,10,1,100,-0.13913770531970776,-10,-1,-100,19242.892126453924,0.005301988067638162,0.020686305601567864,0.9997719568397031,59.74629885215568,3.6384859909874834,273.83141680239567,-81.61544205557205,-130.1829376220703,4761.76025390625,True
1599386464.3911707,0.0,10,0.5,0.5,4.85475304107666,-0.1005,-0.00825,-0.5,0.19222019973494167,10,1,100,-0.2394551766659116,-10,-1,-100,19239.616571878432,0.0070027160137629335,0.02035830380067555,0.9997682238573049,59.7269981684783,3.638546410778772,275.02024755156447,-81.98000095231198,-131.05963134765625,4761.76025390625,True
1599386464.4210517,0.0,10,0.5,0.5,4.622570293045044,-0.1005,-0.00825,-0.5,0.20240975479169632,10,1,100,-0.16275489252270495,-10,-1,-100,19237.97332617175,0.007839842850681372,0.020154187245426447,0.9997661454563027,59.71056033965732,3.6381350770955927,275.5831419236835,-82.16227630617266,-131.38787841796875,4761.76025390625,True
1599386464.451008,0.0,10,0.5,0.5,4.728765435028076,-0.1005,-0.00825,-0.5,0.18053734093717483,10,1,100,-0.2521530898820033,-10,-1,-100,19234.675898387213,0.009401102941219628,0.019771406756618884,0.9997603266475185,59.665255299517646,3.6365115913239983,276.65050394815665,-82.52681978745505,-131.822509765625,4761.76025390625,True
1599386464.4819229,0.0,10,0.5,0.5,4.579087837028504,-0.1005,-0.00825,-0.5,0.15696645457423716,10,1,100,-0.3300973415453021,-10,-1,-100,19229.702416973654,0.01151617004799983,0.019211058993313844,0.9997491250507705,59.579027669144175,3.6328894227781996,278.16331788721044,-83.07361876054523,-131.92079162597656,4761.76025390625,True
1599386464.5110953,0.0,10,0.5,0.5,4.537647280311585,-0.1005,-0.00825,-0.5,0.2127420505771509,10,1,100,-0.12010220666958558,-10,-1,-100,19229.702416973654,0.01151617004799983,0.019211058993313844,0.9997491250507705,59.579027669144175,3.6328894227781996,278.16331788721044,-83.07361876054523,-131.92079162597656,4761.76025390625,True
1599386464.544341,0.0,10,0.5,0.5,4.204584112739563,-0.1005,-0.00825,-0.5,0.15259766940216385,10,1,100,-0.32537405290363336,-10,-1,-100,19224.69612813962,0.013369451394960331,0.018666621564126514,0.9997363727547276,59.48223171449101,3.628595266188641,279.6218603391632,-83.6204000450648,-131.35488891601562,4761.76025390625,True
1599386464.5804136,0.0,10,0.5,0.5,4.290585772705078,-0.1005,-0.00825,-0.5,0.18340144736860464,10,1,100,-0.20547973362825533,-10,-1,-100,19223.02007481549,0.01395173740149603,0.018454335939187525,0.9997323574379912,59.44822696260125,3.6270631227615526,280.09869306029725,-83.80265688195615,-131.01925659179688,4761.76025390625,True
1599386464.6123333,0.0,10,0.5,0.5,4.460633208847046,-0.1005,-0.00825,-0.5,0.20436158322569645,10,1,100,-0.14839100165003677,-10,-1,-100,19223.02007481549,0.01395173740149603,0.018454335939187525,0.9997323574379912,59.44822696260125,3.6270631227615526,280.09869306029725,-83.80265688195615,-131.01925659179688,4761.76025390625,True
1599386464.6442442,0.0,10,0.5,0.5,3.21198351020813,-0.1005,-0.00825,-0.5,0.12160229458860278,10,1,100,-0.36823673504089904,-10,-1,-100,19216.279411160387,0.015941668442677512,0.017704142536834677,0.9997161729932649,59.28713635620356,3.619491815093857,281.88082656140585,-84.5316692604317,-128.93800354003906,4761.76025390625,True
1599386464.678298,0.0,10,0.5,0.5,4.252035761260987,-0.1005,-0.00825,-0.5,0.19630860110537204,10,1,100,-0.17039594288776827,-10,-1,-100,19216.279411160387,0.015941668442677512,0.017704142536834677,0.9997161729932649,59.28713635620356,3.619491815093857,281.88082656140585,-84.5316692604317,-128.93800354003906,4761.76025390625,True
1599386464.7142231,0.0,10,0.5,0.5,3.8280582588195804,-0.1005,-0.00825,-0.5,0.173796582737315,10,1,100,-0.21957276146454408,-10,-1,-100,19214.58513260563,0.01637905799303453,0.01750219888172937,0.9997126584642035,59.23728716292077,3.617046088216617,282.2789222624354,-84.71391932550094,-128.23367309570312,4761.76025390625,True
1599386464.7451394,0.0,10,0.5,0.5,3.1988175720214844,-0.1005,-0.00825,-0.5,0.15450389694204605,10,1,100,-0.260722938979613,-10,-1,-100,19211.18564070936,0.017142253432605833,0.017145822147057507,0.9997060387584711,59.11797761886175,3.6110067770641923,282.9785196646383,-85.07841738321355,-126.60324096679688,4761.76025390625,True
1599386464.7780523,0.0,10,0.5,0.5,2.210441798400879,-0.1005,-0.00825,-0.5,0.12377414526385119,10,1,100,-0.29285643958698976,-10,-1,-100,19206.059065374197,0.01811973346448142,0.016545216795825286,0.9996989202056564,58.87292482944103,3.598050259642147,283.70120497328315,-85.62516362129537,-123.60633087158203,4761.76025390625,True
1599386464.8111231,0.0,10,0.5,0.5,3.702118498420716,-0.1005,-0.00825,-0.5,0.18351206139099394,10,1,100,-0.1959802994517571,-10,-1,-100,19206.059065374197,0.01811973346448142,0.016545216795825286,0.9996989202056564,58.87292482944103,3.598050259642147,283.70120497328315,-85.62516362129537,-123.60633087158203,4761.76025390625,True
1599386464.8471153,0.0,10,0.5,0.5,0.6763849609375003,-0.1005,-0.00825,-0.5,0.10017574958526483,10,1,100,-0.2937827445555351,-10,-1,-100,19199.17260169296,0.019002843362318965,0.015790037454134556,0.9996947367378425,58.35164454968427,3.5691508865808252,283.69749051742923,-86.354175085441,-118.57906341552734,4761.76025390625,True
1599386464.8760052,0.0,10,0.5,0.5,3.179011763191223,-0.1005,-0.00825,-0.5,0.17535158160041986,10,1,100,-0.20622042210321262,-10,-1,-100,19199.17260169296,0.019002843362318965,0.015790037454134556,0.9996947367378425,58.35164454968427,3.5691508865808252,283.69749051742923,-86.354175085441,-118.57906341552734,4761.76025390625,True
1599386464.9019666,0.0,10,0.5,0.5,1.39435046081543,-0.1005,-0.00825,-0.5,0.12893525827028068,10,1,100,-0.23919646523978394,-10,-1,-100,19195.707498794538,0.01929750430722656,0.015370685954869647,0.9996956278491914,57.97271282745118,3.547558098615971,283.10276816776116,-86.71869782841135,-115.6246566772461,4761.76025390625,True
1599386464.9308953,0.0,10,0.5,0.5,1.9138556272506717,-0.1005,-0.00825,-0.5,0.15063429240228515,10,1,100,-0.22032621041666825,-10,-1,-100,19193.969479293213,0.01938897033429084,0.015189524583996424,0.9996966270685762,57.74551892870528,3.534465386195662,282.61510214884794,-86.9009658416127,-114.05097198486328,4761.76025390625,True
1599386464.9628005,0.0,10,0.5,0.5,-0.36483613586425756,-0.1005,-0.00825,-0.5,0.10130134928617553,10,1,100,-0.22639254871506917,-10,-1,-100,19188.733547684737,0.01952232685894129,0.014579319137924488,0.9997031170339958,56.90493995133421,3.485441250632706,280.3414317828935,-87.44780549755319,-108.96931457519531,4761.76025390625,True
1599386464.9897273,0.0,10,0.5,0.5,2.1595184005737305,-0.1005,-0.00825,-0.5,0.16200941155347806,10,1,100,-0.21341496209165062,-10,-1,-100,19188.733547684737,0.01952232685894129,0.014579319137924488,0.9997031170339958,56.90493995133421,3.485441250632706,280.3414317828935,-87.44780549755319,-108.96931457519531,4761.76025390625,True
1599386465.0206454,0.0,10,0.5,0.5,-1.2573548233032226,-0.1005,-0.00825,-0.5,0.09033476406848681,10,1,100,-0.20331816240664852,-10,-1,-100,19183.464803176,0.01942728262688103,0.01393057218205994,0.9997142190888432,55.896458384939265,3.425974947721025,277.18392596569805,-87.99471136052291,-103.30670166015625,4761.76025390625,True
1599386465.0475771,0.0,10,0.5,0.5,1.5533868827819826,-0.1005,-0.00825,-0.5,0.15485229698497463,10,1,100,-0.21312740807605907,-10,-1,-100,19183.464803176,0.01942728262688103,0.01393057218205994,0.9997142190888432,55.896458384939265,3.425974947721025,277.18392596569805,-87.99471136052291,-103.30670166015625,4761.76025390625,True
1599386465.0804853,0.0,10,0.5,0.5,0.35163964996337893,-0.1005,-0.00825,-0.5,0.12830314158283368,10,1,100,-0.2044461092754336,-10,-1,-100,19181.701262406423,0.019346284429426003,0.013692139178372293,0.9997190838448048,55.51680436706019,3.4034169279940834,275.90145978692186,-88.17702979262857,-101.33746337890625,4761.76025390625,True
1599386465.1117713,0.0,10,0.5,0.5,-2.343302039527893,-0.1005,-0.00825,-0.5,0.06922865782880633,10,1,100,-0.17118287578564623,-10,-1,-100,19176.388760348316,0.01896914162640978,0.012940934847817323,0.9997363171712939,54.32301846939954,3.3320582303960706,271.73251730101003,-88.72403847378466,-95.24056243896484,4761.76025390625,True
1599386465.1457129,0.0,10,0.5,0.5,0.681746671485901,-0.1005,-0.00825,-0.5,0.1439886626895026,10,1,100,-0.20898209690346137,-10,-1,-100,19176.388760348316,0.01896914162640978,0.012940934847817323,0.9997363171712939,54.32301846939954,3.3320582303960706,271.73251730101003,-88.72403847378466,-95.24056243896484,4761.76025390625,True
1599386465.1786158,0.0,10,0.5,0.5,-1.8930503545761108,-0.1005,-0.00825,-0.5,0.08225441908253812,10,1,100,-0.16930856340621928,-10,-1,-100,19172.82885702094,0.01860850377801295,0.012382304544668843,0.9997501698531023,53.40615381095923,3.2767228887707285,268.3036250875624,-89.08875670508525,-90.98487091064453,4761.76025390625,True
1599386465.2135556,0.0,10,0.5,0.5,-1.059950226020813,-0.1005,-0.00825,-0.5,0.10686953545161942,10,1,100,-0.18299695971053725,-10,-1,-100,19171.04343448498,0.018405449645495366,0.012101330538715933,0.9997573691764117,52.89088590469787,3.2454444686084827,266.2884533008704,-89.2711308471858,-88.86666870117188,4761.76025390625,True
1599386465.2464762,0.0,10,0.5,0.5,-2.503377235412598,-0.1005,-0.00825,-0.5,0.06626642003483381,10,1,100,-0.1509763455905192,-10,-1,-100,19167.46164728701,0.017930569446353517,0.011479752534439013,0.9997733292907335,53.76375414590163,3.2994474268517626,271.84935677556797,-89.63585443865702,-84.73602294921875,4761.76025390625,True
1599386465.2794695,0.0,10,0.5,0.5,-2.8602808183670043,-0.1005,-0.00825,-0.5,0.05610497997026956,10,1,100,-0.13946732846214047,-10,-1,-100,19163.865273139207,0.01739555856495561,0.010825677413645372,0.9997900775916656,55.23660939800873,3.390006333625524,280.4953058494899,-90.00050548382953,-80.74261474609375,4761.76025390625,True
1599386465.3123846,0.0,10,0.5,0.5,-2.02586754360199,-0.1005,-0.00825,-0.5,0.08238835586236562,10,1,100,-0.16029294898285984,-10,-1,-100,19162.061616991414,0.01710044228504949,0.010473415849874098,0.9997989210006635,55.912285646139445,3.4314732770376546,284.5331764160214,-90.18280464792196,-78.84585571289062,4761.76025390625,True
1599386465.3474684,0.0,10,0.5,0.5,-5.218865606880188,-0.1005,-0.00825,-0.5,-0.04793675366837562,10,1,100,-0.04534647791550822,-10,-1,-100,19154.810538993916,0.015789388552317,0.00897213698097352,0.9998350843849892,58.20880040655338,3.572006939619457,298.7468636534956,-90.9118409618143,-71.99069213867188,4761.76025390625,True
1599386465.3793828,0.0,10,0.5,0.5,-3.607972234535217,-0.1005,-0.00825,-0.5,0.010033955515522858,10,1,100,-0.09495085357614919,-10,-1,-100,19151.163132048678,0.0150517775686338,0.008138852124736695,0.9998535908212342,59.142676028386404,3.628961879624752,304.82367938710536,-91.27627296530159,-69.0084228515625,4761.76025390625,True
1599386465.4130003,0.0,10,0.5,0.5,-2.1451336709976196,-0.1005,-0.00825,-0.5,0.092783269133473,10,1,100,-0.16827440143864433,-10,-1,-100,19151.163132048678,0.0150517775686338,0.008138852124736695,0.9998535908212342,59.142676028386404,3.628961879624752,304.82367938710536,-91.27627296530159,-69.0084228515625,4761.76025390625,True
1599386465.4448764,0.0,10,0.5,0.5,-4.524362105751038,-0.1005,-0.00825,-0.5,-0.043865589537395944,10,1,100,-0.04034120363340818,-10,-1,-100,19145.66469258198,0.013892652594823283,0.0069016382159593735,0.9998796735576815,60.32709953550956,3.701035326390534,312.8929076731769,-91.82282895404234,-65.09075927734375,4761.76025390625,True
1599386465.4810395,0.0,10,0.5,0.5,-2.59040390625,-0.1005,-0.00825,-0.5,0.07925187167715043,10,1,100,-0.15574605211130127,-10,-1,-100,19145.66469258198,0.013892652594823283,0.0069016382159593735,0.9998796735576815,60.32709953550956,3.701035326390534,312.8929076731769,-91.82282895404234,-65.09075927734375,4761.76025390625,True
1599386465.5099626,0.0,10,0.5,0.5,-4.566151135826111,-0.1005,-0.00825,-0.5,-0.07033297993013109,10,1,100,-0.016766201312377188,-10,-1,-100,19140.133463614504,0.01263381439577087,0.005547266198285776,0.9999048027545115,61.3020679544804,3.7602405441421247,319.9467580868734,-92.36928962040196,-61.842010498046875,4761.76025390625,True
1599386465.5398905,0.0,10,0.5,0.5,-2.9658196060180666,-0.1005,-0.00825,-0.5,0.06442071800259035,10,1,100,-0.1420525522793943,-10,-1,-100,19140.133463614504,0.01263381439577087,0.005547266198285776,0.9999048027545115,61.3020679544804,3.7602405441421247,319.9467580868734,-92.36928962040196,-61.842010498046875,4761.76025390625,True
1599386465.5658197,0.0,10,0.5,0.5,-4.065635670471192,-0.1005,-0.00825,-0.5,-0.04276739618826121,10,1,100,-0.0434423199680562,-10,-1,-100,19136.427764060674,0.011742604679531182,0.004578787036860244,0.9999205698177286,61.86017651857119,3.79408885736893,324.20368482225854,-92.73355123384673,-60.047637939453125,4761.76025390625,True
1599386465.5947354,0.0,10,0.5,0.5,-3.6612016014099122,-0.1005,-0.00825,-0.5,0.003894071559096622,10,1,100,-0.08266365643658313,-10,-1,-100,19134.56945050473,0.011294597055178822,0.004128820201901721,0.9999276898461716,62.116486203369405,3.8096236662807743,326.22199885573247,-92.9156697180207,-59.260986328125,4761.76025390625,True
1599386465.6256227,0.0,10,0.5,0.5,-4.435010996246338,-0.1005,-0.00825,-0.5,-0.11178389854527084,10,1,100,0.02844033977042376,-10,-1,-100,19128.972657174105,0.00988282739616732,0.0026742295848194903,0.9999475877358699,62.8107392219658,3.851667338785676,331.9167430483064,-93.46198102764058,-57.346893310546875,4761.76025390625,True
1599386465.6535811,0.0,10,0.5,0.5,-3.4957011314392092,-0.1005,-0.00825,-0.5,0.03289524453644677,10,1,100,-0.11201486464183821,-10,-1,-100,19128.972657174105,0.00988282739616732,0.0026742295848194903,0.9999475877358699,62.8107392219658,3.851667338785676,331.9167430483064,-93.46198102764058,-57.346893310546875,4761.76025390625,True
1599386465.6854596,0.0,10,0.5,0.5,-4.257142784881593,-0.1005,-0.00825,-0.5,-0.12856599735427074,10,1,100,0.05095041593261261,-10,-1,-100,19123.343087497517,0.00840669444654154,0.001212125483445835,0.9999639284695698,63.41342016284129,3.8881028078262716,337.17163181003707,-94.0082328390307,-56.0989990234375,4761.76025390625,True
1599386465.7153795,0.0,10,0.5,0.5,-3.643845915985108,-0.1005,-0.00825,-0.5,0.016951740118965726,10,1,100,-0.09599837071775622,-10,-1,-100,19123.343087497517,0.00840669444654154,0.001212125483445835,0.9999639284695698,63.41342016284129,3.8881028078262716,337.17163181003707,-94.0082328390307,-56.0989990234375,4761.76025390625,True
1599386465.7453384,0.0,10,0.5,0.5,-3.8151768547058107,-0.1005,-0.00825,-0.5,-0.040655995563277134,10,1,100,-0.03897853051862986,-10,-1,-100,19121.45928149682,0.007894373247569565,0.0006947158196448006,0.9999685976274246,63.597294696860494,3.899198851586717,338.84176772764937,-94.19030481625016,-55.8314208984375,4761.76025390625,True
1599386465.7793188,0.0,10,0.5,0.5,-3.877599286651612,-0.1005,-0.00825,-0.5,-0.09765143820390407,10,1,100,0.02433669433518812,-10,-1,-100,19117.68074519548,0.006858486731057838,-0.00028815433291064403,0.9999764387858547,63.94174888743628,3.919942991427558,342.07015888408216,-94.55443274109454,-55.51739501953125,4761.76025390625,True
1599386465.812279,0.0,10,0.5,0.5,-3.677868497467041,-0.1005,-0.00825,-0.5,-0.16870759495823792,10,1,100,0.09975136159808506,-10,-1,-100,19111.985632490716,0.0052375785280788095,-0.0018211015397742013,0.9999846255619854,64.40093052556327,3.9474525274741152,346.633383214031,-95.10058758157702,-55.6016845703125,4761.76025390625,True
1599386465.8482194,0.0,10,0.5,0.5,-3.725161541748047,-0.1005,-0.00825,-0.5,-0.01614971104568818,10,1,100,-0.061599835113048576,-10,-1,-100,19111.985632490716,0.0052375785280788095,-0.0018211015397742013,0.9999846255619854,64.40093052556327,3.9474525274741152,346.633383214031,-95.10058758157702,-55.6016845703125,4761.76025390625,True
1599386465.8801637,0.0,10,0.5,0.5,-3.4752512474060064,-0.1005,-0.00825,-0.5,-0.12309791221936162,10,1,100,0.06071522955769916,-10,-1,-100,19108.170686308295,0.004132347245497187,-0.0027866593979548144,0.9999875790406811,64.66550838082577,3.963165168776612,349.46917033474614,-95.4646694671476,-56.02642822265625,4761.76025390625,True
1599386465.912762,0.0,10,0.5,0.5,-2.9760508926391602,-0.1005,-0.00825,-0.5,-0.18238106081357125,10,1,100,0.1385942937649173,-10,-1,-100,19102.42096193484,0.002426518457115577,-0.004196681123125628,0.9999882498688314,64.98687615898017,3.981946122128138,353.33645468966387,-96.01076610767049,-57.2169189453125,4761.76025390625,True
1599386465.9456608,0.0,10,0.5,0.5,-3.572982609558106,-0.1005,-0.00825,-0.5,-0.04221143842899268,10,1,100,-0.03110177721343732,-10,-1,-100,19102.42096193484,0.002426518457115577,-0.004196681123125628,0.9999882498688314,64.98687615898017,3.981946122128138,353.33645468966387,-96.01076610767049,-57.2169189453125,4761.76025390625,True
1599386465.982533,0.0,10,0.5,0.5,-2.875151529693604,-0.1005,-0.00825,-0.5,-0.14273062233958878,10,1,100,0.09807370394537931,-10,-1,-100,19098.569609432132,0.0012589743637982,-0.00510424560348746,0.9999861807346991,65.13861124530278,3.9905127698984217,355.58690395943086,-96.37481755889642,-58.379180908203125,4761.76025390625,True
1599386466.0144498,0.0,10,0.5,0.5,-2.077293636322022,-0.1005,-0.00825,-0.5,-0.18965404093708846,10,1,100,0.17698272942369786,-10,-1,-100,19092.76527730527,-0.0005119442680819755,-0.00634880941362248,0.9999797150603086,65.24332863355303,3.9956329532744386,358.30321118691853,-96.92088483630866,-60.674163818359375,4761.76025390625,True
1599386466.0467172,0.0,10,0.5,0.5,-2.08151198425293,-0.1005,-0.00825,-0.5,-0.14874647512989353,10,1,100,0.13170934999637565,-10,-1,-100,19088.877520357375,-0.0017021862670750028,-0.007101470520137028,0.9999733354836837,65.21023501028239,3.9926164866360665,359.5527689833001,-97.28493002248644,-62.571746826171875,4761.76025390625,True
1599386466.0794053,0.0,10,0.5,0.5,-3.024963471221924,-0.1005,-0.00825,-0.5,-0.074311724078797,10,1,100,0.013696038168434569,-10,-1,-100,19088.877520357375,-0.0017021862670750028,-0.007101470520137028,0.9999733354836837,65.21023501028239,3.9926164866360665,359.5527689833001,-97.28493002248644,-62.571746826171875,4761.76025390625,True
1599386466.1153998,0.0,10,0.5,0.5,-2.3835705490112304,-0.1005,-0.00825,-0.5,-0.11246207664663523,10,1,100,0.07932942025187323,-10,-1,-100,19086.92818099074,-0.002290129231911132,-0.007441204464990301,0.999969691432801,65.15650633467179,3.988799001473468,359.9723233146015,-97.46695481767222,-63.630584716796875,4761.76025390625,True
1599386466.1492066,0.0,10,0.5,0.5,-1.5021545570373536,-0.1005,-0.00825,-0.5,-0.15071903319925645,10,1,100,0.15172419430003956,-10,-1,-100,19083.018581081065,-0.0034744402222336985,-0.008091341247033397,0.9999612284793679,64.96233725123761,3.9758087313305532,360.32851389291335,-97.8310128387447,-65.9688720703125,4761.76025390625,True
1599386466.1796346,0.0,10,0.5,0.5,0.6752635459899903,-0.1005,-0.00825,-0.5,-0.21541459052969397,10,1,100,0.2989274106068294,-10,-1,-100,19075.155691362917,-0.00588137761736111,-0.009264815897615408,0.9999397844788982,64.15690515005745,3.924285805611161,358.6902818222243,-98.55918874436661,-71.527587890625,4761.76025390625,True
1599386466.213855,0.0,10,0.5,0.5,-1.1463884925842287,-0.1005,-0.00825,-0.5,-0.12535858165815122,10,1,100,0.12367591934169371,-10,-1,-100,19073.18086635007,-0.006466199004934396,-0.009506153031714265,0.9999339084784385,63.852635821155324,3.905153517076643,357.6946626296994,-98.74125127584408,-73.10055541992188,4761.76025390625,True
1599386466.249791,0.0,10,0.5,0.5,0.057853622436523366,-0.1005,-0.00825,-0.5,-0.1485689613190647,10,1,100,0.19138222830675233,-10,-1,-100,19069.22029136331,-0.007603731669455706,-0.009930445247236293,0.9999217817018942,63.0984693753669,3.858111881209227,354.86613524299315,-99.10540648020623,-76.3922119140625,4761.76025390625,True
1599386466.279759,0.0,10,0.5,0.5,0.49363976135253895,-0.1005,-0.00825,-0.5,-0.15044406743907765,10,1,100,0.20577355288385146,-10,-1,-100,19065.245148952003,-0.008759564087788187,-0.010327999349598155,0.9999082970284959,62.195158821291635,3.8021988317926123,351.1645544474606,-99.46960718365592,-79.83233642578125,4761.76025390625,True
1599386466.3127215,0.0,10,0.5,0.5,-1.2077647750854492,-0.1005,-0.00825,-0.5,-0.11130178902553874,10,1,100,0.09130891930509369,-10,-1,-100,19065.245148952003,-0.008759564087788187,-0.010327999349598155,0.9999082970284959,62.195158821291635,3.8021988317926123,351.1645544474606,-99.46960718365592,-79.83233642578125,4761.76025390625,True
1599386466.3466303,0.0,10,0.5,0.5,-0.12579475784301763,-0.1005,-0.00825,-0.5,-0.12936154812868328,10,1,100,0.15229920017121013,-10,-1,-100,19063.25211449305,-0.00930491342434235,-0.010487430110766641,0.9999017113675911,61.67051447333529,3.7699031093159903,348.8866767192921,-99.65172679805173,-81.60464477539062,4761.76025390625,True
1599386466.3825386,0.0,10,0.5,0.5,1.1289314002990722,-0.1005,-0.00825,-0.5,-0.14374916187013365,10,1,100,0.21518628376822768,-10,-1,-100,19059.255116825807,-0.01036439270013151,-0.010759401272481046,0.99988840109695,60.51255909353226,3.698966693803608,343.6803096857012,-100.01600725797483,-85.14105224609375,4761.76025390625,True
1599386466.4134548,0.0,10,0.5,0.5,0.4569413665771484,-0.1005,-0.00825,-0.5,-0.1305879766210295,10,1,100,0.16934948730468125,-10,-1,-100,19057.25115399272,-0.010902982795332092,-0.010883675252909246,0.9998813282480845,61.10907342773028,3.7355125660372868,347.7477332747539,-100.19813970296465,-86.935546875,4761.76025390625,True
1599386466.446435,0.0,10,0.5,0.5,1.8223047004699706,-0.1005,-0.00825,-0.5,-0.13994629054231345,10,1,100,0.22901521888303025,-10,-1,-100,19053.23230188398,-0.01192666153574647,-0.011078288811916762,0.9998675043532574,62.64924062545502,3.830149167855752,357.9065691215867,-100.56234518306779,-90.66995239257812,4761.76025390625,True
1599386466.4802823,0.0,10,0.5,0.5,3.211643814086914,-0.1005,-0.00825,-0.5,-0.14173603167931184,10,1,100,0.2827914191176953,-10,-1,-100,19047.176713909837,-0.013337392636162099,-0.011268174162853646,0.9998475594852969,64.77159638788125,3.961391103666283,372.195439333997,-101.10850369740658,-96.05585479736328,4761.76025390625,True
1599386466.5157254,0.0,10,0.5,0.5,2.560163912391663,-0.1005,-0.00825,-0.5,-0.1308691560131016,10,1,100,0.23868865809713088,-10,-1,-100,19043.121453135158,-0.014209974943249423,-0.011339119400452702,0.9998347368357106,66.06799175719624,4.042063510401268,381.11712598888806,-101.4725130616906,-99.41413879394531,4761.76025390625,True
1599386466.54764,0.0,10,0.5,0.5,0.9040283185958863,-0.1005,-0.00825,-0.5,-0.12398206260347971,10,1,100,0.15226328712098727,-10,-1,-100,19043.121453135158,-0.014209974943249423,-0.011339119400452702,0.9998347368357106,66.06799175719624,4.042063510401268,381.11712598888806,-101.4725130616906,-99.41413879394531,4761.76025390625,True
1599386466.5795546,0.0,10,0.5,0.5,2.781238592720032,-0.1005,-0.00825,-0.5,-0.12792666755723278,10,1,100,0.2378566377763513,-10,-1,-100,19039.051634141826,-0.014981056516536083,-0.011373313112424331,0.9998230921990624,67.24909981798889,4.115933511889451,389.42916032595497,-101.83644727276197,-102.50406646728516,4761.76025390625,True
1599386466.6126862,0.0,10,0.5,0.5,3.713882744216919,-0.1005,-0.00825,-0.5,-0.12312376384368617,10,1,100,0.27759149795787275,-10,-1,-100,19032.91961559176,-0.016036559107676804,-0.011359423846034309,0.9998068774827827,68.90386076818822,4.219880988569162,401.3151811095206,-102.38221460919014,-106.59410095214844,4761.76025390625,True
1599386466.6495528,0.0,10,0.5,0.5,3.1181393768310546,-0.1005,-0.00825,-0.5,-0.11984354605314612,10,1,100,0.23846072864955425,-10,-1,-100,19028.813413666096,-0.016633757201347393,-0.011316039419859892,0.9997976122061979,69.81406097819607,4.277458899784766,408.1725229327854,-102.74597975996728,-108.97077941894531,4761.76025390625,True
1599386466.6804986,0.0,10,0.5,0.5,1.9538393589019776,-0.1005,-0.00825,-0.5,-0.12428079267761404,10,1,100,0.1795283385938513,-10,-1,-100,19028.813413666096,-0.016633757201347393,-0.011316039419859892,0.9997976122061979,69.81406097819607,4.277458899784766,408.1725229327854,-102.74597975996728,-108.97077941894531,4761.76025390625,True
1599386466.7136416,0.0,10,0.5,0.5,3.228673698425293,-0.1005,-0.00825,-0.5,-0.11865658113774807,10,1,100,0.23455431371095148,-10,-1,-100,19024.692662936985,-0.017127330753523753,-0.011264156942852844,0.999789864576365,70.59002522307098,4.326826203526844,414.2828011269213,-103.1096897281168,-111.05613708496094,4761.76025390625,True
1599386466.7465658,0.0,10,0.5,0.5,2.7670082637786866,-0.1005,-0.00825,-0.5,-0.12000743059664248,10,1,100,0.2109162383905223,-10,-1,-100,19022.62683224189,-0.017354994263449823,-0.011228812635499684,0.9997863361443345,70.93140103276458,4.348646468743637,417.0769716621075,-103.29152625221903,-111.98808288574219,4761.76025390625,True
1599386466.7822998,0.0,10,0.5,0.5,3.3077740753173828,-0.1005,-0.00825,-0.5,-0.11450886366536231,10,1,100,0.2323904364581232,-10,-1,-100,19018.48426167725,-0.01775131560811706,-0.011146380713637364,0.9997803003616182,71.53140660987862,4.387183984841554,422.2000378850818,-103.65516614416939,-113.63016510009766,4761.76025390625,True
1599386466.8132195,0.0,10,0.5,0.5,3.3142509225845336,-0.1005,-0.00825,-0.5,-0.11373042406102285,10,1,100,0.22592562404946892,-10,-1,-100,19014.327146869036,-0.018047541577670082,-0.011064303977448786,0.9997759086017712,72.03430087818619,4.41971514215686,426.7750218274739,-104.01876693100746,-114.97666931152344,4761.76025390625,True
1599386466.8460996,0.0,10,0.5,0.5,3.5366640727996828,-0.1005,-0.00825,-0.5,-0.10684183470511749,10,1,100,0.23009863412055037,-10,-1,-100,19008.06420676934,-0.018350492415235835,-0.010927250559664944,0.9997719012971533,72.63286915388687,4.458856324819855,432.7527041030492,-104.56410550671582,-116.44220733642578,4761.76025390625,True
1599386466.8800714,0.0,10,0.5,0.5,2.817943216896057,-0.1005,-0.00825,-0.5,-0.12050598959942292,10,1,100,0.20021760211117373,-10,-1,-100,19008.06420676934,-0.018350492415235835,-0.010927250559664944,0.9997719012971533,72.63286915388687,4.458856324819855,432.7527041030492,-104.56410550671582,-116.44220733642578,4761.76025390625,True
1599386466.9309351,0.0,10,0.5,0.5,3.0366539710998537,-0.1005,-0.00825,-0.5,-0.1153387182993178,10,1,100,0.2072795945567751,-10,-1,-100,19005.969289242872,-0.01841092823976677,-0.010880649792246523,0.9997712984385223,72.79594337805054,4.469643914873662,434.53699590646744,-104.74587059187185,-116.78302764892578,4761.76025390625,True
1599386466.9638474,0.0,10,0.5,0.5,3.2534647384643556,-0.1005,-0.00825,-0.5,-0.09865983376006907,10,1,100,0.20679248088723579,-10,-1,-100,18997.553268725518,-0.018458323527141596,-0.010687107110891313,0.9997725121417209,73.28877185895746,4.502941330236714,440.75391530282405,-105.47287181084434,-117.40824127197266,4761.76025390625,True
1599386466.9937675,0.0,10,0.5,0.5,2.871748312187195,-0.1005,-0.00825,-0.5,-0.1072530543524309,10,1,100,0.1921199501277421,-10,-1,-100,18993.323449542513,-0.018365821904741984,-0.010589890602985451,0.9997752501451413,73.44651813579826,4.514141709329119,443.34527187811517,-105.83634308392317,-117.2782974243164,4761.76025390625,True
1599386467.0206952,0.0,10,0.5,0.5,2.8381639041900635,-0.1005,-0.00825,-0.5,-0.11176083701992016,10,1,100,0.19356288387647702,-10,-1,-100,18991.20308788726,-0.018293272496000476,-0.010543151937154455,0.9997770742163561,73.50370018063424,4.518418041366517,444.5128674489754,-106.01807307330473,-117.1027603149414,4761.76025390625,True
1599386467.0516124,0.0,10,0.5,0.5,2.93264134311676,-0.1005,-0.00825,-0.5,-0.11635741485474918,10,1,100,0.2009837762800931,-10,-1,-100,18991.20308788726,-0.018293272496000476,-0.010543151937154455,0.9997770742163561,73.50370018063424,4.518418041366517,444.5128674489754,-106.01807307330473,-117.1027603149414,4761.76025390625,True
1599386467.0801804,0.0,10,0.5,0.5,2.5940117881774905,-0.1005,-0.00825,-0.5,-0.10531419557931973,10,1,100,0.1793021267206748,-10,-1,-100,18986.951461035642,-0.01809510664387624,-0.01044341449374664,0.9997817272831399,73.57367403956721,4.524273543196827,446.5834166431226,-106.38152359910933,-116.5305404663086,4761.76025390625,True
1599386467.1131003,0.0,10,0.5,0.5,2.3632605897903445,-0.1005,-0.00825,-0.5,-0.10359715277245826,10,1,100,0.1695029503397612,-10,-1,-100,18982.68529663747,-0.017825199618136424,-0.010337848608896935,0.9997876730309855,73.58118559967996,4.526346154821401,448.27794621658563,-106.74496482473816,-115.66358184814453,4761.76025390625,True
1599386467.1470912,0.0,10,0.5,0.5,2.4717691446304326,-0.1005,-0.00825,-0.5,-0.10810211128544456,10,1,100,0.1785627416760097,-10,-1,-100,18980.546762901824,-0.017662124166875195,-0.010283568820155933,0.9997911269771477,73.55945910682087,4.525841837299614,448.97036265789404,-106.92668314398774,-115.11962127685547,4761.76025390625,True
1599386467.183025,0.0,10,0.5,0.5,1.9579285381317142,-0.1005,-0.00825,-0.5,-0.10093771166673701,10,1,100,0.15449782631227665,-10,-1,-100,18976.258792341338,-0.017295452178249956,-0.010169802411273401,0.9997987009657822,73.45938845430047,4.521409823346186,450.0081011130423,-107.29011848625896,-113.8108139038086,4761.76025390625,True
1599386467.2139142,0.0,10,0.5,0.5,2.150875402069092,-0.1005,-0.00825,-0.5,-0.10555121106462789,10,1,100,0.16830333694230293,-10,-1,-100,18974.109355641995,-0.017088577776351782,-0.010109007896041373,0.9998028748052986,73.37872500319163,4.517340103549605,450.3379539806584,-107.47183656998051,-113.04597473144531,4761.76025390625,True
1599386467.2468588,0.0,10,0.5,0.5,1.4793340463638307,-0.1005,-0.00825,-0.5,-0.09715100179475963,10,1,100,0.137546129300734,-10,-1,-100,18969.79957859742,-0.016622046354829074,-0.009978118473071293,0.99981205470164,73.14864567902016,4.505028451802678,450.5701101655743,-107.83527738223141,-111.29550170898438,4761.76025390625,True
1599386467.2805367,0.0,10,0.5,0.5,1.7581839660644532,-0.1005,-0.00825,-0.5,-0.10232951456108874,10,1,100,0.15650377239322688,-10,-1,-100,18967.63923853275,-0.01637189534690831,-0.009907025960355281,0.9998168891748983,72.99560352789122,4.496559498850699,450.4485278998876,-108.01700152973486,-110.30989074707031,4761.76025390625,True
1599386467.3162937,0.0,10,0.5,0.5,0.20453193988800056,-0.1005,-0.00825,-0.5,-0.08310682053562644,10,1,100,0.08900666090662943,-10,-1,-100,18961.13641035359,-0.01553277198817512,-0.009668353804155191,0.9998326139554966,72.36192194955477,4.4604683541978005,448.98322676268947,-108.56219993974194,-106.9117202758789,4761.76025390625,True
1599386467.3471696,0.0,10,0.5,0.5,0.31387758502960206,-0.1005,-0.00825,-0.5,-0.08652713662823387,10,1,100,0.10402939464172639,-10,-1,-100,18956.78301729611,-0.014909078377751801,-0.009483310660086841,0.9998438809138406,71.77229959962807,4.426107982904591,446.9443780950469,-108.92569682367419,-104.27860260009766,4761.76025390625,True
1599386467.3810763,0.0,10,0.5,0.5,1.619856492805481,-0.1005,-0.00825,-0.5,-0.10492546690736215,10,1,100,0.16606033627223343,-10,-1,-100,18956.78301729611,-0.014909078377751801,-0.009483310660086841,0.9998438809138406,71.77229959962807,4.426107982904591,446.9443780950469,-108.92569682367419,-104.27860260009766,4761.76025390625,True
1599386467.413962,0.0,10,0.5,0.5,-1.9368905324935912,-0.1005,-0.00825,-0.5,-0.05600978576849435,10,1,100,0.01662109051765384,-10,-1,-100,18948.032606972964,-0.013553616320090394,-0.009039586141803559,0.9998672838767316,70.20192841058649,4.332976731227612,440.34054302304344,-109.65280290210337,-98.37324523925781,4761.76025390625,True
1599386467.4489734,0.0,10,0.5,0.5,0.055870280456543076,-0.1005,-0.00825,-0.5,-0.0858601211259293,10,1,100,0.110359111574582,-10,-1,-100,18945.83591467107,-0.013177670541210086,-0.00890884310875175,0.9998734827534786,69.78346193491024,4.307981404688882,438.50620937210107,-109.83460535634502,-96.7996597290039,4761.76025390625,True
1599386467.480927,0.0,10,0.5,0.5,0.8271002998352052,-0.1005,-0.00825,-0.5,-0.09879152388109565,10,1,100,0.1474889365549202,-10,-1,-100,18945.83591467107,-0.013177670541210086,-0.00890884310875175,0.9998734827534786,69.78346193491024,4.307981404688882,438.50620937210107,-109.83460535634502,-96.7996597290039,4761.76025390625,True
1599386467.5139954,0.0,10,0.5,0.5,-1.1458877681732178,-0.1005,-0.00825,-0.5,-0.06819873083234361,10,1,100,0.06601627410081415,-10,-1,-100,18941.431621125084,-0.012441086749468817,-0.008631976558955281,0.9998853475980023,68.87861474288174,4.253588088043433,434.38232255283117,-110.19824412489862,-93.53925323486328,4761.76025390625,True
1599386467.5479705,0.0,10,0.5,0.5,-1.473464150238037,-0.1005,-0.00825,-0.5,-0.06142093411525329,10,1,100,0.05296010481308519,-10,-1,-100,18937.012780835386,-0.011657185732023565,-0.008320061385214322,0.9998974380401999,67.95342979366949,4.197603113764316,430.0904110286488,-110.56192719399347,-90.30685424804688,4761.76025390625,True
1599386467.5839312,0.0,10,0.5,0.5,-0.8685683917999267,-0.1005,-0.00825,-0.5,-0.07354650584437623,10,1,100,0.08595249548075293,-10,-1,-100,18934.797905040556,-0.011249416896819705,-0.008148360921633502,0.9999035227629576,67.45699617890756,4.167378598923077,427.71464676844835,-110.74378584361807,-88.65399169921875,4761.76025390625,True
1599386467.6138546,0.0,10,0.5,0.5,-4.005079516220093,-0.1005,-0.00825,-0.5,-0.008143641642273033,10,1,100,-0.05299545755247405,-10,-1,-100,18925.90202521684,-0.009620438954930505,-0.007399361514314944,0.9999263455892614,65.63888546748854,4.0557478238016715,419.17126155553535,-111.47133418391212,-82.085693359375,4761.76025390625,True
1599386467.6478615,0.0,10,0.5,0.5,-0.7442153091430664,-0.1005,-0.00825,-0.5,-0.08279281592952484,10,1,100,0.10922719099724823,-10,-1,-100,18925.90202521684,-0.009620438954930505,-0.007399361514314944,0.9999263455892614,65.63888546748854,4.0557478238016715,419.17126155553535,-111.47133418391212,-82.085693359375,4761.76025390625,True
1599386467.6811123,0.0,10,0.5,0.5,-1.6619465524673462,-0.1005,-0.00825,-0.5,-0.05938898652626458,10,1,100,0.06213485487701173,-10,-1,-100,18923.66896104277,-0.00919770165659494,-0.007188662149094251,0.9999318603888678,66.32256841001266,4.097899778864418,424.291344500152,-111.65320941561554,-80.59152221679688,4761.76025390625,True
1599386467.7170162,0.0,10,0.5,0.5,-2.608666753768921,-0.1005,-0.00825,-0.5,-0.03380737752779164,10,1,100,0.01376044789309884,-10,-1,-100,18919.191921395715,-0.008378819846182635,-0.006766643233917497,0.9999420022767972,67.54671993702006,4.173094617998878,433.65860253074766,-112.01689829686902,-77.80340576171875,4761.76025390625,True
1599386467.7479331,0.0,10,0.5,0.5,-2.7604062368392945,-0.1005,-0.00825,-0.5,-0.02287020439947421,10,1,100,0.000184620540210359,-10,-1,-100,18914.700336813577,-0.00751690182308298,-0.006286030525704988,0.9999519898511187,68.59310758945723,4.23702824877077,441.93593109918083,-112.38051170178369,-75.26559448242188,4761.76025390625,True
1599386467.7808456,0.0,10,0.5,0.5,-2.2145502336502076,-0.1005,-0.00825,-0.5,-0.04418570576808471,10,1,100,0.03979049919374332,-10,-1,-100,18912.44909090805,-0.007098881348476326,-0.006045390399422893,0.9999565286243791,69.0587150628622,4.265356934808041,445.72061912516773,-112.56229253731391,-74.09326171875,4761.76025390625,True
1599386467.8137581,0.0,10,0.5,0.5,-2.925304923629761,-0.1005,-0.00825,-0.5,-0.013387674597466925,10,1,100,-0.010593453306153772,-10,-1,-100,18907.93569344317,-0.006266352975373699,-0.005549247685532943,0.9999649687216611,69.87479596976719,4.314786404701198,452.57571415466964,-112.92580717852886,-71.9647216796875,4761.76025390625,True
1599386467.8497217,0.0,10,0.5,0.5,-2.982867996788025,-0.1005,-0.00825,-0.5,-0.006446016810031818,10,1,100,-0.0187165582471885,-10,-1,-100,18903.40775708109,-0.005441945607239936,-0.005038157052495596,0.9999725007226561,70.5476993280321,4.355271000864905,458.53692458562887,-113.28926574263849,-70.13067626953125,4761.76025390625,True
1599386467.884627,0.0,10,0.5,0.5,-2.56923352432251,-0.1005,-0.00825,-0.5,-0.027454318275966533,10,1,100,0.017206626475335773,-10,-1,-100,18901.13833742775,-0.005025421625634218,-0.004767780871703287,0.999976006413676,70.83566280721239,4.372497395970088,461.21318428456516,-113.47097645125352,-69.32455444335938,4761.76025390625,True
1599386467.9155443,0.0,10,0.5,0.5,-3.018095175933838,-0.1005,-0.00825,-0.5,0.005071264054855001,10,1,100,-0.03129681692680742,-10,-1,-100,18896.588596437126,-0.004211851942433525,-0.004229526577533275,0.9999821855453951,71.32412925604656,4.401532680596068,466.01375357174373,-113.83436508429418,-67.9346923828125,4761.76025390625,True
1599386467.9474974,0.0,10,0.5,0.5,-2.996852858734131,-0.1005,-0.00825,-0.5,0.010769482854093848,10,1,100,-0.03792523357394875,-10,-1,-100,18892.02432099171,-0.003418382592690144,-0.003691965079516638,0.9999873419470378,71.70813318575344,4.424121692130524,470.1515671328824,-114.1977154262543,-66.84127807617188,4761.76025390625,True
1599386467.9834015,0.0,10,0.5,0.5,-3.114204739379883,-0.1005,-0.00825,-0.5,0.048617691148486235,10,1,100,-0.08806157129526734,-10,-1,-100,18885.150658805505,-0.00224690016487712,-0.002862568548129581,0.9999933785485563,72.11533640781695,4.447635089626054,475.2787829930829,-114.74268245030513,-65.75637817382812,4761.76025390625,True
1599386468.014318,0.0,10,0.5,0.5,-2.585226473236084,-0.1005,-0.00825,-0.5,-0.033868282693600905,10,1,100,0.02834931760702975,-10,-1,-100,18885.150658805505,-0.00224690016487712,-0.002862568548129581,0.9999933785485563,72.11533640781695,4.447635089626054,475.2787829930829,-114.74268245030513,-65.75637817382812,4761.76025390625,True
1599386468.0483022,0.0,10,0.5,0.5,-2.848583982086182,-0.1005,-0.00825,-0.5,0.05413997330206153,10,1,100,-0.09471322710717364,-10,-1,-100,18878.244300848804,-0.0011344686688313779,-0.0020664263059880722,0.9999972214277205,72.34779172138323,4.460453511859726,479.2769584969534,-115.28759526505648,-65.33819580078125,4761.76025390625,True
1599386468.0802174,0.0,10,0.5,0.5,-2.595092389678955,-0.1005,-0.00825,-0.5,0.03379536737676338,10,1,100,-0.06376375945739683,-10,-1,-100,18873.62189925951,-0.0004111118794035393,-0.0015318845187511651,0.9999987421576308,72.41679214724647,4.463748718278046,481.3804904918376,-115.65084856238113,-65.42926025390625,4761.76025390625,True
1599386468.117333,0.0,10,0.5,0.5,-2.6487395919799805,-0.1005,-0.00825,-0.5,-0.019183396746231953,10,1,100,0.007861340491019095,-10,-1,-100,18873.62189925951,-0.0004111118794035393,-0.0015318845187511651,0.9999987421576308,72.41679214724647,4.463748718278046,481.3804904918376,-115.65084856238113,-65.42926025390625,4761.76025390625,True
1599386468.1481767,0.0,10,0.5,0.5,-2.4231313354492188,-0.1005,-0.00825,-0.5,0.034036017472376126,10,1,100,-0.06716671323847692,-10,-1,-100,18868.984967852128,0.000264881545892722,-0.0010521748493826115,0.9999994113827533,72.42041186132309,4.46305213124317,483.051862812455,-116.01408970717087,-65.81686401367188,4761.76025390625,True
1599386468.1820512,0.0,10,0.5,0.5,-2.4390770057678224,-0.1005,-0.00825,-0.5,0.013207646303701592,10,1,100,-0.03696961984759895,-10,-1,-100,18866.661053523887,0.0005989645066801902,-0.0008095122267956496,0.9999994929656087,72.39808581950973,4.461230260970363,483.7266973926719,-116.19570712708688,-66.12149047851562,4761.76025390625,True
1599386468.2169876,0.0,10,0.5,0.5,-2.0957777572631837,-0.1005,-0.00825,-0.5,0.04260164933382094,10,1,100,-0.07636407946089496,-10,-1,-100,18862.002328277566,0.0012553160037770158,-0.0003255358558297811,0.9999991591037152,72.30404283949443,4.4545701409932335,484.7445225971337,-116.55893854270235,-66.95233154296875,4761.76025390625,True
1599386468.250964,0.0,10,0.5,0.5,-1.836474999237061,-0.1005,-0.00825,-0.5,0.043038032156930354,10,1,100,-0.07899534771985892,-10,-1,-100,18857.32907346089,0.0018702100420107013,0.00011437137524393638,0.999998244615253,72.14067361767509,4.443677211202964,485.29292129086423,-116.92216944445762,-68.07919311523438,4761.76025390625,True
1599386468.2808404,0.0,10,0.5,0.5,-1.9950061767578124,-0.1005,-0.00825,-0.5,0.02401195988310711,10,1,100,-0.05156141016003535,-10,-1,-100,18854.9869975826,0.0021742760426025245,0.0003373737483191253,0.9999975793483925,72.03146075321897,4.436551454496643,485.3793360122663,-117.10378628372358,-68.75326538085938,4761.76025390625,True
1599386468.3150024,0.0,10,0.5,0.5,-1.3877671508789065,-0.1005,-0.00825,-0.5,0.04852316366744476,10,1,100,-0.08578944328382135,-10,-1,-100,18850.29194864561,0.0027567793818701523,0.0007592692684016067,0.9999959118304523,71.75308175315769,4.4186474777884435,485.14044368279275,-117.46702586699068,-70.3231201171875,4761.76025390625,True
1599386468.3479154,0.0,10,0.5,0.5,-0.422459351348877,-0.1005,-0.00825,-0.5,0.07188891208792719,10,1,100,-0.11807173272154706,-10,-1,-100,18843.22213163541,0.0035752544310502774,0.00135193396519322,0.9999926948884712,71.16882793687161,4.381664535460143,483.62861879786124,-118.01191145218272,-73.23147583007812,4761.76025390625,True
1599386468.383819,0.0,10,0.5,0.5,-0.4846911537170411,-0.1005,-0.00825,-0.5,0.05331171530114338,10,1,100,-0.09255813523705475,-10,-1,-100,18838.49075657304,0.004082087994449618,0.0017180050801118131,0.9999901924599811,70.65168258855988,4.349283772864442,481.73038478805427,-118.37519508193392,-75.5391845703125,4761.76025390625,True
1599386468.4147367,0.0,10,0.5,0.5,-1.6301297080993653,-0.1005,-0.00825,-0.5,0.017083046947894066,10,1,100,-0.04239643456344879,-10,-1,-100,18838.49075657304,0.004082087994449618,0.0017180050801118131,0.9999901924599811,70.65168258855988,4.349283772864442,481.73038478805427,-118.37519508193392,-75.5391845703125,4761.76025390625,True
1599386468.4478025,0.0,10,0.5,0.5,-0.11099127578735368,-0.1005,-0.00825,-0.5,0.053148148030786296,10,1,100,-0.09322942472499443,-10,-1,-100,18833.744849165203,0.004540121359669257,0.002042915190320958,0.999987606820987,70.0248185615997,4.31030167825399,479.05973305817196,-118.7385078993707,-78.05508422851562,4761.76025390625,True
1599386468.4816751,0.0,10,0.5,0.5,-0.5698737533569336,-0.1005,-0.00825,-0.5,0.038540034919732125,10,1,100,-0.0721776869230799,-10,-1,-100,18831.366445572,0.004760634772361458,0.002202237171584168,0.9999862431593768,69.67873893441292,4.288871390794451,477.4906088285495,-118.92017694568095,-79.368408203125,4761.76025390625,True
1599386468.5176728,0.0,10,0.5,0.5,0.4403624992370605,-0.1005,-0.00825,-0.5,0.05625849470690674,10,1,100,-0.09649439832243076,-10,-1,-100,18826.598737476044,0.005178075475506223,0.00250519368714234,0.9999834556326219,68.92143768531305,4.242168506514842,473.88200355405286,-119.28354314741259,-82.12564086914062,4761.76025390625,True
1599386468.5487103,0.0,10,0.5,0.5,0.8095970512390136,-0.1005,-0.00825,-0.5,0.05531971703334572,10,1,100,-0.09515704121564875,-10,-1,-100,18821.816493385588,0.00554124640378633,0.002769060989786544,0.9999808132606982,68.0582675832413,4.189211710661868,469.50997300659543,-119.6469518248242,-85.01431274414062,4761.76025390625,True
1599386468.5816936,0.0,10,0.5,0.5,2.095973344421387,-0.1005,-0.00825,-0.5,0.06946664337145517,10,1,100,-0.11210735579766,-10,-1,-100,18814.615868623718,0.006021599261695613,0.003134735507222618,0.9999769566223169,66.9303326260497,4.120626273031525,464.03678254961534,-120.19214340531127,-89.53689575195312,4761.76025390625,True
1599386468.615602,0.0,10,0.5,0.5,1.5983206024169923,-0.1005,-0.00825,-0.5,0.05681427985613892,10,1,100,-0.09335186691971939,-10,-1,-100,18809.797280034167,0.006284005243432151,0.0033493996146325574,0.9999746460787503,67.962098544569,4.185151749123923,472.7538959373885,-120.55556399193024,-92.44436645507812,4761.76025390625,True
1599386468.6515934,0.0,10,0.5,0.5,0.16413040924072267,-0.1005,-0.00825,-0.5,0.035649071701776336,10,1,100,-0.06752224166614858,-10,-1,-100,18809.797280034167,0.006284005243432151,0.0033493996146325574,0.9999746460787503,67.962098544569,4.185151749123923,472.7538959373885,-120.55556399193024,-92.44436645507812,4761.76025390625,True
1599386468.682507,0.0,10,0.5,0.5,1.0010812240600586,-0.1005,-0.00825,-0.5,0.04662176085457971,10,1,100,-0.08002973804766463,-10,-1,-100,18807.382534799515,0.006394503187026331,0.003446796670252378,0.9999736146127582,68.43688773269751,4.21501006115412,476.84421532571247,-120.73724896335324,-93.80773162841797,4761.76025390625,True
1599386468.7154207,0.0,10,0.5,0.5,1.8457011472702027,-0.1005,-0.00825,-0.5,0.05725429823869531,10,1,100,-0.09008058042628249,-10,-1,-100,18802.542144875857,0.006583764203957588,0.003630094458212303,0.9999717378321904,69.295469451257,4.269340561724926,484.4219529995034,-121.10057187753972,-96.32118225097656,4761.76025390625,True
1599386468.7484312,0.0,10,0.5,0.5,2.680982445716858,-0.1005,-0.00825,-0.5,0.06678285643203796,10,1,100,-0.09445430849902056,-10,-1,-100,18795.254314701888,0.006793306587093161,0.0038816138041352587,0.9999693915615064,70.40232147240961,4.340136240846344,494.59187408409764,-121.64544878536799,-99.77640533447266,4761.76025390625,True
1599386468.7843003,0.0,10,0.5,0.5,2.1840976139068604,-0.1005,-0.00825,-0.5,0.05793453510927931,10,1,100,-0.0821383961604048,-10,-1,-100,18790.37760097778,0.006869372079053863,0.004027861553200118,0.9999682935266235,71.04603607018082,4.381771990868529,500.7509330189967,-122.00863375101417,-101.79261016845703,4761.76025390625,True
1599386468.8292127,0.0,10,0.5,0.5,1.1955786558151245,-0.1005,-0.00825,-0.5,0.043508254839081266,10,1,100,-0.0747647720362731,-10,-1,-100,18790.37760097778,0.006869372079053863,0.004027861553200118,0.9999682935266235,71.04603607018082,4.381771990868529,500.7509330189967,-122.00863375101417,-101.79261016845703,4761.76025390625,True
1599386468.8591387,0.0,10,0.5,0.5,2.2511863609313965,-0.1005,-0.00825,-0.5,0.05800461128147402,10,1,100,-0.07793728191691182,-10,-1,-100,18785.48636110674,0.006896296044053585,0.004157986953238583,0.9999675755970137,71.65724149224586,4.4215523056148776,506.7101743667994,-122.37176946467277,-103.51968383789062,4761.76025390625,True
1599386468.8860273,0.0,10,0.5,0.5,2.2655312553405764,-0.1005,-0.00825,-0.5,0.05839592238227157,10,1,100,-0.07376994605634368,-10,-1,-100,18780.580597605556,0.006881325485713125,0.004278337605766169,0.9999671710545756,72.18823164564134,4.456498460529983,512.1290016828692,-122.73485998369459,-104.95220947265625,4761.76025390625,True
1599386468.9179444,0.0,10,0.5,0.5,1.9293378387451172,-0.1005,-0.00825,-0.5,0.05283274338720664,10,1,100,-0.07276586132564385,-10,-1,-100,18778.122269698186,0.006857369590504593,0.004335800865730675,0.9999670881149798,72.44914181746448,4.473723280919996,514.8152393314857,-122.91638918536665,-105.5577392578125,4761.76025390625,True
