Timestamp,Input Throttle,horizon,dT,dt,Input Roll,Roll P,Roll I,Roll D,Input Pitch,Pitch P,Pitch I,Pitch D,Input Yaw,Yaw P,Yaw I,Yaw D,Altitude,Direction X,Direction Y,Direction Z,Drag X,Drag Y,Drag Z,Vertical Velocity,Roll,Mass,Has Fuel
1599385542.3272674,0.0,10,0.5,0.5,-2.845672981262207,-0.05075,-0.00825,-0.12575,-0.00017881834435963789,10,1,100,0.4980191615859286,-10,-1,-100,19351.094165979885,-0.04884122277751622,-0.0001765590159519059,0.9988065397185337,60.98653138064292,3.680681383867254,232.7540734128471,-68.48187378273829,-33.922332763671875,4761.76025390625,True
1599385542.356153,0.0,10,0.5,0.5,-2.892001006317139,-0.05075,-0.00825,-0.12575,-0.0008587168374765341,10,1,100,0.49890345071741427,-10,-1,-100,19349.720879165456,-0.04889219641992077,-0.00016815420482792668,0.9988040472752397,61.07620290120446,3.6867639342604606,233.74080322675513,-68.66433383573192,-33.923492431640625,4761.76025390625,True
1599385542.392176,0.0,10,0.5,0.5,-2.938199885559082,-0.05075,-0.00825,-0.12575,-0.0007738783766613646,10,1,100,0.5044767714347433,-10,-1,-100,19348.343943427666,-0.04894475519551888,-0.00015958934124887317,0.9988014745033634,61.1661292280118,3.6928655689324583,234.73057810091882,-68.84679044923884,-33.9246826171875,4761.76025390625,True
1599385542.4251113,0.0,10,0.5,0.5,-2.957776879882813,-0.05075,-0.00825,-0.12575,0.02261739205754372,10,1,100,0.5084807127468848,-10,-1,-100,19344.19124138204,-0.048984440135086155,6.098989262599339e-05,0.998799539900217,61.44033799469625,3.711458705602372,237.72949137154495,-69.3941398973113,-34.07672119140625,4761.76025390625,True
1599385542.4563644,0.0,10,0.5,0.5,-3.0230324356079104,-0.05075,-0.00825,-0.12575,0.0005655676593196628,10,1,100,0.5094106628036658,-10,-1,-100,19344.19124138204,-0.048984440135086155,6.098989262599339e-05,0.998799539900217,61.44033799469625,3.711458705602372,237.72949137154495,-69.3941398973113,-34.07672119140625,4761.76025390625,True
1599385542.4893732,0.0,10,0.5,0.5,-2.994578930664063,-0.05075,-0.00825,-0.12575,0.02866826165418969,10,1,100,0.5100941042769499,-10,-1,-100,19341.404528930085,-0.04894612193017502,0.00031641348358606093,0.9988013701585033,61.63738836937287,3.7247173086415657,239.79467981380392,-69.75902097614994,-34.49932861328125,4761.76025390625,True
1599385542.5254319,0.0,10,0.5,0.5,-3.037050120544434,-0.05075,-0.00825,-0.12575,0.022319270558854177,10,1,100,0.5127501416136999,-10,-1,-100,19340.00569977716,-0.04889093651792611,0.0004906109986070849,0.9988040026087441,61.74097124708778,3.7316458928969016,240.85036063770468,-69.94145545857462,-34.8192138671875,4761.76025390625,True
1599385542.556443,0.0,10,0.5,0.5,-2.9711740158081055,-0.05075,-0.00825,-0.12575,0.05594352624246893,10,1,100,0.5034044343182796,-10,-1,-100,19337.197095658397,-0.04871136067999789,0.0009542014175694161,0.9988124412723132,61.95503793446093,3.745893177323384,242.99579108654132,-70.30631138947103,-35.67828369140625,4761.76025390625,True
1599385542.590443,0.0,10,0.5,0.5,-2.7994897216796875,-0.05075,-0.00825,-0.12575,0.1159328168281719,10,1,100,0.47362014178175704,-10,-1,-100,19332.956826139707,-0.048233060567294754,0.0019201369842983176,0.9988342629997597,62.27990902824316,3.7673769229208385,246.24681696771887,-70.85356131717171,-37.5169677734375,4761.76025390625,True
1599385542.6232698,0.0,10,0.5,0.5,-3.0740027465820314,-0.05075,-0.00825,-0.12575,0.019531273853711593,10,1,100,0.5262734591087997,-10,-1,-100,19332.956826139707,-0.048233060567294754,0.0019201369842983176,0.9988342629997597,62.27990902824316,3.7673769229208385,246.24681696771887,-70.85356131717171,-37.5169677734375,4761.76025390625,True
1599385542.6591656,0.0,10,0.5,0.5,-2.503224740600586,-0.05075,-0.00825,-0.12575,0.21109065137993382,10,1,100,0.41374053338991656,-10,-1,-100,19327.25206006458,-0.047166185732971,0.003659840291823703,0.9988803514397715,62.663911205082826,3.7926820864233686,250.4188350273745,-71.58316302556523,-40.99615478515625,4761.76025390625,True
1599385542.6898315,0.0,10,0.5,0.5,-2.749035123443604,-0.05075,-0.00825,-0.12575,0.0960385797838414,10,1,100,0.48276890236483466,-10,-1,-100,19325.81674896099,-0.04682535290794371,0.004191973193875235,0.9988942955517307,62.73916320218325,3.7976608117449606,251.3840798164199,-71.76555247988858,-42.0491943359375,4761.76025390625,True
1599385542.722815,0.0,10,0.5,0.5,-2.675924711608887,-0.05075,-0.00825,-0.12575,0.10466673078758487,10,1,100,0.47517460400629463,-10,-1,-100,19324.377790195635,-0.046448344757852145,0.004750204361775475,0.9989093987082999,62.801983560490925,3.8018421058007585,252.30109938968513,-71.94793814973582,-43.175689697265625,4761.76025390625,True
1599385542.7568107,0.0,10,0.5,0.5,-2.5980556999206543,-0.05075,-0.00825,-0.12575,0.10807119253918583,10,1,100,0.46561904538178395,-10,-1,-100,19322.93518362753,-0.04602101082521669,0.005284173445151134,0.9989264958312132,62.85014110331019,3.8050867649711826,253.1605174880639,-72.13032028463401,-44.376220703125,4761.76025390625,True
1599385542.7928941,0.0,10,0.5,0.5,-2.027232265472412,-0.05075,-0.00825,-0.12575,0.2553133973289123,10,1,100,0.3452506454406066,-10,-1,-100,19318.58547876589,-0.04454096127727363,0.00710341703398786,0.9989823042651644,62.877985404892755,3.807430692453882,255.27228927934627,-72.67745065188028,-48.41754150390625,4761.76025390625,True
1599385542.8158329,0.0,10,0.5,0.5,-2.5235971794128416,-0.05075,-0.00825,-0.12575,0.07409328115937587,10,1,100,0.4928112523491309,-10,-1,-100,19318.58547876589,-0.04454096127727363,0.00710341703398786,0.9989823042651644,62.877985404892755,3.807430692453882,255.27228927934627,-72.67745065188028,-48.41754150390625,4761.76025390625,True
1599385542.8372397,0.0,10,0.5,0.5,-1.9717557670593264,-0.05075,-0.00825,-0.12575,0.21869555559449785,10,1,100,0.3625885465780856,-10,-1,-100,19315.667438314413,-0.043361123189039494,0.008411813161988604,0.9990240509592914,62.771297337404,3.8011071270113934,256.17084930638475,-73.04219749398902,-51.47906494140625,4761.76025390625,True
1599385542.858178,0.0,10,0.5,0.5,-2.05326067276001,-0.05075,-0.00825,-0.12575,0.1584664383470039,10,1,100,0.40876482778406653,-10,-1,-100,19314.202946618083,-0.04271335458645273,0.009046525665045352,0.9990464101899189,62.67118612317301,3.7950189527048472,256.4273973345472,-73.22457134096983,-53.120635986328125,4761.76025390625,True
1599385542.8901641,0.0,10,0.5,0.5,-1.9425960510253908,-0.05075,-0.00825,-0.12575,0.16742641050519133,10,1,100,0.3974605065534125,-10,-1,-100,19312.73480776942,-0.04202716021481658,0.00969763466540094,0.9990694038384793,62.53551147964164,3.786714799194148,256.53617639380764,-73.40694677268051,-54.835662841796875,4761.76025390625,True
1599385542.925879,0.0,10,0.5,0.5,-1.1581463539123535,-0.05075,-0.00825,-0.12575,0.33143604994350206,10,1,100,0.21220608487679282,-10,-1,-100,19308.30850476271,-0.03972485777113489,0.011773478208180569,0.9991412917530456,61.879988303241625,3.7464112031624217,255.8196261991313,-73.954093609502,-60.42108154296875,4761.76025390625,True
1599385542.9568195,0.0,10,0.5,0.5,-1.8416168617248536,-0.05075,-0.00825,-0.12575,0.12483702978792735,10,1,100,0.4415855089653463,-10,-1,-100,19308.30850476271,-0.03972485777113489,0.011773478208180569,0.9991412917530456,61.879988303241625,3.7464112031624217,255.8196261991313,-73.954093609502,-60.42108154296875,4761.76025390625,True
1599385542.9908755,0.0,10,0.5,0.5,-0.7226548194885255,-0.05075,-0.00825,-0.12575,0.3469627742515933,10,1,100,0.1508349388806094,-10,-1,-100,19303.84937117109,-0.03708843561396622,0.013785427123380843,0.9992168983472679,60.778332801891096,3.6787188320493236,253.20580983231633,-74.5012976547774,-66.67001342773438,4761.76025390625,True
1599385543.0240722,0.0,10,0.5,0.5,-0.6878631134033204,-0.05075,-0.00825,-0.12575,0.2918984848344992,10,1,100,0.19897065913593043,-10,-1,-100,19300.85837352916,-0.03513813739821942,0.015105165820744323,0.9992683049440283,59.74894470593711,3.6156719060379032,250.1911536111064,-74.86614987818595,-71.20419311523438,4761.76025390625,True
1599385543.060246,0.0,10,0.5,0.5,-0.38969702606201173,-0.05075,-0.00825,-0.12575,0.28949422112407425,10,1,100,0.17056164994157033,-10,-1,-100,19297.852780119865,-0.033117157307009634,0.01627365772874456,0.9993189790832706,58.45468605431473,3.536685940759117,246.0195780792633,-75.23105398184516,-75.99295043945312,4761.76025390625,True
1599385543.090472,0.0,10,0.5,0.5,-0.08279314041137709,-0.05075,-0.00825,-0.12575,0.2970097074394945,10,1,100,0.13427655676966233,-10,-1,-100,19294.83258901711,-0.03096176897118176,0.017394255262263514,0.9993692054221235,56.89111831720452,3.441636815912599,240.65520085671034,-75.59601836787924,-80.99581909179688,4761.76025390625,True
1599385543.1245441,0.0,10,0.5,0.5,-0.2322230682373047,-0.05075,-0.00825,-0.12575,0.24254398219415596,10,1,100,0.2269224435911144,-10,-1,-100,19293.31701835431,-0.029856905084538796,0.017908482028479233,0.9993937419707052,56.006457559643614,3.3880185803406935,237.51222361623482,-75.77852514486668,-83.561279296875,4761.76025390625,True
1599385543.1575408,0.0,10,0.5,0.5,-0.5258361053466797,-0.05075,-0.00825,-0.12575,0.19220181207203318,10,1,100,0.33594042663613743,-10,-1,-100,19293.31701835431,-0.029856905084538796,0.017908482028479233,0.9993937419707052,56.006457559643614,3.3880185803406935,237.51222361623482,-75.77852514486668,-83.561279296875,4761.76025390625,True
1599385543.1938705,0.0,10,0.5,0.5,0.42069614410400386,-0.05075,-0.00825,-0.12575,0.2960185361825132,10,1,100,0.08590593673251684,-10,-1,-100,19290.27492535743,-0.027596140829146337,0.018843637094150423,0.9994415292314013,54.04561734671462,3.2695295817155334,230.35405548049957,-76.14358989837629,-88.77410888671875,4761.76025390625,True
1599385543.224915,0.0,10,0.5,0.5,0.25909712905883786,-0.05075,-0.00825,-0.12575,0.2512054480667299,10,1,100,0.1813597135661473,-10,-1,-100,19288.7484023727,-0.026422405126147384,0.01927747988786338,0.9994649745121251,52.97899129586868,3.205256930314315,226.37543416465766,-76.32614777614239,-91.40583801269531,4761.76025390625,True
1599385543.2577043,0.0,10,0.5,0.5,0.8987308757781982,-0.05075,-0.00825,-0.12575,0.294195846458712,10,1,100,0.03147297121532289,-10,-1,-100,19285.68440264766,-0.02400695206122145,0.020053995280963667,0.999510632022492,53.16331066535379,3.2173468912573804,228.30234368129038,-76.69126095530142,-96.73390197753906,4761.76025390625,True
1599385543.2907212,0.0,10,0.5,0.5,1.6629958908081055,-0.05075,-0.00825,-0.12575,0.31725854748478893,10,1,100,-0.1266907650820165,-10,-1,-100,19281.061025310308,-0.02038752249559471,0.020962051541225733,0.9995723792310763,55.45398404185369,3.3583474424892756,239.92143468235844,-77.23877427325172,-104.69033813476562,4761.76025390625,True
1599385543.328293,0.0,10,0.5,0.5,0.6989961807250977,-0.05075,-0.00825,-0.12575,0.22737177879188683,10,1,100,0.23331845795310355,-10,-1,-100,19281.061025310308,-0.02038752249559471,0.020962051541225733,0.9995723792310763,55.45398404185369,3.3583474424892756,239.92143468235844,-77.23877427325172,-104.69033813476562,4761.76025390625,True
1599385543.3592439,0.0,10,0.5,0.5,1.644218253326416,-0.05075,-0.00825,-0.12575,0.27838669165582053,10,1,100,-0.03855173882135782,-10,-1,-100,19277.960526833194,-0.017931157900479944,0.02141929927233618,0.9996097674567962,56.85370874200399,3.4451099257881603,247.19441858354224,-77.603677563171,-109.86798858642578,4761.76025390625,True
1599385543.391336,0.0,10,0.5,0.5,1.895905284690857,-0.05075,-0.00825,-0.12575,0.2723878268121588,10,1,100,-0.05435350992615201,-10,-1,-100,19274.84543475299,-0.01557008942169361,0.021774703771629125,0.9996416530892749,58.034074123651465,3.518768648642011,253.5678453999108,-77.96850151858926,-114.8021469116211,4761.76025390625,True
1599385543.424581,0.0,10,0.5,0.5,2.53361791343689,-0.05075,-0.00825,-0.12575,0.26819058534077717,10,1,100,-0.22152381417281447,-10,-1,-100,19270.145439595915,-0.01191988537317757,0.022054641079389346,0.9996857051791576,59.44274686405785,3.60731521290961,261.628072341515,-78.51560580302689,-121.74925994873047,4761.76025390625,True
1599385543.4606056,0.0,10,0.5,0.5,1.6936400377273562,-0.05075,-0.00825,-0.12575,0.24066289314646766,10,1,100,0.14159240231898904,-10,-1,-100,19270.145439595915,-0.01191988537317757,0.022054641079389346,0.9996857051791576,59.44274686405785,3.60731521290961,261.628072341515,-78.51560580302689,-121.74925994873047,4761.76025390625,True
1599385543.4906058,0.0,10,0.5,0.5,2.48292278213501,-0.05075,-0.00825,-0.12575,0.2497741985916329,10,1,100,-0.11383409639311524,-10,-1,-100,19266.99387484172,-0.009614132675532405,0.02213370189339002,0.9997087914454846,60.05257452744057,3.646178679226732,265.5944404538425,-78.88027361276524,-126.04261779785156,4761.76025390625,True
1599385543.5243406,0.0,10,0.5,0.5,3.0178077674865724,-0.05075,-0.00825,-0.12575,0.23907873010248987,10,1,100,-0.2516902610633732,-10,-1,-100,19262.239180603763,-0.006283158519224461,0.02210450271997578,0.999735921570554,60.55989006312473,3.6792590362842827,269.77716023961165,-79.42720640181231,-131.9334259033203,4761.76025390625,True
1599385543.5583625,0.0,10,0.5,0.5,2.3126450847625737,-0.05075,-0.00825,-0.12575,0.2423247340064966,10,1,100,0.07927585633642899,-10,-1,-100,19262.239180603763,-0.006283158519224461,0.02210450271997578,0.999735921570554,60.55989006312473,3.6792590362842827,269.77716023961165,-79.42720640181231,-131.9334259033203,4761.76025390625,True
1599385543.5944622,0.0,10,0.5,0.5,3.2686925121307375,-0.05075,-0.00825,-0.12575,0.22411016630580213,10,1,100,-0.26628487658297334,-10,-1,-100,19257.4516723986,-0.0031600057168725514,0.02193634572012209,0.9997543753844323,60.68323801191539,3.6883681697712185,272.26966398023274,-79.97409000731614,-137.1606903076172,4761.76025390625,True
1599385543.6245055,0.0,10,0.5,0.5,2.64471611366272,-0.05075,-0.00825,-0.12575,0.24111410133508682,10,1,100,0.04394570901778271,-10,-1,-100,19257.4516723986,-0.0031600057168725514,0.02193634572012209,0.9997543753844323,60.68323801191539,3.6883681697712185,272.26966398023274,-79.97409000731614,-137.1606903076172,4761.76025390625,True
1599385543.6575506,0.0,10,0.5,0.5,3.2215234642028814,-0.05075,-0.00825,-0.12575,0.21922401698789212,10,1,100,-0.17684891606598788,-10,-1,-100,19254.241771279718,-0.0011684432313643844,0.021736459231348596,0.999763052468183,60.61228794741874,3.6847888157590827,273.2456044090114,-80.3386662504675,-140.27694702148438,4761.76025390625,True
1599385543.690497,0.0,10,0.5,0.5,3.3566717117309572,-0.05075,-0.00825,-0.12575,0.22273348900932044,10,1,100,-0.18066769283353654,-10,-1,-100,19251.017287186696,0.0006593123812896367,0.021585944525667384,0.9997667789570318,60.45483116127457,3.675714109146778,273.8272565678692,-80.70323955582728,-143.09654235839844,4761.76025390625,True
1599385543.726324,0.0,10,0.5,0.5,3.2589690004348757,-0.05075,-0.00825,-0.12575,0.22168016474225635,10,1,100,-0.10058388983485939,-10,-1,-100,19249.399576299358,0.001575973392549164,0.021439385804208125,0.9997689078203043,60.35380070430297,3.6697443182348195,274.01455764160613,-80.88552633283005,-144.3965301513672,4761.76025390625,True
1599385543.7576737,0.0,10,0.5,0.5,3.5395320030212405,-0.05075,-0.00825,-0.12575,0.20890413879281955,10,1,100,-0.19932055669634657,-10,-1,-100,19246.153217859915,0.0032913203171493063,0.02119030974694794,0.999770042551485,60.11861390127708,3.655663572301966,274.2321353120323,-81.25010208680006,-146.77398681640625,4761.76025390625,True
1599385543.7913427,0.0,10,0.5,0.5,3.7927832796096803,-0.05075,-0.00825,-0.12575,0.19240710077151432,10,1,100,-0.28979036322939034,-10,-1,-100,19241.256336607155,0.005659351030094991,0.020814689650456304,0.9997673331534059,59.72813580382784,3.6320024083747597,274.36792904984685,-81.79697367401825,-149.7857208251953,4761.76025390625,True
1599385543.8246038,0.0,10,0.5,0.5,3.726362223815918,-0.05075,-0.00825,-0.12575,0.20171472595660928,10,1,100,-0.2143787037416435,-10,-1,-100,19237.973519848194,0.007110564558881303,0.02055895883844562,0.9997633565415034,59.47161877851912,3.616343951447792,274.46306012858844,-82.16156029234477,-151.42410278320312,4761.76025390625,True
1599385543.8603234,0.0,10,0.5,0.5,3.541275417709351,-0.05075,-0.00825,-0.12575,0.22713033285218318,10,1,100,-0.07092982058645364,-10,-1,-100,19237.973519848194,0.007110564558881303,0.02055895883844562,0.9997633565415034,59.47161877851912,3.616343951447792,274.46306012858844,-82.16156029234477,-151.42410278320312,4761.76025390625,True
1599385543.8912268,0.0,10,0.5,0.5,3.794190454101563,-0.05075,-0.00825,-0.12575,0.20567686020297898,10,1,100,-0.2183089617359354,-10,-1,-100,19234.676119466196,0.008438198821078314,0.0203653323087997,0.9997569954947093,59.2372483970765,3.6019716374975443,274.6506483802674,-82.5261503023595,-152.7659454345703,4761.76025390625,True
1599385543.924918,0.0,10,0.5,0.5,3.8273547569274906,-0.05075,-0.00825,-0.12575,0.20244508003194206,10,1,100,-0.22247779110552376,-10,-1,-100,19231.36413547315,0.009669654456126124,0.020161509435213235,0.999749974403597,59.04022437021302,3.589831392876921,275.0028686054491,-82.89074178232492,-153.81248474121094,4761.76025390625,True
1599385543.95887,0.0,10,0.5,0.5,3.888739902496338,-0.05075,-0.00825,-0.12575,0.1916205746747225,10,1,100,-0.28203686129634514,-10,-1,-100,19226.368815279682,0.011318942344110693,0.019879424807146186,0.9997383107661464,58.83049216005492,3.576800376406769,275.91902861634406,-83.43762651145077,-154.82806396484375,4761.76025390625,True
1599385543.9943092,0.0,10,0.5,0.5,3.775606398391724,-0.05075,-0.00825,-0.12575,0.21962334539012973,10,1,100,-0.11855596730398658,-10,-1,-100,19226.368815279682,0.011318942344110693,0.019879424807146186,0.9997383107661464,58.83049216005492,3.576800376406769,275.91902861634406,-83.43762651145077,-154.82806396484375,4761.76025390625,True
1599385544.0251858,0.0,10,0.5,0.5,3.821211137008667,-0.05075,-0.00825,-0.12575,0.21257917969560616,10,1,100,-0.1738712076059279,-10,-1,-100,19224.69641684543,0.011810455996332455,0.019817075150308883,0.9997338629163491,58.78621794345509,3.5740107306932947,276.3422314492748,-83.61991945953604,-155.0184326171875,4761.76025390625,True
1599385544.058265,0.0,10,0.5,0.5,3.8111933868408205,-0.05075,-0.00825,-0.12575,0.19322322061812108,10,1,100,-0.3144494821985182,-10,-1,-100,19217.970364961657,0.013525133500453021,0.019586038442820888,0.9997166887983371,58.7555262052711,3.5717568985779904,278.72138433001203,-84.34907163020135,-155.0415802001953,4761.76025390625,True
1599385544.0922532,0.0,10,0.5,0.5,3.8170647445678716,-0.05075,-0.00825,-0.12575,0.21614155663078194,10,1,100,-0.14417664779725203,-10,-1,-100,19217.970364961657,0.013525133500453021,0.019586038442820888,0.9997166887983371,58.7555262052711,3.5717568985779904,278.72138433001203,-84.34907163020135,-155.0415802001953,4761.76025390625,True
1599385544.1181839,0.0,10,0.5,0.5,3.6898946033477786,-0.05075,-0.00825,-0.12575,0.20965639121359678,10,1,100,-0.2543122813545149,-10,-1,-100,19212.88754681521,0.014517063066261498,0.019528540822032047,0.9997039016495297,58.88344949415728,3.5792710260052476,281.226118082105,-84.89590440365258,-154.2824249267578,4761.76025390625,True
1599385544.1401234,0.0,10,0.5,0.5,3.7890681598663334,-0.05075,-0.00825,-0.12575,0.2152775384096384,10,1,100,-0.15600509597728382,-10,-1,-100,19212.88754681521,0.014517063066261498,0.019528540822032047,0.9997039016495297,58.88344949415728,3.5792710260052476,281.226118082105,-84.89590440365258,-154.2824249267578,4761.76025390625,True
1599385544.1650877,0.0,10,0.5,0.5,3.720760023498536,-0.05075,-0.00825,-0.12575,0.21203038454899437,10,1,100,-0.18801746462900615,-10,-1,-100,19211.18598319881,0.01480135141899772,0.019499957985132023,0.9997002909046037,58.95415024972824,3.5834916357883655,282.19736995322256,-85.0781740120807,-153.88204956054688,4761.76025390625,True
1599385544.1919892,0.0,10,0.5,0.5,3.5926114265441895,-0.05075,-0.00825,-0.12575,0.21428088737710527,10,1,100,-0.21268354357633865,-10,-1,-100,19207.771920296014,0.015277040832951746,0.01949539543261784,0.9996932237343183,59.13275678251926,3.594217356733594,284.32357731696635,-85.44269926260344,-152.8592529296875,4761.76025390625,True
1599385544.2251208,0.0,10,0.5,0.5,3.6115231372833256,-0.05075,-0.00825,-0.12575,0.21458778220060537,10,1,100,-0.18787916642524666,-10,-1,-100,19206.05942110927,0.015477774287889231,0.019494828462251475,0.9996901470787438,59.23917975339852,3.6006352778565174,285.4721755874681,-85.62495424310694,-152.2372589111328,4761.76025390625,True
1599385544.2610116,0.0,10,0.5,0.5,3.2809078907012945,-0.05075,-0.00825,-0.12575,0.22045918806984818,10,1,100,-0.21564853918301943,-10,-1,-100,19200.90005397494,0.015907427981237822,0.01954829552525059,0.9996823584904754,59.61227591337591,3.6232425309048417,289.19324403549376,-86.1716860075032,-149.9282989501953,4761.76025390625,True
1599385544.2923682,0.0,10,0.5,0.5,3.5672172996521,-0.05075,-0.00825,-0.12575,0.21507936884174716,10,1,100,-0.17314201841187307,-10,-1,-100,19200.90005397494,0.015907427981237822,0.01954829552525059,0.9996823584904754,59.61227591337591,3.6232425309048417,289.19324403549376,-86.1716860075032,-149.9282989501953,4761.76025390625,True
1599385544.325316,0.0,10,0.5,0.5,3.226414846420288,-0.05075,-0.00825,-0.12575,0.22149489854155047,10,1,100,-0.19001419250711302,-10,-1,-100,19197.442252567853,0.016056640031524433,0.019606919549141434,0.9996788249316336,59.8922283619805,3.640304802544442,291.83977787836903,-86.53614409717687,-148.0203094482422,4761.76025390625,True
1599385544.3592305,0.0,10,0.5,0.5,3.272665473175049,-0.05075,-0.00825,-0.12575,0.2201127903615751,10,1,100,-0.17857331780192395,-10,-1,-100,19195.70788512891,0.01608441923079673,0.019647840547043487,0.9996775749309603,60.03652745337373,3.64913576402635,293.18876593203396,-86.7183639607291,-146.9556884765625,4761.76025390625,True
1599385544.3952167,0.0,10,0.5,0.5,2.9850623043060307,-0.05075,-0.00825,-0.12575,0.22552802636195113,10,1,100,-0.17355241255984907,-10,-1,-100,19192.228217517026,0.01606170183181601,0.019734214688681296,0.9996762388417997,60.32439632375818,3.666845426865869,295.89267276534594,-87.0827850917374,-144.60549926757812,4761.76025390625,True
1599385544.4252279,0.0,10,0.5,0.5,2.552318267822266,-0.05075,-0.00825,-0.12575,0.2331314363797734,10,1,100,-0.14855348128667067,-10,-1,-100,19186.981386497035,0.015811480668139765,0.019881723839199634,0.9996773050021006,60.7187671579098,3.6914248007668213,299.78754536237096,-87.62937304871129,-140.52804565429688,4761.76025390625,True
1599385544.4591289,0.0,10,0.5,0.5,3.053710696792603,-0.05075,-0.00825,-0.12575,0.21841583962965638,10,1,100,-0.17370503941448293,-10,-1,-100,19186.981386497035,0.015811480668139765,0.019881723839199634,0.9996773050021006,60.7187671579098,3.6914248007668213,299.78754536237096,-87.62937304871129,-140.52804565429688,4761.76025390625,True
1599385544.4921017,0.0,10,0.5,0.5,2.4976684333801273,-0.05075,-0.00825,-0.12575,0.22914017692279937,10,1,100,-0.13998010082393478,-10,-1,-100,19183.465280431905,0.015503713574042165,0.01997889673912169,0.9996801881354365,60.92602925798214,3.7046690970678537,302.1228469274692,-87.99373963450265,-137.44195556640625,4761.76025390625,True
1599385544.5280185,0.0,10,0.5,0.5,1.9579070907592775,-0.05075,-0.00825,-0.12575,0.23232143567934693,10,1,100,-0.09759531757386465,-10,-1,-100,19178.16379483475,0.014837970584266396,0.020095720874334002,0.9996879496280233,61.09276623386935,3.716203755240571,304.9242498095891,-88.54026235238058,-132.26193237304688,4761.76025390625,True
1599385544.7387345,0.0,10,0.5,0.5,2.5923022178649906,-0.05075,-0.00825,-0.12575,0.2206990547022874,10,1,100,-0.164125709526573,-10,-1,-100,19178.16379483475,0.014837970584266396,0.020095720874334002,0.9996879496280233,61.09276623386935,3.716203755240571,304.9242498095891,-88.54026235238058,-132.26193237304688,4761.76025390625,True
1599385544.760642,0.0,10,0.5,0.5,1.5449878108978274,-0.05075,-0.00825,-0.12575,0.22680817805548947,10,1,100,-0.06542238925880045,-10,-1,-100,19172.829518170212,0.013941249312471758,0.020150712093533946,0.9996997501098672,61.00523616218074,3.7128362519829095,306.461289493984,-89.08677314608939,-126.4215087890625,4761.76025390625,True
1599385544.785576,0.0,10,0.5,0.5,1.8905511222839355,-0.05075,-0.00825,-0.12575,0.22102994676153626,10,1,100,-0.11697252419889076,-10,-1,-100,19171.044139244128,0.013596473181812695,0.020147627084163153,0.9997045608778096,60.90212345897972,3.707336773531015,306.60081106918835,-89.26894591426763,-124.32815551757812,4761.76025390625,True
1599385544.8194852,0.0,10,0.5,0.5,0.9466667179107667,-0.05075,-0.00825,-0.12575,0.21300436342255952,10,1,100,-0.021895170497206462,-10,-1,-100,19165.66614062607,0.012420801624652257,0.020071317834781815,0.9997213941330737,60.31595818096249,3.674282531689126,305.6059073232668,-89.81549083684355,-117.60858917236328,4761.76025390625,True
1599385544.8545735,0.0,10,0.5,0.5,0.9113376592636108,-0.05075,-0.00825,-0.12575,0.2067071004791749,10,1,100,-0.042323934579631545,-10,-1,-100,19162.06258876936,0.011541030644716517,0.019944275764690156,0.9997344799875013,59.65459414617785,3.635915158818322,303.5471083398142,-90.17989210029235,-112.76312255859375,4761.76025390625,True
1599385544.8765445,0.0,10,0.5,0.5,1.0459081674575805,-0.05075,-0.00825,-0.12575,0.20926417509461687,10,1,100,-0.0801244277075139,-10,-1,-100,19160.255346444203,0.01108901004465212,0.019851759620003896,0.99974143732078,59.23080549510794,3.611061038149021,302.033012870305,-90.3621089901942,-110.23316192626953,4761.76025390625,True
1599385544.899453,0.0,10,0.5,0.5,1.3356935386657716,-0.05075,-0.00825,-0.12575,0.21852754405637514,10,1,100,-0.12482921853523718,-10,-1,-100,19160.255346444203,0.01108901004465212,0.019851759620003896,0.99974143732078,59.23080549510794,3.611061038149021,302.033012870305,-90.3621089901942,-110.23316192626953,4761.76025390625,True
1599385544.925421,0.0,10,0.5,0.5,-0.10233526668548587,-0.05075,-0.00825,-0.12575,0.17694743857972983,10,1,100,0.036324260975652195,-10,-1,-100,19154.811751096044,0.009628271567847206,0.01947378590132457,0.9997640061781007,57.8070588537886,3.5270162877504267,296.65695216699817,-90.9088343464842,-102.227294921875,4761.76025390625,True
1599385544.9593647,0.0,10,0.5,0.5,0.37672132091522215,-0.05075,-0.00825,-0.12575,0.1965364138840174,10,1,100,-0.051281025299254164,-10,-1,-100,19152.989928717492,0.00910236029061488,0.01930862587614405,0.9997721360409656,57.201330932919,3.490874292972025,294.1709452403413,-91.09110514670678,-99.4166259765625,4761.76025390625,True
1599385544.992919,0.0,10,0.5,0.5,0.698792043876648,-0.05075,-0.00825,-0.12575,0.21298538931577182,10,1,100,-0.10323201769414404,-10,-1,-100,19152.989928717492,0.00910236029061488,0.01930862587614405,0.9997721360409656,57.201330932919,3.490874292972025,294.1709452403413,-91.09110514670678,-99.4166259765625,4761.76025390625,True
1599385545.0283327,0.0,10,0.5,0.5,0.16279746456146243,-0.05075,-0.00825,-0.12575,0.19235430678935558,10,1,100,-0.04388247505295475,-10,-1,-100,19151.16446078429,0.008568033185052842,0.0191217861213568,0.9997804489501028,56.61606381866099,3.455885060265404,291.777688584703,-91.27339078298124,-96.53335571289062,4761.76025390625,True
1599385545.0600212,0.0,10,0.5,0.5,-1.5929348901748657,-0.05075,-0.00825,-0.12575,0.10688092691458152,10,1,100,0.14237089352850335,-10,-1,-100,19143.826127616572,0.00639476877234611,0.01817578646791861,0.9998143566275794,56.449659235785774,3.4474982818388744,293.3827759024406,-92.00261623071243,-84.69863891601562,4761.76025390625,True
1599385545.0931532,0.0,10,0.5,0.5,-0.13914062061309818,-0.05075,-0.00825,-0.12575,0.2012833996958392,10,1,100,-0.07420089968815727,-10,-1,-100,19143.826127616572,0.00639476877234611,0.01817578646791861,0.9998143566275794,56.449659235785774,3.4474982818388744,293.3827759024406,-92.00261623071243,-84.69863891601562,4761.76025390625,True
1599385545.1268046,0.0,10,0.5,0.5,-1.2499942277908325,-0.05075,-0.00825,-0.12575,0.13563178469746115,10,1,100,0.04919074516907321,-10,-1,-100,19140.13508763467,0.005279573550379894,0.017580746186675395,0.9998315075384682,58.69028001748457,3.5845369614561227,306.30887822522186,-92.36711195654067,-78.590087890625,4761.76025390625,True
1599385545.1623237,0.0,10,0.5,0.5,-2.0890629322052003,-0.05075,-0.00825,-0.12575,0.08531780020997816,10,1,100,0.11798236682649976,-10,-1,-100,19134.571197813144,0.003646873359046976,0.016584664773520906,0.9998558142097553,61.548405469029355,3.7588759209813793,323.24001512960785,-92.91365499181451,-69.66641235351562,4761.76025390625,True
1599385545.1933007,0.0,10,0.5,0.5,-1.0024655193328857,-0.05075,-0.00825,-0.12575,0.18458998042631014,10,1,100,-0.044498236578225075,-10,-1,-100,19134.571197813144,0.003646873359046976,0.016584664773520906,0.9998558142097553,61.548405469029355,3.7588759209813793,323.24001512960785,-92.91365499181451,-69.66641235351562,4761.76025390625,True
1599385545.2272437,0.0,10,0.5,0.5,-2.0396260198593144,-0.05075,-0.00825,-0.12575,0.10312758746583109,10,1,100,0.07299641271652388,-10,-1,-100,19130.843724125298,0.002585505762445263,0.015847067651013354,0.9998710844938044,63.057944720811015,3.8508292100217676,332.5427747651461,-93.27789840170269,-63.979766845703125,4761.76025390625,True
1599385545.2601867,0.0,10,0.5,0.5,-1.845958334350586,-0.05075,-0.00825,-0.12575,0.13567847054107537,10,1,100,0.023890591930182385,-10,-1,-100,19128.974524256773,0.0020747731402124526,0.0154760825602987,0.9998780856609487,63.69299603380897,3.889530426656794,336.5859478357097,-93.45998966779422,-61.24169921875,4761.76025390625,True
1599385545.295332,0.0,10,0.5,0.5,-2.462887013244629,-0.05075,-0.00825,-0.12575,0.08256830383620713,10,1,100,0.08569003712320927,-10,-1,-100,19125.22520041431,0.0010555244349984122,0.014659637965369328,0.9998919846077833,64.73620315871788,3.953238148237138,343.5095604558437,-93.82412164727758,-55.987152099609375,4761.76025390625,True
1599385545.3262835,0.0,10,0.5,0.5,-2.282067182159424,-0.05075,-0.00825,-0.12575,0.11891794324697455,10,1,100,0.03826015313297271,-10,-1,-100,19123.34507691546,0.0005674307718565411,0.014252093226359397,0.9998982727562772,65.15240574610185,3.9787637197965173,346.42794821164466,-94.0061664046051,-53.470947265625,4761.76025390625,True
1599385545.3596346,0.0,10,0.5,0.5,-2.85234642868042,-0.05075,-0.00825,-0.12575,0.06583982450707737,10,1,100,0.0950043241110919,-10,-1,-100,19119.57390812738,-0.00038438781305646317,0.013403666504760199,0.9999100929434797,65.79591684236593,4.018540184893407,351.2836822240424,-94.3702233147082,-48.661956787109375,4761.76025390625,True
1599385545.3927116,0.0,10,0.5,0.5,-3.08342813949585,-0.05075,-0.00825,-0.12575,0.05618991839672563,10,1,100,0.10102585849507546,-10,-1,-100,19115.788178318064,-0.001296280092833491,0.01254984135650009,0.999920407402433,66.21730573389354,4.0451239366938605,354.9774794359978,-94.73424902961725,-44.150238037109375,4761.76025390625,True
1599385545.4186213,0.0,10,0.5,0.5,-3.645525406646729,-0.05075,-0.00825,-0.12575,-0.005894758606754924,10,1,100,0.15355303473471169,-10,-1,-100,19110.082282713614,-0.002595800995840955,0.011214345017242368,0.9999337479468449,66.51070817181893,4.064987478311179,358.7284039142955,-95.2802564468643,-37.940643310546875,4761.76025390625,True
1599385545.4415853,0.0,10,0.5,0.5,-2.9032442161560064,-0.05075,-0.00825,-0.12575,0.12695873117394973,10,1,100,0.02450000141078399,-10,-1,-100,19110.082282713614,-0.002595800995840955,0.011214345017242368,0.9999337479468449,66.51070817181893,4.064987478311179,358.7284039142955,-95.2802564468643,-37.940643310546875,4761.76025390625,True
1599385545.4665542,0.0,10,0.5,0.5,-3.275915536499024,-0.05075,-0.00825,-0.12575,0.07831616729194753,10,1,100,0.07105952702942997,-10,-1,-100,19108.173037479748,-0.003011909979150263,0.010777927528469105,0.9999373803776258,66.53560087424614,4.067313841927361,359.5897978469421,-95.46225579554374,-36.019195556640625,4761.76025390625,True
1599385545.4932377,0.0,10,0.5,0.5,-3.7010515960693358,-0.05075,-0.00825,-0.12575,0.026863766731994254,10,1,100,0.11930446751615932,-10,-1,-100,19104.34362701804,-0.003822727801730631,0.009918714112898429,0.9999435013352006,66.50054080377387,4.066976215550246,360.85529637343063,-95.82625581139759,-32.3988037109375,4761.76025390625,True
1599385545.5261743,0.0,10,0.5,0.5,-3.57629977645874,-0.05075,-0.00825,-0.12575,0.0616741828221145,10,1,100,0.08141337826513353,-10,-1,-100,19102.423461859813,-0.004208579918920933,0.0094601292910722,0.9999463954677081,66.44835797464278,4.06477001881024,361.29983929793724,-96.00825789760918,-30.700408935546875,4761.76025390625,True
1599385545.5622628,0.0,10,0.5,0.5,-4.211110707855225,-0.05075,-0.00825,-0.12575,-0.03590056704238358,10,1,100,0.1671625780438184,-10,-1,-100,19096.641125347,-0.005332716309189828,0.008161997125516502,0.9999524708403339,66.19651711392248,4.052547880144979,362.1086551557137,-96.55427944526001,-26.04925537109375,4761.76025390625,True
1599385545.5932436,0.0,10,0.5,0.5,-4.137114238739014,-0.05075,-0.00825,-0.12575,-0.000868676217231884,10,1,100,0.13402847837634135,-10,-1,-100,19092.768032992724,-0.006046705312957757,0.007306997878362503,0.9999550215569019,65.98273650337711,4.041701015713068,362.3894229203052,-96.91830882997345,-23.3192138671875,4761.76025390625,True
1599385545.6271868,0.0,10,0.5,0.5,-3.820762568664551,-0.05075,-0.00825,-0.12575,0.08389598448946735,10,1,100,0.06333980097434404,-10,-1,-100,19092.768032992724,-0.006046705312957757,0.007306997878362503,0.9999550215569019,65.98273650337711,4.041701015713068,362.3894229203052,-96.91830882997345,-23.3192138671875,4761.76025390625,True
1599385545.6602437,0.0,10,0.5,0.5,-4.2753232498168945,-0.05075,-0.00825,-0.12575,-0.0028442636360610923,10,1,100,0.14279917268268333,-10,-1,-100,19088.880379312788,-0.0067630503865928285,0.00652476389117406,0.9999558433279105,65.76010931450514,4.030338967982816,362.61419820245453,-97.2823509818559,-20.884735107421875,4761.76025390625,True
1599385545.6961806,0.0,10,0.5,0.5,-4.187321328735353,-0.05075,-0.00825,-0.12575,0.03152699330675798,10,1,100,0.10992100338011383,-10,-1,-100,19086.931091820356,-0.007109581948443592,0.006132361604677091,0.9999559230214439,65.65205405696429,4.0248550275299415,362.7417122160731,-97.46437662985146,-19.7786865234375,4761.76025390625,True
1599385545.7271583,0.0,10,0.5,0.5,-4.4195108894348145,-0.05075,-0.00825,-0.12575,-0.01676950843260916,10,1,100,0.14859133476145903,-10,-1,-100,19083.02159464569,-0.007770874288269597,0.005342407219096347,0.9999555351103874,65.45374601504463,4.014955935300312,363.0898847129972,-97.82843586552985,-17.7890625,4761.76025390625,True
1599385545.760238,0.0,10,0.5,0.5,-4.6149744750976565,-0.05075,-0.00825,-0.12575,-0.054233626518758155,10,1,100,0.19374128509352873,-10,-1,-100,19077.130044166115,-0.008777798624500755,0.004289022102147177,0.9999522761315738,65.23096111603813,4.004597789418363,364.01607344228216,-98.37453932425522,-15.3582763671875,4761.76025390625,True
1599385545.7932649,0.0,10,0.5,0.5,-4.327933571624756,-0.05075,-0.00825,-0.12575,0.05041235288464936,10,1,100,0.09366705123327894,-10,-1,-100,19077.130044166115,-0.008777798624500755,0.004289022102147177,0.9999522761315738,65.23096111603813,4.004597789418363,364.01607344228216,-98.37453932425522,-15.3582763671875,4761.76025390625,True
1599385545.8292785,0.0,10,0.5,0.5,-4.565776193237305,-0.05075,-0.00825,-0.12575,-0.021694011118104616,10,1,100,0.1675162348214903,-10,-1,-100,19073.184140030877,-0.009443913121988721,0.0036394087070551607,0.9999487822929769,65.15193959422562,4.0018886221480265,365.0169459400078,-98.7386130020098,-14.1072998046875,4761.76025390625,True
1599385545.8603623,0.0,10,0.5,0.5,-4.514434921264649,-0.05075,-0.00825,-0.12575,0.01006506272337333,10,1,100,0.13857642808022322,-10,-1,-100,19071.205726907006,-0.009781272435402392,0.0033432783877175303,0.9999465731723702,65.13752845054073,4.002055677604106,365.6575979276757,-98.92064967580335,-13.5924072265625,4761.76025390625,True
1599385545.8933532,0.0,10,0.5,0.5,-4.606388805389405,-0.05075,-0.00825,-0.12575,-0.0249873699164909,10,1,100,0.1778257128735647,-10,-1,-100,19067.237978680292,-0.010439708316157486,0.0027609713015057866,0.9999416930640235,65.17384392216721,4.006359615168098,367.3062346693222,-99.28471979710544,-12.7845458984375,4761.76025390625,True
1599385545.9283786,0.0,10,0.5,0.5,-4.606298987579345,-0.05075,-0.00825,-0.12575,-0.022855995231679294,10,1,100,0.18671689718917284,-10,-1,-100,19063.25566767715,-0.011114472617888584,0.0022558873801061348,0.9999356876672392,65.29087234018876,4.015595737644275,369.414662619233,-99.64878131358081,-12.271484375,4761.76025390625,True
1599385545.962463,0.0,10,0.5,0.5,-4.589052799224854,-0.05075,-0.00825,-0.12575,-0.046493508990392445,10,1,100,0.2305299207256628,-10,-1,-100,19057.25489773741,-0.012121587863153191,0.0015864256087529285,0.999925272388624,65.60844492953824,4.038173498228745,373.3979949903383,-100.19484752012515,-12.0552978515625,4761.76025390625,True
1599385545.9942706,0.0,10,0.5,0.5,-4.531581156158447,-0.05075,-0.00825,-0.12575,-0.019742556873693168,10,1,100,0.2052842282212015,-10,-1,-100,19053.236183119472,-0.012802118261034825,0.0012262149924651068,0.999917297662573,65.91542703957631,4.0591126709679815,376.611232740072,-100.55886744192385,-12.279541015625,4761.76025390625,True
1599385546.027243,0.0,10,0.5,0.5,-4.527612509155274,-0.05075,-0.00825,-0.12575,-0.0003438182054610328,10,1,100,0.1757665884824271,-10,-1,-100,19051.221365591977,-0.013146950017961597,0.0010799198281862055,0.999912991953995,66.10478663119962,4.071806905624969,378.428755363495,-100.74086824271488,-12.50201416015625,4761.76025390625,True
1599385546.060688,0.0,10,0.5,0.5,-4.561591761779785,-0.05075,-0.00825,-0.12575,0.01378045404478001,10,1,100,0.14188714959670176,-10,-1,-100,19051.221365591977,-0.013146950017961597,0.0010799198281862055,0.999912991953995,66.10478663119962,4.071806905624969,378.428755363495,-100.74086824271488,-12.50201416015625,4761.76025390625,True
1599385546.0971305,0.0,10,0.5,0.5,-4.27888791809082,-0.05075,-0.00825,-0.12575,-0.03497376585454055,10,1,100,0.2939115273134365,-10,-1,-100,19043.12569853454,-0.014524102473814011,0.0006405746358204824,0.9998943144710174,67.07987184538696,4.13616689184812,386.99932646769133,-101.46879431751454,-14.128448486328125,4761.76025390625,True
1599385546.1275194,0.0,10,0.5,0.5,-4.380168402862549,-0.05075,-0.00825,-0.12575,0.00044489268363560354,10,1,100,0.19464451311208625,-10,-1,-100,19041.09268336231,-0.014868407937440918,0.0005664744908044507,0.9998892986486337,67.37346079440212,4.155383017390491,389.44410332617,-101.65075334978947,-14.719146728515625,4761.76025390625,True
1599385546.1608253,0.0,10,0.5,0.5,-4.454975988769531,-0.05075,-0.00825,-0.12575,0.007482652424104506,10,1,100,0.1608230276806895,-10,-1,-100,19041.09268336231,-0.014868407937440918,0.0005664744908044507,0.9998892986486337,67.37346079440212,4.155383017390491,389.44410332617,-101.65075334978947,-14.719146728515625,4761.76025390625,True
1599385546.1941698,0.0,10,0.5,0.5,-3.9077725914001467,-0.05075,-0.00825,-0.12575,-0.001093624226787715,10,1,100,0.31204705576099045,-10,-1,-100,19032.924235142884,-0.01623824047015688,0.0004913019159929311,0.9998680303764396,68.71445329686395,4.242788042954626,400.2611635499614,-102.37848133784615,-17.81658935546875,4761.76025390625,True
1599385546.2304013,0.0,10,0.5,0.5,-4.124648809051514,-0.05075,-0.00825,-0.12575,0.007703263958448189,10,1,100,0.2129889377976859,-10,-1,-100,19030.873027365655,-0.0165771444565643,0.0005055276282770803,0.9998624619033776,69.08376537857716,4.266806528467559,403.18327748625813,-102.56038356670419,-18.77490234375,4761.76025390625,True
1599385546.2615435,0.0,10,0.5,0.5,-4.240214623260498,-0.05075,-0.00825,-0.12575,0.0060551483627104,10,1,100,0.17971228277098467,-10,-1,-100,19030.873027365655,-0.0165771444565643,0.0005055276282770803,0.9998624619033776,69.08376537857716,4.266806528467559,403.18327748625813,-102.56038356670419,-18.77490234375,4761.76025390625,True
1599385546.2943013,0.0,10,0.5,0.5,-3.8577615348815923,-0.05075,-0.00825,-0.12575,0.018928918674174813,10,1,100,0.25287707294294604,-10,-1,-100,19026.75969862414,-0.01723731284736515,0.0006241531399738741,0.9998512316733227,69.85219768525559,4.316750516677291,409.22712618128384,-102.92414899621362,-20.911376953125,4761.76025390625,True
1599385546.3284376,0.0,10,0.5,0.5,-3.456186226654053,-0.05075,-0.00825,-0.12575,0.03792989181062449,10,1,100,0.2938380863960747,-10,-1,-100,19020.56242702133,-0.018205188120408722,0.000905605426819392,0.9998338617011884,71.04164846078052,4.394044811893355,418.57437866576197,-103.46969523849667,-24.6673583984375,4761.76025390625,True
1599385546.3635476,0.0,10,0.5,0.5,-3.4115921470642094,-0.05075,-0.00825,-0.12575,0.04179435694037426,10,1,100,0.2647465449480234,-10,-1,-100,19016.412729977863,-0.018815694291957525,0.0011968941065545386,0.9998222527493622,71.83045871232169,4.445314411396996,424.8255280848337,-103.83332269985635,-27.538116455078125,4761.76025390625,True
1599385546.3945308,0.0,10,0.5,0.5,-3.760185188293457,-0.05075,-0.00825,-0.12575,0.012677186394696434,10,1,100,0.2042628022205427,-10,-1,-100,19016.412729977863,-0.018815694291957525,0.0011968941065545386,0.9998222527493622,71.83045871232169,4.445314411396996,424.8255280848337,-103.83332269985635,-27.538116455078125,4761.76025390625,True
1599385546.4284995,0.0,10,0.5,0.5,-2.8906932151794438,-0.05075,-0.00825,-0.12575,0.0780832122914073,10,1,100,0.2955553671882095,-10,-1,-100,19010.160916420748,-0.019640473296869045,0.0017913880017261206,0.9998055024542034,72.94148538805922,4.517567225279969,433.838649101194,-104.37866059332508,-32.394134521484375,4761.76025390625,True
1599385546.4608412,0.0,10,0.5,0.5,-2.8501508338928225,-0.05075,-0.00825,-0.12575,0.07140653068981916,10,1,100,0.26939710191744837,-10,-1,-100,19005.9748647362,-0.020147818734488003,0.0022700936978986615,0.9997944349089192,73.58916007072148,4.559723509496786,439.33329006762744,-104.74215543907546,-35.998199462890625,4761.76025390625,True
1599385546.5017686,0.0,10,0.5,0.5,-2.597985721588135,-0.05075,-0.00825,-0.12575,0.08556116321322184,10,1,100,0.2643850195129488,-10,-1,-100,19001.774274825584,-0.020558678009739744,0.0028324104271709102,0.999784635913987,74.1258757333033,4.59468936470923,444.19198715062987,-105.10560614011288,-39.89520263671875,4761.76025390625,True
1599385546.5275517,0.0,10,0.5,0.5,-3.067263624572754,-0.05075,-0.00825,-0.12575,0.029556083879633616,10,1,100,0.22386811899500456,-10,-1,-100,19001.774274825584,-0.020558678009739744,0.0028324104271709102,0.999784635913987,74.1258757333033,4.59468936470923,444.19198715062987,-105.10560614011288,-39.89520263671875,4761.76025390625,True
1599385546.561168,0.0,10,0.5,0.5,-1.920295503234863,-0.05075,-0.00825,-0.12575,0.13373541194352034,10,1,100,0.2800402627518437,-10,-1,-100,18995.44613328774,-0.021065406191584115,0.0037773669472869914,0.9997709638516858,74.63818201018347,4.628201577696793,449.7616895640634,-105.65072122386898,-46.2904052734375,4761.76025390625,True
1599385546.594375,0.0,10,0.5,0.5,-2.7017919448852536,-0.05075,-0.00825,-0.12575,0.039566943863813216,10,1,100,0.22981627074090855,-10,-1,-100,18995.44613328774,-0.021065406191584115,0.0037773669472869914,0.9997709638516858,74.63818201018347,4.628201577696793,449.7616895640634,-105.65072122386898,-46.2904052734375,4761.76025390625,True
1599385546.6303651,0.0,10,0.5,0.5,-1.4339500839233397,-0.05075,-0.00825,-0.12575,0.15578875193998112,10,1,100,0.2657013094536645,-10,-1,-100,18989.085286165588,-0.021387553578304606,0.0048309544395076,0.9997595883166805,74.68248742253448,4.631574356042858,452.5327550929876,-106.19580342974787,-53.34503173828125,4761.76025390625,True
1599385546.6613636,0.0,10,0.5,0.5,-2.2943115966796874,-0.05075,-0.00825,-0.12575,0.05085068284787366,10,1,100,0.23390159485470938,-10,-1,-100,18989.085286165588,-0.021387553578304606,0.0048309544395076,0.9997595883166805,74.68248742253448,4.631574356042858,452.5327550929876,-106.19580342974787,-53.34503173828125,4761.76025390625,True
1599385546.6943495,0.0,10,0.5,0.5,-0.9091334121704101,-0.05075,-0.00825,-0.12575,0.1753241530351596,10,1,100,0.24969105139485867,-10,-1,-100,18982.6917335107,-0.021528201032798785,0.0059589629421077555,0.9997504825309892,74.12056119027797,4.596264640421627,451.6184794834087,-106.74091128722168,-61.05902099609375,4761.76025390625,True
1599385546.727365,0.0,10,0.5,0.5,-1.8515128150939941,-0.05075,-0.00825,-0.12575,0.06299950965869935,10,1,100,0.23589755661952488,-10,-1,-100,18982.6917335107,-0.021528201032798785,0.0059589629421077555,0.9997504825309892,74.12056119027797,4.596264640421627,451.6184794834087,-106.74091128722168,-61.05902099609375,4761.76025390625,True
1599385546.7552602,0.0,10,0.5,0.5,-0.8515190948486329,-0.05075,-0.00825,-0.12575,0.14819850454440509,10,1,100,0.2339559081931441,-10,-1,-100,18978.41119350586,-0.021508083768249104,0.006729170105763668,0.9997460280502773,73.3383527296665,4.547022072636151,448.4997487376224,-107.1043650666658,-66.56802368164062,4761.76025390625,True
1599385546.778198,0.0,10,0.5,0.5,-0.49433473815917983,-0.05075,-0.00825,-0.12575,0.15271034728552912,10,1,100,0.22220997025600225,-10,-1,-100,18974.116113282158,-0.02138131626425594,0.007465886295730137,0.9997435170365584,72.18314012476259,4.47454838336031,443.0605993833607,-107.46788353693455,-72.35696411132812,4761.76025390625,True
1599385546.801139,0.0,10,0.5,0.5,-0.662975765991211,-0.05075,-0.00825,-0.12575,0.12218315643554016,10,1,100,0.22550485414035354,-10,-1,-100,18971.96311958728,-0.02129490520727465,0.007853384921974453,0.9997423924979278,71.45535287722969,4.429047353291704,439.3996758215426,-107.6496738361875,-75.35595703125,4761.76025390625,True
1599385546.8281057,0.0,10,0.5,0.5,-0.46873993835449224,-0.05075,-0.00825,-0.12575,0.12571728968333865,10,1,100,0.22191513014326164,-10,-1,-100,18969.806489790324,-0.021183046548956704,0.008233220362181269,0.9997417129545875,70.62225799139357,4.377099936634069,435.0746642554582,-107.83148836348242,-78.4273681640625,4761.76025390625,True
1599385546.8613462,0.0,10,0.5,0.5,-0.2693076065063477,-0.05075,-0.00825,-0.12575,0.12686277767417506,10,1,100,0.21781411779750415,-10,-1,-100,18967.646222992917,-0.02104350732139785,0.008584029007799605,0.9997417092657521,69.68031390000327,4.318526128149915,430.0600483671758,-108.01332947342664,-81.56546020507812,4761.76025390625,True
1599385546.8973312,0.0,10,0.5,0.5,0.49841395034790037,-0.05075,-0.00825,-0.12575,0.1677819053928653,10,1,100,0.19522313036692177,-10,-1,-100,18963.314776980667,-0.020711300773221038,0.009270568335749355,0.9997425161425383,67.47055017251354,4.181687341871864,417.95077467585327,-108.37709960632476,-87.98605346679688,4761.76025390625,True
1599385546.928244,0.0,10,0.5,0.5,0.3033182884216309,-0.05075,-0.00825,-0.12575,0.13607088757437102,10,1,100,0.20690947350297334,-10,-1,-100,18961.143596196198,-0.020515856217404736,0.00960141919790967,0.9997434232807201,66.20802867498209,4.103810002066129,410.881196756148,-108.55903193997457,-91.26024627685547,4761.76025390625,True
1599385546.9612415,0.0,10,0.5,0.5,1.0961427568435669,-0.05075,-0.00825,-0.12575,0.1713958772323585,10,1,100,0.1774287766986863,-10,-1,-100,18956.790319502354,-0.02007096546604267,0.010218992192438566,0.9997463320982136,67.28586925933236,4.172114058973541,419.0977318274417,-108.92286236626953,-97.9076919555664,4761.76025390625,True
1599385546.994257,0.0,10,0.5,0.5,2.617350535964966,-0.05075,-0.00825,-0.12575,0.2224899558306093,10,1,100,0.10582834320436033,-10,-1,-100,18948.04012465058,-0.019016803194958066,0.01124001559494627,0.9997559818504062,71.50839020837422,4.439307892650556,448.64162625086396,-109.6501008965578,-111.05420684814453,4761.76025390625,True
1599385547.0321548,0.0,10,0.5,0.5,1.5695525236129761,-0.05075,-0.00825,-0.12575,0.1433254737974477,10,1,100,0.17962737807538587,-10,-1,-100,18945.84348781826,-0.01873165726356124,0.011443740621785587,0.9997590538808547,72.3904857462009,4.495626160431523,454.9951861258796,-109.83182726999311,-114.25041198730469,4761.76025390625,True
1599385547.0610783,0.0,10,0.5,0.5,2.303943021965027,-0.05075,-0.00825,-0.12575,0.1614481452099375,10,1,100,0.14461886157793546,-10,-1,-100,18941.43931343255,-0.018156716761195704,0.011788710588407894,0.9997656525101853,74.02087068108123,4.5999785885746824,466.9160694571778,-110.1951893551831,-120.4398193359375,4761.76025390625,True
1599385547.094741,0.0,10,0.5,0.5,1.570069279289246,-0.05075,-0.00825,-0.12575,0.12745710259597123,10,1,100,0.2017777751137839,-10,-1,-100,18941.43931343255,-0.018156716761195704,0.011788710588407894,0.9997656525101853,74.02087068108123,4.5999785885746824,466.9160694571778,-110.1951893551831,-120.4398193359375,4761.76025390625,True
1599385547.1281803,0.0,10,0.5,0.5,2.6509330465316774,-0.05075,-0.00825,-0.12575,0.15752100926616885,10,1,100,0.13303903550749446,-10,-1,-100,18937.02060761419,-0.017534750582504945,0.012058088990598166,0.9997735418643084,75.20375107961435,4.676278941079891,476.0754250809491,-110.55845389105691,-126.33894348144531,4761.76025390625,True
1599385547.1648152,0.0,10,0.5,0.5,2.940245440864563,-0.05075,-0.00825,-0.12575,0.1507810982554064,10,1,100,0.1289221186008228,-10,-1,-100,18932.587373361224,-0.01693531858874794,0.012237884070610914,0.9997816907594237,75.97651053080274,4.72658627895647,482.68135347578556,-110.92164923953229,-131.94271850585938,4761.76025390625,True
1599385547.1959763,0.0,10,0.5,0.5,2.7546652238845826,-0.05075,-0.00825,-0.12575,0.1391665735935521,10,1,100,0.1538737391197983,-10,-1,-100,18930.365308655775,-0.016621074897286994,0.012292106952143438,0.999786299153942,76.22392101547825,4.74286577708902,485.11282866029967,-111.10322949262283,-134.6336212158203,4761.76025390625,True
1599385547.2289996,0.0,10,0.5,0.5,3.8064408147811895,-0.05075,-0.00825,-0.12575,0.14023363697628535,10,1,100,0.08850865334028844,-10,-1,-100,18923.67732643592,-0.01574519115471251,0.01234773007706663,0.9997997912169443,76.481855031351,4.760599128864655,489.3434483805273,-111.64793674670216,-142.26181030273438,4761.76025390625,True
1599385547.2620645,0.0,10,0.5,0.5,3.3146298475265503,-0.05075,-0.00825,-0.12575,0.1326104595718287,10,1,100,0.1443712050086162,-10,-1,-100,18921.440736056073,-0.015461289230828236,0.012326197521736911,0.9998044875824351,76.42772602030959,4.757486463346435,489.8604085516751,-111.82950351794511,-144.65646362304688,4761.76025390625,True
1599385547.29816,0.0,10,0.5,0.5,4.24710309829712,-0.05075,-0.00825,-0.12575,0.1169382186795371,10,1,100,0.08397978551871757,-10,-1,-100,18914.709176694974,-0.01465877872919489,0.012161670483031036,0.9998185905339182,75.9298006521793,4.726539727646202,489.24604799824533,-112.37422702163711,-151.3961181640625,4761.76025390625,True
1599385547.3286278,0.0,10,0.5,0.5,3.443719491386414,-0.05075,-0.00825,-0.12575,0.13358519037918384,10,1,100,0.1636896170083675,-10,-1,-100,18914.709176694974,-0.01465877872919489,0.012161670483031036,0.9998185905339182,75.9298006521793,4.726539727646202,489.24604799824533,-112.37422702163711,-151.3961181640625,4761.76025390625,True
1599385547.3616793,0.0,10,0.5,0.5,3.8474129528045657,-0.05075,-0.00825,-0.12575,0.1229195679361213,10,1,100,0.13518599098114917,-10,-1,-100,18912.458060424426,-0.014403616696643598,0.012063872410923118,0.9998234838252746,75.67187860110693,4.710319353817355,488.44184480771565,-112.55581472999948,-153.49476623535156,4761.76025390625,True
1599385547.3956237,0.0,10,0.5,0.5,4.31748659324646,-0.05075,-0.00825,-0.12575,0.1076824596081307,10,1,100,0.1082068133740668,-10,-1,-100,18907.944931651582,-0.013930320543866146,0.011835882149853153,0.9998329150729535,75.0499879422861,4.671118637116871,486.1315882716172,-112.91901710686508,-157.4698486328125,4761.76025390625,True
1599385547.4316463,0.0,10,0.5,0.5,4.497607667922973,-0.05075,-0.00825,-0.12575,0.0957267288665353,10,1,100,0.10739706185169068,-10,-1,-100,18903.417273449944,-0.013496532114971706,0.011519886931628276,0.9998425555185936,74.32097814654705,4.625157348680476,483.1002946942998,-113.2822606094565,-161.14938354492188,4761.76025390625,True
1599385547.4619691,0.0,10,0.5,0.5,4.373612255477905,-0.05075,-0.00825,-0.12575,0.10823453986262223,10,1,100,0.12829383666745753,-10,-1,-100,18901.14799547696,-0.013296386209434845,0.011346570309258069,0.999847219056985,73.9277112488122,4.600391360515292,481.3862074018791,-113.46389906553543,-162.87811279296875,4761.76025390625,True
1599385547.49488,0.0,10,0.5,0.5,4.757465474700928,-0.05075,-0.00825,-0.12575,0.08237907156875207,10,1,100,0.10748340194527067,-10,-1,-100,18896.598540070234,-0.01292910267453879,0.01095460686686937,0.9998564071367566,73.10554207053136,4.548716020216193,477.7007088845678,-113.82721038454837,-166.11378479003906,4761.76025390625,True
1599385547.5286095,0.0,10,0.5,0.5,4.897683974838257,-0.05075,-0.00825,-0.12575,0.07212534907508195,10,1,100,0.10787231465058686,-10,-1,-100,18892.03455089673,-0.012602386136421806,0.010506227421304226,0.9998653904646567,72.26259545662224,4.4959124597157345,473.84440916544725,-114.19056748889506,-169.05380249023438,4761.76025390625,True
1599385547.5655084,0.0,10,0.5,0.5,4.7962869270324715,-0.05075,-0.00825,-0.12575,0.08926188990666761,10,1,100,0.12440581656054858,-10,-1,-100,18889.747105473187,-0.012459329018006804,0.010256020005196546,0.9998697811085572,71.84233821197496,4.469666091648886,471.910801334537,-114.37226275613119,-170.4130859375,4761.76025390625,True
1599385547.5954618,0.0,10,0.5,0.5,5.089260882568359,-0.05075,-0.00825,-0.12575,0.055739659904518464,10,1,100,0.11024495324156583,-10,-1,-100,18885.161312155542,-0.012203529118490328,0.009725712726962635,0.999878234781119,71.01995722124317,4.41848284074388,468.13604634760156,-114.73568474149572,-172.90985107421875,4761.76025390625,True
1599385547.629626,0.0,10,0.5,0.5,5.187138172149659,-0.05075,-0.00825,-0.12575,0.04516233231994975,10,1,100,0.11160969419487211,-10,-1,-100,18880.560980951646,-0.011986352091334805,0.009149821754885523,0.9998862975985802,70.2405141445257,4.370224653989117,464.60971845575943,-115.09914570692462,-175.11119079589844,4761.76025390625,True
1599385547.6630309,0.0,10,0.5,0.5,5.1046206066131585,-0.05075,-0.00825,-0.12575,0.06839218094772187,10,1,100,0.12347388757322042,-10,-1,-100,18878.255363072618,-0.01189920421248555,0.008840202993911663,0.9998901238386825,69.87306146181271,4.347576301876157,462.98138979936965,-115.28088935698287,-176.1011962890625,4761.76025390625,True
1599385547.6990352,0.0,10,0.5,0.5,5.3108868976593016,-0.05075,-0.00825,-0.12575,0.02770427082392654,10,1,100,0.11546208376354679,-10,-1,-100,18873.633222187287,-0.011749652992095294,0.008191860816891033,0.9998974142735454,69.19362900027825,4.305914055650754,460.06948187455737,-115.64439990598349,-177.85971069335938,4761.76025390625,True
1599385547.7299545,0.0,10,0.5,0.5,5.4777803733825685,-0.05075,-0.00825,-0.12575,-0.024001920229206872,10,1,100,0.11322041829661293,-10,-1,-100,18866.67274561338,-0.011595731254499798,0.007135922566020185,0.9999073045166763,68.39446481821236,4.25752364673021,457.1160085132466,-116.1897116454276,-179.94427490234375,4761.76025390625,True
1599385547.7618625,0.0,10,0.5,0.5,-58.12558481826782,-0.05075,-0.00825,-0.12575,-0.0024419588259658037,10,1,100,0.12207245802499633,-10,-1,-100,18862.014251337852,-0.011538397844479529,0.006376251041243272,0.99991310062317,69.03519936213941,4.298554709175242,462.9881808250739,-116.55322743875395,179.03460693359375,4761.76025390625,True
1599385547.7956333,0.0,10,0.5,0.5,-13.264642219543457,-0.05075,-0.00825,-0.12575,0.07301083006268698,10,1,100,0.12760998559997405,-10,-1,-100,18862.014251337852,-0.011538397844479529,0.006376251041243272,0.99991310062317,69.03519936213941,4.298554709175242,462.9881808250739,-116.55322743875395,179.03460693359375,4761.76025390625,True
1599385547.8321664,0.0,10,0.5,0.5,-13.358267897033693,-0.05075,-0.00825,-0.12575,-0.06176376408347801,10,1,100,0.12078814464159372,-10,-1,-100,18854.99924919859,-0.011477979279735121,0.005155545930158149,0.9999208350353622,69.81779007980583,4.349264060030415,470.6507292203212,-117.09842502335903,177.96688842773438,4761.76025390625,True
1599385547.863055,0.0,10,0.5,0.5,-13.776400054550173,-0.05075,-0.00825,-0.12575,0.05972684093136314,10,1,100,0.12668488877655407,-10,-1,-100,18854.99924919859,-0.011477979279735121,0.005155545930158149,0.9999208350353622,69.81779007980583,4.349264060030415,470.6507292203212,-117.09842502335903,177.96688842773438,4761.76025390625,True
1599385547.894861,0.0,10,0.5,0.5,-13.714343239974976,-0.05075,-0.00825,-0.12575,-0.13729682182665517,10,1,100,0.12634617690303981,-10,-1,-100,18845.59503377881,-0.011475922268936525,0.0033692859791681156,0.9999284730019784,70.90128018398293,4.419801993976013,481.22761941922073,-117.82522016687423,175.9932403564453,4761.76025390625,True
1599385547.9288034,0.0,10,0.5,0.5,-14.248314704132081,-0.05075,-0.00825,-0.12575,0.040640499869745356,10,1,100,0.12645353730799241,-10,-1,-100,18845.59503377881,-0.011475922268936525,0.0033692859791681156,0.9999284730019784,70.90128018398293,4.419801993976013,481.22761941922073,-117.82522016687423,175.9932403564453,4761.76025390625,True
1599385547.965778,0.0,10,0.5,0.5,-14.417479555892944,-0.05075,-0.00825,-0.12575,-0.012158026415113314,10,1,100,0.12990690116412734,-10,-1,-100,18843.234895680565,-0.0115079779465828,0.0028950779463492136,0.9999295900048489,71.22350873553216,4.440736109465665,484.23733563638245,-118.00689108319447,175.32083129882812,4761.76025390625,True
1599385547.99585,0.0,10,0.5,0.5,-14.514729959869385,-0.05075,-0.00825,-0.12575,-0.07385353817114765,10,1,100,0.12955286401160382,-10,-1,-100,18838.503720546374,-0.011534335837733521,0.001908797576739478,0.9999316554588086,71.92734326135735,4.486452394513656,490.6848893408014,-118.37019447177913,173.7547607421875,4761.76025390625,True
1599385548.0298185,0.0,10,0.5,0.5,-14.67174853744507,-0.05075,-0.00825,-0.12575,-0.08892072391382538,10,1,100,0.13694966112035006,-10,-1,-100,18833.758015117957,-0.011625872865563462,0.0008815059207218958,0.9999320287036642,72.69641872762169,4.536450639899703,497.6123580331901,-118.73344233034544,171.893310546875,4761.76025390625,True
1599385548.0637798,0.0,10,0.5,0.5,-15.010535929870606,-0.05075,-0.00825,-0.12575,-0.0455996424704823,10,1,100,0.13207912601076316,-10,-1,-100,18831.37971410982,-0.011664923280891283,0.0003480782055510027,0.9999319018845302,73.10114958091353,4.562793073306683,501.22810964940123,-118.91504400288181,170.85174560546875,4761.76025390625,True
1599385548.0987825,0.0,10,0.5,0.5,-15.024150173950195,-0.05075,-0.00825,-0.12575,-0.11429761650309286,10,1,100,0.1378602160935595,-10,-1,-100,18826.61221749254,-0.011752916121008913,-0.0007552123500276606,0.9999306469035534,73.94692473569003,4.61791025752592,508.73778076672403,-119.27819993238367,168.54710388183594,4761.76025390625,True
1599385548.1307905,0.0,10,0.5,0.5,-14.597434923171999,-0.05075,-0.00825,-0.12575,-0.19735912906815034,10,1,100,0.14709922399835035,-10,-1,-100,18819.43374032469,-0.011916705576362558,-0.0025068252753349036,0.9999258512286026,75.45832173015577,4.7161198643235185,521.753989986712,-119.82279751441716,164.5364990234375,4761.76025390625,True
1599385548.1638024,0.0,10,0.5,0.5,-14.55279358329773,-0.05075,-0.00825,-0.12575,-0.15881094249675418,10,1,100,0.14394409966243962,-10,-1,-100,18814.62993903819,-0.012036578216601335,-0.0037406870783137243,0.9999205608672211,76.57351527170343,4.78849387000831,531.2355757574186,-120.18576082808259,161.49392700195312,4761.76025390625,True
1599385548.1968029,0.0,10,0.5,0.5,-14.332685285568239,-0.05075,-0.00825,-0.12575,-0.1805655549966965,10,1,100,0.14163703466660912,-10,-1,-100,18809.811622044537,-0.012124072208731886,-0.005052061346468063,0.9999137380540529,77.6578039415827,4.858969886494534,540.5526916109774,-120.54863993020197,158.1561279296875,4761.76025390625,True
1599385548.231673,0.0,10,0.5,0.5,-14.736069641494753,-0.05075,-0.00825,-0.12575,-0.05044888890892528,10,1,100,0.13295224474645373,-10,-1,-100,18809.811622044537,-0.012124072208731886,-0.005052061346468063,0.9999137380540529,77.6578039415827,4.858969886494534,540.5526916109774,-120.54863993020197,158.1561279296875,4761.76025390625,True
