Timestamp,Input Throttle,horizon,dT,dt,Input Roll,Roll P,Roll I,Roll D,Input Pitch,Pitch P,Pitch I,Pitch D,Input Yaw,Yaw P,Yaw I,Yaw D,Altitude,Direction X,Direction Y,Direction Z,Drag X,Drag Y,Drag Z,Vertical Velocity,Roll,Mass,Has Fuel
1599385061.212982,0.0,10,0.5,0.5,-0.0558051986694336,-0.001,-0.02275,-0.12575,-0.0002020335711264427,10,1,100,0.4981408880712539,-10,-1,-100,19349.722301846254,-0.048846080100031025,-0.00017654897728743688,0.9988063021874262,61.07653221086088,3.6862976796915943,233.73153117755493,-68.66499479109336,-33.922332763671875,4761.76025390625,True
1599385061.242892,0.0,10,0.5,0.5,-0.18335651626586913,-0.001,-0.02275,-0.12575,0.00010054112957152929,10,1,100,0.5047623449871442,-10,-1,-100,19346.96475448634,-0.048949870427093124,-0.00015942456092221286,0.998801223852364,61.256312202454616,3.698498341399581,235.71277588173703,-69.02990472576249,-33.9246826171875,4761.76025390625,True
1599385061.2768424,0.0,10,0.5,0.5,-0.31106863327026363,-0.001,-0.02275,-0.12575,-0.0006285561546457086,10,1,100,0.5053024039433991,-10,-1,-100,19345.580507085775,-0.049004635014545446,-0.00015034013539132754,0.9987985398191842,61.346654757158696,3.7046316057746753,236.70825652476495,-69.2123546013004,-33.9259033203125,4761.76025390625,True
1599385061.297787,0.0,10,0.5,0.5,-0.43879070663452147,-0.001,-0.02275,-0.12575,-0.0015520327212733733,10,1,100,0.5047264086996214,-10,-1,-100,19345.580507085775,-0.049004635014545446,-0.00015034013539132754,0.9987985398191842,61.346654757158696,3.7046316057746753,236.70825652476495,-69.2123546013004,-33.9259033203125,4761.76025390625,True
1599385061.317733,0.0,10,0.5,0.5,-0.560874306488037,-0.001,-0.02275,-0.12575,0.03443610162084452,10,1,100,0.5068827353051932,-10,-1,-100,19341.405872401665,-0.048979688315491966,0.00017696139511464535,0.9987997591195052,61.613511140198916,3.7228020187029727,239.6909844009601,-69.75968344440625,-33.96917724609375,4761.76025390625,True
1599385061.3427515,0.0,10,0.5,0.5,-0.693786124420166,-0.001,-0.02275,-0.12575,0.0017236447097586875,10,1,100,0.5142753740420903,-10,-1,-100,19341.405872401665,-0.048979688315491966,0.00017696139511464535,0.9987997591195052,61.613511140198916,3.7228020187029727,239.6909844009601,-69.75968344440625,-33.96917724609375,4761.76025390625,True
1599385061.3759115,0.0,10,0.5,0.5,-0.8052422996520996,-0.001,-0.02275,-0.12575,0.036952938272289675,10,1,100,0.5109284623812238,-10,-1,-100,19338.604538755026,-0.048904734856470004,0.0004970668262330046,0.9988033238997498,61.78346159009353,3.734453667160456,241.65863649912995,-70.12455209219787,-34.09552001953125,4761.76025390625,True
1599385061.4098244,0.0,10,0.5,0.5,-0.9483125953674316,-0.001,-0.02275,-0.12575,0.004992101843077045,10,1,100,0.5233142817690669,-10,-1,-100,19338.604538755026,-0.048904734856470004,0.0004970668262330046,0.9988033238997498,61.78346159009353,3.734453667160456,241.65863649912995,-70.12455209219787,-34.09552001953125,4761.76025390625,True
1599385061.4459953,0.0,10,0.5,0.5,-0.9808350700378419,-0.001,-0.02275,-0.12575,0.12385606103896647,10,1,100,0.4774971150394911,-10,-1,-100,19332.958089169348,-0.04844375630905889,0.001577196394535424,0.9988246667589872,62.11939230992025,3.7575386390817385,245.60180983562663,-70.85424592145792,-34.84234619140625,4761.76025390625,True
1599385061.4759166,0.0,10,0.5,0.5,-1.1076568138122558,-0.001,-0.02275,-0.12575,0.10137272243712038,10,1,100,0.4864760164751579,-10,-1,-100,19330.112974313437,-0.04806227150054661,0.0023533045635258086,0.9988415690267597,62.29315211902633,3.769416884558225,247.60801118383938,-71.21906956915282,-35.572723388671875,4761.76025390625,True
1599385061.5088792,0.0,10,0.5,0.5,-1.3233238006591796,-0.001,-0.02275,-0.12575,0.023997235994434506,10,1,100,0.5294307244764405,-10,-1,-100,19330.112974313437,-0.04806227150054661,0.0023533045635258086,0.9988415690267597,62.29315211902633,3.769416884558225,247.60801118383938,-71.21906956915282,-35.572723388671875,4761.76025390625,True
1599385061.5427585,0.0,10,0.5,0.5,-1.2600700012207031,-0.001,-0.02275,-0.12575,0.07025026061926877,10,1,100,0.5019646872650024,-10,-1,-100,19328.684944741894,-0.047813292806442156,0.0027714867387144716,0.9988524455054723,62.3819004099334,3.7754570908842613,248.62152539948863,-71.40147502921596,-36.042144775390625,4761.76025390625,True
1599385061.5798538,0.0,10,0.5,0.5,-1.168033406829834,-0.001,-0.02275,-0.12575,0.1334991094012628,10,1,100,0.4631819437693419,-10,-1,-100,19325.8179416341,-0.04723541139604179,0.0037239774220862594,0.9988768432106165,62.55925268259436,3.78748996100864,250.65399787337626,-71.76627273352224,-37.19598388671875,4761.76025390625,True
1599385061.6099334,0.0,10,0.5,0.5,-1.1225036186218262,-0.001,-0.02275,-0.12575,0.16188415482777263,10,1,100,0.445161663045857,-10,-1,-100,19322.936347173993,-0.04654785231057205,0.004844401803976631,0.9989043143446896,62.729523716198244,3.79901932420474,252.66594131805698,-72.13105265812537,-38.6412353515625,4761.76025390625,True
1599385061.643665,0.0,10,0.5,0.5,-0.9488957069396973,-0.001,-0.02275,-0.12575,0.25312976179252994,10,1,100,0.3700697617667428,-10,-1,-100,19318.58659798093,-0.045242378387338494,0.006687934267248064,0.9989536519444203,62.948361442928146,3.813893516785447,255.54977189297975,-72.67818954720565,-41.360137939453125,4761.76025390625,True
1599385061.6769154,0.0,10,0.5,0.5,-1.2739832717895507,-0.001,-0.02275,-0.12575,0.06942761275259995,10,1,100,0.5002434230972828,-10,-1,-100,19318.58659798093,-0.045242378387338494,0.006687934267248064,0.9989536519444203,62.948361442928146,3.813893516785447,255.54977189297975,-72.67818954720565,-41.360137939453125,4761.76025390625,True
1599385061.712942,0.0,10,0.5,0.5,-0.8290007759094238,-0.001,-0.02275,-0.12575,0.2938868895555473,10,1,100,0.320596350636103,-10,-1,-100,19314.204022181686,-0.04361262073762609,0.008722554081027465,0.9990104385654334,63.07777666542298,3.8230089464148485,258.0826706462594,-73.2252908110917,-44.738189697265625,4761.76025390625,True
1599385061.743982,0.0,10,0.5,0.5,-0.8983259719848633,-0.001,-0.02275,-0.12575,0.2582573101719233,10,1,100,0.34398526233863863,-10,-1,-100,19311.26406849851,-0.04234846035710954,0.010240825474380525,0.9990504158444586,63.083954793359695,3.823990008145712,259.44706161947556,-73.59000980888459,-47.35162353515625,4761.76025390625,True
1599385061.7769666,0.0,10,0.5,0.5,-1.1968076416015625,-0.001,-0.02275,-0.12575,0.1074045467014321,10,1,100,0.46974567294035746,-10,-1,-100,19311.26406849851,-0.04234846035710954,0.010240825474380525,0.9990504158444586,63.083954793359695,3.823990008145712,259.44706161947556,-73.59000980888459,-47.35162353515625,4761.76025390625,True
1599385061.809738,0.0,10,0.5,0.5,-0.9896272033691407,-0.001,-0.02275,-0.12575,0.18643140936668234,10,1,100,0.39245956160434414,-10,-1,-100,19309.788621175452,-0.0416514005231021,0.01095137547217385,0.9990721836833071,63.0556878857053,3.8224975328207234,260.00028709861573,-73.77236628800011,-48.76165771484375,4761.76025390625,True
1599385061.845784,0.0,10,0.5,0.5,-0.7553960975646974,-0.001,-0.02275,-0.12575,0.2796100484451366,10,1,100,0.2960580994634465,-10,-1,-100,19306.82678492251,-0.040147160900884854,0.012436592124600413,0.999116377929981,62.923307193397484,3.8147407629470833,260.791107942147,-74.13707677824226,-51.771820068359375,4761.76025390625,True
1599385061.8766997,0.0,10,0.5,0.5,-0.2271501701354981,-0.001,-0.02275,-0.12575,0.4788655248257844,10,1,100,0.06172857337367593,-10,-1,-100,19300.859346896643,-0.0366565974713255,0.015589035877938565,0.9992063229494805,62.27601201910624,3.775338348225993,260.7568286244381,-74.86651115029427,-58.635101318359375,4761.76025390625,True
1599385061.9115753,0.0,10,0.5,0.5,-0.7995472984313965,-0.001,-0.02275,-0.12575,0.24814261393678666,10,1,100,0.30364461709118373,-10,-1,-100,19299.35836921516,-0.03569273720128081,0.01634576051003761,0.9992291251882266,62.01594243369021,3.7593998516864944,260.32793615011445,-75.04887851415842,-60.52276611328125,4761.76025390625,True
1599385061.9445918,0.0,10,0.5,0.5,-0.9838527168273926,-0.001,-0.02275,-0.12575,0.17373232903567729,10,1,100,0.3988763766761768,-10,-1,-100,19299.35836921516,-0.03569273720128081,0.01634576051003761,0.9992291251882266,62.01594243369021,3.7593998516864944,260.32793615011445,-75.04887851415842,-60.52276611328125,4761.76025390625,True
1599385061.9807634,0.0,10,0.5,0.5,-0.1794246742248533,-0.001,-0.02275,-0.12575,0.4170594608079064,10,1,100,0.05760245557254662,-10,-1,-100,19294.833550798474,-0.032600115295892615,0.01854736956368873,0.9992963662322416,60.96672069280187,3.695060613516451,257.87222737367546,-75.59601977323787,-66.47659301757812,4761.76025390625,True
1599385062.0117579,0.0,10,0.5,0.5,-0.8709784721374512,-0.001,-0.02275,-0.12575,0.19808449897243863,10,1,100,0.3656004198022212,-10,-1,-100,19294.833550798474,-0.032600115295892615,0.01854736956368873,0.9992963662322416,60.96672069280187,3.695060613516451,257.87222737367546,-75.59601977323787,-66.47659301757812,4761.76025390625,True
1599385062.0453472,0.0,10,0.5,0.5,-0.0007826210021971702,-0.001,-0.02275,-0.12575,0.42734942902551865,10,1,100,-0.009467865198349024,-10,-1,-100,19290.275900687906,-0.02920189658051602,0.020620814895719965,0.9993608113334929,59.47976252759603,3.604083128335459,253.48731305018984,-76.14324277806428,-72.8912353515625,4761.76025390625,True
1599385062.077312,0.0,10,0.5,0.5,-0.4638820632934571,-0.001,-0.02275,-0.12575,0.28792719425086255,10,1,100,0.20128172598324484,-10,-1,-100,19288.749387049815,-0.02804161287196734,0.02122747373523813,0.9993813397829472,58.87926455349926,3.5674392552872987,251.55736328057768,-76.32567351471522,-75.0963134765625,4761.76025390625,True
1599385062.1128953,0.0,10,0.5,0.5,-0.39268990325927733,-0.001,-0.02275,-0.12575,0.3005299158985787,10,1,100,0.17847805821836563,-10,-1,-100,19287.219224662986,-0.02679250965495613,0.02188356410590583,0.9994014563969836,58.23183577216843,3.5279925734938486,249.4139553357948,-76.50811706456881,-77.34768676757812,4761.76025390625,True
1599385062.1448805,0.0,10,0.5,0.5,0.5838940437316894,-0.001,-0.02275,-0.12575,0.47504171715109766,10,1,100,-0.2574067578423818,-10,-1,-100,19281.062080531497,-0.02170851381230474,0.024055896510052525,0.9994748892649372,55.09214123612813,3.3375647934353614,238.32603397273436,-77.23803344878829,-86.74771118164062,4761.76025390625,True
1599385062.1778803,0.0,10,0.5,0.5,-0.20427684936523433,-0.001,-0.02275,-0.12575,0.3104455195845688,10,1,100,0.10370075313330132,-10,-1,-100,19279.51366947498,-0.020387624861228592,0.02452250188045573,0.999491366472988,54.17771256952668,3.2823401138036172,234.95106060247346,-77.42054988653268,-89.1734619140625,4761.76025390625,True
1599385062.2109306,0.0,10,0.5,0.5,-0.42422626876831054,-0.001,-0.02275,-0.12575,0.26499357351983366,10,1,100,0.23381369463695045,-10,-1,-100,19279.51366947498,-0.020387624861228592,0.02452250188045573,0.999491366472988,54.17771256952668,3.2823401138036172,234.95106060247346,-77.42054988653268,-89.1734619140625,4761.76025390625,True
1599385062.247072,0.0,10,0.5,0.5,0.5759527709960938,-0.001,-0.02275,-0.12575,0.3943332890648992,10,1,100,-0.20018153465275793,-10,-1,-100,19274.846531630843,-0.016457003660967695,0.025690196143590402,0.9995344820728331,52.53019347968936,3.183737955662549,229.49643128267547,-77.96816443602587,-96.51629638671875,4761.76025390625,True
1599385062.2782614,0.0,10,0.5,0.5,0.6778276496887208,-0.001,-0.02275,-0.12575,0.3746534561302268,10,1,100,-0.2591829817996737,-10,-1,-100,19270.146541161463,-0.012364821898977021,0.026564333869185306,0.9995706314940894,54.60790035443848,3.311949502700628,240.3303525671804,-78.51565818679664,-103.95890808105469,4761.76025390625,True
1599385062.3113623,0.0,10,0.5,0.5,0.15678174400329592,-0.001,-0.02275,-0.12575,0.3119103098541295,10,1,100,0.008695486766306354,-10,-1,-100,19268.57257859595,-0.011101122661678321,0.026779322677798745,0.9995797281620754,55.22258003117364,3.35016322278449,243.62743476487645,-78.69811808891848,-106.45236206054688,4761.76025390625,True
1599385062.3453288,0.0,10,0.5,0.5,-0.06582521934509276,-0.001,-0.02275,-0.12575,0.29123462430419655,10,1,100,0.1329155112327549,-10,-1,-100,19268.57257859595,-0.011101122661678321,0.026779322677798745,0.9995797281620754,55.22258003117364,3.35016322278449,243.62743476487645,-78.69811808891848,-106.45236206054688,4761.76025390625,True
1599385062.3803685,0.0,10,0.5,0.5,0.6439436126708985,-0.001,-0.02275,-0.12575,0.33100120376109615,10,1,100,-0.14822213895908123,-10,-1,-100,19265.41370784724,-0.008564870380510915,0.027133353442757732,0.999595130103341,56.44040603154832,3.4260942123499403,250.2093204264303,-79.0629787883968,-111.33460235595703,4761.76025390625,True
1599385062.4114482,0.0,10,0.5,0.5,0.42119464244842525,-0.001,-0.02275,-0.12575,0.30988558204662137,10,1,100,-0.040464312701573926,-10,-1,-100,19263.82880015252,-0.007257564023790616,0.027257318905727915,0.9996021040046444,56.954244588730056,3.4583547034844844,253.09696927165203,-79.24538184319411,-113.73092651367188,4761.76025390625,True
1599385062.4444468,0.0,10,0.5,0.5,1.4004066987991333,-0.001,-0.02275,-0.12575,0.320940750684075,10,1,100,-0.451711155337223,-10,-1,-100,19257.45269504853,-0.002349390629037332,0.027465034636795397,0.9996200039195253,58.81071515496079,3.5753527071228,263.8628631585919,-79.97482480570105,-123.14044189453125,4761.76025390625,True
1599385062.4784114,0.0,10,0.5,0.5,0.3213386575698853,-0.001,-0.02275,-0.12575,0.3007273246304158,10,1,100,0.03666187223551354,-10,-1,-100,19257.45269504853,-0.002349390629037332,0.027465034636795397,0.9996200039195253,58.81071515496079,3.5753527071228,263.8628631585919,-79.97482480570105,-123.14044189453125,4761.76025390625,True
1599385062.5143657,0.0,10,0.5,0.5,0.6920659730911254,-0.001,-0.02275,-0.12575,0.2991650574808488,10,1,100,-0.09558872958120825,-10,-1,-100,19255.849552050116,-0.0011647116335973772,0.027447732991684112,0.9996225614702922,59.1360207513789,3.596096848834449,265.9543631688315,-80.15714991519309,-125.412109375,4761.76025390625,True
1599385062.5455625,0.0,10,0.5,0.5,1.5892349893569946,-0.001,-0.02275,-0.12575,0.272702129156297,10,1,100,-0.46539028204196564,-10,-1,-100,19249.40051855333,0.0032566261907843483,0.027188772846713175,0.9996250122005467,59.91211491803026,3.64651896653519,272.0047355249971,-80.88635485425797,-134.0936737060547,4761.76025390625,True
1599385062.5784078,0.0,10,0.5,0.5,0.8625264783859252,-0.001,-0.02275,-0.12575,0.28752581775621916,10,1,100,-0.1385473970826102,-10,-1,-100,19247.779145672102,0.004283230485089946,0.027085691455860473,0.9996239389165155,59.987823897297886,3.6517429062018367,272.98921644182195,-81.06863983182409,-136.16708374023438,4761.76025390625,True
1599385062.6114423,0.0,10,0.5,0.5,0.6920007078170777,-0.001,-0.02275,-0.12575,0.2979735063727164,10,1,100,-0.037960991066656166,-10,-1,-100,19247.779145672102,0.004283230485089946,0.027085691455860473,0.9996239389165155,59.987823897297886,3.6517429062018367,272.98921644182195,-81.06863983182409,-136.16708374023438,4761.76025390625,True
1599385062.648378,0.0,10,0.5,0.5,1.7440262186050415,-0.001,-0.02275,-0.12575,0.2441508386860229,10,1,100,-0.4563200398148679,-10,-1,-100,19241.257198272273,0.00807135997154272,0.0265959205154481,0.9996136804586789,59.89875465912774,3.6480254638463196,275.1440240812259,-81.79775474080651,-143.8889923095703,4761.76025390625,True
1599385062.6787784,0.0,10,0.5,0.5,1.302489676475525,-0.001,-0.02275,-0.12575,0.2551539100640573,10,1,100,-0.2700098006060627,-10,-1,-100,19237.974351058598,0.00980395507311681,0.0262508688568393,0.9996073100719028,59.66981271483677,3.6345405433041487,275.3685470479798,-82.16231194345103,-147.39451599121094,4761.76025390625,True
1599385062.711825,0.0,10,0.5,0.5,0.9548134737014771,-0.001,-0.02275,-0.12575,0.2896062305428412,10,1,100,-0.09884079822213312,-10,-1,-100,19237.974351058598,0.00980395507311681,0.0262508688568393,0.9996073100719028,59.66981271483677,3.6345405433041487,275.3685470479798,-82.16231194345103,-147.39451599121094,4761.76025390625,True
1599385062.744864,0.0,10,0.5,0.5,1.2471391983032227,-0.001,-0.02275,-0.12575,0.27962693573599456,10,1,100,-0.18608334771718582,-10,-1,-100,19236.327459159656,0.010580370227204901,0.02616095025367335,0.9996017509226762,59.51972721776984,3.625548776796791,275.31272748569097,-82.34459328687052,-149.05360412597656,4761.76025390625,True
1599385062.7807598,0.0,10,0.5,0.5,1.8698620937347412,-0.001,-0.02275,-0.12575,0.2270428811958189,10,1,100,-0.42676959712273455,-10,-1,-100,19229.703434080584,0.013458042694379975,0.02560216590829548,0.9995816175718921,58.78887733631167,3.5812497541683674,274.4505446863581,-83.07374758794018,-154.97860717773438,4761.76025390625,True
1599385062.811842,0.0,10,0.5,0.5,1.1972247859954832,-0.001,-0.02275,-0.12575,0.28273502886075574,10,1,100,-0.14058309373756883,-10,-1,-100,19229.703434080584,0.013458042694379975,0.02560216590829548,0.9995816175718921,58.78887733631167,3.5812497541683674,274.4505446863581,-83.07374758794018,-154.97860717773438,4761.76025390625,True
1599385062.8458228,0.0,10,0.5,0.5,1.5901502223968507,-0.001,-0.02275,-0.12575,0.25707899004432877,10,1,100,-0.2772680919053395,-10,-1,-100,19226.369545891648,0.014686263192883875,0.025370622708808417,0.9995702302373739,58.38627594656766,3.556692243077429,273.82316248602643,-83.43834480978923,-157.5071563720703,4761.76025390625,True
1599385062.8777764,0.0,10,0.5,0.5,1.7557212333679197,-0.001,-0.02275,-0.12575,0.24777565237419424,10,1,100,-0.3326447438605327,-10,-1,-100,19221.341368098627,0.016291841414001466,0.025077441376167024,0.9995527489019105,57.80299358158024,3.521040663093272,272.9489658000567,-83.98526529339202,-160.7459716796875,4761.76025390625,True
1599385062.9157522,0.0,10,0.5,0.5,1.409074186325073,-0.001,-0.02275,-0.12575,0.27688265249127897,10,1,100,-0.17339044327109532,-10,-1,-100,19221.341368098627,0.016291841414001466,0.025077441376167024,0.9995527489019105,57.80299358158024,3.521040663093272,272.9489658000567,-83.98526529339202,-160.7459716796875,4761.76025390625,True
1599385062.9456687,0.0,10,0.5,0.5,1.7909020450592041,-0.001,-0.02275,-0.12575,0.26043588181224675,10,1,100,-0.318493635422354,-10,-1,-100,19216.280373989022,0.01760004442362299,0.024929750960975543,0.9995342645218873,57.298613957370364,3.4901862860328348,272.4144455446349,-84.53221022295014,-163.3172607421875,4761.76025390625,True
1599385062.978685,0.0,10,0.5,0.5,1.5293290981292722,-0.001,-0.02275,-0.12575,0.27498932928190634,10,1,100,-0.189005015854055,-10,-1,-100,19216.280373989022,0.01760004442362299,0.024929750960975543,0.9995342645218873,57.298613957370364,3.4901862860328348,272.4144455446349,-84.53221022295014,-163.3172607421875,4761.76025390625,True
1599385063.0117145,0.0,10,0.5,0.5,1.7439686325073245,-0.001,-0.02275,-0.12575,0.2643213953444567,10,1,100,-0.26918477683276326,-10,-1,-100,19212.888146240963,0.018320288901200264,0.02483428444295734,0.9995236992341816,57.03256951217522,3.473913273100056,272.3764157412246,-84.8968491295013,-164.66195678710938,4761.76025390625,True
1599385063.04791,0.0,10,0.5,0.5,1.6851981128692626,-0.001,-0.02275,-0.12575,0.27522692964167333,10,1,100,-0.23179124949607288,-10,-1,-100,19211.186562764924,0.018627373328820526,0.024847925724200835,0.9995176844608971,56.92396732627899,3.467272989265273,272.4703008574869,-85.07917004464154,-165.22244262695312,4761.76025390625,True
1599385063.0788949,0.0,10,0.5,0.5,1.845651978302002,-0.001,-0.02275,-0.12575,0.2895413335349215,10,1,100,-0.3036502072968834,-10,-1,-100,19204.343764579273,0.019551782953704765,0.024991733236299576,0.999496443742136,56.683729602515896,3.4525991724575347,273.76209347123586,-85.80845297500015,-166.72442626953125,4761.76025390625,True
1599385063.1120553,0.0,10,0.5,0.5,1.7211001461029054,-0.001,-0.02275,-0.12575,0.2829013626801407,10,1,100,-0.22878924538794027,-10,-1,-100,19202.623949088855,0.01970344531103959,0.025063166891361673,0.9994916767578661,56.67555803286214,3.4521046701866824,274.3334017604927,-85.9907710830729,-166.91473388671875,4761.76025390625,True
1599385063.1463838,0.0,10,0.5,0.5,1.744360425186157,-0.001,-0.02275,-0.12575,0.29883494141519906,10,1,100,-0.23653216924471654,-10,-1,-100,19199.17337918037,0.019906032759481343,0.025273447292661323,0.9994823673891019,56.72443471306531,3.455099994537562,275.7930662112296,-86.35540036863534,-167.07281494140625,4761.76025390625,True
1599385063.1813474,0.0,10,0.5,0.5,1.7345199657440187,-0.001,-0.02275,-0.12575,0.3060975209234572,10,1,100,-0.22570634578166765,-10,-1,-100,19195.70822437352,0.019985924781068764,0.02553093357902302,0.9994742289029912,56.86234352020521,3.463528879185184,277.6902371269754,-86.72001699360612,-166.9349365234375,4761.76025390625,True
1599385063.2122643,0.0,10,0.5,0.5,1.7504865028381347,-0.001,-0.02275,-0.12575,0.29752642953502373,10,1,100,-0.21679052828786644,-10,-1,-100,19193.97017787036,0.019972683131124422,0.025686947271393153,0.9994704961470449,56.964280220182914,3.4697543759739164,278.80269621095414,-86.90231930965781,-166.75489807128906,4761.76025390625,True
1599385063.2452478,0.0,10,0.5,0.5,1.7130183826446534,-0.001,-0.02275,-0.12575,0.3211119727616713,10,1,100,-0.204628032962546,-10,-1,-100,19190.483147224993,0.019846730908474722,0.02604263783388532,0.9994638003884381,57.233193713344676,3.4861679291022054,281.35435213963746,-87.2669093976945,-166.17282104492188,4761.76025390625,True
1599385063.2792017,0.0,10,0.5,0.5,1.6872927333831786,-0.001,-0.02275,-0.12575,0.33038764053571296,10,1,100,-0.18940663029572746,-10,-1,-100,19186.9815335545,0.01959062078228167,0.02644943969186247,0.9994581705691097,57.58557795673291,3.5076639959350073,284.33026473757485,-87.6314766913554,-165.2949676513672,4761.76025390625,True
1599385063.3142686,0.0,10,0.5,0.5,1.8021820808410647,-0.001,-0.02275,-0.12575,0.28985942361108674,10,1,100,-0.21521670055089862,-10,-1,-100,19186.9815335545,0.01959062078228167,0.02644943969186247,0.9994581705691097,57.58557795673291,3.5076639959350073,284.33026473757485,-87.6314766913554,-165.2949676513672,4761.76025390625,True
1599385063.345269,0.0,10,0.5,0.5,1.657952802658081,-0.001,-0.02275,-0.12575,0.3395396889479551,10,1,100,-0.1711132576974133,-10,-1,-100,19183.4653381058,0.019187870777833023,0.026899696932442284,0.999453966883896,58.015202210290894,3.5338621514187936,287.7049021725794,-87.99601710687121,-164.12156677246094,4761.76025390625,True
1599385063.3782482,0.0,10,0.5,0.5,1.6181048431396483,-0.001,-0.02275,-0.12575,0.3490774232226924,10,1,100,-0.15252841673467415,-10,-1,-100,19179.934561855043,0.01865199259969423,0.027393850724112923,0.9994506891860978,58.51441989710945,3.564299924928163,291.4451415770398,-88.36052697746271,-162.65274047851562,4761.76025390625,True
1599385063.4115717,0.0,10,0.5,0.5,1.6898326957702638,-0.001,-0.02275,-0.12575,0.32906412972798604,10,1,100,-0.17109759124083834,-10,-1,-100,19178.163706452702,0.018333618915741482,0.0276588279347708,0.9994492821823062,58.7869301293667,3.580916523167278,293.43780588926916,-88.54276941547049,-161.80752563476562,4761.76025390625,True
1599385063.4472861,0.0,10,0.5,0.5,1.6684832717895506,-0.001,-0.02275,-0.12575,0.33133145397698044,10,1,100,-0.16294478731617867,-10,-1,-100,19176.389206236345,0.01797117931650386,0.0279179037151793,0.9994486616960994,59.07261243062776,3.59833944406247,295.50233463222406,-88.72500291287975,-160.8887939453125,4761.76025390625,True
1599385063.478285,0.0,10,0.5,0.5,1.3648850219726563,-0.001,-0.02275,-0.12575,0.39563694311708836,10,1,100,-0.0565776869779574,-10,-1,-100,19171.043839614722,0.016676289919571773,0.02873542729243908,0.9994479358990339,59.99169933219594,3.654436124597783,302.0457801927852,-89.27164698332274,-157.69021606445312,4761.76025390625,True
1599385063.5113997,0.0,10,0.5,0.5,1.59194566116333,-0.001,-0.02275,-0.12575,0.34519770577792575,10,1,100,-0.13035755808747274,-10,-1,-100,19169.25476245035,0.01617277997139266,0.02901694476868306,0.9994480767425029,60.31198015033929,3.674010006455016,304.31053609645505,-89.45384206177398,-156.4766845703125,4761.76025390625,True
1599385063.5453334,0.0,10,0.5,0.5,1.5576194122314453,-0.001,-0.02275,-0.12575,0.34816829947793826,10,1,100,-0.1208933066925126,-10,-1,-100,19167.462041837978,0.015632471501102623,0.029296706043278012,0.9994485123555795,60.63558218561277,3.6938067346933083,306.5990719225732,-89.63602704608643,-155.1896209716797,4761.76025390625,True
1599385063.5813713,0.0,10,0.5,0.5,1.338983470916748,-0.001,-0.02275,-0.12575,0.3788420519790435,10,1,100,-0.04318787249997755,-10,-1,-100,19163.865670237574,0.014438814591479564,0.02982660517130903,0.9994507963162307,61.28193488820237,3.7334302966365205,311.19299438854176,-90.00036636228153,-152.39535522460938,4761.76025390625,True
1599385063.6002886,0.0,10,0.5,0.5,1.0578961029052734,-0.001,-0.02275,-0.12575,0.41226459490818973,10,1,100,0.06437327718779948,-10,-1,-100,19158.443790127523,0.012380759600403352,0.03060873298038635,0.9994547624865533,62.204915515606324,3.790325817193091,317.8989419400453,-90.54680125494846,-147.65277099609375,4761.76025390625,True
1599385063.6212685,0.0,10,0.5,0.5,1.614140072250366,-0.001,-0.02275,-0.12575,0.33446774332930984,10,1,100,-0.14071123580163394,-10,-1,-100,19158.443790127523,0.012380759600403352,0.03060873298038635,0.9994547624865533,62.204915515606324,3.790325817193091,317.8989419400453,-90.54680125494846,-147.65277099609375,4761.76025390625,True
1599385063.6461673,0.0,10,0.5,0.5,1.3550443008422852,-0.001,-0.02275,-0.12575,0.36123517363528845,10,1,100,-0.05656995879778029,-10,-1,-100,19156.629211506923,0.011622393319624572,0.03084829208017841,0.9994565037305323,62.48733458069127,3.8078588168321263,320.018482244517,-90.72892757065898,-145.92527770996094,4761.76025390625,True
1599385063.6791952,0.0,10,0.5,0.5,1.3026696815490724,-0.001,-0.02275,-0.12575,0.360842757772346,10,1,100,-0.044789678408507894,-10,-1,-100,19154.810990533442,0.010832753676703393,0.03105891603110104,0.9994588511703484,62.75108120702649,3.824318809027071,322.04842645522865,-90.91104544084799,-144.1248016357422,4761.76025390625,True
1599385063.715399,0.0,10,0.5,0.5,1.0026516582489013,-0.001,-0.02275,-0.12575,0.38241266442200667,10,1,100,0.06160594660072323,-10,-1,-100,19151.163622118067,0.009154774900257486,0.03144315053302127,0.999463615336288,63.20581312275734,3.853025676359202,325.7509144071899,-91.27525878705251,-140.3040771484375,4761.76025390625,True
1599385063.7463384,0.0,10,0.5,0.5,1.178136403274536,-0.001,-0.02275,-0.12575,0.3628642854053114,10,1,100,-0.007521319457310688,-10,-1,-100,19149.33447477175,0.008266113744030136,0.031611301795889474,0.9994660559330366,63.38877399253995,3.864794795093715,327.3805140375962,-91.45735620919073,-138.28395080566406,4761.76025390625,True
1599385063.7794304,0.0,10,0.5,0.5,0.26407021408081066,-0.001,-0.02275,-0.12575,0.389961786322228,10,1,100,0.32451345295220974,-10,-1,-100,19141.98146795656,0.004448564821530064,0.0320071498631228,0.9994777399365472,63.72034578467275,3.888364521988793,331.85709427812765,-92.18571330006102,-129.4739227294922,4761.76025390625,True
1599385063.812451,0.0,10,0.5,0.5,1.3077391773223876,-0.001,-0.02275,-0.12575,0.3507041518559636,10,1,100,-0.05601866678799336,-10,-1,-100,19141.98146795656,0.004448564821530064,0.0320071498631228,0.9994777399365472,63.72034578467275,3.888364521988793,331.85709427812765,-92.18571330006102,-129.4739227294922,4761.76025390625,True
1599385063.8482912,0.0,10,0.5,0.5,0.31594014968872075,-0.001,-0.02275,-0.12575,0.34820377999711327,10,1,100,0.2832463636114124,-10,-1,-100,19136.42847377539,0.001374995649853523,0.03198170084159285,0.9994875087754933,63.41055750995908,3.8728677194834176,332.3116537940711,-92.73199304921414,-122.13374328613281,4761.76025390625,True
1599385063.8793383,0.0,10,0.5,0.5,0.8395411972045899,-0.001,-0.02275,-0.12575,0.34567782095280486,10,1,100,0.09737694228344376,-10,-1,-100,19134.57019184332,0.00028352521117569967,0.03193316119907345,0.9994899663474811,63.17937960818064,3.860019416640092,331.78820518820936,-92.91409891220613,-119.57575988769531,4761.76025390625,True
1599385063.9124198,0.0,10,0.5,0.5,0.7537662586212157,-0.001,-0.02275,-0.12575,0.3410298713243388,10,1,100,0.1114297756687547,-10,-1,-100,19132.708267322625,-0.0008236052280521445,0.03184486511286269,0.9994924843341104,62.87809660684965,3.842924894301285,330.89152222548876,-93.09621440976989,-116.95030212402344,4761.76025390625,True
1599385063.9463298,0.0,10,0.5,0.5,-0.013042446517944395,-0.001,-0.02275,-0.12575,0.28681510319735815,10,1,100,0.3538737877497306,-10,-1,-100,19127.10063796956,-0.004022119950969552,0.03127061065866902,0.9995028621570495,61.66731380435799,3.7728843094131137,326.5414707009648,-93.64263646418529,-108.84685516357422,4761.76025390625,True
1599385063.9823575,0.0,10,0.5,0.5,0.20226819210052494,-0.001,-0.02275,-0.12575,0.28336134327505713,10,1,100,0.2758080034089466,-10,-1,-100,19123.34400185151,-0.0062052599509315465,0.03071656163040087,0.999508873192503,60.59623741236719,3.7098068082125484,322.19815606038065,-94.0069915890584,-103.20256042480469,4761.76025390625,True
1599385064.0133355,0.0,10,0.5,0.5,0.814844073677063,-0.001,-0.02275,-0.12575,0.3387530730568943,10,1,100,0.059276768739802754,-10,-1,-100,19123.34400185151,-0.0062052599509315465,0.03071656163040087,0.999508873192503,60.59623741236719,3.7098068082125484,322.19815606038065,-94.0069915890584,-103.20256042480469,4761.76025390625,True
1599385064.047421,0.0,10,0.5,0.5,-0.37236630687713623,-0.001,-0.02275,-0.12575,0.21724641606869788,10,1,100,0.3993479835810359,-10,-1,-100,19117.68171636993,-0.009281327346190362,0.029612266889054266,0.9995183693221373,58.70997178666632,3.5971970914591895,314.10416984250645,-94.5536504629197,-94.57051086425781,4761.76025390625,True
1599385064.0805116,0.0,10,0.5,0.5,-0.13936725864410404,-0.001,-0.02275,-0.12575,0.2253576667328705,10,1,100,0.32328652025675986,-10,-1,-100,19113.88863564853,-0.011369524309617277,0.028683765660817075,0.9995238744044527,59.499219565339224,3.646767043450297,319.63694688721927,-94.91812210164152,-88.66567993164062,4761.76025390625,True
1599385064.1154978,0.0,10,0.5,0.5,0.11230810947418213,-0.001,-0.02275,-0.12575,0.2646449576823423,10,1,100,0.21842828294799843,-10,-1,-100,19111.986629254185,-0.012296777902604234,0.028199492222083074,0.9995266769284503,60.7899726025538,3.7262647751547533,327.24075655880307,-95.10031248122799,-85.68362426757812,4761.76025390625,True
1599385064.1465082,0.0,10,0.5,0.5,0.387678680229187,-0.001,-0.02275,-0.12575,0.31269153579163844,10,1,100,0.1273774579217161,-10,-1,-100,19111.986629254185,-0.012296777902604234,0.028199492222083074,0.9995266769284503,60.7899726025538,3.7262647751547533,327.24075655880307,-95.10031248122799,-85.68362426757812,4761.76025390625,True
1599385064.1795955,0.0,10,0.5,0.5,-1.2111706968307496,-0.001,-0.02275,-0.12575,0.06627581530673149,10,1,100,0.527588501682422,-10,-1,-100,19104.34217797045,-0.01591983707977053,0.02596281081553032,0.9995361380369948,65.29357326582804,4.00280813204019,354.36175180460435,-95.82877366961748,-73.85540771484375,4761.76025390625,True
1599385064.212956,0.0,10,0.5,0.5,0.16639432125091552,-0.001,-0.02275,-0.12575,0.2893420669594007,10,1,100,0.16701206723875486,-10,-1,-100,19104.34217797045,-0.01591983707977053,0.02596281081553032,0.9995361380369948,65.29357326582804,4.00280813204019,354.36175180460435,-95.82877366961748,-73.85540771484375,4761.76025390625,True
1599385064.2489977,0.0,10,0.5,0.5,-0.31463961391448975,-0.001,-0.02275,-0.12575,0.21885495520538306,10,1,100,0.2626371613141056,-10,-1,-100,19102.421961335465,-0.016774425787463767,0.025327446481751562,0.9995384630389244,66.2439415607849,4.061028681623729,360.24905775249385,-96.01081740299159,-70.88088989257812,4761.76025390625,True
1599385064.279848,0.0,10,0.5,0.5,-1.551091958808899,-0.001,-0.02275,-0.12575,-0.007810645333019173,10,1,100,0.5153896964144954,-10,-1,-100,19094.70469696424,-0.01983457418577079,0.022695171099450046,0.9995456562236844,69.28710698638181,4.247606022726866,379.8479456437579,-96.73874630615114,-59.001678466796875,4761.76025390625,True
1599385064.312903,0.0,10,0.5,0.5,-0.5443144428253174,-0.001,-0.02275,-0.12575,0.1796408601840072,10,1,100,0.2864789449540268,-10,-1,-100,19092.766283170902,-0.02052114548528673,0.022014093928930015,0.9995470285366567,69.84057535308051,4.281725371561296,383.6502262670822,-96.92067738669986,-56.053863525390625,4761.76025390625,True
1599385064.346862,0.0,10,0.5,0.5,-1.0166998977661132,-0.001,-0.02275,-0.12575,0.10255244640259728,10,1,100,0.35915103018858785,-10,-1,-100,19088.878541199956,-0.021792942091038724,0.02070204043744578,0.9995481445116804,70.68736123327362,4.334395362833477,389.8565567626377,-97.28449575151498,-50.2486572265625,4761.76025390625,True
1599385064.3818095,0.0,10,0.5,0.5,-0.40716533546447753,-0.001,-0.02275,-0.12575,0.23275634343172533,10,1,100,0.23353013782739895,-10,-1,-100,19088.878541199956,-0.021792942091038724,0.02070204043744578,0.9995481445116804,70.68736123327362,4.334395362833477,389.8565567626377,-97.28449575151498,-50.2486572265625,4761.76025390625,True
1599385064.4127457,0.0,10,0.5,0.5,-1.2201114517211913,-0.001,-0.02275,-0.12575,0.07926237486615145,10,1,100,0.363454950521937,-10,-1,-100,19084.976247710292,-0.02296270255667557,0.019314740929078388,0.9995497261638042,71.18702676523047,4.366368092714757,394.17885323780405,-97.64827465548004,-44.630401611328125,4761.76025390625,True
1599385064.4467082,0.0,10,0.5,0.5,-1.6272081146240234,-0.001,-0.02275,-0.12575,0.0018486451086915934,10,1,100,0.4141022647958478,-10,-1,-100,19079.09552511794,-0.024476012038610932,0.017358315673432705,0.9995497054732533,71.34008565553648,4.378851685695372,397.38475650636866,-98.19391783739225,-36.635040283203125,4761.76025390625,True
1599385064.4798071,0.0,10,0.5,0.5,-1.3706856109619139,-0.001,-0.02275,-0.12575,0.0648156043792988,10,1,100,0.36107144502457655,-10,-1,-100,19075.156855126726,-0.025358577538689697,0.01616202977671365,0.9995477634103889,71.09420716515297,4.366432386785179,397.5854957572513,-98.55769193010212,-31.606964111328125,4761.76025390625,True
1599385064.516154,0.0,10,0.5,0.5,-0.8614294342041016,-0.001,-0.02275,-0.12575,0.18324044780666734,10,1,100,0.2741210749803086,-10,-1,-100,19075.156855126726,-0.025358577538689697,0.01616202977671365,0.9995477634103889,71.09420716515297,4.366432386785179,397.5854957572513,-98.55769193010212,-31.606964111328125,4761.76025390625,True
1599385064.5470715,0.0,10,0.5,0.5,-1.8448797416687013,-0.001,-0.02275,-0.12575,0.003230761855437747,10,1,100,0.40364797031410327,-10,-1,-100,19069.221564930165,-0.02652751409585245,0.014534487887192304,0.9995424151369223,70.31388737298798,4.323061497882141,395.55787863020373,-99.10340977129142,-24.606292724609375,4761.76025390625,True
1599385064.580287,0.0,10,0.5,0.5,-1.6239274978637694,-0.001,-0.02275,-0.12575,0.05225900047637497,10,1,100,0.3585486767867198,-10,-1,-100,19065.246512580547,-0.027170546773009573,0.013511004995934455,0.9995395010363799,69.58339408967963,4.281319961193001,392.994360636459,-99.46727465428418,-20.28802490234375,4761.76025390625,True
1599385064.6132681,0.0,10,0.5,0.5,-1.4566832862854004,-0.001,-0.02275,-0.12575,0.10674564410918677,10,1,100,0.3311859991964672,-10,-1,-100,19063.253527937573,-0.027496919300526893,0.013086641347349078,0.999536222078633,69.16762555878651,4.257306026185144,391.4159132194805,-99.64922568420349,-18.23138427734375,4761.76025390625,True
1599385064.6483283,0.0,10,0.5,0.5,-1.784429510498047,-0.001,-0.02275,-0.12575,0.059956257697448445,10,1,100,0.3644913380170214,-10,-1,-100,19059.256640510983,-0.028089431637443353,0.012284233181030297,0.9995299302399302,68.3624096169801,4.2107392227136975,388.383407776309,-100.01316433166117,-14.33697509765625,4761.76025390625,True
1599385064.6803155,0.0,10,0.5,0.5,-1.3896134773254394,-0.001,-0.02275,-0.12575,0.13922408825453658,10,1,100,0.30599693294059105,-10,-1,-100,19059.256640510983,-0.028089431637443353,0.012284233181030297,0.9995299302399302,68.3624096169801,4.2107392227136975,388.383407776309,-100.01316433166117,-14.33697509765625,4761.76025390625,True
1599385064.7133322,0.0,10,0.5,0.5,-1.9275553062438966,-0.001,-0.02275,-0.12575,0.05966053199294022,10,1,100,0.3632194533511266,-10,-1,-100,19055.24519428343,-0.0286039122870424,0.01156858067615798,0.9995238787257732,67.54506674034212,4.163125026054942,385.24902820239834,-100.37714936403164,-10.7374267578125,4761.76025390625,True
1599385064.7464063,0.0,10,0.5,0.5,-2.1790394401550293,-0.001,-0.02275,-0.12575,0.03912055502569664,10,1,100,0.39120618837728965,-10,-1,-100,19049.20072341466,-0.02931985504128301,0.010739563571809376,0.9995123850531544,66.48497202579726,4.101215286332967,381.4359627761631,-100.92320117206985,-5.891357421875,4761.76025390625,True
1599385064.7823324,0.0,10,0.5,0.5,-1.6577775466918945,-0.001,-0.02275,-0.12575,0.12116474772483014,10,1,100,0.3202476282016892,-10,-1,-100,19049.20072341466,-0.02931985504128301,0.010739563571809376,0.9995123850531544,66.48497202579726,4.101215286332967,381.4359627761631,-100.92320117206985,-5.891357421875,4761.76025390625,True
1599385064.8131113,0.0,10,0.5,0.5,-2.0904546546936036,-0.001,-0.02275,-0.12575,0.07731756780807353,10,1,100,0.3700676079503206,-10,-1,-100,19045.15287286346,-0.029768360454449957,0.01034696989265852,0.9995032690941508,65.75791039327653,4.05816029661495,378.74002164263123,-101.2872804522333,-3.029541015625,4761.76025390625,True
1599385064.8461795,0.0,10,0.5,0.5,-1.9629444885253906,-0.001,-0.02275,-0.12575,0.10002001351856625,10,1,100,0.349619976984965,-10,-1,-100,19043.12348606286,-0.029986196200447804,0.010201738836147724,0.9994982504047456,65.39769197094562,4.036674254964415,377.39961862277187,-101.4693324670267,-1.709228515625,4761.76025390625,True
1599385064.8802333,0.0,10,0.5,0.5,-2.440835059356689,-0.001,-0.02275,-0.12575,0.08289653478629112,10,1,100,0.41717938016965955,-10,-1,-100,19034.969526721048,-0.03079419816334147,0.009919461060790469,0.9994765238122106,65.25978256818203,4.030154339547124,379.53846728872054,-102.19757493713632,2.834381103515625,4761.76025390625,True
1599385064.9162977,0.0,10,0.5,0.5,-2.0525227394104006,-0.001,-0.02275,-0.12575,0.1117047335023525,10,1,100,0.3579694407187669,-10,-1,-100,19032.921934637474,-0.0309865944218117,0.009928933095908433,0.9994704834329601,65.8154033217858,4.064746902313752,383.5105327198697,-102.37960920154535,3.7860107421875,4761.76025390625,True
1599385064.94651,0.0,10,0.5,0.5,-2.200879999542236,-0.001,-0.02275,-0.12575,0.12500067438013077,10,1,100,0.3814308828516855,-10,-1,-100,19028.815828866092,-0.03137131681467589,0.010061672655722772,0.9994571542715986,66.82024716696087,4.127162389515434,390.87057820671106,-102.74363360059584,5.468505859375,4761.76025390625,True
1599385064.9804194,0.0,10,0.5,0.5,-2.0432234886169436,-0.001,-0.02275,-0.12575,0.11142422152953425,10,1,100,0.3433460833166811,-10,-1,-100,19028.815828866092,-0.03137131681467589,0.010061672655722772,0.9994571542715986,66.82024716696087,4.127162389515434,390.87057820671106,-102.74363360059584,5.468505859375,4761.76025390625,True
1599385065.0132654,0.0,10,0.5,0.5,-2.3381449409484865,-0.001,-0.02275,-0.12575,0.1594274451055374,10,1,100,0.4039846356969202,-10,-1,-100,19022.629372686497,-0.03191959284978967,0.010500086106891262,0.999435284440194,68.08485019310558,4.205397953108921,400.56969482406015,-103.28957028215169,7.4398193359375,4761.76025390625,True
1599385065.0493279,0.0,10,0.5,0.5,-2.2597366172790525,-0.001,-0.02275,-0.12575,0.16640866143546942,10,1,100,0.3888884088671181,-10,-1,-100,19018.48687274533,-0.03227730521852005,0.01096373134465667,0.9994188171946898,68.7799310995082,4.248220174466306,406.2105158583315,-103.65346941965707,8.3861083984375,4761.76025390625,True
1599385065.0803556,0.0,10,0.5,0.5,-2.1842468101501464,-0.001,-0.02275,-0.12575,0.11998365272577843,10,1,100,0.3534845112872283,-10,-1,-100,19018.48687274533,-0.03227730521852005,0.01096373134465667,0.9994188171946898,68.7799310995082,4.248220174466306,406.2105158583315,-103.65346941965707,8.3861083984375,4761.76025390625,True
1599385065.113367,0.0,10,0.5,0.5,-2.2994126152038574,-0.001,-0.02275,-0.12575,0.18871273014490558,10,1,100,0.39043597785300777,-10,-1,-100,19014.329817758407,-0.0326105390507751,0.011588337350491602,0.9994009521609779,69.36618361180301,4.284219347042409,411.23856784156925,-104.01732800901407,9.0384521484375,4761.76025390625,True
1599385065.1475422,0.0,10,0.5,0.5,-2.2787086662292477,-0.001,-0.02275,-0.12575,0.16601896663076293,10,1,100,0.37514981159121774,-10,-1,-100,19012.245832891087,-0.03277152221952752,0.011949082438595986,0.9993914382064171,69.62069567568152,4.299809266124667,413.53358313516327,-104.19924383054384,9.25433349609375,4761.76025390625,True
1599385065.1864774,0.0,10,0.5,0.5,-2.3062708061218262,-0.001,-0.02275,-0.12575,0.22067008003095906,10,1,100,0.39444341457607757,-10,-1,-100,19008.066948662396,-0.03309053679846928,0.012772404356378175,0.9993707430485177,70.05518804513612,4.326362214726345,417.69739269447035,-104.56305195520054,9.465484619140625,4761.76025390625,True
1599385065.213375,0.0,10,0.5,0.5,-2.2470034362792966,-0.001,-0.02275,-0.12575,0.3700360288411576,10,1,100,0.4230925284593581,-10,-1,-100,18999.66552631196,-0.03363817441408432,0.014876414120345396,0.9993233538374893,70.63638648884996,4.361734427451055,424.3591570886278,-105.29059276468806,9.006805419921875,4761.76025390625,True
1599385065.247328,0.0,10,0.5,0.5,-2.3187246109008792,-0.001,-0.02275,-0.12575,0.16013074775039093,10,1,100,0.36861316452292814,-10,-1,-100,18999.66552631196,-0.03363817441408432,0.014876414120345396,0.9993233538374893,70.63638648884996,4.361734427451055,424.3591570886278,-105.29059276468806,9.006805419921875,4761.76025390625,True
1599385065.2802258,0.0,10,0.5,0.5,-2.292814420318604,-0.001,-0.02275,-0.12575,0.22900786805647533,10,1,100,0.3811394028729649,-10,-1,-100,18997.556076948298,-0.03374963878090986,0.015498072049469402,0.9993101478744761,70.72241712537023,4.366953233058857,425.6770380232997,-105.47246622977288,8.70867919921875,4761.76025390625,True
1599385065.316273,0.0,10,0.5,0.5,-2.23421890335083,-0.001,-0.02275,-0.12575,0.3173388542390533,10,1,100,0.3885926741595067,-10,-1,-100,18993.326266049757,-0.033916564924295976,0.01686128240542944,0.9992824244323425,70.82187490435597,4.3729842262032586,427.881264549822,-105.83620364886468,7.8924560546875,4761.76025390625,True
1599385065.3471954,0.0,10,0.5,0.5,-2.2766814567565916,-0.001,-0.02275,-0.12575,0.2612813832794738,10,1,100,0.3830431913058036,-10,-1,-100,18991.205904607545,-0.03401555225769549,0.01758476971144265,0.9992665900943548,70.83361936895389,4.373702888298888,428.7558061992754,-106.01806902950906,7.374176025390625,4761.76025390625,True
1599385065.5147474,0.0,10,0.5,0.5,-2.182463766479492,-0.001,-0.02275,-0.12575,0.36233431887660805,10,1,100,0.3880442387399,-10,-1,-100,18986.95426983887,-0.03414909939254328,0.01915470787360629,0.9992331740774798,70.78005369969904,4.370507405193947,430.0389056268167,-106.3817969539916,6.117828369140625,4761.76025390625,True
1599385065.5386758,0.0,10,0.5,0.5,-2.0267885902404785,-0.001,-0.02275,-0.12575,0.49698443041884455,10,1,100,0.37761235518188196,-10,-1,-100,18980.549538040883,-0.034173968942628356,0.02179856996547634,0.9991781433729265,70.49351167414332,4.353383648632965,430.7027600369434,-106.92739227014492,3.68389892578125,4761.76025390625,True
1599385065.5756054,0.0,10,0.5,0.5,-2.0700734169006347,-0.001,-0.02275,-0.12575,0.447313309272129,10,1,100,0.3658800421038788,-10,-1,-100,18976.26153003506,-0.03408819599315648,0.0237406754580055,0.9991368150672508,70.15150922968543,4.332989296396063,430.2109970695237,-107.29113356519903,1.695068359375,4761.76025390625,True
1599385065.6286821,0.0,10,0.5,0.5,-2.3034626625061034,-0.001,-0.02275,-0.12575,0.25431799382996445,10,1,100,0.37460510274530434,-10,-1,-100,18976.26153003506,-0.03408819599315648,0.0237406754580055,0.9991368150672508,70.15150922968543,4.332989296396063,430.2109970695237,-107.29113356519903,1.695068359375,4761.76025390625,True
1599385065.651611,0.0,10,0.5,0.5,-1.8385324089050292,-0.001,-0.02275,-0.12575,0.6041154120383443,10,1,100,0.3313963379476016,-10,-1,-100,18969.802236083546,-0.03369419206429225,0.026909932357154945,0.9990698458874974,69.38349521613056,4.2873073408676765,427.8749299820269,-107.83677751103527,-1.83734130859375,4761.76025390625,True
1599385065.6954684,0.0,10,0.5,0.5,-2.0892168182373045,-0.001,-0.02275,-0.12575,0.41186971818274565,10,1,100,0.34930386724562745,-10,-1,-100,18967.641862646677,-0.033498253617792434,0.028030534568602838,0.9990456226501153,69.05178706222998,4.267608965477894,426.6176552255028,-108.01867059152106,-3.161224365234375,4761.76025390625,True
1599385065.722432,0.0,10,0.5,0.5,-2.050946560668945,-0.001,-0.02275,-0.12575,0.42848882015428125,10,1,100,0.3477197874325979,-10,-1,-100,18965.47785092285,-0.03330585423248896,0.029188388305616465,0.99901889775017,68.67961260561589,4.245524623720922,425.10267544653016,-108.20057088319554,-4.558197021484375,4761.76025390625,True
1599385065.7474768,0.0,10,0.5,0.5,-1.8137725814819334,-0.001,-0.02275,-0.12575,0.5767038342330644,10,1,100,0.3017468624803533,-10,-1,-100,18961.138913378818,-0.03271331212826685,0.031575380945267545,0.9989658825644446,68.21456057854957,4.2190041262480555,423.7831529133068,-108.56438547068163,-7.571868896484375,4761.76025390625,True
1599385065.7811515,0.0,10,0.5,0.5,-1.9507985511779786,-0.001,-0.02275,-0.12575,0.47543531629332203,10,1,100,0.32319588986871445,-10,-1,-100,18958.96398774453,-0.03237057076127971,0.03281013562832014,0.9989372558617685,68.73513388330792,4.252539686786375,427.802958862052,-108.74627482118333,-9.1884765625,4761.76025390625,True
1599385065.8151124,0.0,10,0.5,0.5,-1.9010509788513184,-0.001,-0.02275,-0.12575,0.49236870120521714,10,1,100,0.31575389038567414,-10,-1,-100,18956.785424953792,-0.0319927386088665,0.03407208079100074,0.998907181867703,69.26233996151848,4.286652099689085,431.8761344173323,-108.9281463842188,-10.87823486328125,4761.76025390625,True
1599385065.851133,0.0,10,0.5,0.5,-1.1224757873535156,-0.001,-0.02275,-0.12575,0.9411518065170453,10,1,100,0.1280722631623616,-10,-1,-100,18948.03480586363,-0.029944897144323312,0.039284161613472854,0.998779283816671,71.37217987678288,4.424848932868094,448.295374833992,-109.65544420803006,-18.369659423828125,4761.76025390625,True
1599385065.882019,0.0,10,0.5,0.5,-2.0088133911132813,-0.001,-0.02275,-0.12575,0.42195666964382084,10,1,100,0.33243598939185826,-10,-1,-100,18948.03480586363,-0.029944897144323312,0.039284161613472854,0.998779283816671,71.37217987678288,4.424848932868094,448.295374833992,-109.65544420803006,-18.369659423828125,4761.76025390625,True
1599385065.9153337,0.0,10,0.5,0.5,-1.1488735176086426,-0.001,-0.02275,-0.12575,0.8590981172796665,10,1,100,0.09574803561962764,-10,-1,-100,18941.433667465113,-0.0277970330843924,0.043242278781391454,0.9986778410866528,72.95701295330758,4.530307372305994,460.74916556619166,-110.20070797438524,-24.75836181640625,4761.76025390625,True
1599385065.9492424,0.0,10,0.5,0.5,-1.8920712898254395,-0.001,-0.02275,-0.12575,0.4652365608201451,10,1,100,0.30990532532184223,-10,-1,-100,18941.433667465113,-0.0277970330843924,0.043242278781391454,0.9986778410866528,72.95701295330758,4.530307372305994,460.74916556619166,-110.20070797438524,-24.75836181640625,4761.76025390625,True
1599385065.9861777,0.0,10,0.5,0.5,-0.9383347282409668,-0.001,-0.02275,-0.12575,0.8944225373636568,10,1,100,0.01343496770932101,-10,-1,-100,18934.799821200315,-0.02510756725419563,0.04712624074694757,0.9985733460791133,74.55992890254024,4.637983406593382,473.4215187865313,-110.74577425214653,-31.80810546875,4761.76025390625,True
1599385066.0152452,0.0,10,0.5,0.5,-1.1143696006774901,-0.001,-0.02275,-0.12575,0.7834444181163613,10,1,100,0.0492068674564512,-10,-1,-100,18930.359091739287,-0.02299560342881802,0.04962984480575973,0.9985029197390966,75.60854838625878,4.708869269299085,481.79974403110947,-111.10903954471361,-36.875457763671875,4761.76025390625,True
1599385066.04921,0.0,10,0.5,0.5,-0.9955691490173338,-0.001,-0.02275,-0.12575,0.7942193947643978,10,1,100,-0.0007632838199816971,-10,-1,-100,18925.903834137716,-0.020630910076133505,0.0519841670921737,0.9984347810053311,76.48634655763686,4.7691442948508564,489.13028961457604,-111.47222227415506,-42.2349853515625,4761.76025390625,True
1599385066.0822806,0.0,10,0.5,0.5,-1.230409684753418,-0.001,-0.02275,-0.12575,0.6819620762390586,10,1,100,0.09540528056198319,-10,-1,-100,18923.67075834144,-0.019366971199125768,0.05308321556705917,0.9984022699551685,76.8466338327177,4.794318888784638,492.3058603599356,-111.65378659560318,-45.023193359375,4761.76025390625,True
1599385066.11906,0.0,10,0.5,0.5,-0.7611601387023924,-0.001,-0.02275,-0.12575,0.8035246517654964,10,1,100,-0.0738354853912491,-10,-1,-100,18919.193713899003,-0.016691516475843115,0.05516791229026649,0.9983375655214374,77.3817266349566,4.832823496983496,497.48733172296926,-112.01687175310674,-50.819366455078125,4761.76025390625,True
1599385066.1490195,0.0,10,0.5,0.5,-1.3953186309814454,-0.001,-0.02275,-0.12575,0.5972907571109586,10,1,100,0.19214208150847256,-10,-1,-100,18919.193713899003,-0.016691516475843115,0.05516791229026649,0.9983375655214374,77.3817266349566,4.832823496983496,497.48733172296926,-112.01687175310674,-50.819366455078125,4761.76025390625,True
1599385066.182959,0.0,10,0.5,0.5,-0.5325068397521973,-0.001,-0.02275,-0.12575,0.8100751760711796,10,1,100,-0.12549701721485707,-10,-1,-100,18914.70214752038,-0.01381779850757014,0.05708313807036008,0.9982738020164831,77.62970442384773,4.852871550499008,500.8391715329785,-112.37991603496019,-56.90966796875,4761.76025390625,True
1599385066.2168384,0.0,10,0.5,0.5,0.009114817810058629,-0.001,-0.02275,-0.12575,0.8783274239920831,10,1,100,-0.34434400001107635,-10,-1,-100,18907.937570554903,-0.00923047060066249,0.059428546509310745,0.9981898848777627,77.36045070336641,4.841613245687156,501.7291543184047,-112.9244601326009,-66.5333251953125,4761.76025390625,True
1599385066.252899,0.0,10,0.5,0.5,-1.0914877388000488,-0.001,-0.02275,-0.12575,0.6458010185866001,10,1,100,0.11231734802532256,-10,-1,-100,18907.937570554903,-0.00923047060066249,0.059428546509310745,0.9981898848777627,77.36045070336641,4.841613245687156,501.7291543184047,-112.9244601326009,-66.5333251953125,4761.76025390625,True
1599385066.2838273,0.0,10,0.5,0.5,0.7256375068664551,-0.001,-0.02275,-0.12575,0.8788159543378942,10,1,100,-0.5869459223332081,-10,-1,-100,18898.867306620115,-0.002890410472388329,0.06153214931820622,0.9981009168053014,75.60585441271778,4.737112703445318,493.7794968457155,-113.65062346904938,-80.11981201171875,4761.76025390625,True
1599385066.31573,0.0,10,0.5,0.5,-0.8569159111022949,-0.001,-0.02275,-0.12575,0.6702846605020283,10,1,100,0.04456942823300755,-10,-1,-100,18898.867306620115,-0.002890410472388329,0.06153214931820622,0.9981009168053014,75.60585441271778,4.737112703445318,493.7794968457155,-113.65062346904938,-80.11981201171875,4761.76025390625,True
1599385066.3506908,0.0,10,0.5,0.5,0.5891327095031738,-0.001,-0.02275,-0.12575,0.7659472460990899,10,1,100,-0.48859592605091334,-10,-1,-100,18892.026477062493,0.0019363498785729453,0.06238871290675109,0.9980500483698134,73.19991833183387,4.589683990964278,480.5653205622588,-114.19544128929634,-90.66134643554688,4761.76025390625,True
1599385066.3858697,0.0,10,0.5,0.5,0.2965719173431396,-0.001,-0.02275,-0.12575,0.7039786869479647,10,1,100,-0.3646840741771719,-10,-1,-100,18887.447759194765,0.0051751770412242805,0.06259245756941711,0.998025752071565,71.0916962239414,4.459909476440182,468.3461912260838,-114.55878696890562,-97.84615325927734,4761.76025390625,True
1599385066.4157543,0.0,10,0.5,0.5,-0.4804021337509155,-0.001,-0.02275,-0.12575,0.6846650497290866,10,1,100,-0.04338196662377415,-10,-1,-100,18887.447759194765,0.0051751770412242805,0.06259245756941711,0.998025752071565,71.0916962239414,4.459909476440182,468.3461912260838,-114.55878696890562,-97.84615325927734,4761.76025390625,True
1599385066.4490886,0.0,10,0.5,0.5,0.5523194278717042,-0.001,-0.02275,-0.12575,0.6757124571343506,10,1,100,-0.3620815901437585,-10,-1,-100,18882.854503647774,0.008050135302096547,0.06250242559855373,0.998012345673096,68.58898343112601,4.305739404434323,453.424481360252,-114.92225808686065,-105.0457534790039,4761.76025390625,True
1599385066.4830737,0.0,10,0.5,0.5,0.22174138698577883,-0.001,-0.02275,-0.12575,0.6713220551340802,10,1,100,-0.23434736707058607,-10,-1,-100,18880.552422620705,0.009480021100608005,0.062373997867486125,0.9980078224092029,67.23014575100714,4.222071788980198,445.2089848383748,-115.10404296233034,-108.60714721679688,4761.76025390625,True
1599385066.5189779,0.0,10,0.5,0.5,1.2689605432510376,-0.001,-0.02275,-0.12575,0.5984898475880882,10,1,100,-0.5418473660394517,-10,-1,-100,18873.624363293522,0.01355157951026588,0.06158858342011817,0.9980096197357419,67.00329428794534,4.213740436973305,445.99820171602846,-115.64943396971576,-119.36531066894531,4761.76025390625,True
1599385066.54967,0.0,10,0.5,0.5,0.05820807628631592,-0.001,-0.02275,-0.12575,0.6774818368598594,10,1,100,-0.13742846287544783,-10,-1,-100,18873.624363293522,0.01355157951026588,0.06158858342011817,0.9980096197357419,67.00329428794534,4.213740436973305,445.99820171602846,-115.64943396971576,-119.36531066894531,4761.76025390625,True
1599385066.5816493,0.0,10,0.5,0.5,1.0768451333999634,-0.001,-0.02275,-0.12575,0.5953901162588692,10,1,100,-0.4027364374842267,-10,-1,-100,18868.987482304685,0.015942759233881207,0.060840331381099344,0.9980201814119035,68.72404753241887,4.326536895448186,459.01490245829143,-116.01287392079259,-126.45362854003906,4761.76025390625,True
1599385066.6153133,0.0,10,0.5,0.5,1.6246333021163941,-0.001,-0.02275,-0.12575,0.5239232343602322,10,1,100,-0.5061608886778495,-10,-1,-100,18862.00491081085,0.019033896511805763,0.05950911988757481,0.9980462792044184,70.72274627741244,4.459377060042954,474.7701316875238,-116.55781907720232,-136.73233032226562,4761.76025390625,True
1599385066.6523068,0.0,10,0.5,0.5,0.4608800321578979,-0.001,-0.02275,-0.12575,0.6568420807696224,10,1,100,-0.19923959158381327,-10,-1,-100,18862.00491081085,0.019033896511805763,0.05950911988757481,0.9980462792044184,70.72274627741244,4.459377060042954,474.7701316875238,-116.55781907720232,-136.73233032226562,4761.76025390625,True
1599385066.6822212,0.0,10,0.5,0.5,2.25388228969574,-0.001,-0.02275,-0.12575,0.43684944507602574,10,1,100,-0.5523440082269644,-10,-1,-100,18852.643968014512,0.022224005474939686,0.05751102595347905,0.9980974779421237,72.37511905520468,4.571714314747892,489.1376744647989,-117.28412635790973,-149.8621826171875,4761.76025390625,True
1599385066.7151423,0.0,10,0.5,0.5,1.135031488609314,-0.001,-0.02275,-0.12575,0.5729731181563724,10,1,100,-0.3052661034810558,-10,-1,-100,18850.294654507656,0.022859498438647388,0.05693649912044358,0.998116064593212,72.54752128426897,4.58429152033668,491.12329710535914,-117.46567506631136,-152.99864196777344,4761.76025390625,True
1599385066.7498019,0.0,10,0.5,0.5,0.8660936370849608,-0.001,-0.02275,-0.12575,0.6298602056150223,10,1,100,-0.2434852392500279,-10,-1,-100,18850.294654507656,0.022859498438647388,0.05693649912044358,0.998116064593212,72.54752128426897,4.58429152033668,491.12329710535914,-117.46567506631136,-152.99864196777344,4761.76025390625,True
1599385066.7857063,0.0,10,0.5,0.5,2.5108461771011354,-0.001,-0.02275,-0.12575,0.40597286274807687,10,1,100,-0.45125268144128405,-10,-1,-100,18840.86109125463,0.024732216711842968,0.054906301420243143,0.9981851609400273,72.43061403708712,4.582339861881251,493.61245712552767,-118.19185552548589,-164.98507690429688,4761.76025390625,True
1599385066.8162239,0.0,10,0.5,0.5,1.1399139446258544,-0.001,-0.02275,-0.12575,0.6082330203502895,10,1,100,-0.2656490622627007,-10,-1,-100,18840.86109125463,0.024732216711842968,0.054906301420243143,0.9981851609400273,72.43061403708712,4.582339861881251,493.61245712552767,-118.19185552548589,-164.98507690429688,4761.76025390625,True
1599385066.8502703,0.0,10,0.5,0.5,2.3163871059417724,-0.001,-0.02275,-0.12575,0.45595097346237556,10,1,100,-0.35005594884803903,-10,-1,-100,18833.747792392154,0.025485686412063103,0.0535287079907596,0.9982410316195914,71.65404851436696,4.5363243069308,490.7613883867694,-118.73654561346554,-173.2550048828125,4761.76025390625,True
1599385066.8822722,0.0,10,0.5,0.5,1.3990427169799804,-0.001,-0.02275,-0.12575,0.592904328867794,10,1,100,-0.2759023895162052,-10,-1,-100,18833.747792392154,0.025485686412063103,0.0535287079907596,0.9982410316195914,71.65404851436696,4.5363243069308,490.7613883867694,-118.73654561346554,-173.2550048828125,4761.76025390625,True
1599385066.9192026,0.0,10,0.5,0.5,2.174867670059204,-0.001,-0.02275,-0.12575,0.49902161136160417,10,1,100,-0.2963219406795438,-10,-1,-100,18828.987435160438,0.025660469507273638,0.052682555900184565,0.9982815677996316,70.90016271294364,4.490505428153132,487.2124154212006,-119.0997248952724,-178.40866088867188,4761.76025390625,True
1599385066.9502366,0.0,10,0.5,0.5,-43.076246353149415,-0.001,-0.02275,-0.12575,0.47264567362222565,10,1,100,-0.27175327522631776,-10,-1,-100,18821.819657295244,0.02558717744400535,0.05168096163428647,0.998335802500844,69.53570630513005,4.407039871806824,480.21685167767544,-119.64459113971242,174.421630859375,4761.76025390625,True
1599385066.9833531,0.0,10,0.5,0.5,1.142690793609619,-0.001,-0.02275,-0.12575,0.5156499144187695,10,1,100,-0.24745866108563722,-10,-1,-100,18817.022974181105,0.02529373063890781,0.05116848554366886,0.9983696776633062,68.5332467945936,4.345706930141404,474.86127301797046,-120.00790488392653,170.01608276367188,4761.76025390625,True
1599385067.0163646,0.0,10,0.5,0.5,-0.10915951919555666,-0.001,-0.02275,-0.12575,0.5660634600461398,10,1,100,-0.2774293250081014,-10,-1,-100,18817.022974181105,0.02529373063890781,0.05116848554366886,0.9983696776633062,68.5332467945936,4.345706930141404,474.86127301797046,-120.00790488392653,170.01608276367188,4761.76025390625,True
1599385067.0523083,0.0,10,0.5,0.5,0.0009330703735351831,-0.001,-0.02275,-0.12575,0.5094986167470057,10,1,100,-0.19276059390257583,-10,-1,-100,18809.80069724773,0.024521224242344878,0.050660025641322014,0.9984148793781458,66.89167205171714,4.245423319304464,465.7852107177453,-120.55298227887313,163.40609741210938,4761.76025390625,True
1599385067.0833006,0.0,10,0.5,0.5,-1.5500933696746824,-0.001,-0.02275,-0.12575,0.5597169596337781,10,1,100,-0.2701774061392387,-10,-1,-100,18809.80069724773,0.024521224242344878,0.050660025641322014,0.9984148793781458,66.89167205171714,4.245423319304464,465.7852107177453,-120.55298227887313,163.40609741210938,4761.76025390625,True
1599385067.116299,0.0,10,0.5,0.5,-1.7128647666931154,-0.001,-0.02275,-0.12575,0.5455602564904215,10,1,100,-0.18862669224222373,-10,-1,-100,18804.967674308922,0.023778343456186835,0.05053703422499979,0.9984390810431154,65.92145966105721,4.186839904327098,460.54069490543264,-120.91643613747077,159.01123046875,4761.76025390625,True
1599385067.1502423,0.0,10,0.5,0.5,-2.7239392036437984,-0.001,-0.02275,-0.12575,0.5549549219272564,10,1,100,-0.21639547086509411,-10,-1,-100,18802.545711404644,0.023356307886483487,0.0505146019570374,0.9984501779613412,66.6901949164854,4.237336870051291,466.6758991358827,-121.0981414852476,156.81263732910156,4761.76025390625,True
1599385067.1852634,0.0,10,0.5,0.5,-2.5778791393280027,-0.001,-0.02275,-0.12575,0.5998504786209897,10,1,100,-0.02921844805531812,-10,-1,-100,18792.821528688073,0.021272280714687352,0.050906342864708444,0.9984768571826471,69.60198592591208,4.430209074980539,490.2439355974508,-121.82471301608525,147.70318603515625,4761.76025390625,True
1599385067.2162316,0.0,10,0.5,0.5,-4.453572523880005,-0.001,-0.02275,-0.12575,0.5604141513412803,10,1,100,-0.23719982466519404,-10,-1,-100,18792.821528688073,0.021272280714687352,0.050906342864708444,0.9984768571826471,69.60198592591208,4.430209074980539,490.2439355974508,-121.82471301608525,147.70318603515625,4761.76025390625,True
