Timestamp,Input Throttle,horizon,dT,dt,Input Roll,Roll P,Roll I,Roll D,Input Pitch,Pitch P,Pitch I,Pitch D,Input Yaw,Yaw P,Yaw I,Yaw D,Altitude,Direction X,Direction Y,Direction Z,Drag X,Drag Y,Drag Z,Vertical Velocity,Roll,Mass,Has Fuel
1599386359.6023602,0.0,10,0.5,0.5,-5.635526184082032,-0.1005,-0.00825,-0.12575,-0.00017941929931871055,10,1,100,0.4981391185664153,-10,-1,-100,19349.722302923677,-0.04884610204308249,-0.0001754630870677456,0.9988063013056645,61.076518323508395,3.6862971645010116,233.73148829960664,-68.66499547510683,-33.92236328125,4761.76025390625,True
1599386359.6352713,0.0,10,0.5,0.5,-5.681541790771485,-0.1005,-0.00825,-0.12575,0.00014447650689390786,10,1,100,0.5048005995323814,-10,-1,-100,19346.964755617897,-0.048950238123966566,-0.00015803896264703524,0.9988012060521819,61.25630764548665,3.6984984417334603,235.7127696215474,-69.02990543769495,-33.9246826171875,4761.76025390625,True
1599386359.6741667,0.0,10,0.5,0.5,-5.717476306152344,-0.1005,-0.00825,-0.12575,0.012095816077989197,10,1,100,0.5108108545399672,-10,-1,-100,19342.801067392225,-0.049055045753817444,-3.3406636197662285e-05,0.9987960759685071,61.528069668873044,3.7169539683637383,238.70831739217093,-69.57724465545975,-33.97161865234375,4761.76025390625,True
1599386359.7200458,0.0,10,0.5,0.5,-5.769601927185058,-0.1005,-0.00825,-0.12575,-0.0003707572305678672,10,1,100,0.5052355961302611,-10,-1,-100,19342.801067392225,-0.049055045753817444,-3.3406636197662285e-05,0.9987960759685071,61.528069668873044,3.7169539683637383,238.70831739217093,-69.57724465545975,-33.97161865234375,4761.76025390625,True
1599386359.7649317,0.0,10,0.5,0.5,-5.752019914245605,-0.1005,-0.00825,-0.12575,0.023989128341082026,10,1,100,0.5086013721568916,-10,-1,-100,19340.007031051675,-0.04904104822155607,0.0001880772386684255,0.9987967461982858,61.71900765997548,3.729859153187133,240.75387946961732,-69.94211968162568,-34.253631591796875,4761.76025390625,True
1599386359.8048253,0.0,10,0.5,0.5,-5.705172480010987,-0.1005,-0.00825,-0.12575,0.03681878297795437,10,1,100,0.5060856219826196,-10,-1,-100,19337.198400317226,-0.048960869964987296,0.0005058884604831008,0.9988005693275995,61.923405860726,3.743567776248321,242.8609504075032,-70.30697901472243,-34.820709228515625,4761.76025390625,True
1599386359.8427231,0.0,10,0.5,0.5,-5.366867849731446,-0.1005,-0.00825,-0.12575,0.12360434964254673,10,1,100,0.4686797684822308,-10,-1,-100,19331.537357666763,-0.048503417545407615,0.001583307551392297,0.998821761689048,62.35637933806745,3.7723253485187755,247.19859862262552,-71.0366452574188,-36.832366943359375,4761.76025390625,True
1599386359.887249,0.0,10,0.5,0.5,-5.336543250274659,-0.1005,-0.00825,-0.12575,0.09875815249374816,10,1,100,0.4755170204095879,-10,-1,-100,19328.6849475418,-0.04810561452917896,0.0023354655621830407,0.9988395243738494,62.568994781104784,3.78635688228156,249.36651057153043,-71.40145048231497,-38.278350830078125,4761.76025390625,True
1599386359.9231522,0.0,10,0.5,0.5,-5.561046084594727,-0.1005,-0.00825,-0.12575,0.023775897970892086,10,1,100,0.5201078834853711,-10,-1,-100,19328.6849475418,-0.04810561452917896,0.0023354655621830407,0.9988395243738494,62.568994781104784,3.78635688228156,249.36651057153043,-71.40145048231497,-38.278350830078125,4761.76025390625,True
1599386359.959056,0.0,10,0.5,0.5,-4.749990019989014,-0.1005,-0.00825,-0.12575,0.22615032251973521,10,1,100,0.39373314644912305,-10,-1,-100,19322.936352858902,-0.04691302090655018,0.004173109907570539,0.9988902610512933,62.924749918471804,3.809837233967525,253.45093656477118,-72.13100617031733,-42.051727294921875,4761.76025390625,True
1599386359.996469,0.0,10,0.5,0.5,-5.2640494354248055,-0.1005,-0.00825,-0.12575,0.04280319897174243,10,1,100,0.5176838108026561,-10,-1,-100,19322.936352858902,-0.04691302090655018,0.004173109907570539,0.9988902610512933,62.924749918471804,3.809837233967525,253.45093656477118,-72.13100617031733,-42.051727294921875,4761.76025390625,True
1599386360.0293803,0.0,10,0.5,0.5,-4.442634191131592,-0.1005,-0.00825,-0.12575,0.22692458658208683,10,1,100,0.37998463257455145,-10,-1,-100,19318.58660692873,-0.04566296754187335,0.005842987455851272,0.9989398144497298,63.066272721874874,3.8194001767835215,256.0267038110255,-72.67813171799374,-45.65264892578125,4761.76025390625,True
1599386360.0672824,0.0,10,0.5,0.5,-4.8857745140075695,-0.1005,-0.00825,-0.12575,0.060536934395863405,10,1,100,0.5046612419840253,-10,-1,-100,19318.58660692873,-0.04566296754187335,0.005842987455851272,0.9989398144497298,63.066272721874874,3.8194001767835215,256.0267038110255,-72.67813171799374,-45.65264892578125,4761.76025390625,True
1599386360.109167,0.0,10,0.5,0.5,-4.249904067230225,-0.1005,-0.00825,-0.12575,0.19573735303034268,10,1,100,0.3922856042346089,-10,-1,-100,19315.668539284146,-0.04464445454252588,0.007066739994262857,0.9989779446336411,63.06389206297221,3.8196414923513387,257.354885524454,-73.04286872069702,-48.4205322265625,4761.76025390625,True
1599386360.143077,0.0,10,0.5,0.5,-3.893112985992432,-0.1005,-0.00825,-0.12575,0.2092790097086869,10,1,100,0.36430237109492825,-10,-1,-100,19312.73588234652,-0.043468150233859526,0.008295893592957918,0.9990203691941126,62.957010325448586,3.813306238308513,258.2550255526751,-73.40760128254617,-51.48321533203125,4761.76025390625,True
1599386360.1759887,0.0,10,0.5,0.5,-2.67883101348877,-0.1005,-0.00825,-0.12575,0.38386750646177664,10,1,100,0.1706195852390186,-10,-1,-100,19306.826799823204,-0.0406430963527343,0.010993103365568526,0.9991132520376539,62.326694234369434,3.7746563665049693,258.3181379572541,-74.1370821866389,-58.4896240234375,4761.76025390625,True
1599386360.2098982,0.0,10,0.5,0.5,-3.540360051727295,-0.1005,-0.00825,-0.12575,0.11519525069122438,10,1,100,0.4522931959903162,-10,-1,-100,19306.826799823204,-0.0406430963527343,0.010993103365568526,0.9991132520376539,62.326694234369434,3.7746563665049693,258.3181379572541,-74.1370821866389,-58.4896240234375,4761.76025390625,True
1599386360.2438068,0.0,10,0.5,0.5,-3.084540811157227,-0.1005,-0.00825,-0.12575,0.19034845390253802,10,1,100,0.36323505062493544,-10,-1,-100,19305.340410517878,-0.03984062259595145,0.011667759944022126,0.9991379224957161,62.062543165668075,3.7583997247460457,257.88346388067225,-74.31946211789068,-60.425323486328125,4761.76025390625,True
1599386360.2767186,0.0,10,0.5,0.5,-2.3836385391235355,-0.1005,-0.00825,-0.12575,0.26659780227595153,10,1,100,0.255291661455743,-10,-1,-100,19302.356688381988,-0.03813731109000459,0.01296577609657294,0.9991883877192717,61.38163910396492,3.7165239593740815,256.3610029725146,-74.68424237296428,-64.51834106445312,4761.76025390625,True
1599386360.3056417,0.0,10,0.5,0.5,-1.8843097686767578,-0.1005,-0.00825,-0.12575,0.2902990092719637,10,1,100,0.21545629358096463,-10,-1,-100,19299.358374128235,-0.03623576847068143,0.014351592380187983,0.9992402118006921,60.47307193145871,3.6607741315220927,253.8554620455408,-75.04905880521693,-68.904541015625,4761.76025390625,True
1599386360.3385546,0.0,10,0.5,0.5,-1.8924026725769043,-0.1005,-0.00825,-0.12575,0.223352442875963,10,1,100,0.29532873961775863,-10,-1,-100,19297.853744259453,-0.03524291310111839,0.014993567050353818,0.9992662958507376,59.92470244276437,3.627204337047145,252.19285483056467,-75.23148406460729,-71.20870971679688,4761.76025390625,True
1599386360.3704684,0.0,10,0.5,0.5,-1.0653957695007326,-0.1005,-0.00825,-0.12575,0.29650621668096266,10,1,100,0.16444715562328843,-10,-1,-100,19294.83353809081,-0.033161093917752654,0.01623237791496568,0.9993181934486152,58.62318124872301,3.5477556051194252,247.96765851902148,-75.5963749181907,-76.038330078125,4761.76025390625,True
1599386360.4033813,0.0,10,0.5,0.5,-1.0762481910705566,-0.1005,-0.00825,-0.12575,0.23825464422332604,10,1,100,0.25259995491592535,-10,-1,-100,19293.317961127148,-0.03208128544792061,0.016819564960035116,0.9993437313350019,57.86388699448341,3.501542418303063,245.37461509976495,-75.77884285437781,-78.56387329101562,4761.76025390625,True
1599386360.4362934,0.0,10,0.5,0.5,1.0859554412841796,-0.1005,-0.00825,-0.12575,0.4163812524230669,10,1,100,-0.14711946860693542,-10,-1,-100,19287.2191528026,-0.027478175427041795,0.018962725459637536,0.9994425270711383,54.041656306503704,3.2701415022352442,231.4809240200083,-76.50888628361568,-89.40426635742188,4761.76025390625,True
1599386360.468207,0.0,10,0.5,0.5,-0.24341240615844728,-0.1005,-0.00825,-0.12575,0.20325480100936238,10,1,100,0.31147490556939783,-10,-1,-100,19287.2191528026,-0.027478175427041795,0.018962725459637536,0.9994425270711383,54.041656306503704,3.2701415022352442,231.4809240200083,-76.50888628361568,-89.40426635742188,4761.76025390625,True
1599386360.5061054,0.0,10,0.5,0.5,1.782907165145874,-0.1005,-0.00825,-0.12575,0.34652721665090225,10,1,100,-0.08734484571483053,-10,-1,-100,19282.606712975074,-0.02386707766519137,0.020255504845590917,0.9995099184736358,53.697117684616835,3.2506477838024423,231.73202817704737,-77.05652979873093,-98.22209930419922,4761.76025390625,True
1599386360.5380192,0.0,10,0.5,0.5,0.7068439641952514,-0.1005,-0.00825,-0.12575,0.21817551820356637,10,1,100,0.27208732860145757,-10,-1,-100,19282.606712975074,-0.02386707766519137,0.020255504845590917,0.9995099184736358,53.697117684616835,3.2506477838024423,231.73202817704737,-77.05652979873093,-98.22209930419922,4761.76025390625,True
1599386360.566943,0.0,10,0.5,0.5,2.0814618927001955,-0.1005,-0.00825,-0.12575,0.2993560730829235,10,1,100,-0.013215635275871551,-10,-1,-100,19279.51350168907,-0.021288665283295236,0.02098508952496687,0.9995531095184913,55.39182411121925,3.3548598023109917,240.23284433261168,-77.42152496448344,-104.15287780761719,4761.76025390625,True
1599386360.5988564,0.0,10,0.5,0.5,2.0353361267089847,-0.1005,-0.00825,-0.12575,0.2602211161652074,10,1,100,0.11154946402004312,-10,-1,-100,19277.961421811255,-0.020095747618182207,0.021284105689164914,0.9995714820725323,56.23411921126259,3.406833510409673,244.48817163060298,-77.60398694492926,-107.08589172363281,4761.76025390625,True
1599386360.6267827,0.0,10,0.5,0.5,2.9892222126007084,-0.1005,-0.00825,-0.12575,0.28776891145164196,10,1,100,-0.046687068767299,-10,-1,-100,19274.846316082287,-0.017589164500441637,0.021798810950501093,0.999607639593316,57.664481626843546,3.495595707250505,251.941322212167,-77.9688423938939,-112.77691650390625,4761.76025390625,True
1599386360.6586962,0.0,10,0.5,0.5,2.932330904769898,-0.1005,-0.00825,-0.12575,0.26047658679943597,10,1,100,0.06758102051856424,-10,-1,-100,19273.28329118481,-0.016366204845067366,0.022011842583450007,0.9996237422775885,58.32151747757873,3.536508295349132,255.4357336120361,-78.1512378452454,-115.528564453125,4761.76025390625,True
1599386360.6866221,0.0,10,0.5,0.5,3.819606575012207,-0.1005,-0.00825,-0.12575,0.27632012179550397,10,1,100,-0.08144174449972957,-10,-1,-100,19270.146299245534,-0.013916831574793585,0.022343159590155915,0.9996534924754915,59.43812265858319,3.606345498785451,261.5967580654696,-78.51597077859111,-120.81798553466797,4761.76025390625,True
1599386360.7195344,0.0,10,0.5,0.5,3.7649807390213015,-0.1005,-0.00825,-0.12575,0.258158064083307,10,1,100,0.030472313296514356,-10,-1,-100,19268.572332765558,-0.012725023911185965,0.022473691997345686,0.9996664478387118,59.867520858447406,3.6333939351591056,264.1260895570404,-78.69831258304814,-123.3531265258789,4761.76025390625,True
1599386360.750451,0.0,10,0.5,0.5,5.103998403167726,-0.1005,-0.00825,-0.12575,0.27115411169239334,10,1,100,-0.23882906697623302,-10,-1,-100,19263.828555208165,-0.009210964634096548,0.022705363593930526,0.9996997672274295,60.704445494698135,3.6867589557298603,269.7627422304235,-79.24526530637729,-130.51715087890625,4761.76025390625,True
1599386360.7853575,0.0,10,0.5,0.5,4.743952186965943,-0.1005,-0.00825,-0.12575,0.252625505170438,10,1,100,-0.012978749572938514,-10,-1,-100,19262.240003817948,-0.008086156550220614,0.022744129860504156,0.9997086168625007,60.85108607052045,3.6963509887945465,271.0638874614945,-79.42756539637848,-132.7576446533203,4761.76025390625,True
1599386360.8162754,0.0,10,0.5,0.5,4.988262066650391,-0.1005,-0.00825,-0.12575,0.24929991112607497,10,1,100,-0.026635732693752703,-10,-1,-100,19260.647806563764,-0.006957078462759474,0.02274570160753064,0.9997170760358374,60.941153999396455,3.702419120653541,272.11555638860096,-79.60985973967519,-134.92465209960938,4761.76025390625,True
1599386360.846195,0.0,10,0.5,0.5,5.6762422838211055,-0.1005,-0.00825,-0.12575,0.2533224096635365,10,1,100,-0.146273643708426,-10,-1,-100,19257.452474448597,-0.0048583991914818,0.022781434821748058,0.9997286642808432,60.971775525235245,3.7052111379341937,273.5540438101108,-79.97443785749262,-139.03604125976562,4761.76025390625,True
1599386360.8791082,0.0,10,0.5,0.5,5.633088788986207,-0.1005,-0.00825,-0.12575,0.24531869315152716,10,1,100,-0.05419282387693343,-10,-1,-100,19255.849339858163,-0.0038048879237644923,0.0227388622027673,0.9997341981614969,60.92445597802137,3.702677541221307,273.99228717350246,-80.15672433052795,-140.98159790039062,4761.76025390625,True
1599386360.908031,0.0,10,0.5,0.5,6.6389482254028325,-0.1005,-0.00825,-0.12575,0.23370809775875626,10,1,100,-0.27533543422466356,-10,-1,-100,19251.01806148549,-0.0008526573839144208,0.022593014615870696,0.999744381662609,60.58241116149425,3.682488383876549,274.39578827529806,-80.70358643764358,-146.3744354248047,4761.76025390625,True
1599386360.9419398,0.0,10,0.5,0.5,6.723052558135986,-0.1005,-0.00825,-0.12575,0.23333584116642364,10,1,100,-0.18399395896602969,-10,-1,-100,19247.778980436036,0.0009833177952032746,0.022455851832464662,0.9997473519867867,60.232654556069036,3.6613428870581344,274.0997866692269,-81.06817122024877,-149.60025024414062,4761.76025390625,True
1599386360.9778366,0.0,10,0.5,0.5,6.347785594940186,-0.1005,-0.00825,-0.12575,0.24711782359522338,10,1,100,-0.0022536892838246484,-10,-1,-100,19247.778980436036,0.0009833177952032746,0.022455851832464662,0.9997473519867867,60.232654556069036,3.6613428870581344,274.0997866692269,-81.06817122024877,-149.60025024414062,4761.76025390625,True
1599386361.0078173,0.0,10,0.5,0.5,7.038601892852784,-0.1005,-0.00825,-0.12575,0.23762007923993028,10,1,100,-0.1906033172449258,-10,-1,-100,19244.525315635838,0.002679814846994857,0.022369105057190166,0.9997461886555638,59.82407599783124,3.636460340813794,273.5208999267587,-81.43276866746082,-152.5293426513672,4761.76025390625,True
1599386361.041176,0.0,10,0.5,0.5,7.002763419151306,-0.1005,-0.00825,-0.12575,0.238980460670441,10,1,100,-0.11262408471563426,-10,-1,-100,19242.893014013767,0.0034980949197920197,0.02230258786952069,0.9997451464779683,59.608096825679475,3.6232651451438027,273.1717182269312,-81.6150727670753,-153.88330078125,4761.76025390625,True
1599386361.0749874,0.0,10,0.5,0.5,7.420218864059448,-0.1005,-0.00825,-0.12575,0.22897829206510073,10,1,100,-0.20365833316908633,-10,-1,-100,19239.61747254769,0.005054821682065388,0.022151344442616096,0.9997418500378721,59.167912038698695,3.5963185462863407,272.422385992514,-81.97969208491521,-156.36961364746094,4761.76025390625,True
1599386361.1101966,0.0,10,0.5,0.5,7.846902870178223,-0.1005,-0.00825,-0.12575,0.2286258872762331,10,1,100,-0.2802781804569951,-10,-1,-100,19234.676812561578,0.007153602999189291,0.0220111503920325,0.9997321317345708,58.52387563901818,3.5568164772224273,271.3402012450355,-82.52664731836774,-159.5431365966797,4761.76025390625,True
1599386361.142111,0.0,10,0.5,0.5,7.469930390167237,-0.1005,-0.00825,-0.12575,0.24257199438774554,10,1,100,-0.0719240246995457,-10,-1,-100,19234.676812561578,0.007153602999189291,0.0220111503920325,0.9997321317345708,58.52387563901818,3.5568164772224273,271.3402012450355,-82.52664731836774,-159.5431365966797,4761.76025390625,True
1599386361.1749818,0.0,10,0.5,0.5,7.885249470901489,-0.1005,-0.00825,-0.12575,0.23355187902612434,10,1,100,-0.2126747233764256,-10,-1,-100,19231.364807041246,0.00842032691310461,0.02192981711712276,0.9997240525344411,58.1336080589672,3.532851704211558,270.77897043660005,-82.8912992704932,-161.28903198242188,4761.76025390625,True
1599386361.2078965,0.0,10,0.5,0.5,8.150916511154175,-0.1005,-0.00825,-0.12575,0.23607481236363895,10,1,100,-0.2727580017651874,-10,-1,-100,19226.36944914423,0.01010603416010311,0.02187958773182279,0.9997095336717762,57.646506383798226,3.5029105158285936,270.3683282670292,-83.43829297743353,-163.35247802734375,4761.76025390625,True
1599386361.243798,0.0,10,0.5,0.5,8.137445664596559,-0.1005,-0.00825,-0.12575,0.24067003635045478,10,1,100,-0.2143041948801065,-10,-1,-100,19223.020977177424,0.011094450756524767,0.021876480576403817,0.9996991211159492,57.403368017347134,3.4879404725997314,270.46253313482424,-83.80296119729199,-164.3582305908203,4761.76025390625,True
1599386361.2757506,0.0,10,0.5,0.5,8.025808910751342,-0.1005,-0.00825,-0.12575,0.24090909848840525,10,1,100,-0.11665724605198466,-10,-1,-100,19223.020977177424,0.011094450756524767,0.021876480576403817,0.9996991211159492,57.403368017347134,3.4879404725997314,270.46253313482424,-83.80296119729199,-164.3582305908203,4761.76025390625,True
1599386361.3086874,0.0,10,0.5,0.5,8.253532111358643,-0.1005,-0.00825,-0.12575,0.2543980899724234,10,1,100,-0.2564298426901279,-10,-1,-100,19217.970919242594,0.012355918786906686,0.021999634472854947,0.9996816229950374,57.18164389228652,3.4742221598657737,271.2638073019203,-84.34996302257308,-165.31092834472656,4761.76025390625,True
1599386361.3416035,0.0,10,0.5,0.5,8.146691678237916,-0.1005,-0.00825,-0.12575,0.24203707859134946,10,1,100,-0.13142029975110633,-10,-1,-100,19217.970919242594,0.012355918786906686,0.021999634472854947,0.9996816229950374,57.18164389228652,3.4742221598657737,271.2638073019203,-84.34996302257308,-165.31092834472656,4761.76025390625,True
1599386361.3775063,0.0,10,0.5,0.5,8.210253473281862,-0.1005,-0.00825,-0.12575,0.27657016130184187,10,1,100,-0.27372580426492343,-10,-1,-100,19211.186455989257,0.013640808733450558,0.022313907470754273,0.99965795043629,57.180913933062854,3.473917124586871,273.72367615749033,-85.07927653906032,-165.54525756835938,4761.76025390625,True
1599386361.4083898,0.0,10,0.5,0.5,8.1904076877594,-0.1005,-0.00825,-0.12575,0.24514399347203258,10,1,100,-0.1462510809919021,-10,-1,-100,19211.186455989257,0.013640808733450558,0.022313907470754273,0.99965795043629,57.180913933062854,3.473917124586871,273.72367615749033,-85.07927653906032,-165.54525756835938,4761.76025390625,True
1599386361.4413369,0.0,10,0.5,0.5,8.16945123062134,-0.1005,-0.00825,-0.12575,0.25514516754622585,10,1,100,-0.1753035119822501,-10,-1,-100,19209.48122385994,0.013897116299679735,0.022404679450494087,0.9996523898322225,57.234805549414716,3.4771330392170023,274.5983965638211,-85.26159754420165,-165.41917419433594,4761.76025390625,True
1599386361.4755645,0.0,10,0.5,0.5,8.082763217926026,-0.1005,-0.00825,-0.12575,0.2740501026049029,10,1,100,-0.195198655596468,-10,-1,-100,19206.059820838505,0.014304857653380522,0.022658704724374198,0.9996409126019853,57.40480499425743,3.487347584307944,276.651512603773,-85.62622729666707,-164.94451904296875,4761.76025390625,True
1599386361.5107408,0.0,10,0.5,0.5,7.860514707565309,-0.1005,-0.00825,-0.12575,0.2957045523319874,10,1,100,-0.20033149423710203,-10,-1,-100,19200.90037058899,0.014715692640155919,0.023085906739663847,0.99962517440295,57.810576900711105,3.511827832855035,280.4772041293549,-86.1731334134524,-163.67869567871094,4761.76025390625,True
1599386361.5416622,0.0,10,0.5,0.5,7.89275454788208,-0.1005,-0.00825,-0.12575,0.27136640350304186,10,1,100,-0.16817284371061053,-10,-1,-100,19199.173262079363,0.0147911045635954,0.023251965319098077,0.9996202125480398,57.9827015369658,3.5222263645376133,281.93771516402376,-86.35542331846531,-163.1089324951172,4761.76025390625,True
1599386361.574486,0.0,10,0.5,0.5,7.81857638130188,-0.1005,-0.00825,-0.12575,0.2742947511759738,10,1,100,-0.16567427272560212,-10,-1,-100,19197.4425078074,0.014832687421037133,0.023428301390531054,0.9996154791107551,58.17185077713294,3.533658849383051,283.4849828841776,-86.53770634924828,-162.4652862548828,4761.76025390625,True
1599386361.6084995,0.0,10,0.5,0.5,7.360930530929566,-0.1005,-0.00825,-0.12575,0.3192892022463737,10,1,100,-0.15494236964233787,-10,-1,-100,19192.228372519254,0.014769528866441294,0.02399623662809728,0.9996029419948461,58.83106355930453,3.5735378448814488,288.6018344646088,-87.08451036184191,-160.09170532226562,4761.76025390625,True
1599386361.854377,0.0,10,0.5,0.5,7.655888449859619,-0.1005,-0.00825,-0.12575,0.2627076540949205,10,1,100,-0.1616257329129134,-10,-1,-100,19192.228372519254,0.014769528866441294,0.02399623662809728,0.9996029419948461,58.83106355930453,3.5735378448814488,288.6018344646088,-87.08451036184191,-160.09170532226562,4761.76025390625,True
1599386361.8813386,0.0,10,0.5,0.5,7.210129954147339,-0.1005,-0.00825,-0.12575,0.3080125310509607,10,1,100,-0.1404671157479978,-10,-1,-100,19188.73405699327,0.014574983610324303,0.02440628405301106,0.9995958699151786,59.33222673613986,3.6038929135885085,292.34099143604595,-87.4490049528273,-158.14053344726562,4761.76025390625,True
1599386361.9092686,0.0,10,0.5,0.5,7.449574241638183,-0.1005,-0.00825,-0.12575,0.2672484535175982,10,1,100,-0.16014354784203869,-10,-1,-100,19188.73405699327,0.014574983610324303,0.02440628405301106,0.9995958699151786,59.33222673613986,3.6038929135885085,292.34099143604595,-87.4490049528273,-158.14053344726562,4761.76025390625,True
1599386361.9432645,0.0,10,0.5,0.5,6.6562923782348635,-0.1005,-0.00825,-0.12575,0.3374388667836354,10,1,100,-0.10022497923994203,-10,-1,-100,19183.465249036904,0.014029420100417175,0.02504247655853662,0.9995879399729976,60.138499481981746,3.652823971781255,298.2610061386968,-87.99567948807619,-154.66131591796875,4761.76025390625,True
1599386361.974726,0.0,10,0.5,0.5,6.476757141876221,-0.1005,-0.00825,-0.12575,0.3218306826777204,10,1,100,-0.09735878204153628,-10,-1,-100,19179.934489435167,0.013507043652000674,0.0254764602816081,0.9995841684136973,60.68624847276529,3.686170225416151,302.2878142489863,-88.36008259018035,-151.97372436523438,4761.76025390625,True
1599386362.0564747,0.0,10,0.5,0.5,6.803629283523559,-0.1005,-0.00825,-0.12575,0.27873948845368385,10,1,100,-0.14955741961841856,-10,-1,-100,19179.934489435167,0.013507043652000674,0.0254764602816081,0.9995841684136973,60.68624847276529,3.686170225416151,302.2878142489863,-88.36008259018035,-151.97372436523438,4761.76025390625,True
1599386362.0858138,0.0,10,0.5,0.5,6.118445421981812,-0.1005,-0.00825,-0.12575,0.322672138426572,10,1,100,-0.07661185337422631,-10,-1,-100,19176.38915471721,0.012844627426145635,0.025873286412673235,0.9995827072316184,61.21752757643286,3.7186471823372935,306.2560030955644,-88.72444860738447,-148.99258422851562,4761.76025390625,True
1599386362.1117055,0.0,10,0.5,0.5,5.740230026245118,-0.1005,-0.00825,-0.12575,0.32532948784641363,10,1,100,-0.05639042629720685,-10,-1,-100,19172.8292466047,0.01206030067031725,0.026255661181391908,0.9995825075518626,61.70819192223131,3.748836788339926,310.0432571250615,-89.08877954330332,-145.71754455566406,4761.76025390625,True
1599386362.1372967,0.0,10,0.5,0.5,5.742281453704835,-0.1005,-0.00825,-0.12575,0.3085867017664736,10,1,100,-0.08611862395992831,-10,-1,-100,19171.04382793675,0.011620015238219168,0.026448336828716435,0.9995826432691087,61.93000555587043,3.762586210778094,311.8265148150247,-89.27093281650667,-143.96975708007812,4761.76025390625,True
1599386362.1672165,0.0,10,0.5,0.5,5.534785146713257,-0.1005,-0.00825,-0.12575,0.3095965844903627,10,1,100,-0.07777669406651991,-10,-1,-100,19169.254766082042,0.011146840639265214,0.026629931773375737,0.9995832104820029,62.131367786182636,3.7751573717474654,313.5114652629507,-89.45307894089552,-142.14866638183594,4761.76025390625,True
1599386362.1931472,0.0,10,0.5,0.5,4.875355354309082,-0.1005,-0.00825,-0.12575,0.32336007064019157,10,1,100,-0.011204153380629064,-10,-1,-100,19165.66571466904,0.010114770350550953,0.026917746419750567,0.9995864776738618,62.45729111044102,3.7958497727206284,316.5056300883401,-89.81735262062314,-138.28732299804688,4761.76025390625,True
1599386362.2190778,0.0,10,0.5,0.5,4.881219930267335,-0.1005,-0.00825,-0.12575,0.3098110233703715,10,1,100,-0.05225245131868845,-10,-1,-100,19163.86572487268,0.009553922577080248,0.027053567023282363,0.9995883288007659,62.57340698773503,3.8034673851779197,317.77036943526133,-89.99948213604489,-136.24661254882812,4761.76025390625,True
1599386362.2480001,0.0,10,0.5,0.5,4.6415088096618655,-0.1005,-0.00825,-0.12575,0.30972891187228435,10,1,100,-0.04290666960510007,-10,-1,-100,19162.062092672102,0.008963663913831752,0.027173887210173865,0.999590532459731,62.65273295354766,3.8089323211863886,318.85062883711873,-90.18160845657518,-134.13272094726562,4761.76025390625,True
1599386362.2779195,0.0,10,0.5,0.5,3.8814235977172853,-0.1005,-0.00825,-0.12575,0.3166583661103686,10,1,100,0.036160595902616874,-10,-1,-100,19158.443900783313,0.007713373005987049,0.02734374823391494,0.9995963301800337,62.683406032101644,3.812336506484053,320.363135276429,-90.54585682522361,-129.6858673095703,4761.76025390625,True
1599386362.3088377,0.0,10,0.5,0.5,3.3477518913269044,-0.1005,-0.00825,-0.12575,0.3107629618187463,10,1,100,0.06076413500884019,-10,-1,-100,19154.811138642253,0.006358818231612044,0.0274424806967781,0.9996031591006025,62.51212141022114,3.8037835795859,320.8420189270335,-90.91011053613644,-124.94660186767578,4761.76025390625,True
1599386362.3418043,0.0,10,0.5,0.5,2.7831572473526003,-0.1005,-0.00825,-0.12575,0.30007559090823016,10,1,100,0.08279145835806823,-10,-1,-100,19151.163806058234,0.004933654793023956,0.027433292272544305,0.9996114612815684,62.10161896358149,3.7809442194799585,320.0825559784851,-91.2743842466181,-119.91561889648438,4761.76025390625,True
1599386362.3757136,0.0,10,0.5,0.5,2.1851168706893924,-0.1005,-0.00825,-0.12575,0.28806730327627345,10,1,100,0.10409660325456148,-10,-1,-100,19147.501901271753,0.0034521625214839168,0.027313993970231307,0.999620942311294,61.41284836802044,3.7413252015684857,317.86745019294983,-91.63869414102729,-114.593017578125,4761.76025390625,True
1599386362.4116635,0.0,10,0.5,0.5,2.8260543439865113,-0.1005,-0.00825,-0.12575,0.300141204263329,10,1,100,-0.04311337740897632,-10,-1,-100,19147.501901271753,0.0034521625214839168,0.027313993970231307,0.999620942311294,61.41284836802044,3.7413252015684857,317.86745019294983,-91.63869414102729,-114.593017578125,4761.76025390625,True
1599386362.442386,0.0,10,0.5,0.5,1.5301956590652468,-0.1005,-0.00825,-0.12575,0.2744289148578639,10,1,100,0.1245491124556922,-10,-1,-100,19143.825422772905,0.0019357836483040514,0.02707928376400995,0.9996314146386633,60.49969642234235,3.6880404895177556,314.45888886404316,-92.00305550907127,-108.97895812988281,4761.76025390625,True
1599386362.4761732,0.0,10,0.5,0.5,1.5474959058761597,-0.1005,-0.00825,-0.12575,0.2800573771424282,10,1,100,0.05786386428088034,-10,-1,-100,19141.98171750887,0.0011722907757205682,0.026916505100090856,0.9996369978584897,59.981780772020734,3.6576022794338927,312.4212628909669,-92.18525782294321,-106.06271362304688,4761.76025390625,True
1599386362.5101151,0.0,10,0.5,0.5,0.5154189607620241,-0.1005,-0.00825,-0.12575,0.25065227057741607,10,1,100,0.15488384361190155,-10,-1,-100,19138.283373436076,-0.0003947256933977507,0.026500944824730917,0.9996487103553046,58.71442862672534,3.5823608578195816,307.1031927663055,-92.54971438560239,-100.01177978515625,4761.76025390625,True
1599386362.5452046,0.0,10,0.5,0.5,-0.9322606496810912,-0.1005,-0.00825,-0.12575,0.1980980943293159,10,1,100,0.25077810313818205,-10,-1,-100,19132.7085181406,-0.0026814980282497277,0.025645776428143717,0.999667496580599,56.55429790419473,3.452687194647339,297.66258468123374,-93.09653441527695,-90.3896484375,4761.76025390625,True
1599386362.5760894,0.0,10,0.5,0.5,0.23989037189483645,-0.1005,-0.00825,-0.12575,0.2834741549285221,10,1,100,0.0233244117135173,-10,-1,-100,19132.7085181406,-0.0026814980282497277,0.025645776428143717,0.999667496580599,56.55429790419473,3.452687194647339,297.66258468123374,-93.09653441527695,-90.3896484375,4761.76025390625,True
1599386362.6090355,0.0,10,0.5,0.5,-1.3249939352035522,-0.1005,-0.00825,-0.12575,0.2050398965796647,10,1,100,0.18922612111432255,-10,-1,-100,19128.97372169851,-0.0041791088755824286,0.024934126907501405,0.9996803610976693,59.30525009201743,3.621335903747949,313.44206463184605,-93.46102069167748,-83.63253784179688,4761.76025390625,True
1599386362.6429513,0.0,10,0.5,0.5,-2.0327356203079225,-0.1005,-0.00825,-0.12575,0.19030830831503143,10,1,100,0.1947159994457062,-10,-1,-100,19125.22434943635,-0.0055796699199142175,0.024155439832990285,0.999692643771104,61.79313583615293,3.773465326639831,327.94602586332655,-93.8253785670779,-76.91671752929688,4761.76025390625,True
1599386362.679312,0.0,10,0.5,0.5,-1.979453231430054,-0.1005,-0.00825,-0.12575,0.2175867844944258,10,1,100,0.13563780670077596,-10,-1,-100,19123.344199155923,-0.006304979582396909,0.023698516858578114,0.9996992685458809,62.88769933694454,3.840293346647036,334.4442330483506,-94.00751146003775,-73.59469604492188,4761.76025390625,True
1599386362.710233,0.0,10,0.5,0.5,-4.539627160263062,-0.1005,-0.00825,-0.12575,0.051123010125280005,10,1,100,0.3485881054753418,-10,-1,-100,19115.78718212142,-0.008890046869535935,0.021773220547042057,0.9997234087154643,66.31129373882264,4.049245488681972,355.55536757587134,-94.73577395501984,-60.601531982421875,4761.76025390625,True
1599386362.7440627,0.0,10,0.5,0.5,-2.9502797550201416,-0.1005,-0.00825,-0.12575,0.2430985639365668,10,1,100,0.09131559770054117,-10,-1,-100,19115.78718212142,-0.008890046869535935,0.021773220547042057,0.9997234087154643,66.31129373882264,4.049245488681972,355.55536757587134,-94.73577395501984,-60.601531982421875,4761.76025390625,True
1599386362.7769477,0.0,10,0.5,0.5,-5.036741408920289,-0.1005,-0.00825,-0.12575,0.07168614365565404,10,1,100,0.2813734343947522,-10,-1,-100,19110.08119523863,-0.010606625194582381,0.02021996288396393,0.9997392923172284,67.81117633246123,4.14148211523561,365.8230523079673,-95.2817590166981,-51.57647705078125,4761.76025390625,True
1599386362.8129735,0.0,10,0.5,0.5,-5.226231565856933,-0.1005,-0.00825,-0.12575,0.10109039346470246,10,1,100,0.22606204654538314,-10,-1,-100,19106.25900670665,-0.011652917956136807,0.019081457571138844,0.999750022495658,68.3541927916682,4.1756881932985825,370.2484131325443,-95.64569133101317,-45.93212890625,4761.76025390625,True
1599386362.8429081,0.0,10,0.5,0.5,-5.179557125091553,-0.1005,-0.00825,-0.12575,0.15830476581758887,10,1,100,0.17552639136151837,-10,-1,-100,19104.3424535573,-0.01213301886612219,0.018573706169532234,0.999753873356999,68.50487101927715,4.185610834976338,371.8146317700073,-95.8276484049146,-43.220550537109375,4761.76025390625,True
1599386362.8778317,0.0,10,0.5,0.5,-4.8854289093017575,-0.1005,-0.00825,-0.12575,0.20828718211272998,10,1,100,0.12869012968025254,-10,-1,-100,19104.3424535573,-0.01213301886612219,0.018573706169532234,0.999753873356999,68.50487101927715,4.185610834976338,371.8146317700073,-95.8276484049146,-43.220550537109375,4761.76025390625,True
1599386362.9107068,0.0,10,0.5,0.5,-6.1007495124816895,-0.1005,-0.00825,-0.12575,0.09281124781646061,10,1,100,0.2294181233162516,-10,-1,-100,19100.498430106207,-0.013040135607505934,0.017530354103437614,0.999761292283486,68.59277120522255,4.19278957334501,373.79510397859354,-96.1915569019113,-38.020965576171875,4761.76025390625,True
1599386362.9464488,0.0,10,0.5,0.5,-6.5991368576049805,-0.1005,-0.00825,-0.12575,0.07899022937053224,10,1,100,0.2297567435744849,-10,-1,-100,19096.639850240084,-0.013858448613312134,0.01646358425959289,0.9997684200830507,68.43288212747018,4.185250617145035,374.42601293630196,-96.55547187431458,-33.119171142578125,4761.76025390625,True
1599386362.9793613,0.0,10,0.5,0.5,-6.553702719116211,-0.1005,-0.00825,-0.12575,0.12644111532794117,10,1,100,0.1901126799410568,-10,-1,-100,19094.705101335538,-0.014233169549434125,0.0159328656762995,0.9997717542899069,68.27396190213312,4.176774691321712,374.3068880340254,-96.73743631495168,-30.779754638671875,4761.76025390625,True
1599386363.0123012,0.0,10,0.5,0.5,-7.784918225097656,-0.1005,-0.00825,-0.12575,0.015072640192674708,10,1,100,0.2673277996566168,-10,-1,-100,19088.8790177895,-0.015267913761841462,0.01444542862130917,0.9997790857991117,67.54588565322925,4.136250108233555,372.54694138994256,-97.28337332259338,-24.205902099609375,4761.76025390625,True
1599386363.043189,0.0,10,0.5,0.5,-7.46122370300293,-0.1005,-0.00825,-0.12575,0.11049462318336434,10,1,100,0.1992498557409319,-10,-1,-100,19086.92971024313,-0.015581551797360593,0.013969097587812658,0.9997810158010443,67.2367831500124,4.118710240967754,371.58412540168877,-97.465370007749,-22.162933349609375,4761.76025390625,True
1599386363.0810888,0.0,10,0.5,0.5,-8.522111022949218,-0.1005,-0.00825,-0.12575,0.008071140333618526,10,1,100,0.26217899170731407,-10,-1,-100,19081.05994607287,-0.016432677152137982,0.012612041461417438,0.9997854287454829,66.18796720717545,4.058523822715565,367.9836946046957,-98.0114211696077,-16.478607177734375,4761.76025390625,True
1599386363.1120055,0.0,10,0.5,0.5,-7.843708419799805,-0.1005,-0.00825,-0.12575,0.14286063506457805,10,1,100,0.17782071925783538,-10,-1,-100,19081.05994607287,-0.016432677152137982,0.012612041461417438,0.9997854287454829,66.18796720717545,4.058523822715565,367.9836946046957,-98.0114211696077,-16.478607177734375,4761.76025390625,True
1599386363.1441574,0.0,10,0.5,0.5,-8.64626268081665,-0.1005,-0.00825,-0.12575,0.04965096230219604,10,1,100,0.232943610679035,-10,-1,-100,19077.128566606552,-0.016928497936005656,0.011771597092143553,0.9997874051314763,65.5476080574267,4.0217852685290305,365.87672535835486,-98.37550293745291,-13.05938720703125,4761.76025390625,True
1599386363.1770442,0.0,10,0.5,0.5,-8.605182405853272,-0.1005,-0.00825,-0.12575,0.09188680749669309,10,1,100,0.21174818170873466,-10,-1,-100,19075.157415179187,-0.017181762403446384,0.011398164313189081,0.9997874118486396,65.21468767246408,4.002541112317242,364.7422863256027,-98.55755735286665,-11.460418701171875,4761.76025390625,True
1599386363.2139444,0.0,10,0.5,0.5,-9.103554352569581,-0.1005,-0.00825,-0.12575,0.04900928283331399,10,1,100,0.23658477562977506,-10,-1,-100,19071.204188801,-0.01763320027900439,0.010675407509796427,0.9997875303895425,64.65584304203948,3.9704067011095017,363.05374208200567,-98.92168832062193,-8.484771728515625,4761.76025390625,True
1599386363.243862,0.0,10,0.5,0.5,-9.642510190582277,-0.1005,-0.00825,-0.12575,0.018457296879913,10,1,100,0.26278144975272094,-10,-1,-100,19065.247037665686,-0.018276749765708557,0.00974779081500831,0.9997854474797223,63.85483778704107,3.923925119365725,360.6885412572406,-99.46793383610574,-4.575439453125,4761.76025390625,True
1599386363.277796,0.0,10,0.5,0.5,-9.17850421600342,-0.1005,-0.00825,-0.12575,0.11044071002988175,10,1,100,0.1989501624981245,-10,-1,-100,19065.247037665686,-0.018276749765708557,0.00974779081500831,0.9997854474797223,63.85483778704107,3.923925119365725,360.6885412572406,-99.46793383610574,-4.575439453125,4761.76025390625,True
1599386363.3107717,0.0,10,0.5,0.5,-9.708125601959228,-0.1005,-0.00825,-0.12575,0.052177288264974565,10,1,100,0.24332152540350505,-10,-1,-100,19061.257394311717,-0.01867610915470984,0.009224228611186049,0.9997830347397229,63.353877069443726,3.8945829744094516,359.2714875410433,-99.8321257616245,-2.338653564453125,4761.76025390625,True
1599386363.3470538,0.0,10,0.5,0.5,-10.084163057708741,-0.1005,-0.00825,-0.12575,0.03489027771427192,10,1,100,0.26759634214620354,-10,-1,-100,19055.24561391282,-0.019255804260912557,0.00859720709094589,0.9997776262912171,62.69635156061706,3.8558016681925382,357.6423323913066,-100.37844649339041,0.462890625,4761.76025390625,True
1599386363.3819902,0.0,10,0.5,0.5,-9.752220629882814,-0.1005,-0.00825,-0.12575,0.09700760758525143,10,1,100,0.21002562057583882,-10,-1,-100,19055.24561391282,-0.019255804260912557,0.00859720709094589,0.9997776262912171,62.69635156061706,3.8558016681925382,357.6423323913066,-100.37844649339041,0.462890625,4761.76025390625,True
1599386363.4138763,0.0,10,0.5,0.5,-10.109965036773682,-0.1005,-0.00825,-0.12575,0.06151447180648792,10,1,100,0.25072914244807765,-10,-1,-100,19051.219549188856,-0.01962249604842059,0.008279425757045192,0.9997731786550205,62.68410654329406,3.855836751568114,358.97345223744003,-100.74266808513292,1.961578369140625,4761.76025390625,True
1599386363.442799,0.0,10,0.5,0.5,-10.20908404312134,-0.1005,-0.00825,-0.12575,0.06900025053311427,10,1,100,0.25583576890686716,-10,-1,-100,19047.17891660391,-0.019999376260420268,0.008062524910745135,0.9997674832886184,63.42926902208703,3.9022688488094777,364.6595256616752,-101.10685151195153,3.1654052734375,4761.76025390625,True
1599386363.4793253,0.0,10,0.5,0.5,-10.185031785583496,-0.1005,-0.00825,-0.12575,0.08030877376553525,10,1,100,0.23717344809288762,-10,-1,-100,19045.15313800727,-0.02016909471928536,0.007972283003994976,0.9997647975008465,63.7568269477651,3.9226590699517354,367.2561289985047,-101.28892822125465,3.65655517578125,4761.76025390625,True
1599386363.5112455,0.0,10,0.5,0.5,-10.414901524353027,-0.1005,-0.00825,-0.12575,0.07740651490630027,10,1,100,0.29751368504004794,-10,-1,-100,19037.013611312024,-0.020868985838879372,0.007867314657400103,0.9997512644603846,64.77687138320856,3.986105341694469,376.03411230319745,-102.0171511206457,4.88458251953125,4761.76025390625,True
1599386363.54336,0.0,10,0.5,0.5,-10.273961711883546,-0.1005,-0.00825,-0.12575,0.08755026460020868,10,1,100,0.22789329542418993,-10,-1,-100,19037.013611312024,-0.020868985838879372,0.007867314657400103,0.9997512644603846,64.77687138320856,3.986105341694469,376.03411230319745,-102.0171511206457,4.88458251953125,4761.76025390625,True
1599386363.5773988,0.0,10,0.5,0.5,-10.318430416870118,-0.1005,-0.00825,-0.12575,0.10507301439484737,10,1,100,0.2838570544583244,-10,-1,-100,19030.870737719815,-0.02137480566140798,0.008029165194489906,0.9997392911100457,65.2541280569371,4.015842783354084,381.0004513902542,-102.56324879603642,5.032379150390625,4761.76025390625,True
1599386363.613333,0.0,10,0.5,0.5,-10.307771440887452,-0.1005,-0.00825,-0.12575,0.08871609812381523,10,1,100,0.23358487779503345,-10,-1,-100,19030.870737719815,-0.02137480566140798,0.008029165194489906,0.9997392911100457,65.2541280569371,4.015842783354084,381.0004513902542,-102.56324879603642,5.032379150390625,4761.76025390625,True
1599386363.6454232,0.0,10,0.5,0.5,-10.254675018310548,-0.1005,-0.00825,-0.12575,0.11148149231649085,10,1,100,0.269663178116719,-10,-1,-100,19026.75728624221,-0.021699973795336305,0.008237685710441974,0.9997305895447121,65.43898648348295,4.027469206533912,383.54941453350006,-102.92729102373596,4.762664794921875,4761.76025390625,True
1599386363.678335,0.0,10,0.5,0.5,-10.07820495452881,-0.1005,-0.00825,-0.12575,0.1474270073459409,10,1,100,0.2885470408618248,-10,-1,-100,19020.559806720703,-0.022164503701462446,0.008754924082394077,0.9997160027127603,65.51185252590753,4.03243511135135,386.1859388734005,-103.47333407814317,3.806884765625,4761.76025390625,True
1599386363.7122443,0.0,10,0.5,0.5,-10.201153088378906,-0.1005,-0.00825,-0.12575,0.09571894184987549,10,1,100,0.24238492019326568,-10,-1,-100,19020.559806720703,-0.022164503701462446,0.008754924082394077,0.9997160027127603,65.51185252590753,4.03243511135135,386.1859388734005,-103.47333407814317,3.806884765625,4761.76025390625,True
1599386363.7481484,0.0,10,0.5,0.5,-9.838016307067871,-0.1005,-0.00825,-0.12575,0.17715537094874045,10,1,100,0.28806880836696985,-10,-1,-100,19014.329565061373,-0.022577167503550166,0.009495111876936987,0.9997000121826352,65.32896451215643,4.021915065147222,387.3142936806894,-104.01936976523064,2.189666748046875,4761.76025390625,True
1599386363.781886,0.0,10,0.5,0.5,-9.886368000793459,-0.1005,-0.00825,-0.12575,0.13601058660485332,10,1,100,0.26055323151840215,-10,-1,-100,19012.245537224226,-0.02269948874186554,0.009792861208740757,0.9996943698352033,65.20760410922838,4.014773743529137,387.3296249703382,-104.20138347811076,1.503692626953125,4761.76025390625,True
1599386363.8147986,0.0,10,0.5,0.5,-9.405957849884034,-0.1005,-0.00825,-0.12575,0.22018698307410922,10,1,100,0.28332338748672886,-10,-1,-100,19005.971611880464,-0.023015236637790266,0.010827209354375606,0.9996764828783875,64.80817423123175,3.991512073318336,387.1501163839847,-104.74743654022345,-0.994873046875,4761.76025390625,True
1599386363.859677,0.0,10,0.5,0.5,-9.716315055084229,-0.1005,-0.00825,-0.12575,0.1170376611456624,10,1,100,0.25203321208610685,-10,-1,-100,19005.971611880464,-0.023015236637790266,0.010827209354375606,0.9996764828783875,64.80817423123175,3.991512073318336,387.1501163839847,-104.74743654022345,-0.994873046875,4761.76025390625,True
1599386363.8945873,0.0,10,0.5,0.5,-9.489812969207764,-0.1005,-0.00825,-0.12575,0.16037164491493439,10,1,100,0.26218591176843686,-10,-1,-100,19003.873022903455,-0.02310558277053971,0.011218463848008101,0.9996700846347883,65.19557519848327,4.0159564896523055,390.2004196185519,-104.92944319495366,-1.97454833984375,4761.76025390625,True
1599386363.9284933,0.0,10,0.5,0.5,-8.554769390106202,-0.1005,-0.00825,-0.12575,0.32071601701998886,10,1,100,0.27791895947777756,-10,-1,-100,18995.442270700587,-0.02332871005500443,0.01302877936209213,0.9996429473544559,66.90425051841628,4.1244327616161,403.4511154037739,-105.65733956871298,-6.6268310546875,4761.76025390625,True
1599386363.9604082,0.0,10,0.5,0.5,-9.130175093078615,-0.1005,-0.00825,-0.12575,0.14018442702834621,10,1,100,0.25580162147066526,-10,-1,-100,18995.442270700587,-0.02332871005500443,0.01302877936209213,0.9996429473544559,66.90425051841628,4.1244327616161,403.4511154037739,-105.65733956871298,-6.6268310546875,4761.76025390625,True
1599386363.9893308,0.0,10,0.5,0.5,-8.494716210174563,-0.1005,-0.00825,-0.12575,0.2553232121814939,10,1,100,0.25811520604588295,-10,-1,-100,18991.205060968176,-0.023347966365330413,0.01407095048696838,0.9996283713555736,67.82897326851136,4.183607713088612,410.5616449104528,-106.02120135187995,-9.392974853515625,4761.76025390625,True
1599386364.0242376,0.0,10,0.5,0.5,-8.138659511566162,-0.1005,-0.00825,-0.12575,0.27467326303100614,10,1,100,0.2441652969643014,-10,-1,-100,18986.953298673034,-0.02323715657163966,0.015188985367509148,0.9996145903686935,68.77494880662718,4.244516518012312,417.84350034250326,-106.38499992768743,-12.4525146484375,4761.76025390625,True
1599386364.0571501,0.0,10,0.5,0.5,-8.13899836807251,-0.1005,-0.00825,-0.12575,0.22868569706398562,10,1,100,0.2508454692376324,-10,-1,-100,18984.821960933856,-0.023196174095432735,0.0157814627853141,0.9996063639951929,69.24704448421305,4.275072943694918,421.4950579683101,-106.56687448561195,-14.09222412109375,4761.76025390625,True
1599386364.086073,0.0,10,0.5,0.5,-7.538681256866456,-0.1005,-0.00825,-0.12575,0.3052210618677603,10,1,100,0.23079749533215824,-10,-1,-100,18980.548374701408,-0.022975725108473063,0.01700946690089572,0.9995913135334296,70.26566993106647,4.341080843971728,429.2846989568763,-106.93057004955456,-17.591644287109375,4761.76025390625,True
1599386364.117987,0.0,10,0.5,0.5,-7.541654216766358,-0.1005,-0.00825,-0.12575,0.25291446381633653,10,1,100,0.23618967816620032,-10,-1,-100,18978.40612692933,-0.022823974457360178,0.017643488519117012,0.9995838001402612,70.79454032458399,4.375431319275465,433.3162606221754,-107.1123891590038,-19.45135498046875,4761.76025390625,True
1599386364.1469095,0.0,10,0.5,0.5,-6.866965080261231,-0.1005,-0.00825,-0.12575,0.3350525011894252,10,1,100,0.2101991241093238,-10,-1,-100,18974.110723459627,-0.022449628386999137,0.018959444305155015,0.9995681835957592,71.87706369764813,4.445895184123424,441.5667329755103,-107.4759681909273,-23.390625,4761.76025390625,True
1599386364.1788242,0.0,10,0.5,0.5,-6.873310064697265,-0.1005,-0.00825,-0.12575,0.2775688525786376,10,1,100,0.22097641893520037,-10,-1,-100,18971.957569030696,-0.02220780337440688,0.019625796182408967,0.9995607243151815,72.43618140974884,4.482322074308872,445.819730688078,-107.65772644984075,-25.470367431640625,4761.76025390625,True
1599386364.2107382,0.0,10,0.5,0.5,-6.123834998321533,-0.1005,-0.00825,-0.12575,0.3620347002650527,10,1,100,0.18323699384631742,-10,-1,-100,18967.640355781303,-0.021645610801481693,0.020991443243581757,0.9995453100503159,73.48548998926394,4.551008700202794,453.93668121814255,-108.02118201598945,-29.849639892578125,4761.76025390625,True
1599386364.2446473,0.0,10,0.5,0.5,-6.131193844604493,-0.1005,-0.00825,-0.12575,0.3012830523518475,10,1,100,0.2022220557192044,-10,-1,-100,18965.476298121037,-0.021308445363093276,0.021671768336895544,0.9995380356011271,73.96624699896431,4.582642846439085,457.74064408713207,-108.20288071164164,-32.14947509765625,4761.76025390625,True
1599386364.280554,0.0,10,0.5,0.5,-5.308939566040039,-0.1005,-0.00825,-0.12575,0.38558687904837663,10,1,100,0.1520888174915812,-10,-1,-100,18961.137282264186,-0.02054801122129988,0.023048786856263066,0.9995231526379487,74.81338645291363,4.638732475008894,464.66948692122287,-108.56622494009656,-36.96893310546875,4761.76025390625,True
1599386364.3114693,0.0,10,0.5,0.5,-4.733053579711914,-0.1005,-0.00825,-0.12575,0.396275913216524,10,1,100,0.12819599901323664,-10,-1,-100,18956.783734364435,-0.01964202792335157,0.02438868581404018,0.9995095711114139,75.47169145282042,4.68283930326149,470.4579900899138,-108.9295080131358,-42.082305908203125,4761.76025390625,True
1599386364.3453784,0.0,10,0.5,0.5,-3.4892264755249025,-0.1005,-0.00825,-0.12575,0.47923284445291364,10,1,100,0.043228148820118134,-10,-1,-100,18950.226169572095,-0.018049340776590195,0.026351549936598304,0.9994897783936909,76.00291630725725,4.719815270194454,476.3356111803107,-109.4743524603413,-50.302703857421875,4761.76025390625,True
1599386364.3832767,0.0,10,0.5,0.5,-4.491715111541748,-0.1005,-0.00825,-0.12575,0.28406268865401,10,1,100,0.20197808191675082,-10,-1,-100,18950.226169572095,-0.018049340776590195,0.026351549936598304,0.9994897783936909,76.00291630725725,4.719815270194454,476.3356111803107,-109.4743524603413,-50.302703857421875,4761.76025390625,True
1599386364.4211757,0.0,10,0.5,0.5,-1.7489197509765626,-0.1005,-0.00825,-0.12575,0.5337576706704111,10,1,100,-0.07806638864447935,-10,-1,-100,18941.43190010055,-0.015508160892687051,0.028611895148428056,0.9994702879034183,75.60952709371756,4.698597685563079,477.2765745232616,-110.20077402385084,-62.29351806640625,4761.76025390625,True
1599386364.4510958,0.0,10,0.5,0.5,-3.2198855918884277,-0.1005,-0.00825,-0.12575,0.3088833923121892,10,1,100,0.17530484332425653,-10,-1,-100,18941.43190010055,-0.015508160892687051,0.028611895148428056,0.9994702879034183,75.60952709371756,4.698597685563079,477.2765745232616,-110.20077402385084,-62.29351806640625,4761.76025390625,True
1599386364.4830093,0.0,10,0.5,0.5,-0.9751993385314941,-0.1005,-0.00825,-0.12575,0.46757119028437166,10,1,100,-0.06401927567346469,-10,-1,-100,18934.798057987122,-0.013339137823221107,0.030044540214875796,0.9994595504598522,74.28138638401896,4.617113378849469,471.40971605997254,-110.74567529411425,-72.05856323242188,4761.76025390625,True
1599386364.515959,0.0,10,0.5,0.5,-0.6070023147583008,-0.1005,-0.00825,-0.12575,0.41620092548298404,10,1,100,-0.0211617745342689,-10,-1,-100,18930.35733012145,-0.011765194580030008,0.030869865053534108,0.99945416684712,72.82737382205899,4.52718251685162,463.8321627238929,-111.10903584620648,-78.9359130859375,4761.76025390625,True
1599386364.5498314,0.0,10,0.5,0.5,-1.4277199836730956,-0.1005,-0.00825,-0.12575,0.3347928485042654,10,1,100,0.1351882889054033,-10,-1,-100,18930.35733012145,-0.011765194580030008,0.030869865053534108,0.99945416684712,72.82737382205899,4.52718251685162,463.8321627238929,-111.10903584620648,-78.9359130859375,4761.76025390625,True
1599386364.582745,0.0,10,0.5,0.5,1.0665405731201174,-0.1005,-0.00825,-0.12575,0.42824230755427356,10,1,100,-0.12091567143067364,-10,-1,-100,18923.668979057227,-0.009445958955357901,0.03171042520688877,0.9994524614971,69.71807684376309,4.334983686683124,446.405927759119,-111.65428083833609,-89.78128051757812,4761.76025390625,True
1599386364.8600013,0.0,10,0.5,0.5,0.596941423034668,-0.1005,-0.00825,-0.12575,0.37057597206700255,10,1,100,0.019101960955353756,-10,-1,-100,18921.432257059496,-0.008621234578626904,0.031941205335626915,0.9994525670165881,68.43156293101205,4.25563790501128,438.94744867503186,-111.83609432580025,-93.52342224121094,4761.76025390625,True
1599386364.8899212,0.0,10,0.5,0.5,1.0357062488555908,-0.1005,-0.00825,-0.12575,0.3683073081082907,10,1,100,0.010394251389743397,-10,-1,-100,18919.191898165504,-0.007803166673404696,0.0321222972180557,0.99945348496631,67.0181890033044,4.168589626032416,430.64487868078425,-112.01794390153174,-97.33638000488281,4761.76025390625,True
1599386364.9248273,0.0,10,0.5,0.5,2.308439171600342,-0.1005,-0.00825,-0.12575,0.37535112860400616,10,1,100,-0.07353902151744054,-10,-1,-100,18914.700267810258,-0.006307201425182787,0.032343930378039266,0.9994568972086203,66.68543223572483,4.150307627319444,430.02572307149194,-112.3816796063217,-104.87948608398438,4761.76025390625,True
1599386364.9537501,0.0,10,0.5,0.5,3.068465913391113,-0.1005,-0.00825,-0.12575,0.3636029562607719,10,1,100,-0.09405883999733722,-10,-1,-100,18910.194092296646,-0.00477136388548327,0.032433165883593615,0.9994625174749875,68.89300347582737,4.290970924855084,445.82887523545594,-112.74526411484288,-112.232177734375,4761.76025390625,True
1599386365.0365853,0.0,10,0.5,0.5,3.0074506221771244,-0.1005,-0.00825,-0.12575,0.35401678865590186,10,1,100,-0.022403118997821547,-10,-1,-100,18907.93555242452,-0.004038634473834858,0.03242161335046512,0.9994661216966484,69.90905231279787,4.356075469250865,453.19823544833423,-112.9270012931882,-115.82331085205078,4761.76025390625,True
1599386365.065964,0.0,10,0.5,0.5,3.3967790868759153,-0.1005,-0.00825,-0.12575,0.3513696785531049,10,1,100,-0.02671854065193549,-10,-1,-100,18905.673378072446,-0.003343712563134222,0.032383583030139204,0.99946992107638,70.79130984852138,4.412930272113841,459.72100029678086,-113.10870578029386,-119.34486389160156,4761.76025390625,True
1599386365.0988762,0.0,10,0.5,0.5,4.54520813961029,-0.1005,-0.00825,-0.12575,0.33756152425497504,10,1,100,-0.10465617216890885,-10,-1,-100,18901.138129764586,-0.002014500038097116,0.032220052529058366,0.9994787691615172,72.33999209119328,4.513239779837394,471.41763191680883,-113.47202603238878,-126.1700439453125,4761.76025390625,True
1599386365.1248076,0.0,10,0.5,0.5,5.209085703086854,-0.1005,-0.00825,-0.12575,0.3226744561602547,10,1,100,-0.11030977294747925,-10,-1,-100,18896.588351875776,-0.0007650237698810378,0.03193407371601998,0.9994896846263756,73.5120378014395,4.58983118611301,480.7188813610485,-113.83524636312893,-132.700439453125,4761.76025390625,True
1599386365.1558342,0.0,10,0.5,0.5,6.522695328330994,-0.1005,-0.00825,-0.12575,0.2873533734401994,10,1,100,-0.16607072273100495,-10,-1,-100,18889.736447654548,0.0008677813167018587,0.03135202476247323,0.999508027731083,74.43438298899977,4.651591707543335,489.2746038463732,-114.37996051454827,-141.94000244140625,4761.76025390625,True
1599386365.182762,0.0,10,0.5,0.5,5.412798656272889,-0.1005,-0.00825,-0.12575,0.34560648476576833,10,1,100,-0.004053511662388494,-10,-1,-100,18889.736447654548,0.0008677813167018587,0.03135202476247323,0.999508027731083,74.43438298899977,4.651591707543335,489.2746038463732,-114.37996051454827,-141.94000244140625,4761.76025390625,True
1599386365.2126813,0.0,10,0.5,0.5,7.395049229240417,-0.1005,-0.00825,-0.12575,0.2694779842774541,10,1,100,-0.15330992635659949,-10,-1,-100,18882.851863279124,0.0022152816864019044,0.03066027330389257,0.9995274084125859,74.51418274824894,4.659331935923817,492.32764511894095,-114.92462290253668,-150.51113891601562,4761.76025390625,True
1599386365.245593,0.0,10,0.5,0.5,6.97716175556183,-0.1005,-0.00825,-0.12575,0.3074982482143207,10,1,100,-0.062363658630942925,-10,-1,-100,18880.549739663373,0.002603646392018678,0.03037821158827415,0.9995350845699031,74.38626157391253,4.651975038575613,492.32489307722204,-115.10617988214392,-153.2201690673828,4761.76025390625,True
1599386365.2786136,0.0,10,0.5,0.5,7.85784110736847,-0.1005,-0.00825,-0.12575,0.2765514274381245,10,1,100,-0.09819768060398021,-10,-1,-100,18875.934598381747,0.0032730083122747902,0.029842042644864515,0.9995492683741857,73.93736039376702,4.624872123367157,491.0307773137082,-115.46931244331009,-158.41458129882812,4761.76025390625,True
1599386365.3149242,0.0,10,0.5,0.5,7.248810222816468,-0.1005,-0.00825,-0.12575,0.32991813300577055,10,1,100,-0.032219509552114764,-10,-1,-100,18875.934598381747,0.0032730083122747902,0.029842042644864515,0.9995492683741857,73.93736039376702,4.624872123367157,491.0307773137082,-115.46931244331009,-158.41458129882812,4761.76025390625,True
1599386365.3448446,0.0,10,0.5,0.5,7.849335422706605,-0.1005,-0.00825,-0.12575,0.2986421665602592,10,1,100,-0.06448437057775097,-10,-1,-100,18873.621580381645,0.0035590121650553395,0.02956007124375871,0.9995566695392878,73.62973663578178,4.606001187246841,489.82400883878705,-115.65089195727279,-160.9004364013672,4761.76025390625,True
1599386365.3788533,0.0,10,0.5,0.5,9.655572078323363,-0.1005,-0.00825,-0.12575,0.1988015346035677,10,1,100,-0.1253918461496532,-10,-1,-100,18864.333188185352,0.004365813039474141,0.02839869289960779,0.9995871417330747,71.98871045982766,4.504540247201692,482.1859562932111,-116.37732805457757,-170.10107421875,4761.76025390625,True
1599386365.4121099,0.0,10,0.5,0.5,9.018833837890625,-0.1005,-0.00825,-0.12575,0.2831206611884955,10,1,100,-0.05902067331849268,-10,-1,-100,18862.002008565585,0.004488885421751038,0.028113054546724962,0.9995946708900179,71.50432450572532,4.474556828659719,479.7578009423714,-116.55897071429062,-172.2154083251953,4761.76025390625,True
1599386365.448327,0.0,10,0.5,0.5,8.790943749618531,-0.1005,-0.00825,-0.12575,0.311273796678545,10,1,100,-0.04736377363678772,-10,-1,-100,18862.002008565585,0.004488885421751038,0.028113054546724962,0.9995946708900179,71.50432450572532,4.474556828659719,479.7578009423714,-116.55897071429062,-172.2154083251953,4761.76025390625,True
1599386365.4792116,0.0,10,0.5,0.5,9.729817498016358,-0.1005,-0.00825,-0.12575,0.24984174861233166,10,1,100,-0.06636097602161772,-10,-1,-100,18857.328749913257,0.004656810980529827,0.027558055036276927,0.9996093575562953,70.4832328074977,4.4114446181775175,474.5182903909391,-116.92229916479673,-176.22103881835938,4761.76025390625,True
1599386365.5130396,0.0,10,0.5,0.5,-70.96215676193238,-0.1005,-0.00825,-0.12575,0.21361664394373397,10,1,100,-0.048608661336518935,-10,-1,-100,18850.29160837806,0.00464464132804253,0.026727639956815277,0.9996319625588574,68.88803718799886,4.313265035087853,466.14600943428167,-117.46739992396975,178.32723999023438,4761.76025390625,True
1599386365.5469496,0.0,10,0.5,0.5,-26.641931176757815,-0.1005,-0.00825,-0.12575,0.2961957134093332,10,1,100,-0.050203312586382706,-10,-1,-100,18850.29160837806,0.00464464132804253,0.026727639956815277,0.9996319625588574,68.88803718799886,4.313265035087853,466.14600943428167,-117.46739992396975,178.32723999023438,4761.76025390625,True
1599386365.5818558,0.0,10,0.5,0.5,-25.435793354034423,-0.1005,-0.00825,-0.12575,0.18555937257730906,10,1,100,-0.008312345119778797,-10,-1,-100,18840.857867634855,0.004261605842308276,0.025725430161385128,0.9996599626666341,66.9447510101006,4.1949422058593715,456.0694937822568,-118.19438601151106,171.7971649169922,4761.76025390625,True
1599386365.61274,0.0,10,0.5,0.5,-26.52508959503174,-0.1005,-0.00825,-0.12575,0.28531507397763506,10,1,100,-0.04678168963823319,-10,-1,-100,18840.857867634855,0.004261605842308276,0.025725430161385128,0.9996599626666341,66.9447510101006,4.1949422058593715,456.0694937822568,-118.19438601151106,171.7971649169922,4761.76025390625,True
1599386365.6526651,0.0,10,0.5,0.5,-25.580730075454714,-0.1005,-0.00825,-0.12575,0.21148403105845315,10,1,100,0.017904480176468777,-10,-1,-100,18833.74439710949,0.0036726510280564095,0.02505798123710482,0.9996792531661077,68.89047061911661,4.320493883533741,471.69951625148724,-118.73954550974916,166.4191131591797,4761.76025390625,True
1599386365.683588,0.0,10,0.5,0.5,-26.525007881927493,-0.1005,-0.00825,-0.12575,0.2777505173457081,10,1,100,-0.04103096552029604,-10,-1,-100,18833.74439710949,0.0036726510280564095,0.02505798123710482,0.9996792531661077,68.89047061911661,4.320493883533741,471.69951625148724,-118.73954550974916,166.4191131591797,4761.76025390625,True
1599386365.7140803,0.0,10,0.5,0.5,-25.90235396347046,-0.1005,-0.00825,-0.12575,0.23534795494592214,10,1,100,0.017520063344035816,-10,-1,-100,18828.983914794866,0.0031402656394143007,0.024676596206203723,0.9996905542873705,70.18123481442738,4.404370675795953,482.15064429985813,-119.10287505219674,162.4735107421875,4761.76025390625,True
1599386365.7470016,0.0,10,0.5,0.5,-25.713907321166996,-0.1005,-0.00825,-0.12575,0.23201140304593984,10,1,100,0.031435126633023766,-10,-1,-100,18824.2089024873,0.0025308924811125477,0.024302933976015073,0.9997014364215983,71.53225801814003,4.492439528016446,493.0762548715683,-119.46611208326446,158.23492431640625,4761.76025390625,True
1599386365.7799087,0.0,10,0.5,0.5,-26.01529145317078,-0.1005,-0.00825,-0.12575,0.25270129485456133,10,1,100,0.009491080443347458,-10,-1,-100,18821.81594852428,0.0021781882052358645,0.024154794710986232,0.9997058574343819,72.22877486069201,4.537922128773347,498.70714561840515,-119.64769324430995,156.00624084472656,4761.76025390625,True
1599386365.8197687,0.0,10,0.5,0.5,-24.954227511978154,-0.1005,-0.00825,-0.12575,0.22222585351679267,10,1,100,0.1052435204138603,-10,-1,-100,18814.61530193931,0.0009891718612674131,0.023746671603194606,0.9997175186655474,74.3371721455426,4.675887633229419,515.8251233482614,-120.19228550915416,148.88092041015625,4761.76025390625,True
1599386365.8557,0.0,10,0.5,0.5,-24.96108937263489,-0.1005,-0.00825,-0.12575,0.24049114352930062,10,1,100,0.08694007245725571,-10,-1,-100,18809.796721940394,7.797711101001028e-05,0.023545163581164184,0.9997227711678406,75.66731129565427,4.763186749628166,526.7910496058848,-120.55522144648482,143.76553344726562,4761.76025390625,True
1599386365.887588,0.0,10,0.5,0.5,-25.575835875320436,-0.1005,-0.00825,-0.12575,0.26032369809477773,10,1,100,-0.003722736146781307,-10,-1,-100,18809.796721940394,7.797711101001028e-05,0.023545163581164184,0.9997227711678406,75.66731129565427,4.763186749628166,526.7910496058848,-120.55522144648482,143.76553344726562,4761.76025390625,True
1599386365.9205656,0.0,10,0.5,0.5,-24.323792461013795,-0.1005,-0.00825,-0.12575,0.24020722238363068,10,1,100,0.10865421541146981,-10,-1,-100,18804.96362738288,-0.0009394800265949704,0.023365179689586166,0.999726555491727,76.82082116480379,4.839188516425725,536.5833859222178,-120.91806838396829,138.357666015625,4761.76025390625,True
1599386365.9484956,0.0,10,0.5,0.5,-23.01735336532593,-0.1005,-0.00825,-0.12575,0.24439376288109005,10,1,100,0.19274178992810104,-10,-1,-100,18797.6867768527,-0.0026241452965062337,0.02324176311128469,0.9997264297341256,78.10547253624503,4.92433813570552,548.2431407225304,-121.46220806303603,129.6995849609375,4761.76025390625,True
1599386365.9813728,0.0,10,0.5,0.5,-24.071376554489138,-0.1005,-0.00825,-0.12575,0.25648705400622773,10,1,100,0.02496383805085616,-10,-1,-100,18797.6867768527,-0.0026241452965062337,0.02324176311128469,0.9997264297341256,78.10547253624503,4.92433813570552,548.2431407225304,-121.46220806303603,129.6995849609375,4761.76025390625,True
1599386366.0165238,0.0,10,0.5,0.5,-21.933832920837403,-0.1005,-0.00825,-0.12575,0.2565393487302465,10,1,100,0.23553956702588114,-10,-1,-100,18790.37728170678,-0.00453274574507504,0.023243889625253786,0.9997195485790501,78.6769199448133,4.963155956898423,554.964349638513,-122.00625972104949,120.38577270507812,4761.76025390625,True
