Timestamp,Input Throttle,horizon,dT,dt,Input Roll,Roll P,Roll I,Roll D,Input Pitch,Pitch P,Pitch I,Pitch D,Input Yaw,Yaw P,Yaw I,Yaw D,Altitude,Direction X,Direction Y,Direction Z,Drag X,Drag Y,Drag Z,Vertical Velocity,Roll,Mass,Has Fuel
1599386635.9881034,0.0,10,0.5,0.5,-5.6347099151611335,-0.1005,-0.0155,-0.5,-0.00018880948213844642,10,1,100,0.49807213947950874,-10,-1,-100,19351.09416387533,-0.04884371075133212,-0.0001757695854008262,0.9988064181937825,60.986789869928614,3.680697318903723,232.75506773426426,-68.48187401847844,-33.922454833984375,4761.76025390625,True
1599386636.0180235,0.0,10,0.5,0.5,-5.721320722961426,-0.1005,-0.0155,-0.5,0.00010737748439260597,10,1,100,0.5047023943972431,-10,-1,-100,19348.343941194704,-0.04894717362232111,-0.000158654582701363,0.9988013561380008,61.16639766113572,3.692882142281832,234.7316162000853,-68.84679057045443,-33.924774169921875,4761.76025390625,True
1599386636.051938,0.0,10,0.5,0.5,-5.809396990966797,-0.1005,-0.0155,-0.5,-0.001619988243823849,10,1,100,0.49925082466057635,-10,-1,-100,19348.343941194704,-0.04894717362232111,-0.000158654582701363,0.9988013561380008,61.16639766113572,3.692882142281832,234.7316162000853,-68.84679057045443,-33.924774169921875,4761.76025390625,True
1599386636.0848517,0.0,10,0.5,0.5,-5.699622718811036,-0.1005,-0.0155,-0.5,0.03529246653213216,10,1,100,0.5072140761446559,-10,-1,-100,19342.799707447062,-0.048975069387065175,0.0001770574194279656,0.9987999855973179,61.53734308867132,3.717997817769131,238.75507388094312,-69.57658229396172,-34.2523193359375,4761.76025390625,True
1599386636.1167648,0.0,10,0.5,0.5,-5.8014018325805665,-0.1005,-0.0155,-0.5,0.017163203361423504,10,1,100,0.5063800867474713,-10,-1,-100,19341.404526852537,-0.04894832466105168,0.0003172777039759784,0.9988012619373962,61.63759223402789,3.7247300856734853,239.79547931989597,-69.75902079360547,-34.49945068359375,4761.76025390625,True
1599386636.1501868,0.0,10,0.5,0.5,-6.010993357849121,-0.1005,-0.0155,-0.5,0.003172902677019823,10,1,100,0.5139493918149259,-10,-1,-100,19341.404526852537,-0.04894832466105168,0.0003172777039759784,0.9988012619373962,61.63759223402789,3.7247300856734853,239.79547931989597,-69.75902079360547,-34.49945068359375,4761.76025390625,True
1599386636.1864038,0.0,10,0.5,0.5,-5.668983366394043,-0.1005,-0.0155,-0.5,0.045682604852726134,10,1,100,0.5043912755233753,-10,-1,-100,19338.60321988084,-0.04881693421780026,0.000703441107660603,0.9988074950180256,61.84743089146664,3.738740874991296,241.91963614460553,-70.12388551653122,-35.212249755859375,4761.76025390625,True
1599386636.2212918,0.0,10,0.5,0.5,-5.13835816040039,-0.1005,-0.0155,-0.5,0.10189061626645955,10,1,100,0.4800718703773985,-10,-1,-100,19334.37389565294,-0.04843202382786482,0.0015648411774008741,0.9988252551572906,62.17334277852522,3.7603404935890237,245.167529256121,-70.67114910594998,-36.830810546875,4761.76025390625,True
1599386636.2572951,0.0,10,0.5,0.5,-5.161737475585937,-0.1005,-0.0155,-0.5,0.09767376916434303,10,1,100,0.47880982711948106,-10,-1,-100,19331.536104772007,-0.04802660305846257,0.0023081745933478787,0.9988433899909992,62.3855371569678,3.774333208907385,247.32477255472975,-71.03596835620178,-38.27679443359375,4761.76025390625,True
1599386636.2931979,0.0,10,0.5,0.5,-4.920164532470704,-0.1005,-0.0155,-0.5,0.11798852216474312,10,1,100,0.4653534695664403,-10,-1,-100,19328.68372169684,-0.04749204765119791,0.003166513476400295,0.9988665969999698,62.57967177428617,3.7871188294785396,249.419489858427,-71.40076901202103,-40.016571044921875,4761.76025390625,True
1599386636.32985,0.0,10,0.5,0.5,-5.867527153015137,-0.1005,-0.0155,-0.5,0.03247128520714155,10,1,100,0.5235582150580259,-10,-1,-100,19328.68372169684,-0.04749204765119791,0.003166513476400295,0.9988665969999698,62.57967177428617,3.7871188294785396,249.419489858427,-71.40076901202103,-40.016571044921875,4761.76025390625,True
1599386636.3622794,0.0,10,0.5,0.5,-3.9603707931518555,-0.1005,-0.0155,-0.5,0.1989150040987028,10,1,100,0.4083733806209577,-10,-1,-100,19324.37778838759,-0.046446141577315594,0.004676599754449214,0.9989098484584665,62.80327265977892,3.8019196361974394,252.30628826672407,-71.94793781002085,-43.176788330078125,4761.76025390625,True
1599386636.3991811,0.0,10,0.5,0.5,-5.526138813781738,-0.1005,-0.0155,-0.5,0.048389901727525914,10,1,100,0.5127138848046888,-10,-1,-100,19324.37778838759,-0.046446141577315594,0.004676599754449214,0.9989098484584665,62.80327265977892,3.8019196361974394,252.30628826672407,-71.94793781002085,-43.176788330078125,4761.76025390625,True
1599386636.437078,0.0,10,0.5,0.5,-3.217095783996582,-0.1005,-0.0155,-0.5,0.23852190397361667,10,1,100,0.3617561042880473,-10,-1,-100,19320.039026292507,-0.04507607178356886,0.006400676816379902,0.9989630519137607,62.89123690614929,3.8080683503589334,254.65926254732832,-72.49507574071798,-46.99810791015625,4761.76025390625,True
1599386636.471953,0.0,10,0.5,0.5,-4.254713438415528,-0.1005,-0.0155,-0.5,0.13228326553814881,10,1,100,0.4396101098559968,-10,-1,-100,19318.58547714562,-0.04454186201951091,0.0069965559601790454,0.9989830182403157,62.87822960591936,3.807440680405405,255.2732936763923,-72.67745049097303,-48.4190673828125,4761.76025390625,True
1599386636.506895,0.0,10,0.5,0.5,-1.0895908828735354,-0.1005,-0.0155,-0.5,0.3600725596617269,10,1,100,0.21630729141314314,-10,-1,-100,19312.734805817367,-0.04203019703237914,0.00960300396634152,0.9990701901529451,62.534242229641215,3.7866260438661477,256.53098744325877,-73.40694668355117,-54.83709716796875,4761.76025390625,True
1599386636.823077,0.0,10,0.5,0.5,-4.267082423400879,-0.1005,-0.0155,-0.5,0.10035633167171608,10,1,100,0.4667819773634528,-10,-1,-100,19312.734805817367,-0.04203019703237914,0.00960300396634152,0.9990701901529451,62.534242229641215,3.7866260438661477,256.53098744325877,-73.40694668355117,-54.83709716796875,4761.76025390625,True
1599386636.8559563,0.0,10,0.5,0.5,-2.0448975524902346,-0.1005,-0.0155,-0.5,0.2540105340845349,10,1,100,0.30152493345214937,-10,-1,-100,19309.787584974663,-0.040534030030626764,0.01099176984022289,0.999117697473754,62.14110225587374,3.7624625892451147,256.2385122733137,-73.7717068107704,-58.48699951171875,4761.76025390625,True
1599386636.8938873,0.0,10,0.5,0.5,-0.21662347412109373,-0.1005,-0.0155,-0.5,0.3402292144698331,10,1,100,0.1711813845651587,-10,-1,-100,19305.339395335992,-0.037996116851694905,0.013029520521197008,0.9991929376747916,61.19695791020903,3.704400141173011,254.29814856149798,-74.31888806046896,-64.51473999023438,4761.76025390625,True
1599386636.9307837,0.0,10,0.5,0.5,-0.55517879486084,-0.1005,-0.0155,-0.5,0.2794132908609251,10,1,100,0.21903151902706738,-10,-1,-100,19302.35569465428,-0.036133042898871266,0.014319402429339908,0.9992443934918699,60.289776204146875,3.648749525550898,251.81295328127874,-74.68371846130715,-68.90216064453125,4761.76025390625,True
1599386636.9656649,0.0,10,0.5,0.5,0.03702090148925752,-0.1005,-0.0155,-0.5,0.2854443317087815,10,1,100,0.1873583591401292,-10,-1,-100,19299.357399678905,-0.03416172785619791,0.015536710999947656,0.9992955453524164,59.136911998443935,3.5782550252562735,248.25942466326606,-75.04859543948493,-73.4669189453125,4761.76025390625,True
1599386637.0375042,0.0,10,0.5,0.5,-0.7947014633178711,-0.1005,-0.0155,-0.5,0.23104257700445865,10,1,100,0.2686365899241211,-10,-1,-100,19297.85277843871,-0.03312063475161751,0.01613754811453036,0.999321071075008,58.477470008470576,3.5380343466398805,246.11549085762005,-75.23105394274717,-75.79632568359375,4761.76025390625,True
1599386637.0753686,0.0,10,0.5,0.5,-1.908844549560547,-0.1005,-0.0155,-0.5,0.1721049603821965,10,1,100,0.3714133496995913,-10,-1,-100,19297.85277843871,-0.03312063475161751,0.01613754811453036,0.999321071075008,58.477470008470576,3.5380343466398805,246.11549085762005,-75.23105394274717,-75.79632568359375,4761.76025390625,True
1599386637.1103194,0.0,10,0.5,0.5,0.99403575592041,-0.1005,-0.0155,-0.5,0.2957312284760365,10,1,100,0.13337508185095137,-10,-1,-100,19294.832587598474,-0.030968764595562324,0.017251004235056103,0.9993714717122492,56.98457791303287,3.4472461804248993,241.05050950649917,-75.59601482433727,-80.54623413085938,4761.76025390625,True
1599386637.143268,0.0,10,0.5,0.5,1.6114932983398438,-0.1005,-0.0155,-0.5,0.29839970386956965,10,1,100,0.09730399057191563,-10,-1,-100,19291.79779629584,-0.028697424812237294,0.01827763200509465,0.9994210253829124,55.27095356814591,3.3434452275535613,234.98464403605502,-75.96103751012049,-85.44284057617188,4761.76025390625,True
1599386637.177174,0.0,10,0.5,0.5,5.396959858703613,-0.1005,-0.0155,-0.5,0.3866320259038458,10,1,100,-0.20557995058815093,-10,-1,-100,19285.684403327177,-0.023893484123402364,0.020002786472673187,0.9995143770600667,52.84893074818034,3.198074118919077,226.9521043360212,-76.69124574480469,-95.72824096679688,4761.76025390625,True
1599386637.2090518,0.0,10,0.5,0.5,1.8062644561767578,-0.1005,-0.0155,-0.5,0.2546823765113574,10,1,100,0.13773749503663085,-10,-1,-100,19284.146927621798,-0.02266382092369497,0.020362112100988934,0.9995357600465956,53.64672892913537,3.2469731608523076,230.95298456558945,-76.87377812421457,-98.20721435546875,4761.76025390625,True
1599386637.2429628,0.0,10,0.5,0.5,3.484003251647949,-0.1005,-0.0155,-0.5,0.2880474073961073,10,1,100,-0.007470266463482089,-10,-1,-100,19281.061025864678,-0.02024348052496784,0.02098230921828766,0.9995748817352822,55.01571546965983,3.3314048724500482,238.02532480724145,-77.23878486672312,-102.95326232910156,4761.76025390625,True
1599386637.275876,0.0,10,0.5,0.5,3.854681589508057,-0.1005,-0.0155,-0.5,0.28299998562025486,10,1,100,-0.04532035122730951,-10,-1,-100,19277.96052602597,-0.017717525346004438,0.021491156818435057,0.9996120344784866,56.2088735732217,3.4055421583222243,244.3912142652272,-77.60371740299716,-107.40751647949219,4761.76025390625,True
1599386637.3057933,0.0,10,0.5,0.5,2.9652765495300297,-0.1005,-0.0155,-0.5,0.2555640485938546,10,1,100,0.07202023887691145,-10,-1,-100,19276.404802748584,-0.0165063701765358,0.021696635539877017,0.9996283288051839,56.74041561124922,3.438760407432151,247.30956741555661,-77.78615681073951,-109.52448272705078,4761.76025390625,True
1599386637.3427002,0.0,10,0.5,0.5,1.969758024978638,-0.1005,-0.0155,-0.5,0.2357538997607123,10,1,100,0.1911730885515418,-10,-1,-100,19276.404802748584,-0.0165063701765358,0.021696635539877017,0.9996283288051839,56.74041561124922,3.438760407432151,247.30956741555661,-77.78615681073951,-109.52448272705078,4761.76025390625,True
1599386637.3786035,0.0,10,0.5,0.5,6.668600068664551,-0.1005,-0.0155,-0.5,0.2958574136696342,10,1,100,-0.340744379577127,-10,-1,-100,19270.145428103977,-0.011686807155074867,0.02223743118946728,0.9996844077970876,58.51705986754556,3.550689790582795,257.55639485270603,-78.51575451232637,-117.25629425048828,4761.76025390625,True
1599386637.4125097,0.0,10,0.5,0.5,2.8669572582244873,-0.1005,-0.0155,-0.5,0.24238783701810152,10,1,100,0.13906853980931197,-10,-1,-100,19270.145428103977,-0.011686807155074867,0.02223743118946728,0.9996844077970876,58.51705986754556,3.550689790582795,257.55639485270603,-78.51575451232637,-117.25629425048828,4761.76025390625,True
1599386637.4474168,0.0,10,0.5,0.5,4.987682562255859,-0.1005,-0.0155,-0.5,0.2523716599426626,10,1,100,-0.12881900030560722,-10,-1,-100,19266.99385622621,-0.009270951179117913,0.022322647867804257,0.9997078317470581,59.13320752603082,3.590115405880198,261.5320366971499,-78.88047120553784,-120.68087768554688,4761.76025390625,True
1599386637.484319,0.0,10,0.5,0.5,6.090360044097901,-0.1005,-0.0155,-0.5,0.2428627803563687,10,1,100,-0.2679076061082471,-10,-1,-100,19262.239147176384,-0.0058300018876934505,0.022309062630387247,0.9997341230559967,59.73719331127048,3.6295792359952412,266.1174564206805,-79.4274705031498,-125.2649917602539,4761.76025390625,True
1599386637.5202637,0.0,10,0.5,0.5,5.473811532211304,-0.1005,-0.0155,-0.5,0.23527194874935808,10,1,100,-0.1662225647622198,-10,-1,-100,19259.051109381835,-0.0036470642012937727,0.022224039917557784,0.9997463633204448,59.96931076259465,3.6453218717541165,268.43224950376947,-79.7920983596325,-127.952392578125,4761.76025390625,True
1599386637.554933,0.0,10,0.5,0.5,5.616572649765015,-0.1005,-0.0155,-0.5,0.2304270098109655,10,1,100,-0.17906222984694925,-10,-1,-100,19255.84848691465,-0.001564257003725715,0.02210068232150481,0.9997545263418166,60.10001300839381,3.6547204097760484,270.3007991189512,-80.156703355967,-130.34458923339844,4761.76025390625,True
1599386637.5883534,0.0,10,0.5,0.5,4.470287253189087,-0.1005,-0.0155,-0.5,0.24293662643831462,10,1,100,0.027108533517859596,-10,-1,-100,19255.84848691465,-0.001564257003725715,0.02210068232150481,0.9997545263418166,60.10001300839381,3.6547204097760484,270.3007991189512,-80.156703355967,-130.34458923339844,4761.76025390625,True
1599386637.6262512,0.0,10,0.5,0.5,5.164730160903931,-0.1005,-0.0155,-0.5,0.23266069674294104,10,1,100,-0.08742594959739765,-10,-1,-100,19254.2417067684,-0.0005400155422426873,0.022006248075998488,0.9997576873567073,60.13627626091056,3.6575849410099273,271.1060641838812,-80.3389990620978,-131.43032836914062,4761.76025390625,True
1599386637.672642,0.0,10,0.5,0.5,6.824216587448121,-0.1005,-0.0155,-0.5,0.1885464196549814,10,1,100,-0.40872810701589335,-10,-1,-100,19247.778128696023,0.003296425844906606,0.021518891614504414,0.9997630073574097,60.14318818102859,3.660243975362161,273.7067499498006,-81.0681475082199,-135.03585815429688,4761.76025390625,True
1599386637.7185156,0.0,10,0.5,0.5,5.060994326782227,-0.1005,-0.0155,-0.5,0.23726429141185149,10,1,100,-0.02706424790310824,-10,-1,-100,19247.778128696023,0.003296425844906606,0.021518891614504414,0.9997630073574097,60.14318818102859,3.660243975362161,273.7067499498006,-81.0681475082199,-135.03585815429688,4761.76025390625,True
1599386637.7773588,0.0,10,0.5,0.5,6.258682062149048,-0.1005,-0.0155,-0.5,0.1952202127971222,10,1,100,-0.31039618346486064,-10,-1,-100,19242.892166112433,0.005854168171812135,0.021136834303393578,0.9997594525437842,60.054875019873116,3.6562028279862133,275.23000655352274,-81.61498216413034,-136.96449279785156,4761.76025390625,True
1599386637.8172522,0.0,10,0.5,0.5,6.084278857421875,-0.1005,-0.0155,-0.5,0.18720414710376637,10,1,100,-0.31031973496864595,-10,-1,-100,19237.973394016037,0.008162747141463493,0.02071763669324965,0.9997520438033378,59.948961751155736,3.650878933113888,276.6672750642203,-82.1617989642541,-138.2290496826172,4761.76025390625,True
1599386637.8798316,0.0,10,0.5,0.5,5.648698241806031,-0.1005,-0.0155,-0.5,0.2166522001080636,10,1,100,-0.1581381905564433,-10,-1,-100,19236.326512663276,0.008859941660766034,0.020605639160881706,0.9997484228887483,59.9160696816342,3.6492191014273905,277.15623007006053,-82.34406740623672,-138.50247192382812,4761.76025390625,True
1599386637.9217184,0.0,10,0.5,0.5,5.765934292221069,-0.1005,-0.0155,-0.5,0.1940085389902296,10,1,100,-0.29867557858258353,-10,-1,-100,19231.363996418193,0.010754884848696996,0.020299532674664104,0.9997360958898511,59.83541873625262,3.6452813610292494,278.7034958378688,-82.89086088858774,-138.87936401367188,4761.76025390625,True
1599386637.9596164,0.0,10,0.5,0.5,5.52821026763916,-0.1005,-0.0155,-0.5,0.19881421055507684,10,1,100,-0.23606624497838039,-10,-1,-100,19228.0374261135,0.011893307544290214,0.020066768819561008,0.9997278999931928,59.80144883926065,3.6438442686732904,279.8253297197945,-83.25537930338817,-138.7621612548828,4761.76025390625,True
1599386637.9985135,0.0,10,0.5,0.5,5.355187981414796,-0.1005,-0.0155,-0.5,0.20547966234705722,10,1,100,-0.23120861252650984,-10,-1,-100,19224.6962755383,0.012869949361861968,0.019917721486756194,0.9997187848461182,59.78185697721737,3.643293809194124,281.013747034866,-83.61988864993951,-138.34854125976562,4761.76025390625,True
1599386638.0354135,0.0,10,0.5,0.5,5.574404104614258,-0.1005,-0.0155,-0.5,0.22016609954406377,10,1,100,-0.13498785140589326,-10,-1,-100,19224.6962755383,0.012869949361861968,0.019917721486756194,0.9997187848461182,59.78185697721737,3.643293809194124,281.013747034866,-83.61988864993951,-138.34854125976562,4761.76025390625,True
1599386638.0733123,0.0,10,0.5,0.5,5.1614224662780765,-0.1005,-0.0155,-0.5,0.20186109212605222,10,1,100,-0.23298888122126382,-10,-1,-100,19221.34054466337,0.013747745808942075,0.019753296838260406,0.9997103614293453,59.777207192964006,3.6436852035508505,282.2723407764476,-83.98438844140733,-137.64015197753906,4761.76025390625,True
1599386638.1082187,0.0,10,0.5,0.5,4.922561563110351,-0.1005,-0.0155,-0.5,0.20237821394988612,10,1,100,-0.22913591868248903,-10,-1,-100,19217.97023429128,0.014497726772888598,0.01961056913006067,0.9997025765180431,59.781934480503125,3.6447001893783817,283.5756857886666,-84.34887821387917,-136.6365203857422,4761.76025390625,True
1599386638.1466334,0.0,10,0.5,0.5,5.0592518867492675,-0.1005,-0.0155,-0.5,0.20722175857255207,10,1,100,-0.19292214834195456,-10,-1,-100,19216.279611680657,0.01484012855435514,0.019526583730525546,0.9996991963147239,59.78585687149407,3.645328554146673,284.2350291155166,-84.5311193222137,-136.02435302734375,4761.76025390625,True
1599386638.1845305,0.0,10,0.5,0.5,3.4533970603942876,-0.1005,-0.0155,-0.5,0.18524832318917456,10,1,100,-0.2747700560797014,-10,-1,-100,19209.48067458335,0.015884980514477468,0.019252286052811984,0.9996884599092837,59.78206932655758,3.646881485322278,286.78115698371647,-85.26006133774385,-132.837890625,4761.76025390625,True
1599386638.2254214,0.0,10,0.5,0.5,5.0402320281982425,-0.1005,-0.0155,-0.5,0.2124896361354726,10,1,100,-0.17128794130173508,-10,-1,-100,19209.48067458335,0.015884980514477468,0.019252286052811984,0.9996884599092837,59.78206932655758,3.646881485322278,286.78115698371647,-85.26006133774385,-132.837890625,4761.76025390625,True
1599386638.2648265,0.0,10,0.5,0.5,2.410790724945069,-0.1005,-0.0155,-0.5,0.18233174119273982,10,1,100,-0.23605791709330484,-10,-1,-100,19202.623423241777,0.016466778264061725,0.018979455508460266,0.9996842628961429,59.67978116338161,3.6428872879808982,288.8527811753317,-85.98897640161745,-128.47305297851562,4761.76025390625,True
1599386638.3027265,0.0,10,0.5,0.5,4.577663948822022,-0.1005,-0.0155,-0.5,0.2094521772626695,10,1,100,-0.17863882579520862,-10,-1,-100,19202.623423241777,0.016466778264061725,0.018979455508460266,0.9996842628961429,59.67978116338161,3.6428872879808982,288.8527811753317,-85.98897640161745,-128.47305297851562,4761.76025390625,True
1599386638.3396275,0.0,10,0.5,0.5,2.9861058868408206,-0.1005,-0.0155,-0.5,0.19083567979998645,10,1,100,-0.19409124275184847,-10,-1,-100,19199.172930406872,0.016602062151471756,0.01881141469258697,0.9996852015557608,59.55527305093524,3.636614363022384,289.5298648965694,-86.35343097048235,-125.84952545166016,4761.76025390625,True
1599386638.3760386,0.0,10,0.5,0.5,1.583224018478394,-0.1005,-0.0155,-0.5,0.18132360734156275,10,1,100,-0.17750531699777033,-10,-1,-100,19193.969856691197,0.016569985674437272,0.018573318159559187,0.9996901857212027,59.22362534595871,3.6186089835452946,289.8283605009214,-86.90012180266211,-121.36221313476562,4761.76025390625,True
1599386638.408951,0.0,10,0.5,0.5,1.783681918716431,-0.1005,-0.0155,-0.5,0.18359725821231698,10,1,100,-0.16469518560921254,-10,-1,-100,19190.48291749379,0.01642100583149851,0.018378758504110967,0.9996962397665251,58.87563517262012,3.5989965605411265,289.3932957083887,-87.2645970533478,-118.0035629272461,4761.76025390625,True
1599386638.4448583,0.0,10,0.5,0.5,3.4314723060607912,-0.1005,-0.0155,-0.5,0.2028993274588745,10,1,100,-0.1799482755500523,-10,-1,-100,19190.48291749379,0.01642100583149851,0.018378758504110967,0.9996962397665251,58.87563517262012,3.5989965605411265,289.3932957083887,-87.2645970533478,-118.0035629272461,4761.76025390625,True
1599386638.4812682,0.0,10,0.5,0.5,1.207821496963501,-0.1005,-0.0155,-0.5,0.17868267770220853,10,1,100,-0.15261808392856174,-10,-1,-100,19186.981398514938,0.016170119307646273,0.018159856722990503,0.999704329712229,58.39961755691916,3.571632012148757,288.31262023776645,-87.62909238452808,-114.35124969482422,4761.76025390625,True
1599386638.5161753,0.0,10,0.5,0.5,0.6300879478454591,-0.1005,-0.0155,-0.5,0.17185759717645788,10,1,100,-0.14034680996523474,-10,-1,-100,19183.465298959636,0.01582896325671876,0.01790012774665332,0.9997144739118621,57.771115100962525,3.5349585957204948,286.4569151787949,-87.99361605124349,-110.40562438964844,4761.76025390625,True
1599386638.5530753,0.0,10,0.5,0.5,0.017856282043457128,-0.1005,-0.0155,-0.5,0.16381546060572558,10,1,100,-0.12597606438267672,-10,-1,-100,19179.934617415885,0.01538727930994107,0.017592378759325473,0.9997268326123023,57.04010113030754,3.4919545020859872,284.06524549711025,-88.35817519351713,-106.16693115234375,4761.76025390625,True
1599386638.5864103,0.0,10,0.5,0.5,-0.6254459243774413,-0.1005,-0.0155,-0.5,0.15563332221873205,10,1,100,-0.11384701722349752,-10,-1,-100,19176.389352100086,0.01487593683979112,0.01723973288304884,0.999740715442389,56.200250166077545,3.4421421475505447,281.0993055069927,-88.72277368500194,-101.63519287109375,4761.76025390625,True
1599386638.622314,0.0,10,0.5,0.5,-2.730774030303955,-0.1005,-0.0155,-0.5,0.12073619994245967,10,1,100,-0.06547352742024933,-10,-1,-100,19171.044106546324,0.013972238362965897,0.016603728750440118,0.9997645186476215,54.723032159551686,3.3536186703425765,275.49049656720865,-89.26975678582883,-94.43647003173828,4761.76025390625,True
1599386638.6612108,0.0,10,0.5,0.5,-2.0569638431549073,-0.1005,-0.0155,-0.5,0.12940427443144042,10,1,100,-0.08149196117808824,-10,-1,-100,19167.46237458114,0.013298584181742498,0.016106503604112032,0.9997818403033792,53.55721337839094,3.2830575308157384,270.78428128848293,-89.63447234701937,-89.6524658203125,4761.76025390625,True
1599386638.6986246,0.0,10,0.5,0.5,0.2748663524627685,-0.1005,-0.0155,-0.5,0.17883949387381415,10,1,100,-0.14854055989219614,-10,-1,-100,19167.46237458114,0.013298584181742498,0.016106503604112032,0.9997818403033792,53.55721337839094,3.2830575308157384,270.78428128848293,-89.63447234701937,-89.6524658203125,4761.76025390625,True
1599386638.7345285,0.0,10,0.5,0.5,-5.087787658691406,-0.1005,-0.0155,-0.5,0.05156159101450286,10,1,100,0.01178133646194865,-10,-1,-100,19160.25514929823,0.011844115558495481,0.014951890770016907,0.9998180623938728,56.39717468006302,3.45790590904966,287.59408411302815,-90.3637753825489,-80.81558227539062,4761.76025390625,True
1599386638.766443,0.0,10,0.5,0.5,-0.7321931640625,-0.1005,-0.0155,-0.5,0.16666073168506118,10,1,100,-0.13319293885115888,-10,-1,-100,19160.25514929823,0.011844115558495481,0.014951890770016907,0.9998180623938728,56.39717468006302,3.45790590904966,287.59408411302815,-90.3637753825489,-80.81558227539062,4761.76025390625,True
1599386638.8013492,0.0,10,0.5,0.5,-4.523002731704712,-0.1005,-0.0155,-0.5,0.053087156395734456,10,1,100,-0.003022322390844323,-10,-1,-100,19154.811450810404,0.010664907127286261,0.01392251905623584,0.999846199782294,58.51425087271315,3.587613706651029,300.2977951776327,-90.91054990621782,-74.59881591796875,4761.76025390625,True
1599386638.8402445,0.0,10,0.5,0.5,-1.4818969108581546,-0.1005,-0.0155,-0.5,0.15557870382905362,10,1,100,-0.12036755564134514,-10,-1,-100,19154.811450810404,0.010664907127286261,0.01392251905623584,0.999846199782294,58.51425087271315,3.587613706651029,300.2977951776327,-90.91054990621782,-74.59881591796875,4761.76025390625,True
1599386638.875152,0.0,10,0.5,0.5,-6.119760070419312,-0.1005,-0.0155,-0.5,-0.017704437271967993,10,1,100,0.06175491801404252,-10,-1,-100,19147.502165214624,0.009014253014219428,0.012351069898650875,0.9998830903235408,60.816719485672884,3.7282231934712873,314.75770349297795,-91.63933906250591,-66.97808837890625,4761.76025390625,True
1599386638.906069,0.0,10,0.5,0.5,-2.376708981704712,-0.1005,-0.0155,-0.5,0.13888557270172824,10,1,100,-0.10262902226839088,-10,-1,-100,19147.502165214624,0.009014253014219428,0.012351069898650875,0.9998830903235408,60.816719485672884,3.7282231934712873,314.75770349297795,-91.63933906250591,-66.97808837890625,4761.76025390625,True
1599386638.9409757,0.0,10,0.5,0.5,-3.4778443271636963,-0.1005,-0.0155,-0.5,0.08909937902206541,10,1,100,-0.05450815152618651,-10,-1,-100,19145.66573511192,0.008582584213195498,0.011903232964163644,0.9998923203491585,61.29336663573376,3.7572869853511253,317.89060560395814,-91.82149815584722,-65.24554443359375,4761.76025390625,True
1599386638.9768791,0.0,10,0.5,0.5,-5.523118506240845,-0.1005,-0.0155,-0.5,-0.014811298476867005,10,1,100,0.04316811560296163,-10,-1,-100,19140.134588506888,0.007307913195296576,0.010556317319111217,0.999917575887827,62.514948171654176,3.8317640664469548,326.2641217756145,-92.36789805229282,-60.490936279296875,4761.76025390625,True
1599386639.0117893,0.0,10,0.5,0.5,-4.060769117736816,-0.1005,-0.0155,-0.5,0.0652542033008978,10,1,100,-0.035939687807687304,-10,-1,-100,19138.283588257735,0.006874341687455881,0.010065214395617172,0.999925714683613,62.86159307779408,3.852912931138322,328.75642090901187,-92.55000827872534,-59.054901123046875,4761.76025390625,True
1599386639.0417066,0.0,10,0.5,0.5,-4.981370819091797,-0.1005,-0.0155,-0.5,0.006322463047120558,10,1,100,0.015958795233149387,-10,-1,-100,19134.570662030717,0.006014221600406086,0.009088506180323242,0.9999406123335282,63.4795337235146,3.8906621121659652,333.3681828769303,-92.91419899904642,-56.405120849609375,4761.76025390625,True
1599386639.0776105,0.0,10,0.5,0.5,-4.436941313171387,-0.1005,-0.0155,-0.5,0.05091422922121908,10,1,100,-0.022298735492400044,-10,-1,-100,19132.708736319328,0.005586712130212482,0.008612349311114919,0.9999473066551644,63.755806942776616,3.907570401656988,335.5122411439378,-93.09628069362742,-55.191253662109375,4761.76025390625,True
1599386639.1145124,0.0,10,0.5,0.5,-5.19354497833252,-0.1005,-0.0155,-0.5,-0.013272038977225065,10,1,100,0.03059329532089118,-10,-1,-100,19128.973960562726,0.004722919062123179,0.00760173112044777,0.9999599530578737,64.25439413075826,3.938157692784582,339.53367698719507,-93.46041946603873,-52.986724853515625,4761.76025390625,True
1599386639.1454318,0.0,10,0.5,0.5,-5.7863217514038086,-0.1005,-0.0155,-0.5,-0.08145820600532566,10,1,100,0.08730410244850559,-10,-1,-100,19123.344488658593,0.003428573659514929,0.006069795028358148,0.9999757009402652,64.89691840197688,3.977767752454483,345.04766068102776,-94.00657345266967,-50.23583984375,4761.76025390625,True
1599386639.1803355,0.0,10,0.5,0.5,-4.4486418594360355,-0.1005,-0.0155,-0.5,0.07095013080084885,10,1,100,-0.04140680446554226,-10,-1,-100,19123.344488658593,0.003428573659514929,0.006069795028358148,0.9999757009402652,64.89691840197688,3.977767752454483,345.04766068102776,-94.00657345266967,-50.23583984375,4761.76025390625,True
1599386639.2162397,0.0,10,0.5,0.5,-6.066675346374512,-0.1005,-0.0155,-0.5,-0.15090394112738917,10,1,100,0.1496684472908732,-10,-1,-100,19115.78755579528,0.0016981044012454895,0.004060078669035873,0.9999903160544324,65.62656512736588,4.023073666869209,351.7868630146429,-94.73469122279685,-47.604248046875,4761.76025390625,True
1599386639.2504737,0.0,10,0.5,0.5,-4.780908900451661,-0.1005,-0.0155,-0.5,0.04923859568187683,10,1,100,-0.022646863674773345,-10,-1,-100,19115.78755579528,0.0016981044012454895,0.004060078669035873,0.9999903160544324,65.62656512736588,4.023073666869209,351.7868630146429,-94.73469122279685,-47.604248046875,4761.76025390625,True
1599386639.2903678,0.0,10,0.5,0.5,-5.094566847229004,-0.1005,-0.0155,-0.5,-0.010622060177431364,10,1,100,0.025684553981063958,-10,-1,-100,19113.889221600723,0.0012653789212951267,0.0035234281532509027,0.9999929921105619,65.79519828471318,4.0335902130817445,353.40818586435756,-94.91670642019635,-47.131927490234375,4761.76025390625,True
1599386639.3252735,0.0,10,0.5,0.5,-5.321299066162109,-0.1005,-0.0155,-0.5,-0.06584018365063296,10,1,100,0.07884830394816895,-10,-1,-100,19110.081632609363,0.00039533730826829723,0.002541199111699927,0.9999966930022757,66.12183161711742,4.053995118586598,356.60528116263623,-95.28072088146507,-46.4078369140625,4761.76025390625,True
1599386639.360181,0.0,10,0.5,0.5,-5.237680513000488,-0.1005,-0.0155,-0.5,-0.08253400557671711,10,1,100,0.08833534702520365,-10,-1,-100,19106.25948359375,-0.0004755712989227466,0.0015037880729686492,0.9999987562259123,66.43876639029419,4.073815421532908,359.76515151502053,-95.64471431775831,-45.98052978515625,4761.76025390625,True
1599386639.3950872,0.0,10,0.5,0.5,-5.123771243286133,-0.1005,-0.0155,-0.5,-0.08818165414060282,10,1,100,0.09858095977702891,-10,-1,-100,19102.422775556683,-0.0013537665913981264,0.0005171279838345705,0.999998949946781,66.74808769450954,4.093153867846606,362.89853735489146,-96.00868726416776,-45.848175048828125,4761.76025390625,True
1599386639.4270024,0.0,10,0.5,0.5,-4.976188967895507,-0.1005,-0.0155,-0.5,-0.09532773764410987,10,1,100,0.10853698222595025,-10,-1,-100,19098.571509149624,-0.0022359370721006617,-0.0004370079670496664,0.9999974048013558,67.0501940365523,4.1120071350202005,366.00714847128205,-96.37264022379084,-46.010986328125,4761.76025390625,True
1599386639.4619088,0.0,10,0.5,0.5,-4.956444749450684,-0.1005,-0.0155,-0.5,-0.05240132241433178,10,1,100,0.06995394340433017,-10,-1,-100,19096.640416933107,-0.0026800438387224994,-0.0009059374591481131,0.9999959983131645,67.1978116383797,4.121198493790463,367.5480354972138,-96.55460936390071,-46.203125,4761.76025390625,True
1599386639.49881,0.0,10,0.5,0.5,-4.69942635498047,-0.1005,-0.0155,-0.5,-0.10656055771580938,10,1,100,0.12444619160499126,-10,-1,-100,19092.76731459191,-0.0035724313712021385,-0.0018168594378150467,0.999991968345687,67.48358545515804,4.138935053888321,370.58840029476966,-96.91853338850417,-46.808624267578125,4761.76025390625,True
1599386639.533717,0.0,10,0.5,0.5,-4.466968534851074,-0.1005,-0.0155,-0.5,-0.11095760364348853,10,1,100,0.13456717498849635,-10,-1,-100,19088.87965582183,-0.004469337154187568,-0.002677773786431003,0.9999864271843648,67.7510396474147,4.1554377419455895,373.541454356306,-97.28243914500595,-47.708740234375,4761.76025390625,True
1599386639.5656652,0.0,10,0.5,0.5,-3.7783295394897465,-0.1005,-0.0155,-0.5,-0.1600451213444675,10,1,100,0.1948144479909585,-10,-1,-100,19083.020875962684,-0.005825228610729704,-0.003898721019895509,0.9999754330412532,68.09725366634872,4.176556088742067,377.6905130654029,-97.82826716052915,-49.61151123046875,4761.76025390625,True
1599386639.6005714,0.0,10,0.5,0.5,-4.726603779602051,-0.1005,-0.0155,-0.5,-0.038746277966910034,10,1,100,0.05997763563794249,-10,-1,-100,19083.020875962684,-0.005825228610729704,-0.003898721019895509,0.9999754330412532,68.09725366634872,4.176556088742067,377.6905130654029,-97.82826716052915,-49.61151123046875,4761.76025390625,True
1599386639.6384377,0.0,10,0.5,0.5,-3.1835567459106446,-0.1005,-0.0155,-0.5,-0.15645662192676324,10,1,100,0.20976397159110713,-10,-1,-100,19077.12934754661,-0.007180083180293041,-0.004961579783449691,0.9999619138405105,68.33960095321501,4.190916180750287,381.2860156468068,-98.37406660598822,-52.175933837890625,4761.76025390625,True
1599386639.6733422,0.0,10,0.5,0.5,-2.5203257553100586,-0.1005,-0.0155,-0.5,-0.1579858828443439,10,1,100,0.22461193329201196,-10,-1,-100,19071.205071790726,-0.008539072929811948,-0.00593400375144359,0.9999459344549471,68.42342816096748,4.195115865012933,384.0115022106485,-98.91985075459569,-55.402618408203125,4761.76025390625,True
1599386639.7072525,0.0,10,0.5,0.5,-3.3859425445556646,-0.1005,-0.0155,-0.5,-0.0897690703341877,10,1,100,0.13794279594979486,-10,-1,-100,19069.223036312498,-0.00897849471695618,-0.006190167969651947,0.9999405324583682,68.405063676979,4.193577033736718,384.661760990696,-99.10177859129114,-56.62457275390625,4761.76025390625,True
1599386639.7411609,0.0,10,0.5,0.5,-2.38045033569336,-0.1005,-0.0155,-0.5,-0.11770003378340971,10,1,100,0.19052935543916533,-10,-1,-100,19065.248049306916,-0.009848298770247002,-0.006669967875704635,0.9999292587677736,68.28213828663381,4.18507499733267,385.47603401519507,-99.465639018923,-59.288970947265625,4761.76025390625,True
1599386639.777714,0.0,10,0.5,0.5,-3.691816198730469,-0.1005,-0.0155,-0.5,-0.07043875276409482,10,1,100,0.10439840332796807,-10,-1,-100,19065.248049306916,-0.009848298770247002,-0.006669967875704635,0.9999292587677736,68.28213828663381,4.18507499733267,385.47603401519507,-99.465639018923,-59.288970947265625,4761.76025390625,True
1599386639.812626,0.0,10,0.5,0.5,-1.8945484634399419,-0.1005,-0.0155,-0.5,-0.12128028921739825,10,1,100,0.2008409704161478,-10,-1,-100,19061.25850741763,-0.010718129051323048,-0.007126497334454071,0.9999171639417843,68.02426135679536,4.168142699825295,385.5223739797811,-99.82951250327214,-62.247650146484375,4761.76025390625,True
1599386639.8435385,0.0,10,0.5,0.5,-1.3964411071777345,-0.1005,-0.0155,-0.5,-0.1151220841676473,10,1,100,0.20581076845927318,-10,-1,-100,19057.25440989365,-0.01154675648431823,-0.007479885378432817,0.9999053573860965,67.60627890183439,4.141294656592077,384.64896860352985,-100.19340828240645,-65.49923706054688,4761.76025390625,True
1599386639.8784459,0.0,10,0.5,0.5,-1.9507273559570315,-0.1005,-0.0155,-0.5,-0.09935998663744497,10,1,100,0.1698572052363487,-10,-1,-100,19055.24690231972,-0.011965954189457157,-0.007652707235465639,0.9998991209178574,67.32884627551206,4.123662293034899,383.81621140163554,-100.37536769914527,-67.2353515625,4761.76025390625,True
1599386639.9153466,0.0,10,0.5,0.5,1.8215213134765627,-0.1005,-0.0155,-0.5,-0.13631263937457816,10,1,100,0.29948451830530176,-10,-1,-100,19047.180476320907,-0.013518658024723693,-0.008141228554515748,0.9998754753882274,65.68462647850318,4.02061032296902,377.36039908053357,-101.10331425318934,-74.912353515625,4761.76025390625,True
1599386639.9482589,0.0,10,0.5,0.5,-0.7151519989013673,-0.1005,-0.0155,-0.5,-0.09801805478310033,10,1,100,0.18576573369197147,-10,-1,-100,19045.15476941783,-0.013889405806286637,-0.008233349432334575,0.9998696396848308,65.12203063369454,3.9857047780604082,374.8531777934834,-101.28533531768655,-77.01495361328125,4761.76025390625,True
1599386639.9821684,0.0,10,0.5,0.5,0.8799370147705077,-0.1005,-0.0155,-0.5,-0.10299815713051094,10,1,100,0.22395960754142683,-10,-1,-100,19041.0924334554,-0.014566335208888401,-0.008358428771316843,0.9998589693287034,63.791292160306135,3.9036064674588133,368.6154898704408,-101.64942886998254,-81.3511962890625,4761.76025390625,True
1599386640.0190685,0.0,10,0.5,0.5,-1.2429626663208009,-0.1005,-0.0155,-0.5,-0.09082990813107089,10,1,100,0.15700529248410994,-10,-1,-100,19041.0924334554,-0.014566335208888401,-0.008358428771316843,0.9998589693287034,63.791292160306135,3.9036064674588133,368.6154898704408,-101.64942886998254,-81.3511962890625,4761.76025390625,True
1599386640.0569677,0.0,10,0.5,0.5,2.7710253295898437,-0.1005,-0.0155,-0.5,-0.10309474121473888,10,1,100,0.261015536219938,-10,-1,-100,19034.971617614967,-0.015506403549869496,-0.008467723231150304,0.9998439123744411,62.53278004040027,3.8265530442225293,363.43872763128593,-102.19568201254258,-87.9686279296875,4761.76025390625,True
1599386640.0958636,0.0,10,0.5,0.5,0.8056155464172363,-0.1005,-0.0155,-0.5,-0.09363207382049006,10,1,100,0.19794249000402414,-10,-1,-100,19032.92406249477,-0.015781685340768625,-0.008478987077177098,0.9998395097144089,63.43023820920043,3.881743868594784,369.3640515956661,-102.3777440679004,-90.12470245361328,4761.76025390625,True
1599386640.1287758,0.0,10,0.5,0.5,3.7548544384002684,-0.1005,-0.0155,-0.5,-0.09074339123181373,10,1,100,0.25397168796812786,-10,-1,-100,19026.75955472223,-0.01653590387165012,-0.008461321623484879,0.9998274700764785,65.86970381508239,4.032633335227799,385.7803624308742,-102.92379140183324,-96.75164794921875,4761.76025390625,True
1599386640.1696658,0.0,10,0.5,0.5,0.49944883995056155,-0.1005,-0.0155,-0.5,-0.09268907197581368,10,1,100,0.17921859539011858,-10,-1,-100,19026.75955472223,-0.01653590387165012,-0.008461321623484879,0.9998274700764785,65.86970381508239,4.032633335227799,385.7803624308742,-102.92379140183324,-96.75164794921875,4761.76025390625,True
1599386640.207079,0.0,10,0.5,0.5,5.5084752864837645,-0.1005,-0.0155,-0.5,-0.08027110747726768,10,1,100,0.2605842254109528,-10,-1,-100,19018.489261796814,-0.01727030253109377,-0.00834721756050807,0.9998160133792028,68.7772387619521,4.214133012942322,405.88672207672096,-103.65152944966044,-105.00401306152344,4761.76025390625,True
1599386640.2459762,0.0,10,0.5,0.5,1.4435251331329346,-0.1005,-0.0155,-0.5,-0.09176824699315618,10,1,100,0.18771671407126533,-10,-1,-100,19018.489261796814,-0.01727030253109377,-0.00834721756050807,0.9998160133792028,68.7772387619521,4.214133012942322,405.88672207672096,-103.65152944966044,-105.00401306152344,4761.76025390625,True
1599386640.2873762,0.0,10,0.5,0.5,3.770700507736206,-0.1005,-0.0155,-0.5,-0.0819650690844493,10,1,100,0.2189454015049371,-10,-1,-100,19014.332288260688,-0.017549377554725663,-0.00825746638831524,0.9998118991071707,70.07891508563445,4.2958928768477485,415.1356046473275,-104.01526570411633,-108.78192138671875,4761.76025390625,True
1599386640.3282657,0.0,10,0.5,0.5,6.017449005508423,-0.1005,-0.0155,-0.5,-0.07144145038918873,10,1,100,0.22357671277317007,-10,-1,-100,19005.974702506093,-0.017841520660893135,-0.008080099481970483,0.9998081776685308,72.08343915843076,4.422719499535583,430.2318109948927,-104.7425120726155,-115.58159637451172,4761.76025390625,True
1599386640.3856225,0.0,10,0.5,0.5,2.6773898078918457,-0.1005,-0.0155,-0.5,-0.0891628160286281,10,1,100,0.1947576136418835,-10,-1,-100,19005.974702506093,-0.017841520660893135,-0.008080099481970483,0.9998081776685308,72.08343915843076,4.422719499535583,430.2318109948927,-104.7425120726155,-115.58159637451172,4761.76025390625,True
1599386640.4255152,0.0,10,0.5,0.5,6.110133241653443,-0.1005,-0.0155,-0.5,-0.072656063712809,10,1,100,0.19534853784533762,-10,-1,-100,18997.558948985534,-0.01784391525778635,-0.007930291123907897,0.9998093344087976,73.38541357462348,4.50587016271578,441.28113511605494,-105.46952808144317,-121.209716796875,4761.76025390625,True
1599386640.4644117,0.0,10,0.5,0.5,3.3578537372589117,-0.1005,-0.0155,-0.5,-0.08759408575432671,10,1,100,0.1954368361609059,-10,-1,-100,18997.558948985534,-0.01784391525778635,-0.007930291123907897,0.9998093344087976,73.38541357462348,4.50587016271578,441.28113511605494,-105.46952808144317,-121.209716796875,4761.76025390625,True
1599386640.500316,0.0,10,0.5,0.5,4.832678610610962,-0.1005,-0.0155,-0.5,-0.08026416452455254,10,1,100,0.18494954548024595,-10,-1,-100,18993.32926445303,-0.01774645124095497,-0.007864144051007443,0.9998115916044868,73.83469667260141,4.534730810198359,445.6321365515113,-105.83297302342899,-123.57991027832031,4761.76025390625,True
1599386640.538214,0.0,10,0.5,0.5,4.945244036865235,-0.1005,-0.0155,-0.5,-0.08244582092435183,10,1,100,0.1769364879102307,-10,-1,-100,18989.08504279435,-0.0175832154605625,-0.007824402536574451,0.9998147874776674,74.18108285948107,4.55703649990319,449.3802773114394,-106.19638545194842,-125.65452575683594,4761.76025390625,True
1599386640.576112,0.0,10,0.5,0.5,5.021011110687256,-0.1005,-0.0155,-0.5,-0.08339401784990512,10,1,100,0.1678779031241414,-10,-1,-100,18984.826285733725,-0.01735151642434225,-0.007797472876492134,0.9998190457750423,74.44566102772114,4.574091840017402,452.6470954295089,-106.55977126578179,-127.43350219726562,4761.76025390625,True
1599386640.609025,0.0,10,0.5,0.5,5.448911490631104,-0.1005,-0.0155,-0.5,-0.08585667407574346,10,1,100,0.14109327014432615,-10,-1,-100,18978.410897525377,-0.016896642807459436,-0.007795982650058551,0.9998268480673828,74.72797053184031,4.592263831536685,456.87059153202597,-107.10480900971658,-129.54812622070312,4761.76025390625,True
1599386640.6479208,0.0,10,0.5,0.5,4.4296428543090824,-0.1005,-0.0155,-0.5,-0.08595057322805678,10,1,100,0.1865432658602441,-10,-1,-100,18978.410897525377,-0.016896642807459436,-0.007795982650058551,0.9998268480673828,74.72797053184031,4.592263831536685,456.87059153202597,-107.10480900971658,-129.54812622070312,4761.76025390625,True
1599386640.6858196,0.0,10,0.5,0.5,5.338601818084717,-0.1005,-0.0155,-0.5,-0.08992083722262481,10,1,100,0.12254235184203598,-10,-1,-100,18971.962808573968,-0.016315156007042666,-0.007832577081745942,0.9998362197983849,74.91797616627314,4.604407727307136,460.5476520914907,-107.64980606397431,-130.99844360351562,4761.76025390625,True
1599386640.7227206,0.0,10,0.5,0.5,4.84955422744751,-0.1005,-0.0155,-0.5,-0.08831591031913712,10,1,100,0.15645140675978586,-10,-1,-100,18969.8061793159,-0.01609591779823213,-0.007851640765345108,0.9998396237234872,74.9679191235348,4.607573315858922,461.6941775411173,-107.83146369091563,-131.33428955078125,4761.76025390625,True
1599386640.7606192,0.0,10,0.5,0.5,4.976701752090454,-0.1005,-0.0155,-0.5,-0.09356356296368865,10,1,100,0.12397161963575526,-10,-1,-100,18965.48202132201,-0.015602926455333786,-0.00791688500967357,0.9998469240927698,75.0543339525945,4.613014293869109,463.9080499633984,-108.19476786292688,-131.78500366210938,4761.76025390625,True
1599386640.7965233,0.0,10,0.5,0.5,4.869857446289062,-0.1005,-0.0155,-0.5,-0.09365850368874884,10,1,100,0.11547037249630965,-10,-1,-100,18961.143331678002,-0.015079503527981748,-0.007977209433356624,0.999854475762851,75.12660330297065,4.617532373718165,466.03900669158423,-108.55805741201175,-131.94053649902344,4761.76025390625,True
1599386640.8334246,0.0,10,0.5,0.5,4.6171000114440925,-0.1005,-0.0155,-0.5,-0.10196266163030164,10,1,100,0.06897983638178973,-10,-1,-100,18954.608051558724,-0.014183536367284082,-0.008107499510437655,0.9998665389679796,75.21727031345178,4.6231966851409405,469.1326410304351,-109.10296509821109,-131.62142944335938,4761.76025390625,True
1599386640.8683324,0.0,10,0.5,0.5,4.640430945587159,-0.1005,-0.0155,-0.5,-0.09393610754149853,10,1,100,0.12309180047138184,-10,-1,-100,18952.422359564225,-0.013864275330092043,-0.00815281526298899,0.9998706483705073,75.24267910689241,4.624800537303782,470.13558679978155,-109.28459404829607,-131.36770629882812,4761.76025390625,True
1599386640.9052317,0.0,10,0.5,0.5,4.582764358520508,-0.1005,-0.0155,-0.5,-0.09457233544172255,10,1,100,0.11829218803879091,-10,-1,-100,18950.233035297366,-0.013533934434085602,-0.008199532863299532,0.999874792301295,75.26537303355398,4.626250623760347,471.1223297478837,-109.46621969450354,-131.04031372070312,4761.76025390625,True
1599386640.942133,0.0,10,0.5,0.5,4.228922136688232,-0.1005,-0.0155,-0.5,-0.09974384787530508,10,1,100,0.07516651637911392,-10,-1,-100,18945.84348893375,-0.012845254132652207,-0.008288676130862841,0.9998831418192153,75.30055735904672,4.628580586875735,473.0339098259443,-109.8294608234485,-130.16456604003906,4761.76025390625,True
1599386640.9860153,0.0,10,0.5,0.5,3.9684268997192387,-0.1005,-0.0155,-0.5,-0.10202519811267906,10,1,100,0.06210339574049792,-10,-1,-100,18941.43941332784,-0.01210452209126324,-0.008390008464210732,0.9998915382694828,75.317181819461,4.6298746086106215,474.8309539523242,-110.19268959057052,-128.99453735351562,4761.76025390625,True
1599386641.0219204,0.0,10,0.5,0.5,3.673201069641113,-0.1005,-0.0155,-0.5,-0.10228831979014828,10,1,100,0.050060907473994984,-10,-1,-100,18937.020809130277,-0.01132600863368342,-0.008483980759036577,0.9998998667861249,75.30548904589263,4.629566503680245,476.45051952278715,-110.5559073389559,-127.53012084960938,4761.76025390625,True
1599386641.0578234,0.0,10,0.5,0.5,3.3461148368835456,-0.1005,-0.0155,-0.5,-0.10150371726001775,10,1,100,0.03862749484844098,-10,-1,-100,18932.587676163646,-0.010519393224900163,-0.008561651914868906,0.9999080160108071,75.25420131568416,4.626993445824756,477.8191689595319,-110.91911655539734,-125.77130889892578,4761.76025390625,True
1599386641.0917337,0.0,10,0.5,0.5,2.3019734752655028,-0.1005,-0.0155,-0.5,-0.10395486761608172,10,1,100,-0.021287736034791352,-10,-1,-100,18925.910736730555,-0.009246691447778855,-0.008653882446286948,0.9999198012920214,75.07383686040974,4.617147285586579,479.20976262930185,-111.46392161535968,-122.58155822753906,4761.76025390625,True
1599386641.12664,0.0,10,0.5,0.5,3.883282077407837,-0.1005,-0.0155,-0.5,-0.09481203864237171,10,1,100,0.10529751904229406,-10,-1,-100,18925.910736730555,-0.009246691447778855,-0.008653882446286948,0.9999198012920214,75.07383686040974,4.617147285586579,479.20976262930185,-111.46392161535968,-122.58155822753906,4761.76025390625,True
1599386641.1615472,0.0,10,0.5,0.5,0.6968701725006103,-0.1005,-0.0155,-0.5,-0.09789323872049266,10,1,100,-0.08843245762096189,-10,-1,-100,18916.957302060327,-0.007491288237210669,-0.0086812233584184,0.9999342563196584,74.55095301073376,4.5874183246677775,479.23472813506305,-112.19033912504092,-117.2990493774414,4761.76025390625,True
1599386641.197451,0.0,10,0.5,0.5,3.315430292510986,-0.1005,-0.0155,-0.5,-0.09522954889985374,10,1,100,0.08634904190677961,-10,-1,-100,18916.957302060327,-0.007491288237210669,-0.0086812233584184,0.9999342563196584,74.55095301073376,4.5874183246677775,479.23472813506305,-112.19033912504092,-117.2990493774414,4761.76025390625,True
1599386641.232357,0.0,10,0.5,0.5,0.4589660808563232,-0.1005,-0.0155,-0.5,-0.09004800227677387,10,1,100,-0.06515714259292699,-10,-1,-100,18910.204087410704,-0.006120043149149767,-0.008633596821983145,0.9999440014709664,73.85849975735876,4.54718271760612,477.2869635617962,-112.73519113367549,-112.57920837402344,4761.76025390625,True
1599386641.267264,0.0,10,0.5,0.5,0.717564772415161,-0.1005,-0.0155,-0.5,-0.08624295138057221,10,1,100,-0.029513852692837822,-10,-1,-100,18905.683781544794,-0.00520452682471425,-0.008555271524750177,0.9999498588577672,73.2208487567611,4.509701152907036,474.8238398763226,-113.09846102775869,-109.12841796875,4761.76025390625,True
1599386641.307675,0.0,10,0.5,0.5,2.4089965366363524,-0.1005,-0.0155,-0.5,-0.09411105497001408,10,1,100,0.06120483898977671,-10,-1,-100,18905.683781544794,-0.00520452682471425,-0.008555271524750177,0.9999498588577672,73.2208487567611,4.509701152907036,474.8238398763226,-113.09846102775869,-109.12841796875,4761.76025390625,True
1599386641.3445756,0.0,10,0.5,0.5,0.18552211418151865,-0.1005,-0.0155,-0.5,-0.08039143988019197,10,1,100,-0.03630040751922112,-10,-1,-100,18901.148943464854,-0.004325061608548759,-0.008430305391757351,0.9999551108890258,72.42392052956816,4.46246246336253,471.29791422382567,-113.46177074191269,-105.48001098632812,4761.76025390625,True
1599386641.379483,0.0,10,0.5,0.5,-0.3273572978973389,-0.1005,-0.0155,-0.5,-0.07570037992370646,10,1,100,-0.04653558611029866,-10,-1,-100,18896.59957206028,-0.0034395729343728023,-0.008274017183134417,0.9999598541829979,71.46791355290674,4.405372730827105,466.69966622178526,-113.82512969283466,-101.64881134033203,4761.76025390625,True
1599386641.4104006,0.0,10,0.5,0.5,-0.9015755767822267,-0.1005,-0.0155,-0.5,-0.06990987884074837,10,1,100,-0.0583608451114337,-10,-1,-100,18892.035664447933,-0.0025342503630200785,-0.008079486950519315,0.999964149090213,70.42775703671609,4.3429319472232235,461.50913989393064,-114.18854486129885,-97.56937408447266,4761.76025390625,True
1599386641.4443095,0.0,10,0.5,0.5,-0.1728314796447754,-0.1005,-0.0155,-0.5,-0.07703508177289967,10,1,100,-0.015125368206549687,-10,-1,-100,18889.74825888092,-0.0021115388544364387,-0.007967854188401824,0.9999660267745593,69.86570730569467,4.30902448104238,458.6215195082931,-114.37027443895792,-95.45903015136719,4761.76025390625,True
1599386641.4817598,0.0,10,0.5,0.5,-4.185670752716065,-0.1005,-0.0155,-0.5,-0.030579361134605937,10,1,100,-0.1567987562691865,-10,-1,-100,18880.562284501502,-0.00044580227569401577,-0.00744466878818133,0.9999721886967484,67.4519440564912,4.162212377812029,445.85323099233597,-115.09734973391063,-87.08938598632812,4761.76025390625,True
1599386641.5116787,0.0,10,0.5,0.5,-0.055861537170410175,-0.1005,-0.0155,-0.5,-0.08277697979084475,10,1,100,0.00889481268784733,-10,-1,-100,18880.562284501502,-0.00044580227569401577,-0.00744466878818133,0.9999721886967484,67.4519440564912,4.162212377812029,445.85323099233597,-115.09734973391063,-87.08938598632812,4761.76025390625,True
1599386641.7979963,0.0,10,0.5,0.5,-1.301139228439331,-0.1005,-0.0155,-0.5,-0.06588999247103264,10,1,100,-0.036833102936917744,-10,-1,-100,18878.256701172097,-3.649893907025753e-05,-0.007292274862155981,0.9999734103440764,66.81831049188136,4.123363778131701,442.42757827313216,-115.27915708525484,-85.0936279296875,4761.76025390625,True
1599386641.8269165,0.0,10,0.5,0.5,-1.5394080039978029,-0.1005,-0.0155,-0.5,-0.06345388664310045,10,1,100,-0.04064841284317133,-10,-1,-100,18875.9474815625,0.0003635025576462459,-0.007132851193239246,0.9999744948246159,66.16656274345755,4.083276546521158,438.86744213002424,-115.46097989138954,-83.11822509765625,4761.76025390625,True
1599386641.8598287,0.0,10,0.5,0.5,-1.751805239868164,-0.1005,-0.0155,-0.5,-0.06261281819510987,10,1,100,-0.0408384973803327,-10,-1,-100,18873.634625374223,0.0007229741907201741,-0.006981638822541158,0.9999753667104362,66.07585282936932,4.0776909571355135,439.0201034498451,-115.64280220010193,-81.19577026367188,4761.76025390625,True
1599386641.8947375,0.0,10,0.5,0.5,-3.0818083786010746,-0.1005,-0.0155,-0.5,-0.03888319413696796,10,1,100,-0.08906116948296118,-10,-1,-100,18868.99800581613,0.0014827658753427,-0.00662987975110725,0.9999769227836434,67.59517180245479,4.171159384393918,450.65792486095893,-116.00637150140375,-77.45233154296875,4761.76025390625,True
1599386641.923691,0.0,10,0.5,0.5,-3.3521955429077153,-0.1005,-0.0155,-0.5,-0.033850543694064594,10,1,100,-0.09136732426983152,-10,-1,-100,18864.34684634069,0.002188371275152857,-0.0062660977655715246,0.9999779732823891,68.92589123985012,4.252644696377544,461.1028970238509,-116.36984647765081,-73.96688842773438,4761.76025390625,True
1599386642.0134182,0.0,10,0.5,0.5,-4.468984791564941,-0.1005,-0.0155,-0.5,-0.006811074065341982,10,1,100,-0.13003989377407155,-10,-1,-100,18857.342852090253,0.003175478240579089,-0.005691540970847192,0.9999787611241154,70.55403809603392,4.35175101014278,474.40885967808765,-116.91490337838619,-69.28634643554688,4761.76025390625,True
1599386642.0483263,0.0,10,0.5,0.5,-3.02671901512146,-0.1005,-0.0155,-0.5,-0.04275373784670261,10,1,100,-0.06564322348001825,-10,-1,-100,18855.00092091714,0.0034814102508615866,-0.0054983158065758835,0.9999788239287652,71.00850017838363,4.379277698860071,478.2741347820485,-117.09655244595655,-67.87445068359375,4761.76025390625,True
1599386642.0822346,0.0,10,0.5,0.5,-4.642478491973877,-0.1005,-0.0155,-0.5,0.000995574666021487,10,1,100,-0.12839616844197138,-10,-1,-100,18847.953332729172,0.004324542795668993,-0.00492728206270806,0.9999785098796289,72.14777623454617,4.44797696847743,488.4140521776198,-117.64140589925611,-64.08480834960938,4761.76025390625,True
1599386642.1111562,0.0,10,0.5,0.5,-2.796287368774414,-0.1005,-0.0155,-0.5,-0.05580374250819149,10,1,100,-0.044726522126241265,-10,-1,-100,18847.953332729172,0.004324542795668993,-0.00492728206270806,0.9999785098796289,72.14777623454617,4.44797696847743,488.4140521776198,-117.64140589925611,-64.08480834960938,4761.76025390625,True
1599386642.143071,0.0,10,0.5,0.5,-3.501367819213867,-0.1005,-0.0155,-0.5,-0.03356491700719137,10,1,100,-0.07436942753603726,-10,-1,-100,18845.596872931346,0.004589687076602263,-0.004727399455176671,0.9999782929978681,72.4621576922668,4.4668496529309225,491.3677759321041,-117.8229959845139,-62.97003173828125,4761.76025390625,True
1599386642.1740165,0.0,10,0.5,0.5,-4.721839579772949,-0.1005,-0.0155,-0.5,0.009523751778152532,10,1,100,-0.12638897593534548,-10,-1,-100,18838.505704309442,0.005299054599851405,-0.004156443067856831,0.9999773217435339,73.24383739177125,4.513596268702576,499.17118144739874,-118.36769591934893,-60.0716552734375,4761.76025390625,True
1599386642.2079325,0.0,10,0.5,0.5,-3.311435404968262,-0.1005,-0.0155,-0.5,-0.0472583037744015,10,1,100,-0.05598577896432348,-10,-1,-100,18838.505704309442,0.005299054599851405,-0.004156443067856831,0.9999773217435339,73.24383739177125,4.513596268702576,499.17118144739874,-118.36769591934893,-60.0716552734375,4761.76025390625,True
1599386642.2418375,0.0,10,0.5,0.5,-4.284632502746582,-0.1005,-0.0155,-0.5,-0.005111290572966817,10,1,100,-0.10266954674455592,-10,-1,-100,18833.76010370138,0.005718965623269695,-0.003775994227957773,0.9999765173741784,73.65241539390922,4.537921052034157,503.63357360913267,-118.73077861905402,-58.510498046875,4761.76025390625,True
1599386642.2717261,0.0,10,0.5,0.5,-4.611019131469726,-0.1005,-0.0155,-0.5,0.015520476855370322,10,1,100,-0.12051690646139511,-10,-1,-100,18826.614474022062,0.006258409831591634,-0.003245484346514276,0.9999751492600886,74.13478909773676,4.5665345113009606,509.46581358730964,-119.27534020696903,-56.72564697265625,4761.76025390625,True
1599386642.3076308,0.0,10,0.5,0.5,-4.019028076171875,-0.1005,-0.0155,-0.5,-0.016996755970951676,10,1,100,-0.08491978603527828,-10,-1,-100,18824.225336951436,0.006420861977141199,-0.0030618905667181995,0.9999746983587275,74.26725812284914,4.574370367862579,511.22249568470306,-119.45684612451221,-56.278839111328125,4761.76025390625,True
1599386642.3415735,0.0,10,0.5,0.5,-4.3603349182128905,-0.1005,-0.0155,-0.5,0.01732266869173866,10,1,100,-0.1140612243941688,-10,-1,-100,18817.036146472557,0.006829620193901637,-0.0025859052765144484,0.9999733343354251,74.59701912571127,4.593821442070509,516.0436887810417,-120.00132664308441,-55.38409423828125,4761.76025390625,True
1599386642.3714602,0.0,10,0.5,0.5,-3.934510972595215,-0.1005,-0.0155,-0.5,-0.029965296759203185,10,1,100,-0.07355081691345725,-10,-1,-100,18817.036146472557,0.006829620193901637,-0.0025859052765144484,0.9999733343354251,74.59701912571127,4.593821442070509,516.0436887810417,-120.00132664308441,-55.38409423828125,4761.76025390625,True
1599386642.4053693,0.0,10,0.5,0.5,-4.090838096618652,-0.1005,-0.0155,-0.5,0.020476733302474626,10,1,100,-0.10899769576020793,-10,-1,-100,18809.814289231203,0.00714882071983297,-0.0021299890127992513,0.9999721783675389,74.84330239605244,4.6082526958113,520.3089837441288,-120.54575899530701,-55.156005859375,4761.76025390625,True
1599386642.437284,0.0,10,0.5,0.5,-3.9474213012695314,-0.1005,-0.0155,-0.5,-0.008487206981339389,10,1,100,-0.08680319159651788,-10,-1,-100,18807.399744611117,0.007234667271078669,-0.0019813712238654804,0.9999718664830277,74.90929680893717,4.612087320329777,521.6228827212002,-120.72722721877915,-55.22796630859375,4761.76025390625,True
1599386642.4711933,0.0,10,0.5,0.5,-3.9971296310424806,-0.1005,-0.0155,-0.5,-0.023054394790832225,10,1,100,-0.07850954891948894,-10,-1,-100,18807.399744611117,0.007234667271078669,-0.0019813712238654804,0.9999718664830277,74.90929680893717,4.612087320329777,521.6228827212002,-120.72722721877915,-55.22796630859375,4761.76025390625,True
1599386642.5041394,0.0,10,0.5,0.5,-3.789165187072754,-0.1005,-0.0155,-0.5,0.0066566201260855745,10,1,100,-0.09420676651854384,-10,-1,-100,18802.559767643455,0.007374964721802372,-0.0017137674775583288,0.9999713360373812,75.0183086421746,4.61834974786445,524.0955216224909,-121.09015161565435,-55.594268798828125,4761.76025390625,True
1599386642.535022,0.0,10,0.5,0.5,-3.5816780273437505,-0.1005,-0.0155,-0.5,0.008273378771620231,10,1,100,-0.09143183357379668,-10,-1,-100,18797.705273850937,0.007475394004669899,-0.001458014152856329,0.9999709959189841,75.09540991910077,4.622641700481149,526.3507186491568,-121.45306206885098,-56.25634765625,4761.76025390625,True
1599386642.5759127,0.0,10,0.5,0.5,-3.6532735168457036,-0.1005,-0.0155,-0.5,-0.003304672388019441,10,1,100,-0.0854472348774423,-10,-1,-100,18795.272583465674,0.0075103094196691395,-0.0013332192581375995,0.9999709084662565,75.12102444142695,4.623983132696061,527.3893325975972,-121.63451294051615,-56.6982421875,4761.76025390625,True
1599386642.6337585,0.0,10,0.5,0.5,-2.814554544067383,-0.1005,-0.0155,-0.5,0.021307411786197085,10,1,100,-0.0872676663123961,-10,-1,-100,18787.952738878666,0.0075569715883531206,-0.000998243838600259,0.9999709474227996,75.13827058143978,4.624282342140292,530.0905090048948,-122.1788524583848,-58.467559814453125,4761.76025390625,True
1599386642.6676667,0.0,10,0.5,0.5,-3.2536702987670902,-0.1005,-0.0155,-0.5,-0.0005969092814991986,10,1,100,-0.08230597977734738,-10,-1,-100,18785.505532758078,0.007553104989786514,-0.0008948938673707464,0.9999710744666465,75.12075946353676,4.622926591680621,530.8276330210764,-122.36029594230311,-59.20501708984375,4761.76025390625,True
1599386642.7045689,0.0,10,0.5,0.5,-2.599223452758789,-0.1005,-0.0155,-0.5,0.011149831627031726,10,1,100,-0.07868123786000145,-10,-1,-100,18780.600234116195,0.0075156083891022305,-0.0006961207913566789,0.9999715151174986,75.04315697554752,4.617553559372119,532.0002095337627,-122.72318176947874,-60.901336669921875,4761.76025390625,True
1599386642.7414696,0.0,10,0.5,0.5,-0.8699017532348634,-0.1005,-0.0155,-0.5,0.028071067567016883,10,1,100,-0.06202107609094039,-10,-1,-100,18770.74609019549,0.007329440928583963,-0.00036330656323962316,0.9999730732894839,74.67250938246009,4.593400376644128,532.8037905909232,-123.44896560717208,-65.1793212890625,4761.76025390625,True
1599386642.773385,0.0,10,0.5,0.5,-2.9937114608764652,-0.1005,-0.0155,-0.5,-0.00498809537336121,10,1,100,-0.08068780421623539,-10,-1,-100,18770.74609019549,0.007329440928583963,-0.00036330656323962316,0.9999730732894839,74.67250938246009,4.593400376644128,532.8037905909232,-123.44896560717208,-65.1793212890625,4761.76025390625,True
1599386642.8083904,0.0,10,0.5,0.5,-2.2252962478637697,-0.1005,-0.0155,-0.5,0.0031211607018133665,10,1,100,-0.07313874840324307,-10,-1,-100,18768.273481682176,0.007260648948276077,-0.00029119212841945396,0.9999735987434839,74.52387035781042,4.583898227309344,532.6008000855969,-123.63041859035397,-66.43307495117188,4761.76025390625,True
1599386642.8442876,0.0,10,0.5,0.5,-1.1998317565917973,-0.1005,-0.0155,-0.5,0.010530354183623603,10,1,100,-0.06215784901019926,-10,-1,-100,18763.31737719814,0.007098260806534694,-0.00015981377338052165,0.9999747942588755,74.14408819171217,4.559822456665245,531.5950043975917,-123.99333907151093,-69.15576171875,4761.76025390625,True
1599386642.8781943,0.0,10,0.5,0.5,1.2457913604736326,-0.1005,-0.0155,-0.5,0.02375688025448887,10,1,100,-0.02908710502020393,-10,-1,-100,18753.361614240333,0.00665011610182852,7.820627961684201e-05,0.9999778846752613,72.99376477363036,4.487844721972526,526.7197651867156,-124.7192683081135,-75.45947265625,4761.76025390625,True
1599386642.9090781,0.0,10,0.5,0.5,-0.8189003005981446,-0.1005,-0.0155,-0.5,0.0058123008877912045,10,1,100,-0.05934819210262249,-10,-1,-100,18750.86359882052,0.006518471569772142,0.00012982653922885277,0.999978746110868,72.60897065724969,4.463968020523939,524.7835966482928,-124.90077586409348,-77.2186279296875,4761.76025390625,True
1599386642.945561,0.0,10,0.5,0.5,0.5258349319458007,-0.1005,-0.0155,-0.5,0.01141353915285851,10,1,100,-0.041161485516153465,-10,-1,-100,18745.85667603265,0.006234330955693806,0.00022623090429303334,0.9999805407792257,71.70223005427486,4.4079758181684285,519.8922927891771,-125.26383055664367,-80.86862182617188,4761.76025390625,True
1599386642.981434,0.0,10,0.5,0.5,0.9857788787841797,-0.1005,-0.0155,-0.5,0.012253270320515465,10,1,100,-0.033497695934870425,-10,-1,-100,18740.835229412187,0.0059075104725781775,0.0003200874739096874,0.9999824992788751,70.67187213697086,4.344711225760275,514.0624616587622,-125.62694367720944,-84.61129760742188,4761.76025390625,True
1599386643.012384,0.0,10,0.5,0.5,-0.8450362182617187,-0.1005,-0.0155,-0.5,0.002999446490101051,10,1,100,-0.06601479813485578,-10,-1,-100,18740.835229412187,0.0059075104725781775,0.0003200874739096874,0.9999824992788751,70.67187213697086,4.344711225760275,514.0624616587622,-125.62694367720944,-84.61129760742188,4761.76025390625,True
1599386643.0512497,0.0,10,0.5,0.5,0.32990206451416015,-0.1005,-0.0155,-0.5,0.007921430139115948,10,1,100,-0.0471581902453901,-10,-1,-100,18738.319058778812,0.00573758275950777,0.0003637282513177497,0.9999834737863607,70.09710312948086,4.309563800437347,510.6963433390784,-125.80852437720141,-86.5023193359375,4761.76025390625,True
