Timestamp,Input Throttle,horizon,dT,dt,Input Roll,Roll P,Roll I,Roll D,Input Pitch,Pitch P,Pitch I,Pitch D,Input Yaw,Yaw P,Yaw I,Yaw D,Altitude,Direction X,Direction Y,Direction Z,Drag X,Drag Y,Drag Z,Vertical Velocity,Roll,Mass,Has Fuel
1599385283.6011605,0.0,10,0.5,0.5,-0.05525250244140625,-0.001,-0.03,-0.37525,-0.00018530849023185155,10,1,100,0.49815312513133414,-10,-1,-100,19349.722300828318,-0.048846837185800074,-0.000175418263994351,0.9988062653614949,61.07665704388135,3.686305319889012,233.73202356740623,-68.66499565945472,-33.9229736328125,4761.76025390625,True
1599385283.6336195,0.0,10,0.5,0.5,-0.22340100860595705,-0.001,-0.03,-0.37525,0.00012197570299430109,10,1,100,0.5047949441216221,-10,-1,-100,19346.964753570268,-0.04895085435439136,-0.00015820280790946695,0.9988011758252224,61.256448125146996,3.698506649800145,235.713314335499,-69.02990558707837,-33.925384521484375,4761.76025390625,True
1599385283.6646557,0.0,10,0.5,0.5,-0.39205876922607424,-0.001,-0.03,-0.37525,-0.0006073063111732707,10,1,100,0.5052981477189555,-10,-1,-100,19345.580506424303,-0.04900548921821884,-0.0001490384090448144,0.9987984981036143,61.34676543862057,3.70463838943486,236.70869951550944,-69.21235548544995,-33.9266357421875,4761.76025390625,True
1599385283.6980538,0.0,10,0.5,0.5,-0.5597953567504883,-0.001,-0.03,-0.37525,0.010148585095499204,10,1,100,0.5038338031581946,-10,-1,-100,19344.192610104103,-0.04899729460822034,-4.279081691715794e-05,0.9987989103368212,61.43732085789083,3.7107882538470944,237.7070895155742,-69.39480190406462,-33.929168701171875,4761.76025390625,True
1599385283.731418,0.0,10,0.5,0.5,-0.7239061584472656,-0.001,-0.03,-0.37525,0.011263336641947,10,1,100,0.5087954274976099,-10,-1,-100,19342.801065063686,-0.04899040764348164,6.397090890925259e-05,0.998799247029476,61.526545411039585,3.7168614371865387,238.70240733477473,-69.57724481745065,-33.942596435546875,4761.76025390625,True
1599385283.7676346,0.0,10,0.5,0.5,-0.8249857025146483,-0.001,-0.03,-0.37525,0.04816796656620865,10,1,100,0.5048195547747353,-10,-1,-100,19338.60453744675,-0.04890346573474444,0.0004964655036002688,0.9988033863384397,61.785580404319894,3.7345805605384492,241.66693789103817,-70.12455301571231,-34.134307861328125,4761.76025390625,True
1599385283.7978747,0.0,10,0.5,0.5,-1.0645224914550782,-0.001,-0.03,-0.37525,0.004968153647467061,10,1,100,0.5184040922219301,-10,-1,-100,19338.60453744675,-0.04890346573474444,0.0004964655036002688,0.9988033863384397,61.785580404319894,3.7345805605384492,241.66693789103817,-70.12455301571231,-34.134307861328125,4761.76025390625,True
1599385283.831121,0.0,10,0.5,0.5,-0.9134415130615234,-0.001,-0.03,-0.37525,0.12319051519743257,10,1,100,0.4726278113753467,-10,-1,-100,19332.958087673993,-0.04844286003092573,0.0015707629126875914,0.99882472036684,62.130352215606955,3.758187340845243,245.6451270443586,-70.8542460824494,-34.981292724609375,4761.76025390625,True
1599385283.8648758,0.0,10,0.5,0.5,-1.3963287048339843,-0.001,-0.03,-0.37525,0.015917850579969074,10,1,100,0.52353266776031,-10,-1,-100,19332.958087673993,-0.04844286003092573,0.0015707629126875914,0.99882472036684,62.130352215606955,3.758187340845243,245.6451270443586,-70.8542460824494,-34.981292724609375,4761.76025390625,True
1599385283.9008198,0.0,10,0.5,0.5,-1.4251136169433594,-0.001,-0.03,-0.37525,0.056538815994736924,10,1,100,0.50901638927163,-10,-1,-100,19331.5373543849,-0.048266854899182345,0.0019386164501739467,0.9988325948247787,62.21889517330558,3.764223828771159,246.65393178663896,-71.03665941275312,-35.343475341796875,4761.76025390625,True
1599385283.9322433,0.0,10,0.5,0.5,-1.373096046447754,-0.001,-0.03,-0.37525,0.10996840556020596,10,1,100,0.4815951299900567,-10,-1,-100,19328.684943346772,-0.0478136870996748,0.002756989919892921,0.9988524667499781,62.399864608764354,3.776505907769017,248.6930562129146,-71.4014734819945,-36.27874755859375,4761.76025390625,True
1599385283.9652119,0.0,10,0.5,0.5,-1.2583201141357423,-0.001,-0.03,-0.37525,0.1370313493767965,10,1,100,0.46572782241839755,-10,-1,-100,19325.817940195557,-0.04725840734954933,0.0037443267378029143,0.9988756794276576,62.58046529044487,3.78871082990871,250.73888196733236,-71.76627003274245,-37.497802734375,4761.76025390625,True
1599385283.9992545,0.0,10,0.5,0.5,-0.8106672897338868,-0.001,-0.03,-0.37525,0.225074173275723,10,1,100,0.40156723329750377,-10,-1,-100,19321.4900772298,-0.046171868081977,0.005438747217215228,0.9989187047135155,62.83198845664163,3.805681983413596,253.74459391489515,-72.31343113135077,-39.874908447265625,4761.76025390625,True
1599385284.022193,0.0,10,0.5,0.5,-1.6848313903808594,-0.001,-0.03,-0.37525,0.05619090389711757,10,1,100,0.5099377979411126,-10,-1,-100,19321.4900772298,-0.046171868081977,0.005438747217215228,0.9989187047135155,62.83198845664163,3.805681983413596,253.74459391489515,-72.31343113135077,-39.874908447265625,4761.76025390625,True
1599385284.065382,0.0,10,0.5,0.5,-0.5270604705810547,-0.001,-0.03,-0.37525,0.26701722175903336,10,1,100,0.35550051323299553,-10,-1,-100,19317.129385828273,-0.044770461336017975,0.007350366890474342,0.9989702587656629,63.021115037827094,3.8185873745735934,256.51334214806207,-72.8605538176549,-42.904632568359375,4761.76025390625,True
1599385284.098586,0.0,10,0.5,0.5,-0.7538300857543946,-0.001,-0.03,-0.37525,0.23133656232043195,10,1,100,0.3729161642832074,-10,-1,-100,19314.20402145537,-0.04365861561860939,0.008757209329466647,0.9990081263768711,63.084580771025706,3.8231859366305017,258.1102510711582,-73.22528400331413,-45.25213623046875,4761.76025390625,True
1599385284.1215377,0.0,10,0.5,0.5,-0.6187158737182615,-0.001,-0.03,-0.37525,0.25097298309982463,10,1,100,0.3438794441175057,-10,-1,-100,19311.264068466844,-0.04238864464683715,0.010207160150339706,0.9990490561962758,63.078194700030565,3.823350180489024,259.4231174719952,-73.5900032967644,-47.863861083984375,4761.76025390625,True
1599385284.1434348,0.0,10,0.5,0.5,-1.557576965332031,-0.001,-0.03,-0.37525,0.10694897047719266,10,1,100,0.47022505918593915,-10,-1,-100,19311.264068466844,-0.04238864464683715,0.010207160150339706,0.9990490561962758,63.078194700030565,3.823350180489024,259.4231174719952,-73.5900032967644,-47.863861083984375,4761.76025390625,True
1599385284.165374,0.0,10,0.5,0.5,-0.9974863510131833,-0.001,-0.03,-0.37525,0.1882646038184555,10,1,100,0.39341580435470086,-10,-1,-100,19309.78862119757,-0.041695882525993246,0.010938541910498775,0.9990704688265242,63.04329328477215,3.8214290398671364,259.9489370712181,-73.77236030221145,-49.249755859375,4761.76025390625,True
1599385284.1992347,0.0,10,0.5,0.5,-0.932695930480957,-0.001,-0.03,-0.37525,0.19861992520378216,10,1,100,0.3815931560999618,-10,-1,-100,19308.3095267358,-0.04096475377518746,0.011689057542330161,0.9990922154045193,62.98444887945863,3.8180005586673387,260.37521182350923,-73.95471632022931,-50.690399169921875,4761.76025390625,True
1599385284.2323136,0.0,10,0.5,0.5,0.3284810867309569,-0.001,-0.03,-0.37525,0.3793499795026487,10,1,100,0.1865693793445767,-10,-1,-100,19303.850360714365,-0.03853378612315506,0.014005480936628248,0.9991591433954596,62.6435173327039,3.7974123765308816,260.96290224174595,-74.50178647616492,-55.3568115234375,4761.76025390625,True
1599385284.2684324,0.0,10,0.5,0.5,-1.36535595703125,-0.001,-0.03,-0.37525,0.14883248917451358,10,1,100,0.4287381544501647,-10,-1,-100,19303.850360714365,-0.03853378612315506,0.014005480936628248,0.9991591433954596,62.6435173327039,3.7974123765308816,260.96290224174595,-74.50178647616492,-55.3568115234375,4761.76025390625,True
1599385284.2995923,0.0,10,0.5,0.5,-0.6750428619384765,-0.001,-0.03,-0.37525,0.23433843171879304,10,1,100,0.33005483504159217,-10,-1,-100,19302.356677665608,-0.03764459651146476,0.014773479365031856,0.9991819797519068,62.465877343359246,3.7865613708199986,260.88716593938443,-74.68414678466443,-57.04913330078125,4761.76025390625,True
1599385284.3326092,0.0,10,0.5,0.5,1.4677099456787104,-0.001,-0.03,-0.37525,0.4954915832783999,10,1,100,-0.0157859435912035,-10,-1,-100,19296.345471950597,-0.033699987305603175,0.017837293193988094,0.9992728065083699,61.37711597276094,3.719787661763213,258.95373416429464,-75.41363169620661,-64.2950439453125,4761.76025390625,True
1599385284.521455,0.0,10,0.5,0.5,-0.4470294036865232,-0.001,-0.03,-0.37525,0.27149481261672637,10,1,100,0.2589519251265639,-10,-1,-100,19294.833551582182,-0.032622933998414504,0.0185749728088633,0.9992951088454727,61.002039237567466,3.696782334565646,258.02153963264203,-75.59601884754765,-66.23797607421875,4761.76025390625,True
1599385284.5493696,0.0,10,0.5,0.5,-1.1061146545410154,-0.001,-0.03,-0.37525,0.1988493117210445,10,1,100,0.36544250311167076,-10,-1,-100,19294.833551582182,-0.032622933998414504,0.0185749728088633,0.9992951088454727,61.002039237567466,3.696782334565646,258.02153963264203,-75.59601884754765,-66.23797607421875,4761.76025390625,True
1599385284.5732758,0.0,10,0.5,0.5,1.9499524917602535,-0.001,-0.03,-0.37525,0.5032250683275399,10,1,100,-0.14177149366723502,-10,-1,-100,19288.749388494412,-0.028021930101897356,0.0213330999021229,0.9993796427193873,59.07672988003026,3.5789967575263466,252.40069159916956,-76.32566010838795,-74.19308471679688,4761.76025390625,True
1599385284.6065056,0.0,10,0.5,0.5,-0.1812665786743164,-0.001,-0.03,-0.37525,0.3020177978203595,10,1,100,0.17914268039642928,-10,-1,-100,19287.21922640619,-0.026769661518865024,0.022001216673428362,0.9993994855347156,58.50035452003601,3.543846157901242,250.5636017817503,-76.50809687661615,-76.25274658203125,4761.76025390625,True
1599385284.6456628,0.0,10,0.5,0.5,-0.868988037109375,-0.001,-0.03,-0.37525,0.23638552634212195,10,1,100,0.30280764038686525,-10,-1,-100,19287.21922640619,-0.026769661518865024,0.022001216673428362,0.9993994855347156,58.50035452003601,3.543846157901242,250.5636017817503,-76.50809687661615,-76.25274658203125,4761.76025390625,True
1599385284.6715932,0.0,10,0.5,0.5,2.395632385253906,-0.001,-0.03,-0.37525,0.4870724648331893,10,1,100,-0.2608095678766189,-10,-1,-100,19281.062085946207,-0.021659438008294375,0.024270131864471765,0.9994707746825048,55.73734180303398,3.376091915396135,241.11609196431334,-77.23796865493439,-84.71417236328125,4761.76025390625,True
1599385284.699883,0.0,10,0.5,0.5,0.13504837799072267,-0.001,-0.03,-0.37525,0.3182940132667185,10,1,100,0.09819764511879725,-10,-1,-100,19279.51367634104,-0.020295032494794744,0.024786995138159542,0.9994867265392052,54.958929203466504,3.3290311385990505,238.3377637986714,-77.42046890822269,-86.87362670898438,4761.76025390625,True
1599385284.7318661,0.0,10,0.5,0.5,-0.5807364196777343,-0.001,-0.03,-0.37525,0.267685837318094,10,1,100,0.23281432110592432,-10,-1,-100,19279.51367634104,-0.020295032494794744,0.024786995138159542,0.9994867265392052,54.958929203466504,3.3290311385990505,238.3377637986714,-77.42046890822269,-86.87362670898438,4761.76025390625,True
1599385284.7661464,0.0,10,0.5,0.5,1.9922897109985351,-0.001,-0.03,-0.37525,0.408761556993974,10,1,100,-0.20992998279335714,-10,-1,-100,19274.846545193577,-0.01628666496264524,0.026059700304120696,0.9995277067517707,52.35721926067398,3.1722705036297674,228.73946258498907,-77.96804954481449,-93.4609375,4761.76025390625,True
1599385284.8016436,0.0,10,0.5,0.5,-0.3703632507324219,-0.001,-0.03,-0.37525,0.28261966249176756,10,1,100,0.1887709772667113,-10,-1,-100,19274.846545193577,-0.01628666496264524,0.026059700304120696,0.9995277067517707,52.35721926067398,3.1722705036297674,228.73946258498907,-77.96804954481449,-93.4609375,4761.76025390625,True
1599385284.8325438,0.0,10,0.5,0.5,1.3842177124023438,-0.001,-0.03,-0.37525,0.3620916187499109,10,1,100,-0.12368401526672176,-10,-1,-100,19271.71687100595,-0.013461995323562174,0.026774697718185515,0.9995508442515609,52.84391814746741,3.2028600044956055,231.99945457889672,-78.33311039936844,-97.8917236328125,4761.76025390625,True
1599385284.866668,0.0,10,0.5,0.5,2.257360494613647,-0.001,-0.03,-0.37525,0.376055278968485,10,1,100,-0.2861100334752596,-10,-1,-100,19266.99498469755,-0.009434932703113455,0.02754418343758664,0.9995760601393195,54.57788961234613,3.3103464294203566,241.3679076610938,-78.88057301547872,-104.37899017333984,4761.76025390625,True
1599385284.899825,0.0,10,0.5,0.5,1.4888652000427245,-0.001,-0.03,-0.37525,0.3388167652174624,10,1,100,-0.17405686661644143,-10,-1,-100,19263.82881458802,-0.006813711838963239,0.027897030138734073,0.9995875794748623,55.571955128550336,3.372566241397013,246.9552783163416,-79.24546585766106,-108.50238800048828,4761.76025390625,True
1599385284.9359808,0.0,10,0.5,0.5,0.7822965507507323,-0.001,-0.03,-0.37525,0.3193995258641118,10,1,100,-0.05208360187441992,-10,-1,-100,19262.240256623132,-0.005558911840356815,0.028035312299986178,0.9995914764359456,56.02913407973162,3.401333281134855,249.5871452916271,-79.42788805026987,-110.46334075927734,4761.76025390625,True
1599385284.9664636,0.0,10,0.5,0.5,1.5432111835479736,-0.001,-0.03,-0.37525,0.3267660319041862,10,1,100,-0.20125516336003466,-10,-1,-100,19259.052196688834,-0.003081361964189485,0.02822250605091917,0.9995969164421485,56.832614789163564,3.452223721381031,254.38344107727346,-79.79268844261871,-114.16867065429688,4761.76025390625,True
1599385285.0004327,0.0,10,0.5,0.5,1.5628470935821532,-0.001,-0.03,-0.37525,0.3154696761168606,10,1,100,-0.22257070108770227,-10,-1,-100,19255.849546531797,-0.0006568010970173663,0.028284332326993938,0.9995997024595071,57.56001937884515,3.4985388991913937,258.87134518023777,-80.15743350819491,-117.61402130126953,4761.76025390625,True
1599385285.0336888,0.0,10,0.5,0.5,0.9798180980682373,-0.001,-0.03,-0.37525,0.31075747960754657,10,1,100,-0.1065720396932796,-10,-1,-100,19254.242750688805,0.0004737185541795564,0.028294050609284034,0.9995995309576986,57.86125139184679,3.5178937682186024,260.845135744211,-80.3397877670879,-119.23831176757812,4761.76025390625,True
1599385285.0688844,0.0,10,0.5,0.5,1.608507785797119,-0.001,-0.03,-0.37525,0.30517396041551964,10,1,100,-0.2362987491610318,-10,-1,-100,19251.01821847621,0.0026619167312936206,0.0282489379137374,0.9995973747995048,58.3508652773812,3.549691299273429,264.30055300194454,-80.7044645827854,-122.27116394042969,4761.76025390625,True
1599385285.0998034,0.0,10,0.5,0.5,1.1063097763061522,-0.001,-0.03,-0.37525,0.3029207476588034,10,1,100,-0.1378633138986996,-10,-1,-100,19249.40048263548,0.0037354502542614877,0.028184295399292514,0.9995957642488504,58.545271104481266,3.562488215822584,265.807152963956,-80.88678908471303,-123.67897033691406,4761.76025390625,True
1599385285.1334348,0.0,10,0.5,0.5,1.6460354652404785,-0.001,-0.03,-0.37525,0.29181996542545785,10,1,100,-0.2548139008046809,-10,-1,-100,19246.154072173522,0.005756375051362191,0.028022681824862047,0.9995907129668675,58.846848213758925,3.5826829696259375,268.43472971671355,-81.2514149635965,-126.27658081054688,4761.76025390625,True
1599385285.1664536,0.0,10,0.5,0.5,0.7697290649414061,-0.001,-0.03,-0.37525,0.30817762102057866,10,1,100,-0.05492572509601134,-10,-1,-100,19246.154072173522,0.005756375051362191,0.028022681824862047,0.9995907129668675,58.846848213758925,3.5826829696259375,268.43472971671355,-81.2514149635965,-126.27658081054688,4761.76025390625,True
1599385285.2025526,0.0,10,0.5,0.5,1.7217409934997558,-0.001,-0.03,-0.37525,0.28390194661915924,10,1,100,-0.265462192533645,-10,-1,-100,19242.893077045213,0.007652871691363475,0.027800859344752165,0.9995841864368248,59.05296036553858,3.596932626931504,270.6375925098758,-81.61601481324557,-128.5805206298828,4761.76025390625,True
1599385285.2336342,0.0,10,0.5,0.5,1.6856220169067382,-0.001,-0.03,-0.37525,0.27886059660445095,10,1,100,-0.26925824899455253,-10,-1,-100,19239.617498994805,0.009395934782468822,0.02755313874823932,0.9995761806659279,59.18517538585721,3.606544920840343,272.50905855997024,-81.98059366780203,-130.58937072753906,4761.76025390625,True
1599385285.2664213,0.0,10,0.5,0.5,1.3384070053100585,-0.001,-0.03,-0.37525,0.28451194681214176,10,1,100,-0.1904856931520984,-10,-1,-100,19237.974241329357,0.010249687406159162,0.027379626745470734,0.999572558620611,59.23001601854849,3.6100057807933736,273.3488148904521,-82.16287652829915,-131.4939422607422,4761.76025390625,True
1599385285.3003182,0.0,10,0.5,0.5,2.175370471954346,-0.001,-0.03,-0.37525,0.22765523583183056,10,1,100,-0.43498404200928364,-10,-1,-100,19231.364755594404,0.013234166963446141,0.026705605448182387,0.9995557350455401,59.31477637794232,3.6177829260241277,276.2773982655122,-82.89197251650799,-134.45291137695312,4761.76025390625,True
1599385285.336229,0.0,10,0.5,0.5,1.1258700332641602,-0.001,-0.03,-0.37525,0.29490567550039154,10,1,100,-0.13816763917334934,-10,-1,-100,19231.364755594404,0.013234166963446141,0.026705605448182387,0.9995557350455401,59.31477637794232,3.6177829260241277,276.2773982655122,-82.89197251650799,-134.45291137695312,4761.76025390625,True
1599385285.367177,0.0,10,0.5,0.5,1.3867815055847168,-0.001,-0.03,-0.37525,0.2730682867398537,10,1,100,-0.21352862620363977,-10,-1,-100,19229.70327070239,0.013906638692757451,0.026508518938430963,0.9995518514934381,59.320806077903846,3.618737084348151,276.94009894985993,-83.07423890586976,-135.01210021972656,4761.76025390625,True
1599385285.399664,0.0,10,0.5,0.5,1.5615465393066406,-0.001,-0.03,-0.37525,0.25410809225380465,10,1,100,-0.279950041534744,-10,-1,-100,19226.36936517968,0.015109595931379064,0.026158607190302725,0.9995436095442027,59.323560069448,3.620015519018958,278.2225327909647,-83.43876384958784,-135.9085235595703,4761.76025390625,True
1599385285.4336011,0.0,10,0.5,0.5,1.492809787750244,-0.001,-0.03,-0.37525,0.2411883220531068,10,1,100,-0.2826610191537339,-10,-1,-100,19223.020879165968,0.016216522600116724,0.025724953445382923,0.9995375186379915,59.32352434342331,3.6210576183632357,279.49236000691826,-83.80327873550745,-136.51113891601562,4761.76025390625,True
1599385285.469429,0.0,10,0.5,0.5,1.3767666397094724,-0.001,-0.03,-0.37525,0.2626549302155332,10,1,100,-0.22691130355152928,-10,-1,-100,19221.34116841876,0.016704657545907414,0.025528109516890534,0.9995345266876815,59.32365330448117,3.6215693310938284,280.12813299987477,-83.98553257010083,-136.701416015625,4761.76025390625,True
1599385285.500443,0.0,10,0.5,0.5,1.3965195388793945,-0.001,-0.03,-0.37525,0.23881654189473006,10,1,100,-0.2749307461563485,-10,-1,-100,19217.97081171174,0.017575003990765902,0.0251347156628974,0.9995295720003835,59.327864583654964,3.622809361174851,281.41878765481573,-84.35003311634664,-136.86056518554688,4761.76025390625,True
1599385285.5343115,0.0,10,0.5,0.5,1.2502435188293455,-0.001,-0.03,-0.37525,0.2120244711921766,10,1,100,-0.30526075625503324,-10,-1,-100,19212.88793999271,0.018631211187953113,0.024536146031209485,0.999525315090921,59.35168294478054,3.6257136645742127,283.439605682459,-84.89676583043489,-136.54612731933594,4761.76025390625,True
1599385285.5670152,0.0,10,0.5,0.5,1.1744873123168946,-0.001,-0.03,-0.37525,0.22815816111990836,10,1,100,-0.259117763746755,-10,-1,-100,19209.481134781498,0.019161937490323876,0.024141629650212163,0.9995248880690512,59.379397342871265,3.628385509033995,284.8450835151201,-85.26124210983942,-135.96766662597656,4761.76025390625,True
1599385285.6029034,0.0,10,0.5,0.5,1.4076895751953125,-0.001,-0.03,-0.37525,0.2672686483098378,10,1,100,-0.20702173378046426,-10,-1,-100,19209.481134781498,0.019161937490323876,0.024141629650212163,0.9995248880690512,59.379397342871265,3.628385509033995,284.8450835151201,-85.26124210983942,-135.96766662597656,4761.76025390625,True
1599385285.6340706,0.0,10,0.5,0.5,1.0922938766479493,-0.001,-0.03,-0.37525,0.2271450669121562,10,1,100,-0.25063543569673963,-10,-1,-100,19206.059751058696,0.019550323644031684,0.02377981345304711,0.9995260403398961,59.41409108567454,3.6315163591148383,286.2859248786017,-85.62570837529825,-135.09373474121094,4761.76025390625,True
1599385285.667266,0.0,10,0.5,0.5,1.2162081108093261,-0.001,-0.03,-0.37525,0.24218191040275605,10,1,100,-0.22863691809032893,-10,-1,-100,19204.34359227249,0.01969767348127088,0.023590248025534458,0.9995276393664753,59.43271791055922,3.633178273112092,287.0133009003607,-85.80793791924039,-134.54635620117188,4761.76025390625,True
1599385285.7011728,0.0,10,0.5,0.5,0.9268125534057616,-0.001,-0.03,-0.37525,0.21913622864422366,10,1,100,-0.23568934573688705,-10,-1,-100,19200.90034110367,0.019889864942349927,0.02321124176401143,0.999532706582605,59.467870593741345,3.6364220968278795,288.4595233811632,-86.17239009204563,-133.23052978515625,4761.76025390625,True
1599385285.7373662,0.0,10,0.5,0.5,0.809141731262207,-0.001,-0.03,-0.37525,0.21738682861309017,10,1,100,-0.22338645406910543,-10,-1,-100,19197.44251174375,0.019947300686124145,0.022853784505229666,0.9995397989720698,59.49273173196172,3.6391154129555594,289.85777749426666,-86.53683379329496,-131.61965942382812,4761.76025390625,True
1599385285.7684035,0.0,10,0.5,0.5,0.2851801109313965,-0.001,-0.03,-0.37525,0.1908838543511984,10,1,100,-0.2013198206030595,-10,-1,-100,19192.228435190977,0.01979451132645052,0.022290891615488202,0.999555547967362,59.48691489928764,3.6406983731761415,291.7471641605553,-87.08348743934442,-128.65467834472656,4761.76025390625,True
1599385285.8003206,0.0,10,0.5,0.5,0.5056861152648926,-0.001,-0.03,-0.37525,0.2044131156192651,10,1,100,-0.1889492921683012,-10,-1,-100,19188.734162556124,0.019539899842134573,0.02190528596527829,0.9995690825355387,59.43605940456554,3.6390137701883756,292.7762395447327,-87.44791883022856,-126.34628295898438,4761.76025390625,True
1599385285.8342292,0.0,10,0.5,0.5,0.8811718788146972,-0.001,-0.03,-0.37525,0.22091139730711337,10,1,100,-0.19642323216697924,-10,-1,-100,19186.981559826992,0.019373802272475125,0.021708013229114823,0.9995766193479877,59.39221937117176,3.6370861266532883,293.1994362541571,-87.63013444495597,-125.12455749511719,4761.76025390625,True
1599385285.870334,0.0,10,0.5,0.5,1.3044163360595702,-0.001,-0.03,-0.37525,0.240296000680082,10,1,100,-0.213212868961095,-10,-1,-100,19186.981559826992,0.019373802272475125,0.021708013229114823,0.9995766193479877,59.39221937117176,3.6370861266532883,293.1994362541571,-87.63013444495597,-125.12455749511719,4761.76025390625,True
1599385285.9012835,0.0,10,0.5,0.5,0.31791808319091797,-0.001,-0.03,-0.37525,0.19473839013190686,10,1,100,-0.16696354845307992,-10,-1,-100,19183.465421373607,0.01895267882141633,0.021296424163042407,0.9995935465394721,59.269801280029505,3.6311822929461086,293.8715859585098,-87.99456749420021,-122.59370422363281,4761.76025390625,True
1599385285.9333987,0.0,10,0.5,0.5,-0.34859913635253914,-0.001,-0.03,-0.37525,0.16122074846063156,10,1,100,-0.11542378386490383,-10,-1,-100,19178.16388058127,0.01810148624116938,0.02062013300186241,0.9996235022801567,58.97527194238708,3.61570032581219,294.31875729401986,-88.54122896287706,-118.40473937988281,4761.76025390625,True
1599385285.9674468,0.0,10,0.5,0.5,1.170621139526367,-0.001,-0.03,-0.37525,0.22849771491379645,10,1,100,-0.20043699676468357,-10,-1,-100,19178.16388058127,0.01810148624116938,0.02062013300186241,0.9996235022801567,58.97527194238708,3.61570032581219,294.31875729401986,-88.54122896287706,-118.40473937988281,4761.76025390625,True
1599385286.0035105,0.0,10,0.5,0.5,-0.04867647933959973,-0.001,-0.03,-0.37525,0.1739714409516605,10,1,100,-0.1241018800116827,-10,-1,-100,19174.611297830008,0.01740884775923561,0.02012731203898043,0.9996458489534089,58.667902350012234,3.5986530715199816,294.05159170788596,-88.90568513386663,-115.29714965820312,4761.76025390625,True
1599385286.0334136,0.0,10,0.5,0.5,-0.7220861625671386,-0.001,-0.03,-0.37525,0.13292967157657667,10,1,100,-0.06098463083196046,-10,-1,-100,19169.255087822094,0.016207463988318377,0.019309334111120194,0.9996821833599179,58.052062581551354,3.5636151378413796,292.8480290323147,-89.45240566382168,-110.56150817871094,4761.76025390625,True
1599385286.0673254,0.0,10,0.5,0.5,0.9869562377929687,-0.001,-0.03,-0.37525,0.2143372735973113,10,1,100,-0.18075476782828062,-10,-1,-100,19169.255087822094,0.016207463988318377,0.019309334111120194,0.9996821833599179,58.052062581551354,3.5636151378413796,292.8480290323147,-89.45240566382168,-110.56150817871094,4761.76025390625,True
1599385286.1014938,0.0,10,0.5,0.5,-1.5615775032043455,-0.001,-0.03,-0.37525,0.07569575349931984,10,1,100,0.024395733759179028,-10,-1,-100,19162.062443380826,0.01434585927997584,0.018052178883314916,0.9997341222340487,57.08902979659756,3.5079873012730958,290.4647238098942,-90.1814490351787,-103.95590209960938,4761.76025390625,True
1599385286.136724,0.0,10,0.5,0.5,0.2260788784027099,-0.001,-0.03,-0.37525,0.16174843239941872,10,1,100,-0.10249309317421365,-10,-1,-100,19160.25516887463,0.013811979473646626,0.017695460950522084,0.999748018194969,56.827731849276226,3.492742803503823,289.75213069720576,-90.3637258121034,-102.31603240966797,4761.76025390625,True
1599385286.1666446,0.0,10,0.5,0.5,0.7693492279052734,-0.001,-0.03,-0.37525,0.1969992431772263,10,1,100,-0.15530828177028627,-10,-1,-100,19160.25516887463,0.013811979473646626,0.017695460950522084,0.999748018194969,56.827731849276226,3.492742803503823,289.75213069720576,-90.3637258121034,-102.31603240966797,4761.76025390625,True
1599385286.2007155,0.0,10,0.5,0.5,-0.5652543926239012,-0.001,-0.03,-0.37525,0.11600045615634494,10,1,100,-0.03948106792712788,-10,-1,-100,19156.62968256604,0.012764061004889575,0.016962756116040065,0.9997746464336907,56.343351954207456,3.4644714269243027,288.50676441107953,-90.72829722348224,-98.95077514648438,4761.76025390625,True
1599385286.2347476,0.0,10,0.5,0.5,-0.642482078552246,-0.001,-0.03,-0.37525,0.1008176713032737,10,1,100,-0.0199310166759515,-10,-1,-100,19152.989612562815,0.011639688968524822,0.016162949365222196,0.9998016186766919,55.79312356449729,3.431938602909434,286.90318693580684,-91.09289440296692,-95.597900390625,4761.76025390625,True
1599385286.2702405,0.0,10,0.5,0.5,-0.11205181884765625,-0.001,-0.03,-0.37525,0.13304034409057997,10,1,100,-0.0667721865964165,-10,-1,-100,19151.164108420024,0.011050009561881902,0.01573345250327039,0.9998151607977396,55.48973910266418,3.413840264447344,285.947237892112,-91.27520308285135,-93.87896728515625,4761.76025390625,True
1599385286.3012004,0.0,10,0.5,0.5,-0.8687242107391357,-0.001,-0.03,-0.37525,0.07794595147529416,10,1,100,0.004823018100510459,-10,-1,-100,19147.502160891774,0.009869482310124718,0.014846585132719414,0.9998410734855949,54.796078798885326,3.3720803476952415,283.5667503287008,-91.63984266962899,-90.34906768798828,4761.76025390625,True
1599385286.3342547,0.0,10,0.5,0.5,-0.9153319339752197,-0.001,-0.03,-0.37525,0.0637028886221728,10,1,100,0.019460159845056405,-10,-1,-100,19143.825627680402,0.008670694432605083,0.013916108358889373,0.9998655714575836,55.403585718491136,3.4100933946640937,287.9188748573508,-92.00447743257061,-86.92837524414062,4761.76025390625,True
1599385286.3681633,0.0,10,0.5,0.5,-1.5721465225219726,-0.001,-0.03,-0.37525,-0.010296668048180885,10,1,100,0.10529636091386162,-10,-1,-100,19138.2834849098,0.0068085019463495775,0.012403143689022567,0.9998998981537481,57.439575068357875,3.535861906661902,300.3799593180238,-92.55130583469924,-81.99728393554688,4761.76025390625,True
1599385286.4040272,0.0,10,0.5,0.5,0.19255281829833984,-0.001,-0.03,-0.37525,0.14030917989629,10,1,100,-0.0799829915074921,-10,-1,-100,19138.2834849098,0.0068085019463495775,0.012403143689022567,0.9998998981537481,57.439575068357875,3.535861906661902,300.3799593180238,-92.55130583469924,-81.99728393554688,4761.76025390625,True
1599385286.4342322,0.0,10,0.5,0.5,-1.036081901550293,-0.001,-0.03,-0.37525,0.02464602179241049,10,1,100,0.05691155833768004,-10,-1,-100,19134.57049803005,0.005572550549613439,0.011357938788461933,0.9999199687509244,58.670474008647425,3.6116479642977763,308.09824643330984,-92.91577780596559,-78.95956420898438,4761.76025390625,True
1599385286.4682486,0.0,10,0.5,0.5,-1.5075934753417968,-0.001,-0.03,-0.37525,-0.04963004398701523,10,1,100,0.13702916398363477,-10,-1,-100,19128.973686541314,0.003728592236463145,0.009738601226407352,0.9999456271448399,60.27791397997574,3.7102902038824865,318.5149692478531,-93.4623747967897,-74.87603759765625,4761.76025390625,True
1599385286.5013285,0.0,10,0.5,0.5,-0.05757009887695312,-0.001,-0.03,-0.37525,0.11150802624603132,10,1,100,-0.046358328607676295,-10,-1,-100,19128.973686541314,0.003728592236463145,0.009738601226407352,0.9999456271448399,60.27791397997574,3.7102902038824865,318.5149692478531,-93.4623747967897,-74.87603759765625,4761.76025390625,True
1599385286.5374312,0.0,10,0.5,0.5,-1.1187279739379883,-0.001,-0.03,-0.37525,-0.012644081318997455,10,1,100,0.08934609075373143,-10,-1,-100,19125.224261374096,0.0025040824124841505,0.008617179211929013,0.9999597360862591,61.24694202862944,3.769563913293329,324.97414878586005,-93.82670406711591,-72.27447509765625,4761.76025390625,True
1599385286.5623634,0.0,10,0.5,0.5,-0.6803403701782227,-0.001,-0.03,-0.37525,0.040104639235970484,10,1,100,0.032629941590658254,-10,-1,-100,19123.344084536424,0.0019158202727060985,0.00808482536463397,0.9999654820200075,61.705745375582374,3.7975765748499914,328.08307844480845,-94.00884892860414,-71.05767822265625,4761.76025390625,True
1599385286.5823085,0.0,10,0.5,0.5,-1.5477049179077147,-0.001,-0.03,-0.37525,-0.094202072084773,10,1,100,0.17221687163260738,-10,-1,-100,19117.681698358967,0.00012090429861362183,0.006387240967814068,0.9999795940592836,62.94535869096265,3.873071707671161,336.7389165761263,-94.55521039455189,-67.7344970703125,4761.76025390625,True
1599385286.6022587,0.0,10,0.5,0.5,-0.7527122039794921,-0.001,-0.03,-0.37525,0.013836991411259242,10,1,100,0.057862597176438824,-10,-1,-100,19115.786952186725,-0.0004613176325386717,0.00583465228570123,0.9999828718626869,63.32121811740717,3.8959070270535254,339.44232371952756,-94.73730799768049,-66.74154663085938,4761.76025390625,True
1599385286.635323,0.0,10,0.5,0.5,-0.45093011474609374,-0.001,-0.03,-0.37525,0.06819466633784124,10,1,100,0.0006734840554758004,-10,-1,-100,19115.786952186725,-0.0004613176325386717,0.00583465228570123,0.9999828718626869,63.32121811740717,3.8959070270535254,339.44232371952756,-94.73730799768049,-66.74154663085938,4761.76025390625,True
1599385286.6709785,0.0,10,0.5,0.5,-1.4943817214965818,-0.001,-0.03,-0.37525,-0.11596817834951167,10,1,100,0.1918032384791308,-10,-1,-100,19110.080863760202,-0.0021905590254217683,0.004167791384973647,0.9999889154216298,64.33399320646915,3.957285791125006,346.9835863298765,-95.2835387690217,-64.12921142578125,4761.76025390625,True
1599385286.700899,0.0,10,0.5,0.5,-0.5677071533203125,-0.001,-0.03,-0.37525,0.04989437649284171,10,1,100,0.019779005287998277,-10,-1,-100,19110.080863760202,-0.0021905590254217683,0.004167791384973647,0.9999889154216298,64.33399320646915,3.957285791125006,346.9835863298765,-95.2835387690217,-64.12921142578125,4761.76025390625,True
1599385286.735833,0.0,10,0.5,0.5,-1.432680809020996,-0.001,-0.03,-0.37525,-0.1337426403752574,10,1,100,0.2069875195358212,-10,-1,-100,19104.34200477891,-0.0038842736449730937,0.002505850642812791,0.999989316508335,65.21192221140107,4.010300594581506,353.86119410621836,-95.82968547974296,-61.972747802734375,4761.76025390625,True
1599385286.7694201,0.0,10,0.5,0.5,-0.6744282836914063,-0.001,-0.03,-0.37525,0.03156622502626334,10,1,100,0.03856174000014732,-10,-1,-100,19104.34200477891,-0.0038842736449730937,0.002505850642812791,0.999989316508335,65.21192221140107,4.010300594581506,353.86119410621836,-95.82968547974296,-61.972747802734375,4761.76025390625,True
1599385286.8038101,0.0,10,0.5,0.5,-1.1437335891723632,-0.001,-0.03,-0.37525,-0.0884235789050406,10,1,100,0.1609646444023215,-10,-1,-100,19100.497895389795,-0.004990106534191553,0.0014216094712405684,0.9999865388410429,65.73499546808729,4.041787336060439,358.14037030747136,-96.1937412436729,-60.82830810546875,4761.76025390625,True
1599385286.8347278,0.0,10,0.5,0.5,-1.092040138244629,-0.001,-0.03,-0.37525,-0.08949059316952726,10,1,100,0.16841885135846957,-10,-1,-100,19096.63922486466,-0.006055248588745449,0.00043379645082063887,0.9999815727228017,66.20966587355953,4.070273684189909,362.1786105065012,-96.55776663383955,-59.936309814453125,4761.76025390625,True
1599385286.868691,0.0,10,0.5,0.5,-1.127248306274414,-0.001,-0.03,-0.37525,-0.15903344621677376,10,1,100,0.23747257850972633,-10,-1,-100,19090.82391874038,-0.0076435394933502075,-0.0010889837020259848,0.9999701947650792,66.83358804994253,4.107530449002955,367.79219352256564,-97.10375400300335,-59.051483154296875,4761.76025390625,True
1599385286.9016018,0.0,10,0.5,0.5,-0.8312356872558593,-0.001,-0.03,-0.37525,-0.007672811838777386,10,1,100,0.07959942402585614,-10,-1,-100,19090.82391874038,-0.0076435394933502075,-0.0010889837020259848,0.9999701947650792,66.83358804994253,4.107530449002955,367.79219352256564,-97.10375400300335,-59.051483154296875,4761.76025390625,True
1599385286.9375958,0.0,10,0.5,0.5,-0.9597637100219726,-0.001,-0.03,-0.37525,-0.1566599426040328,10,1,100,0.24735437980689098,-10,-1,-100,19084.97585574619,-0.009161525960639648,-0.002436615595646634,0.9999550636636186,67.35817876143757,4.138586485634461,372.8995273767585,-97.64968801548976,-58.77911376953125,4761.76025390625,True
1599385286.9682748,0.0,10,0.5,0.5,-0.8814443969726562,-0.001,-0.03,-0.37525,-0.02272388003010267,10,1,100,0.09642575391075703,-10,-1,-100,19084.97585574619,-0.009161525960639648,-0.002436615595646634,0.9999550636636186,67.35817876143757,4.138586485634461,372.8995273767585,-97.64968801548976,-58.77911376953125,4761.76025390625,True
1599385287.001911,0.0,10,0.5,0.5,-0.838424690246582,-0.001,-0.03,-0.37525,-0.11804977595444324,10,1,100,0.20618093008766258,-10,-1,-100,19081.058949737926,-0.010151391009222334,-0.0032956953150666867,0.9999430422043888,67.64439552469605,4.15531585861132,375.9722307793764,-98.01361907381869,-58.956939697265625,4761.76025390625,True
1599385287.0349135,0.0,10,0.5,0.5,-0.7511354293823242,-0.001,-0.03,-0.37525,-0.113221123690737,10,1,100,0.21161797763951007,-10,-1,-100,19077.12748737086,-0.011093458911147207,-0.004025995051505732,0.9999303608418099,67.87932903843284,4.168825376540613,378.77276414489364,-98.37753398320413,-59.40753173828125,4761.76025390625,True
1599385287.0710027,0.0,10,0.5,0.5,-0.6629909362792968,-0.001,-0.03,-0.37525,-0.1241391741036143,10,1,100,0.2220935082753928,-10,-1,-100,19073.181468914147,-0.012037022827872638,-0.004781710009806949,0.9999161191474131,68.05748381256706,4.178769297722295,381.26707424175356,-98.74143597822666,-60.12884521484375,4761.76025390625,True
1599385287.1015925,0.0,10,0.5,0.5,-0.3589291076660156,-0.001,-0.03,-0.37525,-0.15035609790182256,10,1,100,0.27439196074201333,-10,-1,-100,19067.235148705426,-0.013362837093516945,-0.005700434224016658,0.9998944642483376,68.20937128386967,4.18644644851542,384.37638062906683,-99.28727286768577,-61.67108154296875,4761.76025390625,True
1599385287.1353362,0.0,10,0.5,0.5,-0.9385582885742186,-0.001,-0.03,-0.37525,-0.05930430496753458,10,1,100,0.14275839052243702,-10,-1,-100,19067.235148705426,-0.013362837093516945,-0.005700434224016658,0.9998944642483376,68.20937128386967,4.18644644851542,384.37638062906683,-99.28727286768577,-61.67108154296875,4761.76025390625,True
1599385287.1693218,0.0,10,0.5,0.5,-0.7015970993041992,-0.001,-0.03,-0.37525,-0.09063070777763142,10,1,100,0.19057595177023484,-10,-1,-100,19065.245764436317,-0.013789930622533902,-0.005978745118930941,0.9998870398301144,68.2273478229738,4.186960030763118,385.2315745007907,-99.46921603553093,-62.294158935546875,4761.76025390625,True
1599385287.2043548,0.0,10,0.5,0.5,-0.12089083099365239,-0.001,-0.03,-0.37525,-0.1446025602848745,10,1,100,0.28366171279427904,-10,-1,-100,19059.25577811955,-0.01501740012910082,-0.006716578644764543,0.9998646734757014,68.18017606460549,4.182191314688632,387.228217059883,-100.0150451264763,-64.440185546875,4761.76025390625,True
1599385287.235278,0.0,10,0.5,0.5,-0.5984162139892577,-0.001,-0.03,-0.37525,-0.09614486572007014,10,1,100,0.20540677713669958,-10,-1,-100,19057.2518382665,-0.015415169483060251,-0.006941695904076197,0.9998570824911847,68.12757111598692,4.178311590673538,387.6841986417475,-100.19698979538975,-65.26837158203125,4761.76025390625,True
1599385287.2683158,0.0,10,0.5,0.5,0.15777455902099613,-0.001,-0.03,-0.37525,-0.13191365470418562,10,1,100,0.2870990746932655,-10,-1,-100,19051.21818479558,-0.016512370119001505,-0.007466198119485978,0.9998357852761091,67.8231744849687,4.157645204091768,388.2093887921537,-100.74283762586312,-68.05459594726562,4761.76025390625,True
1599385287.3022618,0.0,10,0.5,0.5,-0.8599296875,-0.001,-0.03,-0.37525,-0.07996639141559148,10,1,100,0.17811409551497626,-10,-1,-100,19051.21818479558,-0.016512370119001505,-0.007466198119485978,0.9998357852761091,67.8231744849687,4.157645204091768,388.2093887921537,-100.74283762586312,-68.05459594726562,4761.76025390625,True
1599385287.337247,0.0,10,0.5,0.5,-0.08237046051025398,-0.001,-0.03,-0.37525,-0.11079069220924455,10,1,100,0.2532598721880012,-10,-1,-100,19047.177553843823,-0.01718883095770322,-0.00774184668804297,0.999822288159334,67.51622701063017,4.137503899556879,387.95339000454766,-101.1067536424642,-70.0472412109375,4761.76025390625,True
1599385287.368206,0.0,10,0.5,0.5,-0.4137003479003906,-0.001,-0.03,-0.37525,-0.0951723473213234,10,1,100,0.22031213705429614,-10,-1,-100,19045.151779375155,-0.01749787281899066,-0.007846409386501883,0.9998161122459218,67.33275825915396,4.125614603538087,387.6484450983712,-101.2887184676593,-71.0655517578125,4761.76025390625,True
1599385287.4020705,0.0,10,0.5,0.5,0.41690887451171876,-0.001,-0.03,-0.37525,-0.11068985085592477,10,1,100,0.2846997356498765,-10,-1,-100,19039.05261901673,-0.018358339576568298,-0.00807906149511091,0.9997988298319566,66.69278258599384,4.084601967056142,386.1938490982095,-101.83464418562873,-74.19580078125,4761.76025390625,True
1599385287.4357193,0.0,10,0.5,0.5,-0.3100094604492187,-0.001,-0.03,-0.37525,-0.09227258400557893,10,1,100,0.22686272390508827,-10,-1,-100,19037.01228621509,-0.018609044416005624,-0.008120136121129334,0.9997938621812487,66.44074446437185,4.068626721555721,385.4759895696821,-102.01663115817567,-75.2735595703125,4761.76025390625,True
1599385287.47179,0.0,10,0.5,0.5,0.5855687026977537,-0.001,-0.03,-0.37525,-0.09373087909947467,10,1,100,0.2756116572703475,-10,-1,-100,19030.86944796075,-0.01927536074852147,-0.008168534189365941,0.9997808437438735,65.568976210809,4.0139021655586715,382.61701122251225,-102.56263303723685,-78.62026977539062,4761.76025390625,True
1599385287.5026653,0.0,10,0.5,0.5,-0.6194367370605469,-0.001,-0.03,-0.37525,-0.08913788227234888,10,1,100,0.20957127638426343,-10,-1,-100,19030.86944796075,-0.01927536074852147,-0.008168534189365941,0.9997808437438735,65.568976210809,4.0139021655586715,382.61701122251225,-102.56263303723685,-78.62026977539062,4761.76025390625,True
1599385287.535816,0.0,10,0.5,0.5,0.28636921691894524,-0.001,-0.03,-0.37525,-0.08607328203274264,10,1,100,0.2507942691583351,-10,-1,-100,19026.7560213377,-0.01964512847362577,-0.008138683469850944,0.9997738898164086,64.90400465444921,3.972581513954186,380.1902520809199,-102.9266718325652,-80.89755249023438,4761.76025390625,True
1599385287.5698347,0.0,10,0.5,0.5,-0.0942532424926758,-0.001,-0.03,-0.37525,-0.085196897660023,10,1,100,0.23044360599347435,-10,-1,-100,19024.693847218878,-0.019792067896454102,-0.008102286498880689,0.999771287346197,64.54259258031604,3.950253903422045,378.7966432593566,-103.10870340507864,-82.02593994140625,4761.76025390625,True
1599385287.6058965,0.0,10,0.5,0.5,0.3615063705444336,-0.001,-0.03,-0.37525,-0.07758093474617245,10,1,100,0.24448967786271514,-10,-1,-100,19020.55857637804,-0.020049361753824418,-0.00799890723460472,0.9997669931420603,63.810603611226846,3.905258658559768,375.932399649247,-103.47279073208558,-84.22903442382812,4761.76025390625,True
1599385287.6358116,0.0,10,0.5,0.5,0.4059519958496092,-0.001,-0.03,-0.37525,-0.07213265441489691,10,1,100,0.23837091279035277,-10,-1,-100,19016.408741300227,-0.02022442467656248,-0.007854911983055773,0.9997646087976112,63.616899517517304,3.893518117935524,376.22014235404805,-103.83689591796623,-86.41543579101562,4761.76025390625,True
1599385287.6689053,0.0,10,0.5,0.5,0.4567104873657226,-0.001,-0.03,-0.37525,-0.06672598883779889,10,1,100,0.23339169681159277,-10,-1,-100,19012.244343269616,-0.0203349325932833,-0.007674502327434412,0.9997637683625331,64.57915902553242,3.9528402021076836,383.36264290462566,-104.200953185995,-88.58453369140625,4761.76025390625,True
1599385287.702898,0.0,10,0.5,0.5,0.8806945037841798,-0.001,-0.03,-0.37525,-0.049086543123691595,10,1,100,0.2244217943892065,-10,-1,-100,19005.970445940853,-0.020350989675884553,-0.007350196174341843,0.9997658785112696,65.91570431447303,4.035854652122091,393.52165804776394,-104.74693636570008,-91.7269287109375,4761.76025390625,True
1599385287.7397993,0.0,10,0.5,0.5,-0.23650509643554687,-0.001,-0.03,-0.37525,-0.08146753711173248,10,1,100,0.22310139781477067,-10,-1,-100,19005.970445940853,-0.020350989675884553,-0.007350196174341843,0.9997658785112696,65.91570431447303,4.035854652122091,393.52165804776394,-104.74693636570008,-91.7269287109375,4761.76025390625,True
1599385287.7693353,0.0,10,0.5,0.5,0.18894815635681148,-0.001,-0.03,-0.37525,-0.06817264313951829,10,1,100,0.21999273654661222,-10,-1,-100,19003.871867768117,-0.020320917618811007,-0.007229996106704231,0.9997673666725807,66.32145497966174,4.06123261561705,396.6906319635581,-104.92890417665782,-92.7179183959961,4761.76025390625,True
1599385287.802781,0.0,10,0.5,0.5,0.5708135204315186,-0.001,-0.03,-0.37525,-0.05231606960605861,10,1,100,0.21045383208112467,-10,-1,-100,18999.66379415337,-0.020205305823418982,-0.006977381867651701,0.9997715047743935,67.0686140061103,4.108236510007862,402.6702108676162,-105.2928021285618,-94.58210754394531,4761.76025390625,True
1599385287.8357842,0.0,10,0.5,0.5,0.5952534980773925,-0.001,-0.03,-0.37525,-0.046596109502320696,10,1,100,0.2012837193547525,-10,-1,-100,18995.44116628694,-0.020015994125482033,-0.0066968157878624325,0.999777231505835,67.72902656575971,4.150148253810898,408.16128544669857,-105.65665295488886,-96.3790283203125,4761.76025390625,True
1599385287.8716886,0.0,10,0.5,0.5,0.9658557453155516,-0.001,-0.03,-0.37525,-0.026798151694027564,10,1,100,0.17455279419483455,-10,-1,-100,18989.079938712995,-0.019600210868288316,-0.006263112206525436,0.9997882801670598,68.6392922155286,4.208458276079012,415.9676134087836,-106.20234402780076,-99.01456451416016,4761.76025390625,True
1599385287.9026334,0.0,10,0.5,0.5,0.3385382041931152,-0.001,-0.03,-0.37525,-0.05363580457211756,10,1,100,0.19738618734460245,-10,-1,-100,18986.9522542255,-0.019429843224569497,-0.006114519950804735,0.9997925253961644,68.92705094020641,4.227020421751213,418.4884837646236,-106.38421894152279,-99.83135223388672,4761.76025390625,True
1599385287.9357822,0.0,10,0.5,0.5,0.37705491447448725,-0.001,-0.03,-0.37525,-0.05174279011894914,10,1,100,0.19372289149500382,-10,-1,-100,18984.820932581322,-0.019241990154075933,-0.005964033920164454,0.9997970674663483,69.21368894869008,4.245550363744931,421.00910328932525,-106.56608282338158,-100.60636901855469,4761.76025390625,True
1599385287.9697547,0.0,10,0.5,0.5,0.4045859222412109,-0.001,-0.03,-0.37525,-0.05022791180786469,10,1,100,0.19066202038178612,-10,-1,-100,18982.68597375846,-0.019044122508597758,-0.005815306701585649,0.9998017321478514,69.47930588840369,4.262823635407875,423.4081600536789,-106.74793626989548,-101.32191467285156,4761.76025390625,True
1599385288.0052695,0.0,10,0.5,0.5,1.0738279724121094,-0.001,-0.03,-0.37525,0.001986341267303418,10,1,100,0.10459968535246908,-10,-1,-100,18974.109771726886,-0.01808293096895832,-0.005207279297904726,0.9998229302480942,70.40436891146219,4.323733862211774,432.22160909095703,-107.47525237190557,-103.69541931152344,4761.76025390625,True
1599385288.036202,0.0,10,0.5,0.5,0.22850301361083983,-0.001,-0.03,-0.37525,-0.05856967679783596,10,1,100,0.20049363915398033,-10,-1,-100,18974.109771726886,-0.01808293096895832,-0.005207279297904726,0.9998229302480942,70.40436891146219,4.323733862211774,432.22160909095703,-107.47525237190557,-103.69541931152344,4761.76025390625,True
1599385288.0692062,0.0,10,0.5,0.5,0.6397513885498047,-0.001,-0.03,-0.37525,-0.025048097313517488,10,1,100,0.13776286004571092,-10,-1,-100,18969.799853139673,-0.017514713030434895,-0.00490448577248041,0.9998345767409571,70.77911502425263,4.3489089615239305,436.1192993316424,-107.838857351038,-104.69300842285156,4761.76025390625,True
1599385288.1035807,0.0,10,0.5,0.5,0.7228634929656983,-0.001,-0.03,-0.37525,-0.006619965671744887,10,1,100,0.09287420845824369,-10,-1,-100,18963.307707287837,-0.01659265105065976,-0.004463913834807518,0.9998523678045607,71.21405552910704,4.378945130801958,441.2104126144391,-108.38420797405104,-105.80545806884766,4761.76025390625,True
1599385288.1392648,0.0,10,0.5,0.5,0.4503906135559082,-0.001,-0.03,-0.37525,-0.03440092434467868,10,1,100,0.14840653176310806,-10,-1,-100,18961.136387630948,-0.01626264152324309,-0.004318462681469648,0.9998584286641561,71.32347106766905,4.386786665159789,442.69350833932754,-108.56597861225382,-106.08641815185547,4761.76025390625,True
1599385288.1693988,0.0,10,0.5,0.5,0.379473274230957,-0.001,-0.03,-0.37525,-0.048680147759847456,10,1,100,0.18101321807475768,-10,-1,-100,18961.136387630948,-0.01626264152324309,-0.004318462681469648,0.9998584286641561,71.32347106766905,4.386786665159789,442.69350833932754,-108.56597861225382,-106.08641815185547,4761.76025390625,True
1599385288.2024782,0.0,10,0.5,0.5,0.6627059993743896,-0.001,-0.03,-0.37525,0.01393533786479581,10,1,100,0.024839070853494266,-10,-1,-100,18952.41475684836,-0.014846288687233639,-0.0037513931331605212,0.999882750507166,71.60951889294685,4.4088712079646095,447.7042353745069,-109.29300878795472,-106.76179504394531,4761.76025390625,True
1599385288.236422,0.0,10,0.5,0.5,0.43251251220703124,-0.001,-0.03,-0.37525,-0.042520445058780415,10,1,100,0.1659989622363338,-10,-1,-100,18952.41475684836,-0.014846288687233639,-0.0037513931331605212,0.999882750507166,71.60951889294685,4.4088712079646095,447.7042353745069,-109.29300878795472,-106.76179504394531,4761.76025390625,True
1599385288.2714064,0.0,10,0.5,0.5,0.4827557830810547,-0.001,-0.03,-0.37525,-0.026885972749817723,10,1,100,0.12271667628873337,-10,-1,-100,18950.22526168928,-0.014456980228198486,-0.003611409863822355,0.9998889705569699,71.64748697133095,4.412334466688488,448.7512920533465,-109.47475542237517,-106.84007263183594,4761.76025390625,True
1599385288.3024538,0.0,10,0.5,0.5,0.48332434082031245,-0.001,-0.03,-0.37525,0.004520833623974527,10,1,100,0.030485879707321722,-10,-1,-100,18943.63496685389,-0.01326895166917722,-0.0032007746738044037,0.9999068406422114,71.69550576937056,4.418671454107179,451.48384468407477,-110.01997443760443,-106.86994934082031,4761.76025390625,True
1599385288.3371532,0.0,10,0.5,0.5,0.43010593414306636,-0.001,-0.03,-0.37525,-0.006493112132501845,10,1,100,0.05478808907696961,-10,-1,-100,18939.22326368792,-0.012415105037826887,-0.0029299735825085798,0.9999186369008758,71.67036884211366,4.419372570018147,452.9471957320301,-110.38344002773098,-106.71406555175781,4761.76025390625,True
1599385288.3692107,0.0,10,0.5,0.5,0.448596529006958,-0.001,-0.03,-0.37525,-0.018681721329432584,10,1,100,0.09189684869843073,-10,-1,-100,18937.01196030667,-0.011981385756731805,-0.002796666588316652,0.9999243096611574,71.6408018722438,4.418672670374765,453.5711483746008,-110.5651697678588,-106.58367156982422,4761.76025390625,True
1599385288.4058182,0.0,10,0.5,0.5,0.44382871818542474,-0.001,-0.03,-0.37525,-0.017261759973978268,10,1,100,0.08823790083919542,-10,-1,-100,18934.797022362123,-0.011559379198117978,-0.0026647611382831222,0.999929637424869,71.60003016020427,4.4172790904042385,454.12358878384845,-110.74689783791425,-106.41792297363281,4761.76025390625,True
1599385288.4372754,0.0,10,0.5,0.5,0.2502122058868409,-0.001,-0.03,-0.37525,0.013211767239967098,10,1,100,-0.01729793993267563,-10,-1,-100,18928.130401117727,-0.010221734077663233,-0.0022698511405205893,0.9999451804615319,71.41648267391973,4.4092973835597,455.3863388070322,-111.292075595089,-105.7242660522461,4761.76025390625,True
1599385288.4703147,0.0,10,0.5,0.5,0.27482008361816407,-0.001,-0.03,-0.37525,0.002562460611625239,10,1,100,0.015087797374426434,-10,-1,-100,18923.66781424277,-0.009305900595471662,-0.0020096485325343826,0.9999546797364783,71.24273722969465,4.400777015012515,455.8937009842332,-111.65552542251089,-105.09850311279297,4761.76025390625,True
1599385288.5033154,0.0,10,0.5,0.5,0.5066738815307618,-0.001,-0.03,-0.37525,-0.023226918772101902,10,1,100,0.10597547150080638,-10,-1,-100,18923.66781424277,-0.009305900595471662,-0.0020096485325343826,0.9999546797364783,71.24273722969465,4.400777015012515,455.8937009842332,-111.65552542251089,-105.09850311279297,4761.76025390625,True
1599385288.5393333,0.0,10,0.5,0.5,0.2224038982391357,-0.001,-0.03,-0.37525,0.005389970529242449,10,1,100,0.0057142926724940285,-10,-1,-100,18919.190689576557,-0.008400759643330433,-0.0017515939153848296,0.9999631789001887,71.02501442377721,4.389508181490128,456.11181912509306,-112.01897656675526,-104.35084533691406,4761.76025390625,True
1599385288.5702515,0.0,10,0.5,0.5,0.3424159069061279,-0.001,-0.03,-0.37525,-0.006043912309568274,10,1,100,0.04548188778080374,-10,-1,-100,18916.94667542912,-0.00794528739604477,-0.0016227611976178569,0.9999671189865644,70.90267891431796,4.383026031771849,456.1308971616961,-112.20070348174097,-103.94336700439453,4761.76025390625,True
1599385288.6033049,0.0,10,0.5,0.5,0.15313846778869633,-0.001,-0.03,-0.37525,0.009576424976533004,10,1,100,-0.012713641156317304,-10,-1,-100,18912.447743210825,-0.0070084450911668756,-0.0013655725988065452,0.9999745081295232,70.63604400116137,4.368667749018851,456.0197529638415,-112.56416109891714,-103.05638122558594,4761.76025390625,True
1599385288.6363263,0.0,10,0.5,0.5,0.10591976737976078,-0.001,-0.03,-0.37525,0.01212675248754961,10,1,100,-0.01910509818316586,-10,-1,-100,18907.93427254411,-0.006105437509340195,-0.0011106216563915798,0.9999807448907984,70.33103178351307,4.3518778801764,455.6489890402812,-112.92762581464788,-102.07642364501953,4761.76025390625,True
1599385288.661223,0.0,10,0.5,0.5,0.2629994945526123,-0.001,-0.03,-0.37525,0.0009055460478371181,10,1,100,0.019470567070688255,-10,-1,-100,18905.672085362836,-0.0056417216774053746,-0.0009827591791184637,0.9999836024460155,70.16724812382255,4.342759521512987,455.38564230315643,-113.10936133040374,-101.55477905273438,4761.76025390625,True
1599385288.6831987,0.0,10,0.5,0.5,0.026569711685180686,-0.001,-0.03,-0.37525,0.016355106016699143,10,1,100,-0.03489244257087455,-10,-1,-100,18901.136806331342,-0.004732110272868986,-0.0007278402131563308,0.9999885386248132,69.86087526933828,4.3257762245792595,454.9866625319085,-113.47283836439499,-100.44727325439453,4761.76025390625,True
1599385288.704109,0.0,10,0.5,0.5,0.20820461082458494,-0.001,-0.03,-0.37525,0.004997115859558821,10,1,100,0.006365971255717404,-10,-1,-100,18898.863714515697,-0.004286857553972072,-0.0006012309058694496,0.9999906306429626,69.69710620308209,4.31659719350299,454.7133268039179,-113.6545802336773,-99.8743896484375,4761.76025390625,True
1599385288.7370179,0.0,10,0.5,0.5,-0.03995001792907715,-0.001,-0.03,-0.37525,0.02034895177651761,10,1,100,-0.048372987897743976,-10,-1,-100,18894.3066264207,-0.0033910668368926336,-0.0003484453274839446,0.9999941896089003,69.40014009031255,4.3000624850275395,454.3564671337155,-114.01806966337537,-98.6956558227539,4761.76025390625,True
1599385288.7702825,0.0,10,0.5,0.5,0.3812840194702148,-0.001,-0.03,-0.37525,-0.004737465480729223,10,1,100,0.040523017086122805,-10,-1,-100,18894.3066264207,-0.0033910668368926336,-0.0003484453274839446,0.9999941896089003,69.40014009031255,4.3000624850275395,454.3564671337155,-114.01806966337537,-98.6956558227539,4761.76025390625,True
1599385288.8062077,0.0,10,0.5,0.5,-0.09685238265991208,-0.001,-0.03,-0.37525,0.02303655123996542,10,1,100,-0.05594779183046014,-10,-1,-100,18889.734998312546,-0.002519436604704224,-9.74644511185846e-05,0.9999968214648861,69.08672101224326,4.282406737126251,453.87908807097034,-114.38156735632981,-97.47591400146484,4761.76025390625,True
1599385288.8371248,0.0,10,0.5,0.5,-0.1272063236236572,-0.001,-0.03,-0.37525,0.02524891021345161,10,1,100,-0.06171733796494247,-10,-1,-100,18885.148830414284,-0.0016807645778474374,0.00014907398708033002,0.9999985764026768,68.75660390920937,4.263603755524392,453.27840728084936,-114.74507418377587,-96.23951721191406,4761.76025390625,True
1599385288.8710341,0.0,10,0.5,0.5,-0.17359974479675294,-0.001,-0.03,-0.37525,0.028397607998663917,10,1,100,-0.07320867704605447,-10,-1,-100,18880.5481216833,-0.0008199778300270522,0.00040009648539721413,0.9999995837794937,68.4145338159603,4.243938918066198,452.5846219896946,-115.10859094176416,-94.9477767944336,4761.76025390625,True
1599385288.9040143,0.0,10,0.5,0.5,0.0349601421356201,-0.001,-0.03,-0.37525,0.016678508283838087,10,1,100,-0.03157571470033897,-10,-1,-100,18878.242314514355,-0.0004224034529386773,0.0005199225249295876,0.9999997756279204,68.2305395246312,4.233253255523451,452.14636958772905,-115.29035345704754,-94.28550720214844,4761.76025390625,True
1599385288.939339,0.0,10,0.5,0.5,-0.23671561050415035,-0.001,-0.03,-0.37525,0.031072282935291712,10,1,100,-0.07927926794388272,-10,-1,-100,18873.619794242433,0.00036670915423003565,0.0007579936984961089,0.9999996454849117,67.85492061773559,4.211303684425512,451.2072296278117,-115.6538872338694,-92.97286987304688,4761.76025390625,True
1599385288.9702594,0.0,10,0.5,0.5,-0.486016056060791,-0.001,-0.03,-0.37525,0.04577301376340231,10,1,100,-0.12607586008074642,-10,-1,-100,18866.658748073387,0.0015036240468425627,0.0011063663043985995,0.999998257532645,67.29843295463965,4.178543225775978,449.8143863199617,-116.19920958558987,-91.07371520996094,4761.76025390625,True
1599385289.004638,0.0,10,0.5,0.5,0.19519853973388673,-0.001,-0.03,-0.37525,0.011144665721504953,10,1,100,-0.013098905391918516,-10,-1,-100,18866.658748073387,0.0015036240468425627,0.0011063663043985995,0.999998257532645,67.29843295463965,4.178543225775978,449.8143863199617,-116.19920958558987,-91.07371520996094,4761.76025390625,True
1599385289.0376773,0.0,10,0.5,0.5,-0.7069329261779785,-0.001,-0.03,-0.37525,0.05760553594743171,10,1,100,-0.16203662367751276,-10,-1,-100,18857.326454401715,0.0028519344546027725,0.00152707039143652,0.9999947672492523,66.592694489455,4.136616964494472,448.14459612368256,-116.92634317488265,-88.75076293945312,4761.76025390625,True
1599385289.0738306,0.0,10,0.5,0.5,-0.0693829116821289,-0.001,-0.03,-0.37525,0.027316442251508852,10,1,100,-0.06463357230779489,-10,-1,-100,18854.98429156153,0.0031856990928340965,0.0016322384357832346,0.999993593538968,66.437414665076,4.12736588397504,447.8601220733053,-117.10813200256841,-88.2171630859375,4761.76025390625,True
1599385289.104382,0.0,10,0.5,0.5,-0.29614817047119135,-0.001,-0.03,-0.37525,0.03757106271006529,10,1,100,-0.09709282854952703,-10,-1,-100,18850.289058836526,0.003778226760760386,0.0018192689495732453,0.9999912075928634,66.12653921299416,4.10874813712232,447.27889597611374,-117.47171547264837,-87.16583251953125,4761.76025390625,True
1599385289.1374602,0.0,10,0.5,0.5,-0.1230074234008789,-0.001,-0.03,-0.37525,0.029099342579761888,10,1,100,-0.0703139844187122,-10,-1,-100,18847.93598841573,0.004066926699869921,0.001910310402491354,0.9999899053597411,65.9802817193697,4.099962810319688,447.0453959151714,-117.65350978465804,-86.66940307617188,4761.76025390625,True
1599385289.1706755,0.0,10,0.5,0.5,0.03085819244384766,-0.001,-0.03,-0.37525,0.020195974773312017,10,1,100,-0.042102626838216126,-10,-1,-100,18847.93598841573,0.004066926699869921,0.001910310402491354,0.9999899053597411,65.9802817193697,4.099962810319688,447.0453959151714,-117.65350978465804,-86.66940307617188,4761.76025390625,True
1599385289.2073295,0.0,10,0.5,0.5,-0.6986476287841796,-0.001,-0.03,-0.37525,0.05640621770909753,10,1,100,-0.1575577904610432,-10,-1,-100,18838.487351839663,0.005111293922552242,0.002237893305166303,0.9999844331328324,66.83954284386587,4.154310674074946,455.931437524824,-118.3806021563343,-84.80682373046875,4761.76025390625,True
1599385289.2375412,0.0,10,0.5,0.5,-0.3643855590820312,-0.001,-0.03,-0.37525,0.040089951415094235,10,1,100,-0.10597146718032062,-10,-1,-100,18833.741222572164,0.005586360029936348,0.002385695525998255,0.9999815503490418,67.26891783406997,4.181334598388273,460.4032495007501,-118.74409500617365,-83.91845703125,4761.76025390625,True
1599385289.2714927,0.0,10,0.5,0.5,-0.21745883178710934,-0.001,-0.03,-0.37525,0.03179905738915607,10,1,100,-0.08079187716120367,-10,-1,-100,18831.36270606809,0.005783870433309131,0.0024429932601541656,0.9999802891191112,67.48114601706963,4.194662833261442,462.62992633056416,-118.92582836587226,-83.505615234375,4761.76025390625,True
1599385289.3043776,0.0,10,0.5,0.5,-0.356135498046875,-0.001,-0.03,-0.37525,0.03839333171123472,10,1,100,-0.1037599463488116,-10,-1,-100,18826.59476932988,0.00616730128237257,0.0025534982399860193,0.9999777217726558,67.86682618618772,4.218856418154785,466.83167003327014,-119.2892702209309,-82.80078125,4761.76025390625,True
1599385289.3406606,0.0,10,0.5,0.5,-0.11646534729003906,-0.001,-0.03,-0.37525,0.027487546921608097,10,1,100,-0.0658832291660207,-10,-1,-100,18826.59476932988,0.00616730128237257,0.0025534982399860193,0.9999777217726558,67.86682618618772,4.218856418154785,466.83167003327014,-119.2892702209309,-82.80078125,4761.76025390625,True
1599385289.3713386,0.0,10,0.5,0.5,-0.36908028411865235,-0.001,-0.03,-0.37525,0.038539644702472155,10,1,100,-0.10525239563610561,-10,-1,-100,18821.812295863638,0.006520963089159224,0.002652656281688795,0.9999752199204943,68.20562548151814,4.240079144124644,470.728296692251,-119.65268192326057,-82.19534301757812,4761.76025390625,True
1599385289.4043055,0.0,10,0.5,0.5,-0.2629440155029297,-0.001,-0.03,-0.37525,0.033006662024619576,10,1,100,-0.08686970276674648,-10,-1,-100,18819.41560826532,0.00667202295230332,0.0026914768535378835,0.9999741196961404,68.36460667582293,4.250024764309675,472.61070475236755,-119.83437695491835,-81.92587280273438,4761.76025390625,True
1599385289.575987,0.0,10,0.5,0.5,-0.35858203125,-0.001,-0.03,-0.37525,0.036663845582728304,10,1,100,-0.10270985793941069,-10,-1,-100,18814.611331836204,0.0069501821259499285,0.002759052461730994,0.9999720409081093,68.65946036143444,4.26844931122251,476.22679721467296,-120.19774653270143,-81.45309448242188,4761.76025390625,True
1599385289.5955095,0.0,10,0.5,0.5,-0.34362939453124997,-0.001,-0.03,-0.37525,0.03481104650300261,10,1,100,-0.09989947239857544,-10,-1,-100,18809.79252137977,0.007174621546743625,0.002802786856170717,0.9999703341557188,68.93018921351674,4.285340472596196,479.6893978396468,-120.56109019080034,-81.06686401367188,4761.76025390625,True
1599385289.6204417,0.0,10,0.5,0.5,-0.3252627487182617,-0.001,-0.03,-0.37525,0.03359692527919661,10,1,100,-0.09820728342007846,-10,-1,-100,18804.95917796751,0.007360448670527128,0.002830696588668884,0.9999689049926461,69.17271277390493,4.300452712192652,482.9684160568002,-120.924409684055,-80.775146484375,4761.76025390625,True
1599385289.6536214,0.0,10,0.5,0.5,-0.2741600875854492,-0.001,-0.03,-0.37525,0.03154342663621119,10,1,100,-0.08813322063895532,-10,-1,-100,18802.537056692643,0.007434805919619505,0.0028365641885617346,0.9999683382810387,69.28371548274279,4.30736392636182,484.5407173103792,-121.10606085450517,-80.66702270507812,4761.76025390625,True
1599385289.7086165,0.0,10,0.5,0.5,-0.2770884628295898,-0.001,-0.03,-0.37525,0.03115384843042708,10,1,100,-0.08790701399650441,-10,-1,-100,18800.111302577192,0.007498234711138414,0.0028378125039722926,0.999967861131751,69.38767897705786,4.313834111448141,486.0665106421331,-121.2877067138044,-80.58441162109375,4761.76025390625,True
