Timestamp,Input Throttle,horizon,dT,dt,Input Roll,Roll P,Roll I,Roll D,Input Pitch,Pitch P,Pitch I,Pitch D,Input Yaw,Yaw P,Yaw I,Yaw D,Altitude,Direction X,Direction Y,Direction Z,Drag X,Drag Y,Drag Z,Vertical Velocity,Roll,Mass,Has Fuel
1599387986.8313937,0.0,10,0.5,0.5,-11.214683753967286,-0.2,-0.001,-0.37525,-0.00013423556758852405,10,1,100,0.49807688373184716,-10,-1,-100,19351.09416637884,-0.04884311821510983,-0.00017332946710644693,0.99880644759629,60.986625301788045,3.6806877313644653,232.7544369081615,-68.48187413392428,-33.922515869140625,4761.76025390625,True
1599387986.8683586,0.0,10,0.5,0.5,-11.220455030822754,-0.2,-0.001,-0.37525,-0.0007924746708282516,10,1,100,0.4988899780060194,-10,-1,-100,19349.720879568835,-0.048893795342686286,-0.00016461898577056636,0.998803969594423,61.07634517339791,3.6867732556147876,233.74135310636657,-68.66433419491673,-33.92364501953125,4761.76025390625,True
1599387986.9022055,0.0,10,0.5,0.5,-11.22508196105957,-0.2,-0.001,-0.37525,0.00028951229998788416,10,1,100,0.5105021848986565,-10,-1,-100,19346.963358827634,-0.049000982071013686,-0.0001467144675616459,0.9987987195781447,61.25648590744326,3.6989977622999897,235.7240891492799,-69.02924407554461,-33.92608642578125,4761.76025390625,True
1599387986.9401023,0.0,10,0.5,0.5,-11.206097731018067,-0.2,-0.001,-0.37525,0.01013268986157608,10,1,100,0.5037011933242812,-10,-1,-100,19345.579124809476,-0.04899205100784335,-4.0820823659496793e-05,0.9987991676366701,61.34691542105115,3.705137327914005,236.71996012199827,-69.21169384254455,-33.970428466796875,4761.76025390625,True
1599387986.9770033,0.0,10,0.5,0.5,-10.739988461303712,-0.2,-0.001,-0.37525,0.058786332223504725,10,1,100,0.4989502198091277,-10,-1,-100,19340.005700501497,-0.04889620296299816,0.0004977890748360442,0.9988037412534247,61.741071728357596,3.731653128710385,240.8507578460873,-69.94145568151663,-34.819366455078125,4761.76025390625,True
1599387987.0168967,0.0,10,0.5,0.5,-11.064070504760744,-0.2,-0.001,-0.37525,0.004975121281434231,10,1,100,0.5134246445899467,-10,-1,-100,19340.005700501497,-0.04889620296299816,0.0004977890748360442,0.9988037412534247,61.741071728357596,3.731653128710385,240.8507578460873,-69.94145568151663,-34.819366455078125,4761.76025390625,True
1599387987.0557926,0.0,10,0.5,0.5,-9.912364912414551,-0.2,-0.001,-0.37525,0.12142831707319576,10,1,100,0.4661739088180269,-10,-1,-100,19334.37389836635,-0.048422199726014345,0.001556001955602207,0.9988257452787289,62.17337670635105,3.760343457739082,245.1676647949544,-70.67114970727566,-36.8310546875,4761.76025390625,True
1599387987.0946884,0.0,10,0.5,0.5,-9.840870916748049,-0.2,-0.001,-0.37525,0.09921665672598026,10,1,100,0.4752561024428086,-10,-1,-100,19331.5361075151,-0.048029832907412515,0.002314674933182576,0.998843219645025,62.38518252580321,3.7743128059934996,247.32336645028192,-71.03596891271454,-38.27685546875,4761.76025390625,True
1599387987.1335847,0.0,10,0.5,0.5,-9.387685702514649,-0.2,-0.001,-0.37525,0.11625045566148241,10,1,100,0.4597118638917753,-10,-1,-100,19328.68372443039,-0.04748816105557654,0.0031571261077300377,0.9988668114990604,62.579341815767215,3.7870999440184474,249.41817507562817,-71.40076955642958,-40.01678466796875,4761.76025390625,True
1599387987.171483,0.0,10,0.5,0.5,-8.87588702697754,-0.2,-0.001,-0.37525,0.14016166366113747,10,1,100,0.44595167896411547,-10,-1,-100,19325.816749669844,-0.04682746845360549,0.004137495315399385,0.9988944235156895,62.740200750058875,3.797724373108894,251.3882467043665,-71.7655527465366,-42.0501708984375,4761.76025390625,True
1599387987.2094238,0.0,10,0.5,0.5,-8.995430407714844,-0.2,-0.001,-0.37525,0.10009863008682124,10,1,100,0.47455457275243046,-10,-1,-100,19324.377791005652,-0.04644429469674958,0.004660769294136463,0.9989100083189218,62.80295857073137,3.8019013328363904,252.305027199349,-71.94793839016096,-43.1771240234375,4761.76025390625,True
1599387987.248286,0.0,10,0.5,0.5,-7.21900446624756,-0.2,-0.001,-0.37525,0.2349522449706703,10,1,100,0.3619387644148623,-10,-1,-100,19320.039028703235,-0.04507435559064664,0.006358020229422214,0.9989634017554648,62.89082598857409,3.80804278550797,254.65759708185146,-72.49507622045023,-46.998748779296875,4761.76025390625,True
1599387987.2886925,0.0,10,0.5,0.5,-8.651761645507813,-0.2,-0.001,-0.37525,0.06587941536361452,10,1,100,0.4985507310499523,-10,-1,-100,19320.039028703235,-0.04507435559064664,0.006358020229422214,0.9989634017554648,62.89082598857409,3.80804278550797,254.65759708185146,-72.49507622045023,-46.998748779296875,4761.76025390625,True
1599387987.322602,0.0,10,0.5,0.5,-6.9736483795166,-0.2,-0.001,-0.37525,0.2039511159864183,10,1,100,0.3772570112902093,-10,-1,-100,19317.12828282651,-0.04397525507144931,0.0076073041126322625,0.999003656582667,62.8384538018811,3.8051277201345934,255.77827028925668,-72.8598247374549,-49.913665771484375,4761.76025390625,True
1599387987.3614972,0.0,10,0.5,0.5,-5.233093423461915,-0.2,-0.001,-0.37525,0.29119863970420756,10,1,100,0.27305794202730393,-10,-1,-100,19312.734808216803,-0.042033369238822046,0.00952922319940649,0.9990707631472601,62.53283992694264,3.78653495526212,256.5252345121425,-73.40694745368117,-54.838104248046875,4761.76025390625,True
1599387987.398444,0.0,10,0.5,0.5,-4.978713665771485,-0.2,-0.001,-0.37525,0.24304303924648535,10,1,100,0.30284280545258757,-10,-1,-100,19309.787587272585,-0.04054502890732182,0.010830433788563248,0.9991190130984677,62.13872674077972,3.7623085439797537,256.2287175046607,-73.77170762680653,-58.489166259765625,4761.76025390625,True
1599387987.436297,0.0,10,0.5,0.5,-5.232563040161134,-0.2,-0.001,-0.37525,0.18323152795453945,10,1,100,0.3636047595806571,-10,-1,-100,19308.308505178196,-0.03975196561990013,0.011460218180857405,0.9991438558228748,61.874018257015905,3.746019808733701,255.7949711845838,-73.95409464902313,-60.425445556640625,4761.76025390625,True
1599387987.4741955,0.0,10,0.5,0.5,-4.800604510498047,-0.2,-0.001,-0.37525,0.19078487023610657,10,1,100,0.3505751366069668,-10,-1,-100,19306.825775385136,-0.038920429908034244,0.012092412361661562,0.9991691416867564,61.55963504823905,3.7266801589616563,255.1500590554386,-74.1364880811245,-62.435333251953125,4761.76025390625,True
1599387987.5110962,0.0,10,0.5,0.5,-3.1130286437988275,-0.2,-0.001,-0.37525,0.267883593372341,10,1,100,0.237299705730474,-10,-1,-100,19303.84937131009,-0.037142992982914756,0.013359142975059765,0.9992206620017637,60.76656810202338,3.677963063090243,253.15684309330467,-74.50129947062385,-66.67587280273438,4761.76025390625,True
1599387987.5479972,0.0,10,0.5,0.5,-2.09270634765625,-0.2,-0.001,-0.37525,0.27860943020916185,10,1,100,0.20132547579700877,-10,-1,-100,19300.858373829862,-0.03520950747711341,0.014598949306786202,0.9992733165967943,59.73093540131401,3.6145275563650068,250.1158117273124,-74.86615272968119,-71.21115112304688,4761.76025390625,True
1599387987.586894,0.0,10,0.5,0.5,-1.0129227798461917,-0.2,-0.001,-0.37525,0.28471516286644694,10,1,100,0.1659365900634164,-10,-1,-100,19297.85278059088,-0.033140638020603616,0.015772042219793385,0.9993262434239403,58.42517763983639,3.534837032898967,245.8954872790079,-75.23105820200969,-76.0416259765625,4761.76025390625,True
1599387987.6228306,0.0,10,0.5,0.5,1.6645129623413082,-0.2,-0.001,-0.37525,0.3422625584534893,10,1,100,0.00969614977865041,-10,-1,-100,19293.317018481903,-0.029851574199984243,0.01735154730702243,0.9994037258905106,55.90647971525434,3.3819093476154425,237.08840917734608,-75.77853448176816,-83.84133911132812,4761.76025390625,True
1599387987.665717,0.0,10,0.5,0.5,1.944957368469238,-0.2,-0.001,-0.37525,0.28835572493176065,10,1,100,0.0825216780407863,-10,-1,-100,19290.27492481121,-0.027537405330341196,0.018287404784235302,0.9994534817258531,53.82496102773893,3.2561518431444028,229.4137898831241,-76.143606674516,-89.410400390625,4761.76025390625,True
1599387987.704579,0.0,10,0.5,0.5,1.4741477485656738,-0.2,-0.001,-0.37525,0.2412189649811567,10,1,100,0.1860360174839436,-10,-1,-100,19288.74840124999,-0.02639059758038559,0.0186988234143735,0.9994768083163652,52.65729871146281,3.1857997653582406,225.001091021292,-76.32617053080493,-92.21742248535156,4761.76025390625,True
1599387987.7444723,0.0,10,0.5,0.5,3.5597895565032958,-0.2,-0.001,-0.37525,0.28332032245770317,10,1,100,0.039988308266838135,-10,-1,-100,19285.684401074424,-0.024036324685262317,0.019445496764920703,0.9995219496095071,53.51262326259762,3.23858079603453,229.80258721788982,-76.6912700610297,-97.66678619384766,4761.76025390625,True
1599387987.7813737,0.0,10,0.5,0.5,3.0278738010406494,-0.2,-0.001,-0.37525,0.24552513128857462,10,1,100,0.14244850069103443,-10,-1,-100,19284.146925321664,-0.022843893843146182,0.01977168327882107,0.9995435143376226,54.32520201816402,3.2884717171359954,233.87410262236438,-76.87378782340994,-100.2894287109375,4761.76025390625,True
1599387987.8202703,0.0,10,0.5,0.5,7.663814313888549,-0.2,-0.001,-0.37525,0.322517598196503,10,1,100,-0.26765448176753287,-10,-1,-100,19277.960526351817,-0.018047748814384697,0.020760019581993243,0.999621578573456,56.99420916905456,3.4538205264196455,247.80507726461445,-77.60365655197145,-110.0519790649414,4761.76025390625,True
1599387987.8582032,0.0,10,0.5,0.5,5.303681874465942,-0.2,-0.001,-0.37525,0.24339733979719824,10,1,100,0.07613575663668058,-10,-1,-100,19276.404804703197,-0.016832713879917575,0.020930777689064144,0.9996392160618588,57.52026053213478,3.486748867450509,250.70755481445514,-77.786076326259,-112.30891418457031,4761.76025390625,True
1599387987.8951058,0.0,10,0.5,0.5,5.717717414093019,-0.2,-0.001,-0.37525,0.2425665073227667,10,1,100,0.06227708483072904,-10,-1,-100,19274.845435184077,-0.015622228483100738,0.021070424431790673,0.9996559324044879,58.06692676528595,3.520948582498355,253.7111327188202,-77.96847796438095,-114.49224853515625,4761.76025390625,True
1599387987.9339986,0.0,10,0.5,0.5,8.416492881393433,-0.2,-0.001,-0.37525,0.26320784326227814,10,1,100,-0.19287342435369198,-10,-1,-100,19270.145441186964,-0.012221801461135981,0.021378014268758776,0.9996967580596475,59.321310024539464,3.600137021618075,261.09354112328487,-78.51558941290187,-120.59966278076172,4761.76025390625,True
1599387987.9709015,0.0,10,0.5,0.5,7.216096199417115,-0.2,-0.001,-0.37525,0.23730145504763672,10,1,100,0.018240526064390944,-10,-1,-100,19268.57148243545,-0.011070619814074208,0.021415965986813064,0.9997093566521141,59.627330770798594,3.619679867808777,263.0772653987792,-78.69793373414728,-122.48835754394531,4761.76025390625,True
1599387988.0058076,0.0,10,0.5,0.5,9.516766884994507,-0.2,-0.001,-0.37525,0.23682592618474202,10,1,100,-0.22716858771385043,-10,-1,-100,19263.82772672258,-0.007813162753494519,0.02144101371922972,0.9997395848012018,60.259263179764865,3.6606610652585228,267.7954621154148,-79.2449073597185,-127.71175384521484,4761.76025390625,True
1599387988.044704,0.0,10,0.5,0.5,7.561074464416504,-0.2,-0.001,-0.37525,0.2347300995842972,10,1,100,0.09637327719946948,-10,-1,-100,19263.82772672258,-0.007813162753494519,0.02144101371922972,0.9997395848012018,60.259263179764865,3.6606610652585228,267.7954621154148,-79.2449073597185,-127.71175384521484,4761.76025390625,True
1599387988.086591,0.0,10,0.5,0.5,9.356087356185913,-0.2,-0.001,-0.37525,0.22643770879477676,10,1,100,-0.13516345115323386,-10,-1,-100,19260.64699173579,-0.005726214534448894,0.021362761431202266,0.9997553915289173,60.48673395493267,3.6759353201084055,270.09770932014976,-79.60951911176886,-130.82550048828125,4761.76025390625,True
1599387988.1284785,0.0,10,0.5,0.5,11.264769603729247,-0.2,-0.001,-0.37525,0.19893391275319922,10,1,100,-0.35774176566410165,-10,-1,-100,19254.241771116154,-0.0018243354607140165,0.021039166716238577,0.9997769877647781,60.61642635065472,3.6860365529537096,273.2654537296525,-80.33868703300924,-136.16796875,4761.76025390625,True
1599387988.167375,0.0,10,0.5,0.5,10.545575124359132,-0.2,-0.001,-0.37525,0.21022178879235542,10,1,100,-0.16555941220181797,-10,-1,-100,19251.017286275164,-4.4477688089023125e-05,0.02084615796667181,0.9997826942489872,60.56695617048581,3.683827708208793,274.33618194447104,-80.70325405363543,-138.3960723876953,4761.76025390625,True
1599387988.206271,0.0,10,0.5,0.5,10.824659275817872,-0.2,-0.001,-0.37525,0.21134904003178123,10,1,100,-0.17168899923800598,-10,-1,-100,19247.778219214873,0.00160857160903081,0.020679966410435117,0.9997848525991189,60.47459931205265,3.678837280877085,275.2100956907124,-81.06781452126017,-140.3280487060547,4761.76025390625,True
1599387988.242707,0.0,10,0.5,0.5,10.102712769317627,-0.2,-0.001,-0.37525,0.22796019033829457,10,1,100,-0.008349701568364235,-10,-1,-100,19247.778219214873,0.00160857160903081,0.020679966410435117,0.9997848525991189,60.47459931205265,3.678837280877085,275.2100956907124,-81.06781452126017,-140.3280487060547,4761.76025390625,True
1599387988.2815626,0.0,10,0.5,0.5,11.047572578430177,-0.2,-0.001,-0.37525,0.2008941806888014,10,1,100,-0.18572512420018664,-10,-1,-100,19244.524569603265,0.0032043106461483333,0.020434139787511206,0.9997860662783953,60.36288928355875,3.6725270132220103,275.9921087318776,-81.4323700874447,-141.9656982421875,4761.76025390625,True
1599387988.319499,0.0,10,0.5,0.5,11.207546478271485,-0.2,-0.001,-0.37525,0.20182016333659425,10,1,100,-0.1887342446646181,-10,-1,-100,19241.2563379528,0.004665223103087051,0.020219657504055112,0.9997846773899954,60.2449512306471,3.6657251134450233,276.74130886288214,-81.79692165165294,-143.3072967529297,4761.76025390625,True
1599387988.3573928,0.0,10,0.5,0.5,11.545873825073244,-0.2,-0.001,-0.37525,0.1817329087508635,10,1,100,-0.26700551185505,-10,-1,-100,19236.32664957887,0.0066895304706132445,0.01984311525628357,0.9997807264390571,60.081705177092225,3.656199721967144,277.9199272464315,-82.34374149847154,-144.7666473388672,4761.76025390625,True
1599387988.3952913,0.0,10,0.5,0.5,11.195211811065674,-0.2,-0.001,-0.37525,0.20716908720344054,10,1,100,-0.13395679620176876,-10,-1,-100,19234.676129153464,0.007304130525802966,0.0197334719721788,0.9997785953705878,60.03523855760599,3.6534786320331567,278.34760863543823,-82.52601243394743,-145.10516357421875,4761.76025390625,True
1599387988.4331925,0.0,10,0.5,0.5,11.332110396575928,-0.2,-0.001,-0.37525,0.19215001262244735,10,1,100,-0.20163567617576236,-10,-1,-100,19231.36415231775,0.008464377400030566,0.01949881152839003,0.99977404980536,59.96171141864329,3.649188616709439,279.29078691687874,-82.8905496222687,-145.56094360351562,4761.76025390625,True
1599387988.466101,0.0,10,0.5,0.5,11.254835745239259,-0.2,-0.001,-0.37525,0.19438524097497364,10,1,100,-0.20193950238024483,-10,-1,-100,19228.037594356807,0.009507111578320475,0.01930756974832397,0.9997683894682062,59.918632804989926,3.646729349045139,280.3738146444467,-83.25507966563008,-145.7208251953125,4761.76025390625,True
1599387988.5089538,0.0,10,0.5,0.5,11.178853472137453,-0.2,-0.001,-0.37525,0.20024986389413768,10,1,100,-0.1534065789812756,-10,-1,-100,19226.368847405538,0.009999994867581791,0.019188896694513475,0.9997658657637275,59.91001039077358,3.6462832955257274,280.9754023058091,-83.43734137757178,-145.69044494628906,4761.76025390625,True
1599387988.5458887,0.0,10,0.5,0.5,10.695928789520265,-0.2,-0.001,-0.37525,0.1720914716493871,10,1,100,-0.28947749070727513,-10,-1,-100,19219.657408367377,0.011674329482302714,0.018826708779753225,0.9997546024238453,59.95701310442205,3.64949356112125,283.76674768818657,-84.16636155730548,-144.8294677734375,4761.76025390625,True
1599387988.5842378,0.0,10,0.5,0.5,10.789767987060548,-0.2,-0.001,-0.37525,0.19827680839548026,10,1,100,-0.1624315039103673,-10,-1,-100,19217.970436239964,0.012030834881922216,0.01873733141783286,0.999752054973323,59.98817627045583,3.6514971735637185,284.5575689138533,-84.3486088543153,-144.42984008789062,4761.76025390625,True
1599387988.622137,0.0,10,0.5,0.5,10.667804066467287,-0.2,-0.001,-0.37525,0.19766759760103841,10,1,100,-0.16408428208970885,-10,-1,-100,19216.279819069197,0.012360481171140423,0.018652307022494517,0.9997496236298149,60.025733578026184,3.6539023504290995,285.37956091642474,-84.53085268817249,-143.9564208984375,4761.76025390625,True
1599387988.6607187,0.0,10,0.5,0.5,10.173293887329102,-0.2,-0.001,-0.37525,0.19481782206262205,10,1,100,-0.1930214312153276,-10,-1,-100,19212.887650401797,0.012913450144697044,0.018550948394008546,0.9997445199244871,60.11747653540361,3.65977152993169,287.1056776380628,-84.89532949912659,-142.78732299804688,4761.76025390625,True
1599387988.7031155,0.0,10,0.5,0.5,9.770376652526856,-0.2,-0.001,-0.37525,0.18922678879131544,10,1,100,-0.19054478269927602,-10,-1,-100,19209.480903132004,0.013384807734603914,0.018409688603276242,0.9997409315854973,60.22616323935874,3.666752067038844,288.91741648015727,-85.25979107207533,-141.32412719726562,4761.76025390625,True
1599387988.741014,0.0,10,0.5,0.5,9.307753702545169,-0.2,-0.001,-0.37525,0.19092140649885542,10,1,100,-0.1835988587800514,-10,-1,-100,19206.0595776852,0.013742242976497648,0.018298321653497946,0.9997381268025343,60.33907578104828,3.6740922314769686,290.75460625143216,-85.62423734107718,-139.56578063964844,4761.76025390625,True
1599387988.7779157,0.0,10,0.5,0.5,7.435509014129639,-0.2,-0.001,-0.37525,0.1804526340662529,10,1,100,-0.19149053844319097,-10,-1,-100,19199.17319543846,0.014132515091060598,0.018103312671223823,0.9997362362581086,60.52480798161851,3.6867291166212586,294.25006586798384,-86.35308725841487,-135.16500854492188,4761.76025390625,True
1599387988.8113368,0.0,10,0.5,0.5,9.085904727172853,-0.2,-0.001,-0.37525,0.1997905163635697,10,1,100,-0.15314616544342172,-10,-1,-100,19199.17319543846,0.014132515091060598,0.018103312671223823,0.9997362362581086,60.52480798161851,3.6867291166212586,294.25006586798384,-86.35308725841487,-135.16500854492188,4761.76025390625,True
1599387988.849236,0.0,10,0.5,0.5,6.741688677215576,-0.2,-0.001,-0.37525,0.18317655292101626,10,1,100,-0.15590927636885307,-10,-1,-100,19193.97014558525,0.014152481428845402,0.01795354527525258,0.9997386545900162,60.56462280196408,3.6905796595853086,296.396893680011,-86.89969610577677,-131.09169006347656,4761.76025390625,True
1599387988.8866484,0.0,10,0.5,0.5,6.49524705734253,-0.2,-0.001,-0.37525,0.18465112179805065,10,1,100,-0.14233162998774485,-10,-1,-100,19190.483225394622,0.014042976432593762,0.017832029200045462,0.9997423735880769,60.50655686760408,3.688226204205353,297.41468734624283,-87.26409574866074,-128.00869750976562,4761.76025390625,True
1599387988.9245467,0.0,10,0.5,0.5,7.6503718383789066,-0.2,-0.001,-0.37525,0.19666704256931553,10,1,100,-0.15368642776941005,-10,-1,-100,19190.483225394622,0.014042976432593762,0.017832029200045462,0.9997423735880769,60.50655686760408,3.688226204205353,297.41468734624283,-87.26409574866074,-128.00869750976562,4761.76025390625,True
1599387988.963443,0.0,10,0.5,0.5,3.5945974800109863,-0.2,-0.001,-0.37525,0.16480595880701038,10,1,100,-0.09855556996709804,-10,-1,-100,19183.465657046647,0.013539633500799751,0.017543287238187877,0.9997544255453649,60.08203507973941,3.6652771990621593,297.9169939221674,-87.99290680501616,-120.96116638183594,4761.76025390625,True
1599387989.3390174,0.0,10,0.5,0.5,6.236836668395997,-0.2,-0.001,-0.37525,0.1935607505748044,10,1,100,-0.14904074300838682,-10,-1,-100,19183.465657046647,0.013539633500799751,0.017543287238187877,0.9997544255453649,60.08203507973941,3.6652771990621593,297.9169939221674,-87.99290680501616,-120.96116638183594,4761.76025390625,True
1599387989.3729587,0.0,10,0.5,0.5,1.5053362857818602,-0.2,-0.001,-0.37525,0.14715839940096942,10,1,100,-0.05641724034396864,-10,-1,-100,19176.389780666446,0.012696529701732623,0.01712245588186602,0.9997727840054993,59.07414925938397,3.607280999454132,295.4708806869134,-88.72178863633302,-112.74004364013672,4761.76025390625,True
1599387989.4108546,0.0,10,0.5,0.5,4.587307866668701,-0.2,-0.001,-0.37525,0.18909868578194092,10,1,100,-0.140705928206385,-10,-1,-100,19176.389780666446,0.012696529701732623,0.01712245588186602,0.9997727840054993,59.07414925938397,3.607280999454132,295.4708806869134,-88.72178863633302,-112.74004364013672,4761.76025390625,True
1599387989.4587312,0.0,10,0.5,0.5,3.296777226638794,-0.2,-0.001,-0.37525,0.17438851837100267,10,1,100,-0.11099971162139483,-10,-1,-100,19174.611699968693,0.012427098894626232,0.016989897298786045,0.9997784307549548,58.70492903536299,3.585649130852524,294.25916351060874,-88.90402930650991,-110.5015869140625,4761.76025390625,True
1599387989.5193613,0.0,10,0.5,0.5,0.018127364730835094,-0.2,-0.001,-0.37525,0.1357405184645647,10,1,100,-0.040665135524123375,-10,-1,-100,19169.255586771527,0.011543952145537837,0.01651923351897728,0.9997969054226998,57.4397667494024,3.510994201713678,289.7844037194059,-89.45081587543017,-103.34691619873047,4761.76025390625,True
1599387989.5712214,0.0,10,0.5,0.5,-1.7946857673645016,-0.2,-0.001,-0.37525,0.11635557218095077,10,1,100,-0.015395617888389931,-10,-1,-100,19163.866662282264,0.010513721815992194,0.015916570643074862,0.9998180456625794,55.83302037799439,3.414943522941168,283.4971362629872,-89.9977138516839,-95.53392791748047,4761.76025390625,True
1599387989.6071286,0.0,10,0.5,0.5,1.1331749771118165,-0.2,-0.001,-0.37525,0.17640318556837756,10,1,100,-0.11805677151544734,-10,-1,-100,19163.866662282264,0.010513721815992194,0.015916570643074862,0.9998180456625794,55.83302037799439,3.414943522941168,283.4971362629872,-89.9977138516839,-95.53392791748047,4761.76025390625,True
1599387989.6430614,0.0,10,0.5,0.5,-5.0398659503936765,-0.2,-0.001,-0.37525,0.06792580983337429,10,1,100,0.04403792396597571,-10,-1,-100,19156.63037784479,0.009043441638536397,0.014932264476967721,0.9998476102091359,55.383535405216016,3.3890165638575533,283.62502173189057,-90.72704822867838,-84.80905151367188,4761.76025390625,True
1599387989.6799338,0.0,10,0.5,0.5,-1.0196760444641113,-0.2,-0.001,-0.37525,0.1660664499717806,10,1,100,-0.1024901403001983,-10,-1,-100,19156.63037784479,0.009043441638536397,0.014932264476967721,0.9998476102091359,55.383535405216016,3.3890165638575533,283.62502173189057,-90.72704822867838,-84.80905151367188,4761.76025390625,True
1599387989.7158666,0.0,10,0.5,0.5,-7.125301009368896,-0.2,-0.001,-0.37525,0.03192304584140526,10,1,100,0.07018790220651847,-10,-1,-100,19149.335758783272,0.00747818628374266,0.013715415134621652,0.9998779746136978,59.11200365489113,3.6172323680460967,305.29289089695766,-91.45609447872312,-74.20269775390625,4761.76025390625,True
1599387989.7523143,0.0,10,0.5,0.5,-3.149942607879639,-0.2,-0.001,-0.37525,0.15322519286565553,10,1,100,-0.0857314885511495,-10,-1,-100,19149.335758783272,0.00747818628374266,0.013715415134621652,0.9998779746136978,59.11200365489113,3.6172323680460967,305.29289089695766,-91.45609447872312,-74.20269775390625,4761.76025390625,True
1599387989.7872531,0.0,10,0.5,0.5,-6.0415595939636235,-0.2,-0.001,-0.37525,0.07259090902280299,10,1,100,0.005534230395518633,-10,-1,-100,19145.66658297612,0.006654008336243002,0.012985856074326235,0.9998935401906934,60.64133316103417,3.710527982637788,314.51113634967265,-91.82048130896126,-69.18411254882812,4761.76025390625,True
1599387989.8241224,0.0,10,0.5,0.5,-5.54398978729248,-0.2,-0.001,-0.37525,0.10812357433247538,10,1,100,-0.03449776978072913,-10,-1,-100,19143.826529686223,0.006274176132268737,0.012649405340334277,0.999900308660017,61.308458738848195,3.751181482748805,318.6380986498331,-92.00264446215775,-66.78289794921875,4761.76025390625,True
1599387989.8615985,0.0,10,0.5,0.5,-7.28185100479126,-0.2,-0.001,-0.37525,0.05789713200895508,10,1,100,0.01513504171959533,-10,-1,-100,19140.13549547887,0.005483505254625059,0.011891003425165523,0.9999142639284956,62.46075550501551,3.8213762564926155,325.98562763647215,-92.36691747324369,-62.203460693359375,4761.76025390625,True
1599387989.898533,0.0,10,0.5,0.5,-10.323714867401124,-0.2,-0.001,-0.37525,-0.04484445047026542,10,1,100,0.1071077238428772,-10,-1,-100,19132.7097219188,0.003934910613500973,0.01027216811054067,0.9999394976901216,64.13536855165204,3.923622538840342,337.51526735871346,-93.09528908481279,-53.936676025390625,4761.76025390625,True
1599387989.936397,0.0,10,0.5,0.5,-9.347779319763184,-0.2,-0.001,-0.37525,0.024035629308324855,10,1,100,0.036138479318592154,-10,-1,-100,19128.974986466812,0.00317918956409261,0.00943236133651293,0.9999504604295819,64.71591545771821,3.9593536987775364,341.9782406544977,-93.45940870176149,-50.249176025390625,4761.76025390625,True
1599387989.978285,0.0,10,0.5,0.5,-7.968573419952393,-0.2,-0.001,-0.37525,0.10736788578044262,10,1,100,-0.03870017239705417,-10,-1,-100,19128.974986466812,0.00317918956409261,0.00943236133651293,0.9999504604295819,64.71591545771821,3.9593536987775364,341.9782406544977,-93.45940870176149,-50.249176025390625,4761.76025390625,True
1599387990.0171807,0.0,10,0.5,0.5,-9.923839810180663,-0.2,-0.001,-0.37525,0.017688158846711544,10,1,100,0.04405737668450906,-10,-1,-100,19125.225687307655,0.0024335159653983075,0.008622985827394068,0.9999598602521337,65.16331709220643,3.987183284624251,345.7606079940625,-93.8234964593954,-46.858062744140625,4761.76025390625,True
1599387990.0511563,0.0,10,0.5,0.5,-11.260299238586425,-0.2,-0.001,-0.37525,-0.04565319923242345,10,1,100,0.09073106444478664,-10,-1,-100,19119.57443366479,0.001337333646649271,0.007317095089884396,0.9999723354464177,65.64206080323855,4.0176119596048,350.4454283324155,-94.36958388545682,-42.32928466796875,4761.76025390625,True
1599387990.089055,0.0,10,0.5,0.5,-9.5651232421875,-0.2,-0.001,-0.37525,0.0841743575798354,10,1,100,-0.018116556630928298,-10,-1,-100,19119.57443366479,0.001337333646649271,0.007317095089884396,0.9999723354464177,65.64206080323855,4.0176119596048,350.4454283324155,-94.36958388545682,-42.32928466796875,4761.76025390625,True
1599387990.127952,0.0,10,0.5,0.5,-11.091859365844726,-0.2,-0.001,-0.37525,-0.011061585556186276,10,1,100,0.061089753813557,-10,-1,-100,19115.788728880463,0.0006228588722785804,0.00645713044323396,0.9999789585352604,65.86818881991476,4.032481186814058,353.0887453285655,-94.7336205418979,-39.6807861328125,4761.76025390625,True
1599387990.1648524,0.0,10,0.5,0.5,-11.454813243103027,-0.2,-0.001,-0.37525,-0.01569421990089208,10,1,100,0.06921893296550254,-10,-1,-100,19111.98846333858,-9.433316270203944e-05,0.005639827983773864,0.9999840915942453,66.04608641454845,4.044586544909044,355.4836514240853,-95.09764440173542,-37.328155517578125,4761.76025390625,True
1599387990.2017548,0.0,10,0.5,0.5,-11.757273626708985,-0.2,-0.001,-0.37525,-0.033080451373354615,10,1,100,0.07422234401717347,-10,-1,-100,19108.1736369048,-0.0007856766208823887,0.004745447305506437,0.9999884316541457,66.19541046596218,4.055101112884868,357.7333142818121,-95.461657548411,-35.273223876953125,4761.76025390625,True
1599387990.2412264,0.0,10,0.5,0.5,-12.001599116516113,-0.2,-0.001,-0.37525,-0.03492174060089076,10,1,100,0.08293943349956674,-10,-1,-100,19104.34425032558,-0.0014869988938379622,0.003922820385044655,0.9999912001185391,66.33296005298092,4.065022591822761,359.9270638472538,-95.82566088276111,-33.51348876953125,4761.76025390625,True
1599387990.2791271,0.0,10,0.5,0.5,-12.857582035827637,-0.2,-0.001,-0.37525,-0.13226633357871576,10,1,100,0.16662882584678573,-10,-1,-100,19096.64179816644,-0.0028790404322736897,0.0022972706875901898,0.9999932168137827,66.62983132332118,4.086475186936214,364.4560583375597,-96.55363753509354,-30.882537841796875,4761.76025390625,True
1599387990.318021,0.0,10,0.5,0.5,-12.14467661895752,-0.2,-0.001,-0.37525,-0.013317499726639842,10,1,100,0.06648001639392748,-10,-1,-100,19094.70708560443,-0.0032278945166931174,0.0019081011771258669,0.9999929698987323,66.7169668855977,4.092671039636697,365.66405453272887,-96.7356245937795,-30.40960693359375,4761.76025390625,True
1599387990.356952,0.0,10,0.5,0.5,-12.198745529174806,-0.2,-0.001,-0.37525,-0.017224894076615184,10,1,100,0.07074971050366294,-10,-1,-100,19092.768733413308,-0.0035780253725440233,0.0015256291827579675,0.9999924350664011,66.81123965103438,4.0993161785536305,366.9134976830947,-96.91760832579554,-30.01055908203125,4761.76025390625,True
1599387990.3908608,0.0,10,0.5,0.5,-12.383136654663087,-0.2,-0.001,-0.37525,-0.05518649662124091,10,1,100,0.11617770685936979,-10,-1,-100,19088.881110148155,-0.004303165012972512,0.0008400098303394207,0.9999903885309879,67.02515273119833,4.1141889040909305,369.55944923813297,-97.28156487379601,-29.4332275390625,4761.76025390625,True
1599387990.4287634,0.0,10,0.5,0.5,-12.347193560791014,-0.2,-0.001,-0.37525,-0.10147823365546184,10,1,100,0.16232696448086184,-10,-1,-100,19083.022379656206,-0.005375797318122547,-0.0001970390303548535,0.9999855308847299,67.41692673898142,4.140890005117976,373.9416080362441,-97.82746753352738,-29.12213134765625,4761.76025390625,True
1599387990.4681678,0.0,10,0.5,0.5,-12.139206666564942,-0.2,-0.001,-0.37525,-0.06486178855073389,10,1,100,0.13666515712061067,-10,-1,-100,19079.098363465746,-0.006111525591379594,-0.0008001029171973584,0.9999810043647168,67.72764600766251,4.161738933598776,377.1546887596149,-98.19137725001556,-29.283050537109375,4761.76025390625,True
1599387990.50507,0.0,10,0.5,0.5,-12.200896215820313,-0.2,-0.001,-0.37525,-0.005367119667191569,10,1,100,0.06383721571870887,-10,-1,-100,19079.098363465746,-0.006111525591379594,-0.0008001029171973584,0.9999810043647168,67.72764600766251,4.161738933598776,377.1546887596149,-98.19137725001556,-29.283050537109375,4761.76025390625,True
1599387990.5424788,0.0,10,0.5,0.5,-11.508117919921876,-0.2,-0.001,-0.37525,-0.12132131595766536,10,1,100,0.229252172657506,-10,-1,-100,19071.206665001926,-0.007609175759492606,-0.0018476344895103644,0.9999693428755976,68.46056432908684,4.210231688161359,384.25062102848756,-98.9191239276347,-30.489166259765625,4761.76025390625,True
1599387990.5813746,0.0,10,0.5,0.5,-11.961396743774415,-0.2,-0.001,-0.37525,-0.017316904973693183,10,1,100,0.08023864010588387,-10,-1,-100,19071.206665001926,-0.007609175759492606,-0.0018476344895103644,0.9999693428755976,68.46056432908684,4.210231688161359,384.25062102848756,-98.9191239276347,-30.489166259765625,4761.76025390625,True
1599387990.6182766,0.0,10,0.5,0.5,-10.590319607543947,-0.2,-0.001,-0.37525,-0.10883714600828752,10,1,100,0.24792960827319727,-10,-1,-100,19063.256751968176,-0.009127435925433082,-0.0026736429700112067,0.9999547697504603,69.30511927549976,4.265383494440985,392.0461530303711,-99.64675821942977,-32.873443603515625,4761.76025390625,True
1599387990.6557627,0.0,10,0.5,0.5,-11.485083685302735,-0.2,-0.001,-0.37525,-0.026895944293708875,10,1,100,0.09686763538230915,-10,-1,-100,19063.256751968176,-0.009127435925433082,-0.0026736429700112067,0.9999547697504603,69.30511927549976,4.265383494440985,392.0461530303711,-99.64675821942977,-32.873443603515625,4761.76025390625,True
1599387990.6916687,0.0,10,0.5,0.5,-10.01156134490967,-0.2,-0.001,-0.37525,-0.08174781174867962,10,1,100,0.22296755820483385,-10,-1,-100,19057.256120173377,-0.010268118500644071,-0.0031677772980949395,0.9999422637979887,69.96350220043928,4.3080131086098,398.0857478185549,-100.19240358396237,-35.43463134765625,4761.76025390625,True
1599387990.730563,0.0,10,0.5,0.5,-10.972144543457032,-0.2,-0.001,-0.37525,-0.03284196678782843,10,1,100,0.10960332308213008,-10,-1,-100,19057.256120173377,-0.010268118500644071,-0.0031677772980949395,0.9999422637979887,69.96350220043928,4.3080131086098,398.0857478185549,-100.19240358396237,-35.43463134765625,4761.76025390625,True
1599387990.7684648,0.0,10,0.5,0.5,-9.118050012207032,-0.2,-0.001,-0.37525,-0.06794431659996757,10,1,100,0.23458345363719788,-10,-1,-100,19051.22275222838,-0.011398219602846415,-0.0034826228359499745,0.9999289734416479,70.58822501202066,4.348196729382873,403.9779497292458,-100.73797996095948,-38.65679931640625,4761.76025390625,True
1599387990.807359,0.0,10,0.5,0.5,-8.092254524230958,-0.2,-0.001,-0.37525,-0.05706216674247548,10,1,100,0.24490883330191948,-10,-1,-100,19045.15665243508,-0.012513001279446129,-0.0036659877510534515,0.9999149890529643,71.11395986283513,4.381761683820708,409.3436183485963,-101.2834943689848,-42.540313720703125,4761.76025390625,True
1599387990.8442578,0.0,10,0.5,0.5,-9.548201486206054,-0.2,-0.001,-0.37525,-0.03907257010419764,10,1,100,0.1341443860380804,-10,-1,-100,19045.15665243508,-0.012513001279446129,-0.0036659877510534515,0.9999149890529643,71.11395986283513,4.381761683820708,409.3436183485963,-101.2834943689848,-42.540313720703125,4761.76025390625,True
1599387990.882157,0.0,10,0.5,0.5,-7.846738850402831,-0.2,-0.001,-0.37525,-0.03952352644226563,10,1,100,0.21203443316933507,-10,-1,-100,19041.094402978895,-0.013215273093650202,-0.003667482004277837,0.9999059486435753,71.37252666811746,4.398111658322475,412.4102380787901,-101.64714316714942,-45.49578857421875,4761.76025390625,True
1599387990.9200552,0.0,10,0.5,0.5,-5.046960678100586,-0.2,-0.001,-0.37525,-0.024417400013198576,10,1,100,0.2908765703444913,-10,-1,-100,19032.92626802344,-0.014563990764971443,-0.0035289052859565954,0.9998877121959648,71.54132937435335,4.408335692753507,416.5540028312933,-102.3744054927538,-52.2879638671875,4761.76025390625,True
1599387990.957954,0.0,10,0.5,0.5,-7.593544577026368,-0.2,-0.001,-0.37525,-0.03844319892496735,10,1,100,0.15670028471291517,-10,-1,-100,19032.92626802344,-0.014563990764971443,-0.0035289052859565954,0.9998877121959648,71.54132937435335,4.408335692753507,416.5540028312933,-102.3744054927538,-52.2879638671875,4761.76025390625,True
1599387990.996362,0.0,10,0.5,0.5,-3.009535664367676,-0.2,-0.001,-0.37525,0.006709025904859618,10,1,100,0.28320969700728654,-10,-1,-100,19024.699951562914,-0.01570775377218802,-0.003116902086779581,0.9998717674746165,71.04563150729795,4.3762931881229274,416.822695482035,-103.10168836754592,-60.252899169921875,4761.76025390625,True
1599387991.031269,0.0,10,0.5,0.5,-4.744671070861817,-0.2,-0.001,-0.37525,-0.020803766720671493,10,1,100,0.20014497243290097,-10,-1,-100,19022.63428109314,-0.015986422357302535,-0.0029920670576536975,0.9998677321700787,70.78512541388658,4.359709549880528,416.08192298656115,-103.2835242133361,-62.42755126953125,4761.76025390625,True
1599387991.0684695,0.0,10,0.5,0.5,-5.557753860473634,-0.2,-0.001,-0.37525,-0.03331911204202408,10,1,100,0.1729640125646364,-10,-1,-100,19022.63428109314,-0.015986422357302535,-0.0029920670576536975,0.9998677321700787,70.78512541388658,4.359709549880528,416.08192298656115,-103.2835242133361,-62.42755126953125,4761.76025390625,True
1599387991.1063688,0.0,10,0.5,0.5,-0.1298192932128912,-0.2,-0.001,-0.37525,0.03655534714901996,10,1,100,0.27251334062168286,-10,-1,-100,19014.33522694721,-0.016886217790678722,-0.0023570044379536983,0.9998546395245687,69.07464568754637,4.252035064636589,409.1103826404088,-104.01098533121781,-71.858642578125,4761.76025390625,True
1599387991.1462982,0.0,10,0.5,0.5,-3.665193905639649,-0.2,-0.001,-0.37525,-0.026869837534965843,10,1,100,0.1831956072130676,-10,-1,-100,19014.33522694721,-0.016886217790678722,-0.0023570044379536983,0.9998546395245687,69.07464568754637,4.252035064636589,409.1103826404088,-104.01098533121781,-71.858642578125,4761.76025390625,True
1599387991.18416,0.0,10,0.5,0.5,2.3624866760253904,-0.2,-0.001,-0.37525,0.05541999750765579,10,1,100,0.2541368159775314,-10,-1,-100,19005.97796272405,-0.017526148781094,-0.0016099383179280437,0.9998451091081636,66.11176683141011,4.068125860923143,394.5265910517022,-104.73872882819845,-82.33123779296875,4761.76025390625,True
1599387991.237019,0.0,10,0.5,0.5,-1.5633755859375,-0.2,-0.001,-0.37525,-0.019081009551597125,10,1,100,0.1906450316861684,-10,-1,-100,19005.97796272405,-0.017526148781094,-0.0016099383179280437,0.9998451091081636,66.11176683141011,4.068125860923143,394.5265910517022,-104.73872882819845,-82.33123779296875,4761.76025390625,True
1599387991.2769449,0.0,10,0.5,0.5,4.759567110443116,-0.2,-0.001,-0.37525,0.06774674971194457,10,1,100,0.23312052079209372,-10,-1,-100,18997.562463398208,-0.017907732184328187,-0.0008224641877441424,0.9998393054289646,65.21070349369212,4.013526775923656,392.0840015813856,-105.46674363220073,-93.31596374511719,4761.76025390625,True
1599387991.3148427,0.0,10,0.5,0.5,3.821869374465942,-0.2,-0.001,-0.37525,0.03401649181282257,10,1,100,0.20608895358503526,-10,-1,-100,18993.33287635015,-0.018004618795303573,-0.00041580370285673534,0.9998378172530364,67.1111456040939,4.132002658457602,405.0218820146281,-105.8306334230209,-98.84319305419922,4761.76025390625,True
1599387991.3537385,0.0,10,0.5,0.5,4.9053526313781735,-0.2,-0.001,-0.37525,0.03134892104867261,10,1,100,0.1979097823974152,-10,-1,-100,18989.08873739594,-0.01801521358718435,-7.319308861781938e-05,0.999837710192099,68.96681220983234,4.248315424666666,417.77346294306113,-106.19440663308534,-104.32415008544922,4761.76025390625,True
1599387991.3926253,0.0,10,0.5,0.5,2.8538271240234376,-0.2,-0.001,-0.37525,-0.0025665691554851095,10,1,100,0.19719542549155894,-10,-1,-100,18989.08873739594,-0.01801521358718435,-7.319308861781938e-05,0.999837710192099,68.96681220983234,4.248315424666666,417.77346294306113,-106.19440663308534,-104.32415008544922,4761.76025390625,True
1599387991.4314983,0.0,10,0.5,0.5,5.863199245452881,-0.2,-0.001,-0.37525,0.03490797188023455,10,1,100,0.19297893097035465,-10,-1,-100,18984.830050737364,-0.017974784128068858,0.00026471754898130316,0.9998384054736887,70.58288253063812,4.35024974989453,429.1504181744382,-106.55806786705985,-109.54790496826172,4761.76025390625,True
1599387991.469425,0.0,10,0.5,0.5,6.745733899307251,-0.2,-0.001,-0.37525,0.034111909402381534,10,1,100,0.18628411176047327,-10,-1,-100,18980.556820958387,-0.017875360479900612,0.0005617113928121735,0.9998400651944414,72.05128388595999,4.443226550799747,439.69725363264087,-106.92162416109798,-114.48147583007812,4761.76025390625,True
1599387991.5053003,0.0,10,0.5,0.5,8.837761156845094,-0.2,-0.001,-0.37525,0.04638304563530432,10,1,100,0.16867988698092243,-10,-1,-100,18974.119715540204,-0.01762321972164029,0.000940030872548203,0.9998442571063763,73.67207893342577,4.546613770166393,452.06840153456557,-107.46679771184235,-121.32744598388672,4761.76025390625,True
1599387991.5442266,0.0,10,0.5,0.5,8.686272990036011,-0.2,-0.001,-0.37525,0.029889777641443686,10,1,100,0.16971825343683994,-10,-1,-100,18969.810142251896,-0.017402770543792922,0.0011310215675363132,0.999847920619738,74.41530122857226,4.594361059160916,458.2979640289357,-107.83016506820684,-125.52130126953125,4761.76025390625,True
1599387991.581112,0.0,10,0.5,0.5,9.36008501663208,-0.2,-0.001,-0.37525,0.027041035088025175,10,1,100,0.16417477109632778,-10,-1,-100,18965.4860356641,-0.017151497312878735,0.0012755808797621632,0.9998520885777784,74.93191660608808,4.627718694923824,463.1599713007777,-108.19348609503305,-129.4190673828125,4761.76025390625,True
1599387991.6190076,0.0,10,0.5,0.5,9.974087557983397,-0.2,-0.001,-0.37525,0.02338258005825128,10,1,100,0.1575194375675955,-10,-1,-100,18961.147397259832,-0.016862904663121195,0.0013711165549716367,0.9998568709999024,75.2585609536766,4.64890993249715,466.86703845342987,-108.55677438151932,-133.02085876464844,4761.76025390625,True
1599387991.6574128,0.0,10,0.5,0.5,10.52938699645996,-0.2,-0.001,-0.37525,0.01875164002850572,10,1,100,0.15197176403066245,-10,-1,-100,18956.79422803584,-0.016550717262204015,0.0014131576640981078,0.9998620288537429,75.42920706744485,4.660036833697076,469.6184361785063,-108.92004172572416,-136.326904296875,4761.76025390625,True
1599387991.695314,0.0,10,0.5,0.5,9.293094504547119,-0.2,-0.001,-0.37525,0.014771091301042831,10,1,100,0.18305480263016805,-10,-1,-100,18956.79422803584,-0.016550717262204015,0.0014131576640981078,0.9998620288537429,75.42920706744485,4.660036833697076,469.6184361785063,-108.92004172572416,-136.326904296875,4761.76025390625,True
1599387991.7332106,0.0,10,0.5,0.5,12.590231635284425,-0.2,-0.001,-0.37525,0.007493910970327183,10,1,100,0.10744728267982905,-10,-1,-100,18948.044298939523,-0.015864697900412842,0.001345338787121643,0.9998732426783291,75.43029154791809,4.660142422270597,473.0151711943431,-109.6465478700678,-142.0520477294922,4761.76025390625,True
1599387991.7706194,0.0,10,0.5,0.5,10.44564435195923,-0.2,-0.001,-0.37525,0.014417651855547612,10,1,100,0.1758341672902692,-10,-1,-100,18948.044298939523,-0.015864697900412842,0.001345338787121643,0.9998732426783291,75.43029154791809,4.660142422270597,473.0151711943431,-109.6465478700678,-142.0520477294922,4761.76025390625,True
1599387991.8075233,0.0,10,0.5,0.5,12.473395504760742,-0.2,-0.001,-0.37525,-0.006306384522954123,10,1,100,0.11348928982834358,-10,-1,-100,18941.44371078012,-0.01529988130138331,0.0011556488819755005,0.9998822821251635,75.24485544819258,4.647944443640369,474.3933495854727,-110.19142492741793,-145.5704803466797,4761.76025390625,True
1599387991.8454187,0.0,10,0.5,0.5,12.293723500823976,-0.2,-0.001,-0.37525,-0.008131746207091388,10,1,100,0.12641633114835013,-10,-1,-100,18937.025155751384,-0.014906361953198964,0.0009657993789568555,0.9998884275782374,75.07911866277972,4.6369517034644785,475.04120633450077,-110.55468056918758,-147.5470428466797,4761.76025390625,True
1599387991.883319,0.0,10,0.5,0.5,12.522434197998047,-0.2,-0.001,-0.37525,-0.013520511815653025,10,1,100,0.1210840880642357,-10,-1,-100,18932.592070595478,-0.014502841243654611,0.0007438527906928501,0.9998945515797589,74.90417502606438,4.625242132673451,475.625114532942,-110.91794073107492,-149.22824096679688,4761.76025390625,True
1599387991.921044,0.0,10,0.5,0.5,11.894354682922364,-0.2,-0.001,-0.37525,0.008654529202561984,10,1,100,0.16112412117087244,-10,-1,-100,18932.592070595478,-0.014502841243654611,0.0007438527906928501,0.9998945515797589,74.90417502606438,4.625242132673451,475.625114532942,-110.91794073107492,-149.22824096679688,4761.76025390625,True
1599387991.9599793,0.0,10,0.5,0.5,13.32195605545044,-0.2,-0.001,-0.37525,-0.05573832741790453,10,1,100,0.06780374064208698,-10,-1,-100,18923.682308479212,-0.013657110447302142,0.00015881515666755776,0.999906724705848,74.5941421926472,4.603993222480138,477.02971070078087,-111.64447030148793,-151.70582580566406,4761.76025390625,True
1599387992.00087,0.0,10,0.5,0.5,12.394471020507813,-0.2,-0.001,-0.37525,0.0026537594123152526,10,1,100,0.15202738159077628,-10,-1,-100,18923.682308479212,-0.013657110447302142,0.00015881515666755776,0.999906724705848,74.5941421926472,4.603993222480138,477.02971070078087,-111.64447030148793,-151.70582580566406,4761.76025390625,True
1599387992.0384243,0.0,10,0.5,0.5,12.85471552810669,-0.2,-0.001,-0.37525,-0.03855489457167659,10,1,100,0.10350041945114638,-10,-1,-100,18919.205631629215,-0.013218870604410796,-0.00021470687827936433,0.9999126038614076,74.48505910146032,4.596113512421643,478.0188271828353,-112.00773543102056,-152.50265502929688,4761.76025390625,True
1599387992.077318,0.0,10,0.5,0.5,12.845790588378907,-0.2,-0.001,-0.37525,-0.041643197690323645,10,1,100,0.09684514965736464,-10,-1,-100,18914.714424116304,-0.012762997246073188,-0.0005808679706348327,0.9999183809160113,74.41920108292254,4.590863229849407,479.28287670965324,-112.37099663366598,-153.00411987304688,4761.76025390625,True
1599387992.1142187,0.0,10,0.5,0.5,12.778782124328615,-0.2,-0.001,-0.37525,-0.055453807941328814,10,1,100,0.09128658936458697,-10,-1,-100,18910.208686501952,-0.012301477935846593,-0.001037479942662821,0.9999237957344362,74.40381794219576,4.588698671820127,480.87147471022445,-112.73425039510575,-153.21185302734375,4761.76025390625,True
1599387992.151121,0.0,10,0.5,0.5,12.651773371887208,-0.2,-0.001,-0.37525,-0.06032381148573488,10,1,100,0.08400541798160238,-10,-1,-100,18905.688419046113,-0.011818961750308525,-0.0014946882960648797,0.9999290365071126,74.44206287280736,4.589819145101488,482.80832624331566,-113.0974927307044,-153.1246337890625,4761.76025390625,True
1599387992.187024,0.0,10,0.5,0.5,12.466204299926758,-0.2,-0.001,-0.37525,-0.06950725695569075,10,1,100,0.07741570427576322,-10,-1,-100,18901.15362209303,-0.011324082126266384,-0.0019912362788089078,0.9999338978862949,74.53567086458186,4.594334302412401,485.1081973079139,-113.46071977186368,-152.74322509765625,4761.76025390625,True
1599387992.2249227,0.0,10,0.5,0.5,12.43684521942139,-0.2,-0.001,-0.37525,-0.04849361398430305,10,1,100,0.09838182628800128,-10,-1,-100,18898.88077560207,-0.01106840703104398,-0.0022487496132356046,0.9999362147112045,74.60298007407307,4.597850042519114,486.3937163363383,-113.64232626197635,-152.442138671875,4761.76025390625,True
1599387992.2638233,0.0,10,0.5,0.5,12.077028225708009,-0.2,-0.001,-0.37525,-0.08164757115595633,10,1,100,0.06584912796543019,-10,-1,-100,18894.32418649795,-0.010543712373293108,-0.0027813299379183657,0.999940545399158,74.77678101113446,4.607288243270001,489.22617753565163,-114.00552282887716,-151.619384765625,4761.76025390625,True
1599387992.3047132,0.0,10,0.5,0.5,11.358892725372316,-0.2,-0.001,-0.37525,-0.12068147547137967,10,1,100,0.02696103898534552,-10,-1,-100,18887.46206474537,-0.009716788356310057,-0.0036171428334714414,0.9999462487062797,75.12497756915617,4.626834840673374,494.0659766153287,-114.55026955673507,-149.83387756347656,4761.76025390625,True
1599387992.3426118,0.0,10,0.5,0.5,10.621403533935547,-0.2,-0.001,-0.37525,-0.1326884217689332,10,1,100,0.01233617575902804,-10,-1,-100,18880.56726062752,-0.00883643690507471,-0.004482162254293666,0.9999509125973879,75.55305739129295,4.651349530796525,499.4581558021099,-115.09494932128285,-147.3870086669922,4761.76025390625,True
1599387992.37922,0.0,10,0.5,0.5,10.985361705017091,-0.2,-0.001,-0.37525,-0.07751457967248389,10,1,100,0.06596986656215806,-10,-1,-100,18878.26173072087,-0.008528078841745782,-0.004762744092881638,0.999952292932005,75.7071782525263,4.660249838966971,501.3377503293393,-115.27649302974173,-146.42430114746094,4761.76025390625,True
1599387992.4181166,0.0,10,0.5,0.5,10.750054148864747,-0.2,-0.001,-0.37525,-0.08105194833140185,10,1,100,0.06168903875614376,-10,-1,-100,18875.952570151538,-0.008213499469215315,-0.005045502243724914,0.9999535395875039,75.86393856278481,4.669332312882722,503.23835330776893,-115.45802822328038,-145.38816833496094,4761.76025390625,True
1599387992.4561493,0.0,10,0.5,0.5,9.819279261779785,-0.2,-0.001,-0.37525,-0.1141842135974007,10,1,100,0.021108566715494395,-10,-1,-100,18871.323357393965,-0.007563155176668256,-0.005599365887486567,0.9999557219124414,76.1777479480361,4.687595575884634,507.05212203689746,-115.82107319969853,-143.09547424316406,4761.76025390625,True
1599387992.4950445,0.0,10,0.5,0.5,7.534505274200439,-0.2,-0.001,-0.37525,-0.18228096846777336,10,1,100,-0.06627566714373732,-10,-1,-100,18862.021370896487,-0.006182258095695554,-0.006717377427985229,0.9999583273943611,76.73919829965449,4.720552475494021,514.2788064298105,-116.54706403479494,-137.62982177734375,4761.76025390625,True
1599387992.5350673,0.0,10,0.5,0.5,9.583933158874512,-0.2,-0.001,-0.37525,-0.07104780416643941,10,1,100,0.07120211896951771,-10,-1,-100,18862.021370896487,-0.006182258095695554,-0.006717377427985229,0.9999583273943611,76.73919829965449,4.720552475494021,514.2788064298105,-116.54706403479494,-137.62982177734375,4761.76025390625,True
1599387992.573333,0.0,10,0.5,0.5,7.756937487792969,-0.2,-0.001,-0.37525,-0.1284139933124296,10,1,100,-0.009686420145432806,-10,-1,-100,18857.348599521792,-0.005452032016154743,-0.007234140339192485,0.9999589704385115,76.94375468843626,4.73270781618504,517.3991899311794,-116.9100154459644,-134.45651245117188,4761.76025390625,True
1599387992.6062448,0.0,10,0.5,0.5,6.951319799804687,-0.2,-0.001,-0.37525,-0.1271133738049162,10,1,100,-0.019333542714957352,-10,-1,-100,18852.661310693133,-0.004705827238767521,-0.007687334713803156,0.9999593792124741,77.06476002672927,4.740040294519671,519.9655063446238,-117.27294420507317,-130.98919677734375,4761.76025390625,True
1599387992.6441433,0.0,10,0.5,0.5,7.190088850402833,-0.2,-0.001,-0.37525,-0.11044520788894692,10,1,100,0.011964222090872736,-10,-1,-100,18850.312222527806,-0.00431776855737057,-0.007942856650485348,0.9999591331164064,77.08541881655468,4.741390131798688,520.9816976494203,-117.45440241390962,-129.14617919921875,4761.76025390625,True
1599387992.6810446,0.0,10,0.5,0.5,5.632161678314209,-0.2,-0.001,-0.37525,-0.1342149189226668,10,1,100,-0.03626889885266124,-10,-1,-100,18845.603159006685,-0.0035321649691738726,-0.008386545305309733,0.9999585939770069,77.02713838415059,4.738253970898806,522.3408870273865,-117.81731235486211,-125.23957824707031,4761.76025390625,True
1599387992.718943,0.0,10,0.5,0.5,4.679584067153931,-0.2,-0.001,-0.37525,-0.13297233092699573,10,1,100,-0.04548085044104436,-10,-1,-100,18840.87957893312,-0.0027398572594526066,-0.008774266552942311,0.9999577518218737,76.81161590202424,4.725838873250293,522.6290733701032,-118.18022329693348,-121.03954315185547,4761.76025390625,True
1599387992.7619605,0.0,10,0.5,0.5,2.313059969711304,-0.2,-0.001,-0.37525,-0.1518209258645424,10,1,100,-0.10074006543098923,-10,-1,-100,18833.766989791533,-0.0015227633685661586,-0.009294189364496308,0.9999556486343683,76.12345825867587,4.685443412817175,520.5520686934393,-118.72462142311454,-114.1904296875,4761.76025390625,True
1599387992.8018541,0.0,10,0.5,0.5,3.4823588966369634,-0.2,-0.001,-0.37525,-0.11617925816780633,10,1,100,-0.02414362392303613,-10,-1,-100,18831.388867798378,-0.0011190141318991246,-0.009438711809328145,0.9999548282431329,75.78056420277419,4.665135293255343,519.0732024287886,-118.90610390924695,-111.7608642578125,4761.76025390625,True
1599387992.8397522,0.0,10,0.5,0.5,1.469174415588379,-0.2,-0.001,-0.37525,-0.13005039548660643,10,1,100,-0.07289581580368514,-10,-1,-100,18826.621733466163,-0.00031521715904802677,-0.009692203271559268,0.9999529798114937,74.90021718537946,4.612659968679115,514.7573612776274,-119.26910618411152,-106.68217468261719,4761.76025390625,True
1599387992.8801548,0.0,10,0.5,0.5,0.2813000076293948,-0.2,-0.001,-0.37525,-0.12537375940549214,10,1,100,-0.07807074806219404,-10,-1,-100,18821.840077159926,0.0004559631658779431,-0.00987641442068282,0.9999511230734143,73.73522095696022,4.542665062851047,508.4419985626271,-119.63217360598057,-101.31057739257812,4761.76025390625,True
1599387992.9190505,0.0,10,0.5,0.5,-0.9647515449523927,-0.2,-0.001,-0.37525,-0.12357734588111494,10,1,100,-0.08737696640860769,-10,-1,-100,18817.04389611748,0.001235603426903882,-0.010024676217852895,0.9999489882743513,72.42265615548855,4.463382968328886,501.05576714846876,-119.99531853757367,-95.64675903320312,4761.76025390625,True
1599387992.9572132,0.0,10,0.5,0.5,-5.802094115447998,-0.2,-0.001,-0.37525,-0.12164414612223998,10,1,100,-0.16597282137089586,-10,-1,-100,18807.407944563893,0.0026521315624731742,-0.010138878491299675,0.9999450831626275,69.14269916805115,4.263030257793196,481.54958859893986,-120.72187817411545,-83.55029296875,4761.76025390625,True
1599387992.9971082,0.0,10,0.5,0.5,-1.2679858467102052,-0.2,-0.001,-0.37525,-0.11051439259277271,10,1,100,-0.025130424171829455,-10,-1,-100,18807.407944563893,0.0026521315624731742,-0.010138878491299675,0.9999450831626275,69.14269916805115,4.263030257793196,481.54958859893986,-120.72187817411545,-83.55029296875,4761.76025390625,True
1599387993.0361414,0.0,10,0.5,0.5,-6.437269745635986,-0.2,-0.001,-0.37525,-0.10788523550111548,10,1,100,-0.12822410193175277,-10,-1,-100,18800.142829490127,0.00358265776138044,-0.01011274838703234,0.9999424467855264,69.7564772278746,4.300472105519654,488.2370680193068,-121.2669105620239,-74.5723876953125,4761.76025390625,True
1599387993.070085,0.0,10,0.5,0.5,-6.3190643592834475,-0.2,-0.001,-0.37525,-0.10360090821877829,10,1,100,-0.0978323893226325,-10,-1,-100,18795.281256728224,0.004145120167287087,-0.010048072688098472,0.9999409253621203,71.74968676561203,4.422376030076702,503.84074768664493,-121.63009878371327,-68.93084716796875,4761.76025390625,True
1599387993.1099443,0.0,10,0.5,0.5,-7.282577098846436,-0.2,-0.001,-0.37525,-0.09990415775815498,10,1,100,-0.0970967885370192,-10,-1,-100,18790.405160419992,0.004642782997208954,-0.009954159296350391,0.9999396778199892,73.39482773650982,4.522513753217952,517.0820661934578,-121.99316123522851,-63.5855712890625,4761.76025390625,True
1599387993.1633852,0.0,10,0.5,0.5,-8.185775231933595,-0.2,-0.001,-0.37525,-0.09705061069863738,10,1,100,-0.09577218574685609,-10,-1,-100,18785.51454507094,0.0050764504169940215,-0.009841769518998877,0.9999386827320456,74.71954679600519,4.602823997292206,528.1323025671387,-122.35611655582875,-58.538604736328125,4761.76025390625,True
1599387993.2003195,0.0,10,0.5,0.5,-6.297466215515137,-0.2,-0.001,-0.37525,-0.10834434644923903,10,1,100,-0.053065365146905366,-10,-1,-100,18785.51454507094,0.0050764504169940215,-0.009841769518998877,0.9999386827320456,74.71954679600519,4.602823997292206,528.1323025671387,-122.35611655582875,-58.538604736328125,4761.76025390625,True
1599387993.2411778,0.0,10,0.5,0.5,-9.034330624389648,-0.2,-0.001,-0.37525,-0.0941754644857723,10,1,100,-0.09492877943306474,-10,-1,-100,18780.609413912054,0.0054513946700055676,-0.009712595085049479,0.9999379719726949,75.75768527656649,4.665591384812849,537.2096463174455,-122.7189836277305,-53.7901611328125,4761.76025390625,True
1599387993.279361,0.0,10,0.5,0.5,-12.205920523071288,-0.2,-0.001,-0.37525,-0.07413215675682208,10,1,100,-0.12084996108796942,-10,-1,-100,18770.755616339273,0.006022657813397876,-0.009412933355001851,0.9999375601898935,77.11461323167318,4.747687658547373,550.3710966672737,-123.4445234475835,-45.18841552734375,4761.76025390625,True
1599387993.318219,0.0,10,0.5,0.5,-8.983727700805664,-0.2,-0.001,-0.37525,-0.10405198165501676,10,1,100,-0.06428031621349058,-10,-1,-100,18770.755616339273,0.006022657813397876,-0.009412933355001851,0.9999375601898935,77.11461323167318,4.747687658547373,550.3710966672737,-123.4445234475835,-45.18841552734375,4761.76025390625,True
1599387993.3581123,0.0,10,0.5,0.5,-13.250272161865235,-0.2,-0.001,-0.37525,-0.0726017127360694,10,1,100,-0.10004915596524563,-10,-1,-100,18760.843784486526,0.006343477216244291,-0.009127577949250376,0.9999382219005268,77.74396958989746,4.786517456038268,558.4327694790877,-124.1699021439639,-37.78033447265625,4761.76025390625,True
1599387993.3980088,0.0,10,0.5,0.5,-10.47496674194336,-0.2,-0.001,-0.37525,-0.10103612325701197,10,1,100,-0.06833635024598124,-10,-1,-100,18760.843784486526,0.006343477216244291,-0.009127577949250376,0.9999382219005268,77.74396958989746,4.786517456038268,558.4327694790877,-124.1699021439639,-37.78033447265625,4761.76025390625,True
1599387993.4369009,0.0,10,0.5,0.5,-12.353214163208008,-0.2,-0.001,-0.37525,-0.08340736243843724,10,1,100,-0.07699742118880606,-10,-1,-100,18755.86610827595,0.00641885845603927,-0.008968235851392468,0.9999391826515425,77.87039286704466,4.794910150952332,561.1309301959304,-124.53255980272041,-34.523193359375,4761.76025390625,True
1599387993.4767938,0.0,10,0.5,0.5,-14.367843960571289,-0.2,-0.001,-0.37525,-0.07061077760603915,10,1,100,-0.06680579933478178,-10,-1,-100,18745.867238670122,0.006392157383821159,-0.008708087275350425,0.9999416530678104,77.894062232939,4.798508070331403,564.8891242279067,-125.257848125464,-28.90325927734375,4761.76025390625,True
1599387993.514692,0.0,10,0.5,0.5,-13.622461549377444,-0.2,-0.001,-0.37525,-0.08388934147080554,10,1,100,-0.05924770211500689,-10,-1,-100,18740.84604525601,0.0062971309459735276,-0.008593520955367123,0.999943247159277,77.84346873945596,4.796817686927807,566.3185183635079,-125.62048695663705,-26.539947509765625,4761.76025390625,True
1599387993.5525916,0.0,10,0.5,0.5,-12.73933337097168,-0.2,-0.001,-0.37525,-0.0952099096350374,10,1,100,-0.06891578069464648,-10,-1,-100,18740.84604525601,0.0062971309459735276,-0.008593520955367123,0.999943247159277,77.84346873945596,4.796817686927807,566.3185183635079,-125.62048695663705,-26.539947509765625,4761.76025390625,True
1599387993.5904908,0.0,10,0.5,0.5,-14.948243411254884,-0.2,-0.001,-0.37525,-0.07223462060339447,10,1,100,-0.03117891713903098,-10,-1,-100,18730.760142120416,0.005952958840441587,-0.00838578946286458,0.9999471190098648,77.72460640248433,4.792813079549918,569.0485497856009,-126.34576132108917,-22.705596923828125,4761.76025390625,True
1599387993.6243997,0.0,10,0.5,0.5,-13.512986654663086,-0.2,-0.001,-0.37525,-0.09286217184803536,10,1,100,-0.06568377853456976,-10,-1,-100,18730.760142120416,0.005952958840441587,-0.00838578946286458,0.9999471190098648,77.72460640248433,4.792813079549918,569.0485497856009,-126.34576132108917,-22.705596923828125,4761.76025390625,True
1599387993.6622982,0.0,10,0.5,0.5,-14.72163077850342,-0.2,-0.001,-0.37525,-0.07832001913375472,10,1,100,-0.022281362799215998,-10,-1,-100,18723.157638015342,0.005557935457237975,-0.008254794261482196,0.9999504826365921,77.68878678036519,4.793356542903543,571.4876942902591,-126.88971028986009,-20.60992431640625,4761.76025390625,True
1599387993.7021909,0.0,10,0.5,0.5,-13.937687481689455,-0.2,-0.001,-0.37525,-0.09130372536264107,10,1,100,-0.06173722888396126,-10,-1,-100,18723.157638015342,0.005557935457237975,-0.008254794261482196,0.9999504826365921,77.68878678036519,4.793356542903543,571.4876942902591,-126.88971028986009,-20.60992431640625,4761.76025390625,True
1599387993.74009,0.0,10,0.5,0.5,-14.530264616394044,-0.2,-0.001,-0.37525,-0.08347432839621563,10,1,100,-0.025067701516987645,-10,-1,-100,18718.071170624462,0.005224998592407451,-0.008184670779145165,0.9999528541656083,77.71626252697723,4.796962214430763,573.4943419749219,-127.2523352245056,-19.584075927734375,4761.76025390625,True
1599387993.7769916,0.0,10,0.5,0.5,-14.566739904785157,-0.2,-0.001,-0.37525,-0.08176426829442832,10,1,100,-0.017533521972118868,-10,-1,-100,18712.97019867564,0.004854852972720747,-0.008106233346249892,0.9999553586953517,77.79726787659311,4.803914761256803,575.9007560007301,-127.61494959213786,-18.854644775390625,4761.76025390625,True
1599387993.8158872,0.0,10,0.5,0.5,-14.5438115814209,-0.2,-0.001,-0.37525,-0.08345580245742687,10,1,100,-0.006758117996332594,-10,-1,-100,18707.854722397286,0.004421752031628889,-0.008051232667465996,0.9999578119908386,77.93809773648493,4.814596998328988,578.7573013551926,-127.97754938561815,-18.421966552734375,4761.76025390625,True
1599387993.8527875,0.0,10,0.5,0.5,-14.461671551513671,-0.2,-0.001,-0.37525,-0.08159473448800005,10,1,100,0.0020382324245475647,-10,-1,-100,18702.724742902676,0.003949872632650481,-0.00798514688992578,0.999960317180303,78.14565175661158,4.8294339275747165,582.1194264868158,-128.34012995490073,-18.285308837890625,4761.76025390625,True
1599387993.890687,0.0,10,0.5,0.5,-14.319779092407225,-0.2,-0.001,-0.37525,-0.0812107933226356,10,1,100,0.012322901589430786,-10,-1,-100,18697.58026077738,0.0034296146273085993,-0.007922235754645382,0.9999627372678224,78.42150555036778,4.8485245580216345,586.0034400884151,-128.70268605575257,-18.444671630859375,4761.76025390625,True
1599387993.9275887,0.0,10,0.5,0.5,-13.923953350830079,-0.2,-0.001,-0.37525,-0.07586515262301313,10,1,100,0.05582964456935073,-10,-1,-100,18689.836347745382,0.002563743792015494,-0.007817057339121837,0.999966159843585,78.96335830374721,4.885142498389784,592.8182514223711,-129.24646374703343,-19.238128662109375,4761.76025390625,True
1599387993.9674816,0.0,10,0.5,0.5,-13.985309700012209,-0.2,-0.001,-0.37525,-0.08197247301816996,10,1,100,0.003751122943910893,-10,-1,-100,18687.247793615796,0.0022534235812111765,-0.00777766756825299,0.9999672144472346,79.17709322431101,4.8994135556750855,595.3480754348489,-129.4277055048483,-19.65032958984375,4761.76025390625,True
1599387994.006377,0.0,10,0.5,0.5,-13.174439605712891,-0.2,-0.001,-0.37525,-0.06853431055628761,10,1,100,0.08125757096989934,-10,-1,-100,18679.460383996367,0.0012700734395702934,-0.007620246410441118,0.9999701589338065,79.90788613381613,4.947812144077367,603.646326375571,-129.97136991942222,-21.329345703125,4761.76025390625,True
1599387994.046271,0.0,10,0.5,0.5,-12.948564459228516,-0.2,-0.001,-0.37525,-0.07195192743259535,10,1,100,0.06189287300598497,-10,-1,-100,18674.25065740291,0.0005564186426604133,-0.007508901459535327,0.9999716529968062,80.45908026012712,4.984059664055444,609.6934321367219,-130.33375677677742,-22.8175048828125,4761.76025390625,True
