Timestamp,Input Throttle,horizon,dT,dt,Input Roll,Roll P,Roll I,Roll D,Input Pitch,Pitch P,Pitch I,Pitch D,Input Yaw,Yaw P,Yaw I,Yaw D,Altitude,Direction X,Direction Y,Direction Z,Drag X,Drag Y,Drag Z,Vertical Velocity,Roll,Mass,Has Fuel
1599386259.1083179,0.0,10,0.5,0.5,-5.634458358764649,-0.1005,-0.001,-0.37525,0.0007529509493967082,10,1,100,0.5037752106056972,-10,-1,-100,19348.345354999765,-0.04889738656928936,-0.00016694641190596668,0.9988037934026829,61.16628136138425,3.6923880478630497,234.72058717942113,-68.84745227612382,-33.923431396484375,4761.76025390625,True
1599386259.1386223,0.0,10,0.5,0.5,-5.6407365707397465,-0.1005,-0.001,-0.37525,-0.0007268266658922653,10,1,100,0.4997008071789504,-10,-1,-100,19346.96475661383,-0.04895045204955416,-0.0001582252110481667,0.998801195538395,61.25630221927485,3.698498165991721,235.71274892127755,-69.02990562841805,-33.92462158203125,4761.76025390625,True
1599386259.1721277,0.0,10,0.5,0.5,-5.6461954574584965,-0.1005,-0.001,-0.37525,-0.0006136297725880874,10,1,100,0.5053058643172095,-10,-1,-100,19345.580509459483,-0.049005148049188554,-0.0001491239428646304,0.9987985148300567,61.34663818575359,3.7046310439846186,236.70820299748536,-69.21235541566874,-33.925872802734375,4761.76025390625,True
1599386259.2061307,0.0,10,0.5,0.5,-5.630552359008789,-0.1005,-0.001,-0.37525,0.011323404523688598,10,1,100,0.5101342704376952,-10,-1,-100,19342.801068346947,-0.04905421615172498,-3.219600187447786e-05,0.9987961167531426,61.52808125051218,3.7169547059200942,238.70836058955757,-69.57724466602245,-33.971527099609375,4761.76025390625,True
1599386259.2411659,0.0,10,0.5,0.5,-5.401503030395509,-0.1005,-0.001,-0.37525,0.039411551958110656,10,1,100,0.505958502049725,-10,-1,-100,19338.604540824657,-0.049016267244911337,0.00032947819024938354,0.9987979260038026,61.819604636336884,3.7366192373918152,241.79998575166258,-70.1245512267653,-34.500762939453125,4761.76025390625,True
1599386259.2729144,0.0,10,0.5,0.5,-5.60564870300293,-0.1005,-0.001,-0.37525,0.0032770805647494494,10,1,100,0.5146550194555802,-10,-1,-100,19338.604540824657,-0.049016267244911337,0.00032947819024938354,0.9987979260038026,61.819604636336884,3.7366192373918152,241.79998575166258,-70.1245512267653,-34.500762939453125,4761.76025390625,True
1599386259.306079,0.0,10,0.5,0.5,-4.793517832946778,-0.1005,-0.001,-0.37525,0.10473648548472352,10,1,100,0.48010486876721253,-10,-1,-100,19332.958091722452,-0.04865761472297626,0.001251536891167103,0.9988147326631104,62.24782316825916,3.7651401818829457,246.10931043745154,-70.85423519168218,-36.219482421875,4761.76025390625,True
1599386259.3390834,0.0,10,0.5,0.5,-5.152280078125,-0.1005,-0.001,-0.37525,0.04870221587490359,10,1,100,0.5041645559301586,-10,-1,-100,19331.537358542322,-0.0485060572093139,0.0015792318620110601,0.9988216399541677,62.35684356150547,3.772353568143988,247.200436753044,-71.03664491810406,-36.83233642578125,4761.76025390625,True
1599386259.374499,0.0,10,0.5,0.5,-5.387570309448242,-0.1005,-0.001,-0.37525,0.01609064197670897,10,1,100,0.524170913017326,-10,-1,-100,19331.537358542322,-0.0485060572093139,0.0015792318620110601,0.9988216399541677,62.35684356150547,3.772353568143988,247.200436753044,-71.03664491810406,-36.83233642578125,4761.76025390625,True
1599386259.40645,0.0,10,0.5,0.5,-4.704887648010254,-0.1005,-0.001,-0.37525,0.0976374208516195,10,1,100,0.4845769006074367,-10,-1,-100,19328.6849484907,-0.04810201522630644,0.002319130550090237,0.9988397357757949,62.569339235330816,3.786377662740246,249.3678800840263,-71.40145009307814,-38.278472900390625,4761.76025390625,True
1599386259.439451,0.0,10,0.5,0.5,-4.425139939880371,-0.1005,-0.001,-0.37525,0.12120235861450587,10,1,100,0.47255692276738015,-10,-1,-100,19325.817946428317,-0.04758170270209341,0.003203884127506555,0.9988622110654037,62.763765646581376,3.79919310883454,251.4724005801167,-71.76623659224727,-40.01800537109375,4761.76025390625,True
1599386259.4723327,0.0,10,0.5,0.5,-4.611180484008789,-0.1005,-0.001,-0.37525,0.08789838927819525,10,1,100,0.49088686745811827,-10,-1,-100,19324.378973816754,-0.047276523253512996,0.0037023778125191,0.9988749785371507,62.84973459245927,3.8048669248612925,252.48275610210501,-71.9486231877341,-40.99774169921875,4761.76025390625,True
1599386259.509279,0.0,10,0.5,0.5,-3.9410312698364267,-0.1005,-0.001,-0.37525,0.15605506609069741,10,1,100,0.44218389690671667,-10,-1,-100,19321.490085848956,-0.0465578548668781,0.0047716504035318266,0.9989041983606943,62.98921158731389,3.814122045610423,254.3782026478484,-72.31338415719517,-43.177642822265625,4761.76025390625,True
1599386259.5403337,0.0,10,0.5,0.5,-2.9404986862182625,-0.1005,-0.001,-0.37525,0.2470288853741723,10,1,100,0.3655964837657062,-10,-1,-100,19317.12939773372,-0.04521049557154838,0.006566277684896444,0.998955902473948,63.08060770628653,3.8204945427794446,256.75392024181195,-72.86050058758637,-46.9981689453125,4761.76025390625,True
1599386259.5732353,0.0,10,0.5,0.5,-4.372848449707032,-0.1005,-0.001,-0.37525,0.06822600460638764,10,1,100,0.4999480412406604,-10,-1,-100,19317.12939773372,-0.04521049557154838,0.006566277684896444,0.998955902473948,63.08060770628653,3.8204945427794446,256.75392024181195,-72.86050058758637,-46.9981689453125,4761.76025390625,True
1599386259.6061513,0.0,10,0.5,0.5,-2.9851173248291016,-0.1005,-0.001,-0.37525,0.21232073202663965,10,1,100,0.3801018241452933,-10,-1,-100,19314.204035619157,-0.044124444299475374,0.007870559934630874,0.9989950388773601,63.03141811743487,3.817783589224454,257.89121515648134,-73.2252345815682,-49.9124755859375,4761.76025390625,True
1599386259.6421385,0.0,10,0.5,0.5,-2.550480885314942,-0.1005,-0.001,-0.37525,0.22653791354791958,10,1,100,0.3515236283223861,-10,-1,-100,19311.26408390852,-0.042881770292787516,0.009178662646633463,0.999037990232892,62.86614607667825,3.8077919223565506,258.5498187359803,-73.58996719716191,-53.121490478515625,4761.76025390625,True
1599386259.676095,0.0,10,0.5,0.5,-2.9374850585937504,-0.1005,-0.001,-0.37525,0.17642456745074217,10,1,100,0.40025276257703224,-10,-1,-100,19309.78863710852,-0.04220030954759551,0.009905064578701961,0.9990600700507346,62.731597018788115,3.7995574995897035,258.6627925924898,-73.77233534192212,-54.835601806640625,4761.76025390625,True
1599386259.7069974,0.0,10,0.5,0.5,-1.842580117797852,-0.1005,-0.001,-0.37525,0.26011558612276076,10,1,100,0.3042681816633469,-10,-1,-100,19306.82680118049,-0.04071394517789811,0.011318688475131046,0.9991067320157812,62.342390221692874,3.7756363674786675,258.3832079312498,-74.13708064546566,-58.485260009765625,4761.76025390625,True
1599386259.732901,0.0,10,0.5,0.5,-0.34264353942871084,-0.1005,-0.001,-0.37525,0.35148321383111003,10,1,100,0.17499224058348434,-10,-1,-100,19302.356689994456,-0.03819455275202119,0.013425561854130554,0.9991801291203571,61.40554002203415,3.7180157137429815,256.46083954300485,-74.68423951126013,-64.51217651367188,4761.76025390625,True
1599386259.7628253,0.0,10,0.5,0.5,-2.601620587158203,-0.1005,-0.001,-0.37525,0.14190651906156335,10,1,100,0.4259407369237478,-10,-1,-100,19302.356689994456,-0.03819455275202119,0.013425561854130554,0.9991801291203571,61.40554002203415,3.7180157137429815,256.46083954300485,-74.68423951126013,-64.51217651367188,4761.76025390625,True
1599386259.7887814,0.0,10,0.5,0.5,-0.5123929870605473,-0.1005,-0.001,-0.37525,0.29490777954323943,10,1,100,0.2189154308818583,-10,-1,-100,19299.358375613927,-0.03632103828795862,0.014807189969667041,0.9992304685621264,60.50376231579929,3.6626869277458463,253.98430562662847,-75.04905471893245,-68.89846801757812,4761.76025390625,True
1599386259.815673,0.0,10,0.5,0.5,0.02487975921630836,-0.1005,-0.001,-0.37525,0.2970557535145453,10,1,100,0.1885681006535743,-10,-1,-100,19296.34546763508,-0.03435191803215876,0.01607264728156922,0.9992805490636121,59.35555735428757,3.5924636346334644,250.4313312463212,-75.41391641718353,-73.48162841796875,4761.76025390625,True
1599386259.8456337,0.0,10,0.5,0.5,-1.6919207824707032,-0.1005,-0.001,-0.37525,0.17164012201213097,10,1,100,0.3842595325500889,-10,-1,-100,19296.34546763508,-0.03435191803215876,0.01607264728156922,0.9992805490636121,59.35555735428757,3.5924636346334644,250.4313312463212,-75.41391641718353,-73.48162841796875,4761.76025390625,True
1599386259.8801098,0.0,10,0.5,0.5,0.5827938781738278,-0.1005,-0.001,-0.37525,0.312275684876165,10,1,100,0.14669110057569354,-10,-1,-100,19293.31796354975,-0.03220207644833643,0.017342510244336192,0.9993309079633436,57.96953314048614,3.508000648447408,245.82256749377876,-75.77883301483502,-78.25738525390625,4761.76025390625,True
1599386259.9100318,0.0,10,0.5,0.5,-0.0508543930053712,-0.1005,-0.001,-0.37525,0.24894586263315904,10,1,100,0.24058559853485795,-10,-1,-100,19291.798737130594,-0.031113087189147813,0.017911408887770257,0.9993553708452342,57.18095532691257,3.46008628579735,243.09029793055845,-75.9613140925904,-80.68582153320312,4761.76025390625,True
1599386259.9400444,0.0,10,0.5,0.5,1.3790497619628903,-0.1005,-0.001,-0.37525,0.31490812603810636,10,1,100,0.09422871701748084,-10,-1,-100,19288.74933425139,-0.028804408355282307,0.019019118368252437,0.9994041120566778,55.448089454851846,3.3551100321413254,236.91086553715834,-76.32632385125922,-85.60037231445312,4761.76025390625,True
1599386259.9742525,0.0,10,0.5,0.5,1.8783841846466063,-0.1005,-0.001,-0.37525,0.3098416403137616,10,1,100,0.0668186589170453,-10,-1,-100,19285.685329046217,-0.026469224670798347,0.01997112215690436,0.999450116026368,53.49943505001325,3.237518722933751,229.73160928535165,-76.69139797875783,-90.51949310302734,4761.76025390625,True
1599386260.009219,0.0,10,0.5,0.5,3.437241050720215,-0.1005,-0.001,-0.37525,0.351445782618966,10,1,100,-0.10280354106905609,-10,-1,-100,19281.061938504572,-0.02281861139855455,0.021205648660655052,0.9995146979603264,53.62210728754577,3.246391993351187,231.9831252959028,-77.23903751494493,-97.6686019897461,4761.76025390625,True
1599386260.0399356,0.0,10,0.5,0.5,0.758456275177002,-0.1005,-0.001,-0.37525,0.228981828262449,10,1,100,0.2604682527773893,-10,-1,-100,19281.061938504572,-0.02281861139855455,0.021205648660655052,0.9995146979603264,53.62210728754577,3.246391993351187,231.9831252959028,-77.23903751494493,-97.6686019897461,4761.76025390625,True
1599386260.0734699,0.0,10,0.5,0.5,1.834782863998413,-0.1005,-0.001,-0.37525,0.26792561964196726,10,1,100,0.12409222476094957,-10,-1,-100,19279.513507410884,-0.021592807454180976,0.021552610321553832,0.9995345094865778,54.30712184984031,3.2885814053742863,235.52889683040218,-77.4215490319857,-99.92401123046875,4761.76025390625,True
1599386260.1074543,0.0,10,0.5,0.5,3.034840731048584,-0.1005,-0.001,-0.37525,0.2994684989123044,10,1,100,-0.021761694264173403,-10,-1,-100,19276.405695799738,-0.019167588009338283,0.022147395235312676,0.999570956187801,55.47685339554023,3.3611241078665257,241.79119102493314,-77.78651907212681,-104.21798706054688,4761.76025390625,True
1599386260.1434186,0.0,10,0.5,0.5,3.347749334716797,-0.1005,-0.001,-0.37525,0.29260082056725184,10,1,100,-0.062168844704481335,-10,-1,-100,19273.28328765894,-0.0166110993739136,0.022619002439896924,0.9996061484936024,56.52754571097755,3.4267462132772017,247.58165543221799,-78.15142097871708,-108.25517272949219,4761.76025390625,True
1599386260.1735547,0.0,10,0.5,0.5,4.476919018554687,-0.1005,-0.001,-0.37525,0.2982085791446052,10,1,100,-0.21328703388229386,-10,-1,-100,19268.57231202803,-0.01292934509341854,0.02309276465371461,0.9996497167788843,57.83969585495619,3.509483696641078,255.186165783431,-78.69865533641851,-113.8056640625,4761.76025390625,True
1599386260.208182,0.0,10,0.5,0.5,3.9852199634552,-0.1005,-0.001,-0.37525,0.2722835103436497,10,1,100,-0.11224522463615133,-10,-1,-100,19265.41342280677,-0.010520332716059547,0.02328139320683823,0.9996735963952893,58.55154582305873,3.5548169810112813,259.5795454647185,-79.06340701093886,-117.14163970947266,4761.76025390625,True
1599386260.2411106,0.0,10,0.5,0.5,2.7372835273742675,-0.1005,-0.001,-0.37525,0.25401454332753765,10,1,100,0.1264878387265203,-10,-1,-100,19265.41342280677,-0.010520332716059547,0.02328139320683823,0.9996735963952893,58.55154582305873,3.5548169810112813,259.5795454647185,-79.06340701093886,-117.14163970947266,4761.76025390625,True
1599386260.2770622,0.0,10,0.5,0.5,3.4819183002471927,-0.1005,-0.001,-0.37525,0.26211019748225084,10,1,100,-0.002967779241287938,-10,-1,-100,19263.82850739488,-0.00936218414769137,0.023350108258863744,0.9996835108934646,58.840100474705395,3.5733816687697413,261.4880476347698,-79.24576467525084,-118.69915771484375,4761.76025390625,True
1599386260.3079863,0.0,10,0.5,0.5,4.277730269241333,-0.1005,-0.001,-0.37525,0.262623139956206,10,1,100,-0.14033291941632772,-10,-1,-100,19260.647736123414,-0.007078222560499567,0.02341330233784052,0.9997008132631587,59.30322758022473,3.6035276512201757,264.8142520722161,-79.61044914961215,-121.59345245361328,4761.76025390625,True
1599386260.3409562,0.0,10,0.5,0.5,4.43194239768982,-0.1005,-0.001,-0.37525,0.24872520117698285,10,1,100,-0.16600818907210418,-10,-1,-100,19257.45237826323,-0.00478611048628205,0.0233412773478438,0.9997160986591063,59.63474008710617,3.625564229949785,267.56942000904473,-79.97509862515825,-124.19395446777344,4761.76025390625,True
1599386260.3738348,0.0,10,0.5,0.5,5.051393124008179,-0.1005,-0.001,-0.37525,0.23468009565192915,10,1,100,-0.28883655899712474,-10,-1,-100,19252.63199493289,-0.001602143874868004,0.023146175826085212,0.9997308076075442,59.92673909140044,3.6458819756578134,270.80088843025493,-80.52202170647153,-127.54158782958984,4761.76025390625,True
1599386260.4127567,0.0,10,0.5,0.5,3.7981810035705568,-0.1005,-0.001,-0.37525,0.2543843005443309,10,1,100,0.02743845539191119,-10,-1,-100,19252.63199493289,-0.001602143874868004,0.023146175826085212,0.9997308076075442,59.92673909140044,3.6458819756578134,270.80088843025493,-80.52202170647153,-127.54158782958984,4761.76025390625,True
1599386260.444677,0.0,10,0.5,0.5,4.687402445602418,-0.1005,-0.001,-0.37525,0.23227987920911009,10,1,100,-0.1963671253662914,-10,-1,-100,19249.40017607063,0.0004142789833162803,0.022943777845306358,0.9997366710444853,60.02038551099066,3.653102913241332,272.506954123405,-80.88661092998294,-129.40487670898438,4761.76025390625,True
1599386260.4745936,0.0,10,0.5,0.5,4.736651174163819,-0.1005,-0.001,-0.37525,0.2289516921567792,10,1,100,-0.2037211090719196,-10,-1,-100,19246.153774227947,0.0022964433726325637,0.02272879945084076,0.9997390299589988,60.0587192630109,3.656823140524553,273.9648429836197,-81.25118375279699,-130.9727783203125,4761.76025390625,True
1599386260.508506,0.0,10,0.5,0.5,4.471294032287598,-0.1005,-0.001,-0.37525,0.23157202430398802,10,1,100,-0.12192323171905717,-10,-1,-100,19244.525104830856,0.003246696166306303,0.022557085932654895,0.9997402846930948,60.063297075840616,3.65774951586814,274.6277763327901,-81.43346500653051,-131.6469268798828,4761.76025390625,True
1599386260.5444145,0.0,10,0.5,0.5,4.755917929840089,-0.1005,-0.001,-0.37525,0.21432807013840627,10,1,100,-0.22244234075776165,-10,-1,-100,19241.25682951184,0.005009666932489084,0.02224470649527251,0.9997400043362097,60.04715232843012,3.657982193487569,275.8379209912908,-81.79801859331292,-132.77317810058594,4761.76025390625,True
1599386260.578286,0.0,10,0.5,0.5,4.875344364929199,-0.1005,-0.001,-0.37525,0.19039511194208808,10,1,100,-0.31468048770736706,-10,-1,-100,19236.327075417503,0.0074367780561529805,0.021744095283787054,0.9997359094543083,59.98482727271644,3.6558468223622054,277.4761639814975,-82.34482952162513,-133.9092559814453,4761.76025390625,True
1599386260.6102364,0.0,10,0.5,0.5,4.560643784332276,-0.1005,-0.001,-0.37525,0.22163958112475057,10,1,100,-0.15627299438541686,-10,-1,-100,19234.676533329184,0.008186849946764056,0.021574432354936345,0.9997337242268621,59.95885503986383,3.654785597615942,277.9974416092139,-82.52709520552867,-134.1403350830078,4761.76025390625,True
1599386260.643146,0.0,10,0.5,0.5,4.550341340637208,-0.1005,-0.001,-0.37525,0.21933574585593507,10,1,100,-0.16238573584700006,-10,-1,-100,19233.022345995763,0.008908350193248102,0.02140086362254095,0.9997312860629318,59.93180242187152,3.6536465629231003,278.51323986977576,-82.70935875122126,-134.29769897460938,4761.76025390625,True
1599386260.6780188,0.0,10,0.5,0.5,4.532197119140625,-0.1005,-0.001,-0.37525,0.21901503597693928,10,1,100,-0.16692924619552468,-10,-1,-100,19231.36451365694,0.009591030899807689,0.021241987811204534,0.9997283581454051,59.90447823349219,3.652481792334902,279.02729489221485,-82.89162012749343,-134.38101196289062,4761.76025390625,True
1599386260.708967,0.0,10,0.5,0.5,4.476174607086182,-0.1005,-0.001,-0.37525,0.19606813862989178,10,1,100,-0.2429035395676415,-10,-1,-100,19228.037913118256,0.01088925498971193,0.020890855542777035,0.9997224596259003,59.85196471293857,3.650265789703881,280.06395337375653,-83.25613662176896,-134.3268280029297,4761.76025390625,True
1599386260.740915,0.0,10,0.5,0.5,4.331113079833984,-0.1005,-0.001,-0.37525,0.19119665726868268,10,1,100,-0.24494241102273312,-10,-1,-100,19224.696732059703,0.012076638085703363,0.02052940848663496,0.9997163088595363,59.801515515016405,3.6481717242671667,281.10850634823,-83.62064507630262,-133.97775268554688,4761.76025390625,True
1599386260.7758236,0.0,10,0.5,0.5,4.327069604492189,-0.1005,-0.001,-0.37525,0.20748560335456911,10,1,100,-0.18785233157631603,-10,-1,-100,19223.020674088737,0.012624641285309447,0.020351280461231542,0.9997131807753691,59.77641157266552,3.6471368048478765,281.6307136225714,-83.80289623983867,-133.69256591796875,4761.76025390625,True
1599386260.8107855,0.0,10,0.5,0.5,3.540922693634034,-0.1005,-0.001,-0.37525,0.14826575362907396,10,1,100,-0.3428828269397421,-10,-1,-100,19216.279992276337,0.01452109382252613,0.01965334043825491,0.9997013974401634,59.66887872058049,3.6426491803675414,283.68156212184573,-84.53188247059667,-131.8142852783203,4761.76025390625,True
1599386260.8407114,0.0,10,0.5,0.5,4.245831654357911,-0.1005,-0.001,-0.37525,0.21775221002547857,10,1,100,-0.1544600382630632,-10,-1,-100,19216.279992276337,0.01452109382252613,0.01965334043825491,0.9997013974401634,59.66887872058049,3.6426491803675414,283.68156212184573,-84.53188247059667,-131.8142852783203,4761.76025390625,True
1599386260.8746097,0.0,10,0.5,0.5,3.934893323516846,-0.1005,-0.001,-0.37525,0.1969564143419789,10,1,100,-0.2006184753368789,-10,-1,-100,19214.585709602106,0.01493046652532789,0.019466927518854368,0.9996990146550669,59.63744922282212,3.6412826453229625,284.1715055035279,-84.71412496329195,-131.16067504882812,4761.76025390625,True
1599386260.9095218,0.0,10,0.5,0.5,2.585457155609131,-0.1005,-0.001,-0.37525,0.13614084340732688,10,1,100,-0.3076621053744695,-10,-1,-100,19207.77213129669,0.016266728528586825,0.01874711765542651,0.999691922105301,59.46183221322273,3.632960131155536,285.8861904988424,-85.4430831626646,-127.80903625488281,4761.76025390625,True
1599386260.9436429,0.0,10,0.5,0.5,3.8425495910644534,-0.1005,-0.001,-0.37525,0.2078221319872767,10,1,100,-0.1749189000958194,-10,-1,-100,19207.77213129669,0.016266728528586825,0.01874711765542651,0.999691922105301,59.46183221322273,3.632960131155536,285.8861904988424,-85.4430831626646,-127.80903625488281,4761.76025390625,True
1599386260.9745646,0.0,10,0.5,0.5,3.3556839324951175,-0.1005,-0.001,-0.37525,0.1877552543729624,10,1,100,-0.20461417984178176,-10,-1,-100,19206.05962477869,0.01652934027302119,0.018567261781386842,0.9996909711006098,59.39840046807359,3.629741792542331,286.21885228661637,-85.62532110302568,-126.78700256347656,4761.76025390625,True
1599386261.0084667,0.0,10,0.5,0.5,2.6607976928710944,-0.1005,-0.001,-0.37525,0.16744723663060299,10,1,100,-0.226680429195735,-10,-1,-100,19202.623677314143,0.0169617523165613,0.0182217140999122,0.99969008602347,59.236662552296224,3.621245862651679,286.71191047704906,-85.98979773717474,-124.52183532714844,4761.76025390625,True
1599386261.0424478,0.0,10,0.5,0.5,1.6313451881408694,-0.1005,-0.001,-0.37525,0.13614690937124302,10,1,100,-0.23609297145107405,-10,-1,-100,19197.442420376232,0.017433722084449255,0.01762577711776952,0.9996926514260654,58.87872161766176,3.6016279214025264,286.87829302118604,-86.53652173756217,-120.57339477539062,4761.76025390625,True
1599386261.0783508,0.0,10,0.5,0.5,3.1116221618652347,-0.1005,-0.001,-0.37525,0.19541409974301044,10,1,100,-0.1895504413717524,-10,-1,-100,19197.442420376232,0.017433722084449255,0.01762577711776952,0.9996926514260654,58.87872161766176,3.6016279214025264,286.87829302118604,-86.53652173756217,-120.57339477539062,4761.76025390625,True
1599386261.1102653,0.0,10,0.5,0.5,0.11576301879882855,-0.1005,-0.001,-0.37525,0.10653121338430481,10,1,100,-0.21665827066284837,-10,-1,-100,19190.48304824927,0.017675286819823995,0.01682039054302571,0.9997022850318072,58.09164614371913,3.5567689996062053,285.5453435331827,-87.26553065942957,-114.27908325195312,4761.76025390625,True
1599386261.1422102,0.0,10,0.5,0.5,1.6398856678009033,-0.1005,-0.001,-0.37525,0.16155610946114407,10,1,100,-0.19293996468786678,-10,-1,-100,19188.734092087252,0.01767467866536073,0.016591657157519153,0.9997061181401481,57.82299842725337,3.541173073771895,284.8482587640022,-87.44779587161918,-112.5221176147461,4761.76025390625,True
1599386261.175121,0.0,10,0.5,0.5,0.5391620689392091,-0.1005,-0.001,-0.37525,0.13476355542184526,10,1,100,-0.18494488166231554,-10,-1,-100,19185.225243579946,0.01759857632939563,0.016142932391502055,0.99971480725504,57.1807613070353,3.5035318352867812,282.9185881205624,-87.81234806707727,-108.82669830322266,4761.76025390625,True
1599386261.2110252,0.0,10,0.5,0.5,0.062481373214722025,-0.1005,-0.001,-0.37525,0.12543140870150418,10,1,100,-0.17408426953546724,-10,-1,-100,19181.701812230982,0.01742786183872249,0.015653354368616822,0.9997255834121386,56.501754358072695,3.463555220425366,280.7799809864686,-88.17693235959246,-104.914794921875,4761.76025390625,True
1599386261.2419434,0.0,10,0.5,0.5,1.5277985290527345,-0.1005,-0.001,-0.37525,0.1740078536750037,10,1,100,-0.19140545813412066,-10,-1,-100,19181.701812230982,0.01742786183872249,0.015653354368616822,0.9997255834121386,56.501754358072695,3.463555220425366,280.7799809864686,-88.17693235959246,-104.914794921875,4761.76025390625,True
1599386261.2758517,0.0,10,0.5,0.5,0.5549786693573,-0.1005,-0.001,-0.37525,0.14599096800535438,10,1,100,-0.1787807242666709,-10,-1,-100,19179.934627305018,0.017312035955100096,0.015401467920062565,0.9997315080545359,56.12725463883525,3.441369875983685,279.52595514224197,-88.3592373537656,-102.87479400634766,4761.76025390625,True
1599386261.3144748,0.0,10,0.5,0.5,-1.6995716148376465,-0.1005,-0.001,-0.37525,0.0801488379994365,10,1,100,-0.13791474850913282,-10,-1,-100,19174.611194358906,0.016834280547259835,0.014576956921082499,0.9997520289178596,54.88654877662504,3.367308683154391,275.1298899137814,-88.90620954531853,-96.53203582763672,4761.76025390625,True
1599386261.3463895,0.0,10,0.5,0.5,-0.37868987159728995,-0.1005,-0.001,-0.37525,0.12884930767407135,10,1,100,-0.163636210056833,-10,-1,-100,19172.829423187417,0.016633511699407563,0.014273760559833941,0.9997597641673854,54.4320786634786,3.339977493093352,273.4417954973353,-89.08855296267231,-94.31193542480469,4761.76025390625,True
1599386261.377307,0.0,10,0.5,0.5,-2.8182597145080566,-0.1005,-0.001,-0.37525,0.0534525035653422,10,1,100,-0.1072793989531987,-10,-1,-100,19167.46222662041,0.01593895831916078,0.013316291060928695,0.999784289734581,53.17670522462135,3.264092461871903,268.8660942467152,-89.63564055155152,-87.4393310546875,4761.76025390625,True
1599386261.410219,0.0,10,0.5,0.5,-0.24262833099365236,-0.1005,-0.001,-0.37525,0.14876850485018273,10,1,100,-0.1765852606013481,-10,-1,-100,19167.46222662041,0.01593895831916078,0.013316291060928695,0.999784289734581,53.17670522462135,3.264092461871903,268.8660942467152,-89.63564055155152,-87.4393310546875,4761.76025390625,True
1599386261.4430473,0.0,10,0.5,0.5,-3.3656410018920893,-0.1005,-0.001,-0.37525,0.031337202487869545,10,1,100,-0.0851103848444428,-10,-1,-100,19162.062207694515,0.015108727415702813,0.012252651481322976,0.9998107815419652,55.64089966336141,3.4157726000403166,283.1375291917047,-90.18262753726702,-80.88189697265625,4761.76025390625,True
1599386261.4809434,0.0,10,0.5,0.5,-0.908303581237793,-0.1005,-0.001,-0.37525,0.1372443865422712,10,1,100,-0.16787681924982745,-10,-1,-100,19162.062207694515,0.015108727415702813,0.012252651481322976,0.9998107815419652,55.64089966336141,3.4157726000403166,283.1375291917047,-90.18262753726702,-80.88189697265625,4761.76025390625,True
1599386261.5128589,0.0,10,0.5,0.5,-4.693773023223877,-0.1005,-0.001,-0.37525,-0.034850532822650895,10,1,100,-0.028262760266268144,-10,-1,-100,19154.81114249921,0.01384184138062469,0.010692096764983863,0.9998470295470012,58.307862133778556,3.5792452494691567,299.24143289986716,-90.91168449086634,-72.93170166015625,4761.76025390625,True
1599386261.5427787,0.0,10,0.5,0.5,-2.5836950881958005,-0.1005,-0.001,-0.37525,0.07230490935396439,10,1,100,-0.11599034111853923,-10,-1,-100,19152.989264143165,0.013491065479164108,0.010252506347759824,0.9998564283265003,58.87213146062534,3.6137333033767782,302.7765820747981,-91.09390671037922,-71.103759765625,4761.76025390625,True
1599386261.5756886,0.0,10,0.5,0.5,-3.542237484741211,-0.1005,-0.001,-0.37525,0.021190616837444526,10,1,100,-0.07294901743904908,-10,-1,-100,19149.33457553014,0.012784472441076902,0.009393113171061297,0.9998741554262511,59.886814180217826,3.675666744318737,309.2955766556297,-91.45830611980212,-67.65426635742188,4761.76025390625,True
1599386261.61207,0.0,10,0.5,0.5,-2.2515411361694335,-0.1005,-0.001,-0.37525,0.1065039103875417,10,1,100,-0.14314398230800507,-10,-1,-100,19149.33457553014,0.012784472441076902,0.009393113171061297,0.9998741554262511,59.886814180217826,3.675666744318737,309.2955766556297,-91.45830611980212,-67.65426635742188,4761.76025390625,True
1599386261.642023,0.0,10,0.5,0.5,-3.7569395011901854,-0.1005,-0.001,-0.37525,0.00405528436068113,10,1,100,-0.060314370301339904,-10,-1,-100,19145.66531273909,0.012035591935119968,0.008467224166043475,0.9998917194585089,60.76374526486615,3.7291160405113826,315.14421986339386,-91.82265099372995,-64.49740600585938,4761.76025390625,True
1599386261.6749418,0.0,10,0.5,0.5,-3.273722698974609,-0.1005,-0.001,-0.37525,0.04517803525793015,10,1,100,-0.09280761689195281,-10,-1,-100,19143.825216425234,0.011654547070175726,0.008004904381234117,0.9999000415233696,61.15605928597551,3.7530106890462327,317.84299892812965,-92.00480488767903,-63.02984619140625,4761.76025390625,True
1599386261.7088435,0.0,10,0.5,0.5,-5.165601930236817,-0.1005,-0.001,-0.37525,-0.12425608201975574,10,1,100,0.045309415330029135,-10,-1,-100,19136.428405354265,0.010057059595144063,0.006050002470863557,0.999931124139259,62.472959332095655,3.833201675686104,327.40142544569494,-92.733313645774,-57.902252197265625,4761.76025390625,True
1599386261.744755,0.0,10,0.5,0.5,-3.2444259918212897,-0.1005,-0.001,-0.37525,0.07050748015829378,10,1,100,-0.11385114230073551,-10,-1,-100,19136.428405354265,0.010057059595144063,0.006050002470863557,0.999931124139259,62.472959332095655,3.833201675686104,327.40142544569494,-92.733313645774,-57.902252197265625,4761.76025390625,True
1599386261.7756348,0.0,10,0.5,0.5,-3.7688927612304686,-0.1005,-0.001,-0.37525,0.013064837402136112,10,1,100,-0.0674896620080705,-10,-1,-100,19134.570096746087,0.009640938773141669,0.005534402344525819,0.9999382094360938,62.75037005927954,3.850104814571386,329.5370487277461,-92.91541732852215,-56.806060791015625,4761.76025390625,True
1599386261.8091805,0.0,10,0.5,0.5,-5.0933321060180665,-0.1005,-0.001,-0.37525,-0.16616599086477873,10,1,100,0.0804963080563956,-10,-1,-100,19127.1004456816,0.007922290833137583,0.0034424112900984655,0.9999626928603212,63.71159638579759,3.908765191007655,337.35540389793255,-93.64375252092465,-53.16259765625,4761.76025390625,True
1599386261.8420863,0.0,10,0.5,0.5,-3.7288944946289067,-0.1005,-0.001,-0.37525,0.042152090558834183,10,1,100,-0.0906498422857564,-10,-1,-100,19127.1004456816,0.007922290833137583,0.0034424112900984655,0.9999626928603212,63.71159638579759,3.908765191007655,337.35540389793255,-93.64375252092465,-53.16259765625,4761.76025390625,True
1599386261.877994,0.0,10,0.5,0.5,-4.076083433532715,-0.1005,-0.001,-0.37525,-0.016860133852018094,10,1,100,-0.041284335412339127,-10,-1,-100,19125.22392913897,0.007478894907513324,0.002912527145886068,0.9999677911395881,63.922880842670196,3.9216846569273653,339.16950018421716,-93.8258185288037,-52.436981201171875,4761.76025390625,True
1599386261.9089098,0.0,10,0.5,0.5,-4.390651519775391,-0.1005,-0.001,-0.37525,-0.07782994775866904,10,1,100,0.014441609744439587,-10,-1,-100,19121.459972916055,0.006574673810585691,0.001883215960361492,0.999976613307497,64.32017282281168,3.9460037625026163,342.6774174731485,-94.18993120651338,-51.207366943359375,4761.76025390625,True
1599386261.9421532,0.0,10,0.5,0.5,-4.54338545074463,-0.1005,-0.001,-0.37525,-0.1589147847562926,10,1,100,0.07878243236628335,-10,-1,-100,19115.786731502274,0.005173383333753346,0.0002171708164613909,0.9999865943810039,64.86886487095512,3.979630888071677,347.72012911396496,-94.73605532192494,-49.919921875,4761.76025390625,True
1599386261.9750743,0.0,10,0.5,0.5,-4.294678858947754,-0.1005,-0.001,-0.37525,-0.11132345581070041,10,1,100,0.045319648021110645,-10,-1,-100,19111.98636743019,0.004210609202595806,-0.0008564254672564089,0.9999907686101719,65.21078584300975,4.000586644229491,350.9745713937647,-95.100110160624,-49.430938720703125,4761.76025390625,True
1599386262.011957,0.0,10,0.5,0.5,-4.112694577026367,-0.1005,-0.001,-0.37525,-0.004896192402250436,10,1,100,-0.050175266821390944,-10,-1,-100,19111.98636743019,0.004210609202595806,-0.0008564254672564089,0.9999907686101719,65.21078584300975,4.000586644229491,350.9745713937647,-95.100110160624,-49.430938720703125,4761.76025390625,True
1599386262.0429122,0.0,10,0.5,0.5,-4.206393640136719,-0.1005,-0.001,-0.37525,-0.11784822045183863,10,1,100,0.05923054352908317,-10,-1,-100,19108.171441821265,0.0032227781429256595,-0.0018752063314813102,0.9999930486269671,65.53741065119952,4.020579259995753,354.16228961915465,-95.46414390423786,-49.236846923828125,4761.76025390625,True
1599386262.0768857,0.0,10,0.5,0.5,-4.009057933044434,-0.1005,-0.001,-0.37525,-0.1869088791399927,10,1,100,0.12882318340792734,-10,-1,-100,19102.421752273804,0.0016983025274653234,-0.0034219901881213984,0.9999927028492146,65.99877545417539,4.048721819871208,358.81730854273167,-96.01015754860613,-49.5003662109375,4761.76025390625,True
1599386262.3702734,0.0,10,0.5,0.5,-4.10878373413086,-0.1005,-0.001,-0.37525,-0.03317769274188237,10,1,100,-0.02278850243133841,-10,-1,-100,19102.421752273804,0.0016983025274653234,-0.0034219901881213984,0.9999927028492146,65.99877545417539,4.048721819871208,358.81730854273167,-96.01015754860613,-49.5003662109375,4761.76025390625,True
1599386262.399197,0.0,10,0.5,0.5,-3.200220274353028,-0.1005,-0.001,-0.37525,-0.2798488907570964,10,1,100,0.2689254474520561,-10,-1,-100,19092.76613914629,-0.0009464218930694663,-0.005656313449593665,0.9999835550666623,66.6565568197467,4.088367960613512,366.03845079783014,-96.92009172930412,-51.411651611328125,4761.76025390625,True
1599386262.4331067,0.0,10,0.5,0.5,-3.308123121643067,-0.1005,-0.001,-0.37525,-0.1541644115550461,10,1,100,0.12659640137586048,-10,-1,-100,19088.8784166557,-0.0020487539358391266,-0.006536658672059184,0.9999765370751031,66.85867232740554,4.100269554173856,368.6131089308051,-97.28404007429151,-52.6927490234375,4761.76025390625,True
1599386262.5224922,0.0,10,0.5,0.5,-3.7889019104003907,-0.1005,-0.001,-0.37525,-0.06712779630470993,10,1,100,0.0173603015757921,-10,-1,-100,19088.8784166557,-0.0020487539358391266,-0.006536658672059184,0.9999765370751031,66.85867232740554,4.100269554173856,368.6131089308051,-97.28404007429151,-52.6927490234375,4761.76025390625,True
1599386262.55167,0.0,10,0.5,0.5,-2.613773252868653,-0.1005,-0.001,-0.37525,-0.17781633240372502,10,1,100,0.1984696454028674,-10,-1,-100,19083.01953772211,-0.0036865410171367636,-0.007534327922215735,0.999964821040265,67.05909499168152,4.111538383261742,371.9247267466131,-97.82994476217027,-55.162750244140625,4761.76025390625,True
1599386262.581589,0.0,10,0.5,0.5,-3.5402456726074223,-0.1005,-0.001,-0.37525,-0.07899116177632767,10,1,100,0.035717058755875955,-10,-1,-100,19083.01953772211,-0.0036865410171367636,-0.007534327922215735,0.999964821040265,67.05909499168152,4.111538383261742,371.9247267466131,-97.82994476217027,-55.162750244140625,4761.76025390625,True
1599386262.6075196,0.0,10,0.5,0.5,-2.049256805419922,-0.1005,-0.001,-0.37525,-0.18368679806336502,10,1,100,0.22110731208111617,-10,-1,-100,19077.12790486391,-0.005363852479774502,-0.008479059616880913,0.999949666050541,67.08922324905058,4.112014294437979,374.303400095018,-98.37584143103565,-58.295623779296875,4761.76025390625,True
1599386262.63648,0.0,10,0.5,0.5,-2.055730894470215,-0.1005,-0.001,-0.37525,-0.14832962713832423,10,1,100,0.1773004132587862,-10,-1,-100,19073.181952858227,-0.0064817324913491094,-0.009009548118031046,0.9999384056963806,66.9833853546527,4.104430799980088,375.1874988297877,-98.73977756903881,-60.751220703125,4761.76025390625,True
1599386262.6638818,0.0,10,0.5,0.5,-2.976061611938477,-0.1005,-0.001,-0.37525,-0.09609608928838842,10,1,100,0.06658164627071995,-10,-1,-100,19073.181952858227,-0.0064817324913491094,-0.009009548118031046,0.9999384056963806,66.9833853546527,4.104430799980088,375.1874988297877,-98.73977756903881,-60.751220703125,4761.76025390625,True
1599386262.694827,0.0,10,0.5,0.5,-1.667323611450196,-0.1005,-0.001,-0.37525,-0.14243045188242726,10,1,100,0.1866256815247313,-10,-1,-100,19069.22144297231,-0.007564219620354418,-0.009424283830898172,0.9999269800619492,66.75183428944905,4.089030835997956,375.362304772208,-99.10372607708064,-63.49969482421875,4761.76025390625,True
1599386262.72073,0.0,10,0.5,0.5,-1.991010073852539,-0.1005,-0.001,-0.37525,-0.12295602047396581,10,1,100,0.13900587474137668,-10,-1,-100,19067.23572885734,-0.008106971019467092,-0.009618819381025203,0.9999208745368828,66.58131327332374,4.077949431804592,375.1383532377406,-99.28570760640025,-64.9842529296875,4761.76025390625,True
1599386262.7476573,0.0,10,0.5,0.5,-1.8052589187622072,-0.1005,-0.001,-0.37525,-0.12558737369266465,10,1,100,0.14689306512551764,-10,-1,-100,19065.24637457542,-0.008663169228019048,-0.009813957792953491,0.9999143141946538,66.37020883452388,4.064374797913258,374.68218149938315,-99.46769540267516,-66.54238891601562,4761.76025390625,True
1599386262.7790825,0.0,10,0.5,0.5,0.04442496185302702,-0.1005,-0.001,-0.37525,-0.15373847005382074,10,1,100,0.2679701765051153,-10,-1,-100,19059.256472542416,-0.010262489750758124,-0.010243495730404844,0.9998948705235648,65.4643970584421,4.00702609635736,371.7423906823862,-100.01370901933434,-71.6561279296875,4761.76025390625,True
1599386262.8100317,0.0,10,0.5,0.5,-1.872609265136719,-0.1005,-0.001,-0.37525,-0.11115536001451998,10,1,100,0.10885949781269964,-10,-1,-100,19059.256472542416,-0.010262489750758124,-0.010243495730404844,0.9998948705235648,65.4643970584421,4.00702609635736,371.7423906823862,-100.01370901933434,-71.6561279296875,4761.76025390625,True
1599386262.8439565,0.0,10,0.5,0.5,-0.07436757507324221,-0.1005,-0.001,-0.37525,-0.13454564516358772,10,1,100,0.2242537043472757,-10,-1,-100,19055.245002188836,-0.011304060959422525,-0.010452764834434237,0.9998814719321195,64.59964388502955,3.953006766473756,368.2654344636242,-100.37777265366931,-75.43194580078125,4761.76025390625,True
1599386262.875905,0.0,10,0.5,0.5,-0.5608301422119142,-0.1005,-0.001,-0.37525,-0.12142061545395089,10,1,100,0.17415788918849834,-10,-1,-100,19053.233805598575,-0.011788602356817382,-0.010521037898089515,0.9998751605155612,64.07883545267498,3.9206864425341084,366.00850458118316,-100.55982475151455,-77.38336181640625,4761.76025390625,True
1599386262.9118056,0.0,10,0.5,0.5,0.6496104400634763,-0.1005,-0.001,-0.37525,-0.12876284680242767,10,1,100,0.23790732254646113,-10,-1,-100,19049.200488080853,-0.012801269329212658,-0.01064713668642058,0.9998613733833014,62.886981225938875,3.847132851082917,360.60039169661735,-100.92397474980532,-81.462158203125,4761.76025390625,True
1599386262.9457073,0.0,10,0.5,0.5,0.12116259002685537,-0.1005,-0.001,-0.37525,-0.11948651026441359,10,1,100,0.18824819200072704,-10,-1,-100,19047.1783666095,-0.013263667738384019,-0.010675470637221839,0.9998550442163101,62.19863058911503,3.8048732609756417,357.34632921264847,-101.10607481939968,-83.56369018554688,4761.76025390625,True
1599386262.9766247,0.0,10,0.5,0.5,1.3629083679199216,-0.1005,-0.001,-0.37525,-0.1194888802462939,10,1,100,0.24268575157812208,-10,-1,-100,19043.12319670187,-0.014172751438109725,-0.010699735844586267,0.9998423119520047,62.26121881270175,3.8088001105604716,359.09477706051314,-101.47029024980446,-87.82656860351562,4761.76025390625,True
1599386263.0111191,0.0,10,0.5,0.5,1.7753350494384765,-0.1005,-0.001,-0.37525,-0.11406420440358217,10,1,100,0.24469331019025412,-10,-1,-100,19039.053460946074,-0.015010449862564511,-0.010670943354777864,0.9998303942983743,63.97710175337098,3.9144003006898775,370.4197589601978,-101.8344171396367,-92.05014038085938,4761.76025390625,True
1599386263.046106,0.0,10,0.5,0.5,1.1799301300048828,-0.1005,-0.001,-0.37525,-0.11368315305228714,10,1,100,0.20645128482971808,-10,-1,-100,19037.01313171431,-0.015417569808571072,-0.01064017093400947,0.9998245272565046,64.76536114438233,3.9631232021411558,375.7070719965918,-102.01644715105573,-94.12399291992188,4761.76025390625,True
1599386263.077027,0.0,10,0.5,0.5,2.3411075183868406,-0.1005,-0.001,-0.37525,-0.10638730773261848,10,1,100,0.24860511705832508,-10,-1,-100,19032.921553519554,-0.016164249508119732,-0.010544941638083956,0.9998137432760607,66.24533710709524,4.05498693240399,385.7725865440773,-102.38044167937659,-98.1943588256836,4761.76025390625,True
1599386263.1099305,0.0,10,0.5,0.5,2.634642918395996,-0.1005,-0.001,-0.37525,-0.10202359977027453,10,1,100,0.24779044406951767,-10,-1,-100,19028.815418328508,-0.016828823953011083,-0.010418034947725698,0.9998041084293395,67.66265339388477,4.1433676617897,395.5379405345136,-102.74434819384828,-102.01522064208984,4761.76025390625,True
1599386263.146841,0.0,10,0.5,0.5,2.061460567855835,-0.1005,-0.001,-0.37525,-0.10626268201706471,10,1,100,0.2163933142235038,-10,-1,-100,19026.756892932928,-0.017141584691401045,-0.0103410436685369,0.9997995943638471,68.30076105459729,4.183334846442659,400.0310677613751,-102.92627029413198,-103.81776428222656,4761.76025390625,True
1599386263.1797433,0.0,10,0.5,0.5,2.9982478050231935,-0.1005,-0.001,-0.37525,-0.09558108195435476,10,1,100,0.2466671600408758,-10,-1,-100,19022.62892817438,-0.017694875692876536,-0.010173857461487783,0.9997916702986512,69.56342846328504,4.262563260433716,408.9801754872705,-103.29005248941803,-107.20184326171875,4761.76025390625,True
1599386263.212134,0.0,10,0.5,0.5,3.2006966053009034,-0.1005,-0.001,-0.37525,-0.09256818135377798,10,1,100,0.24344464263635868,-10,-1,-100,19018.486414537532,-0.018162762068055505,-0.009994733547231476,0.9997850865938035,70.62887513575369,4.32978707482471,416.8214327899979,-103.65376043457249,-110.28990936279297,4761.76025390625,True
1599386263.2440863,0.0,10,0.5,0.5,3.9845961906433107,-0.1005,-0.001,-0.37525,-0.07845976979685501,10,1,100,0.2588251952009988,-10,-1,-100,19012.2453700779,-0.018722141832704715,-0.00970411379679995,0.9997776310663361,71.90788851786198,4.411021762224026,426.7779005042565,-104.19920379181964,-114.3664321899414,4761.76025390625,True
1599386263.2770565,0.0,10,0.5,0.5,3.575079777145386,-0.1005,-0.001,-0.37525,-0.08665752754878875,10,1,100,0.23273904810896082,-10,-1,-100,19008.066494774306,-0.018988139488364114,-0.009515296387688523,0.9997744294056661,72.58097236913648,4.4540546865644846,432.3932071513726,-104.56276622430252,-116.714111328125,4761.76025390625,True
1599386263.3130136,0.0,10,0.5,0.5,2.6974282226562503,-0.1005,-0.001,-0.37525,-0.10542325103497803,10,1,100,0.20671172971801893,-10,-1,-100,19008.066494774306,-0.018988139488364114,-0.009515296387688523,0.9997744294056661,72.58097236913648,4.4540546865644846,432.3932071513726,-104.56276622430252,-116.714111328125,4761.76025390625,True
1599386263.3618827,0.0,10,0.5,0.5,4.11187585105896,-0.1005,-0.001,-0.37525,-0.07652047882251603,10,1,100,0.23408721164060284,-10,-1,-100,19001.7709178481,-0.01923262988034192,-0.009253620676172412,0.9997722122825113,73.37282848263973,4.504998774875263,439.56832007542795,-105.1080289605798,-119.6811294555664,4761.76025390625,True
1599386263.392965,0.0,10,0.5,0.5,3.401412700271607,-0.1005,-0.001,-0.37525,-0.09271762404800803,10,1,100,0.21506327626228025,-10,-1,-100,18999.665122308303,-0.019278110660502647,-0.009164268915642789,0.999772159356622,73.58810338981569,4.518921809876933,441.6798564246355,-105.28976471084171,-120.522216796875,4761.76025390625,True
1599386263.4248466,0.0,10,0.5,0.5,4.078205890655518,-0.1005,-0.001,-0.37525,-0.07700141402759232,10,1,100,0.2121854449772525,-10,-1,-100,18993.32592943916,-0.0192897851391013,-0.008941507134992413,0.999773951270707,74.11715403400794,4.553317480568301,447.3394201393926,-105.8349254405696,-122.6026611328125,4761.76025390625,True
1599386263.452772,0.0,10,0.5,0.5,3.299959983825684,-0.1005,-0.001,-0.37525,-0.09911724864232077,10,1,100,0.2113305506804853,-10,-1,-100,18993.32592943916,-0.0192897851391013,-0.008941507134992413,0.999773951270707,74.11715403400794,4.553317480568301,447.3394201393926,-105.8349254405696,-122.6026611328125,4761.76025390625,True
1599386263.483691,0.0,10,0.5,0.5,3.975691791152954,-0.1005,-0.001,-0.37525,-0.07765819967110145,10,1,100,0.19501870187600265,-10,-1,-100,18986.954029297456,-0.019139258367073194,-0.008747767169629267,0.9997785581611082,74.50612057049487,4.57884861866086,452.1859560572569,-106.38002700961903,-124.01868438720703,4761.76025390625,True
1599386263.5116131,0.0,10,0.5,0.5,3.6006978584289553,-0.1005,-0.001,-0.37525,-0.0905677910323928,10,1,100,0.2005942905991071,-10,-1,-100,18984.822794933105,-0.0190512869502798,-0.008690448283037154,0.9997807382492313,74.61104291778844,4.585795234451745,453.6573140763084,-106.56171621943416,-124.3431167602539,4761.76025390625,True
1599386263.546521,0.0,10,0.5,0.5,3.480668737792969,-0.1005,-0.001,-0.37525,-0.09615133877375903,10,1,100,0.20952707340418686,-10,-1,-100,18984.822794933105,-0.0190512869502798,-0.008690448283037154,0.9997807382492313,74.61104291778844,4.585795234451745,453.6573140763084,-106.56171621943416,-124.3431167602539,4761.76025390625,True
1599386263.5775402,0.0,10,0.5,0.5,3.685550539016724,-0.1005,-0.001,-0.37525,-0.08515798214054184,10,1,100,0.1850128526703538,-10,-1,-100,18980.54942517297,-0.018827622648261114,-0.008591694391157175,0.9997858287717942,74.7893133325288,4.597703298011167,456.41508787602965,-106.92507950231352,-124.77081298828125,4761.76025390625,True
1599386263.611259,0.0,10,0.5,0.5,3.5752221168518066,-0.1005,-0.001,-0.37525,-0.09010199901221579,10,1,100,0.1921904444045221,-10,-1,-100,18978.407289926312,-0.01868944640690424,-0.008547875024104814,0.999788796909415,74.86418019360374,4.602765712949451,457.71009787088883,-107.10675420514691,-124.87406921386719,4761.76025390625,True
1599386263.6442087,0.0,10,0.5,0.5,3.530373035430909,-0.1005,-0.001,-0.37525,-0.0861332921784372,10,1,100,0.16964078784960407,-10,-1,-100,18974.112119450932,-0.01835910630342734,-0.008472839556807938,0.9997955562041593,74.9876152871969,4.611264730023024,460.14454019267214,-107.4700909467418,-124.85952758789062,4761.76025390625,True
1599386263.6810734,0.0,10,0.5,0.5,3.2634089363098147,-0.1005,-0.001,-0.37525,-0.08396912068620817,10,1,100,0.13569212928081847,-10,-1,-100,18967.64211456175,-0.017750744797991137,-0.008385898897364042,0.9998072753079965,75.1077787751591,4.620055366871608,463.40759366445974,-108.01506800427842,-124.28520202636719,4761.76025390625,True
1599386263.7150161,0.0,10,0.5,0.5,3.122049835968018,-0.1005,-0.001,-0.37525,-0.08753805615542212,10,1,100,0.14362633045946105,-10,-1,-100,18963.310612455476,-0.017271165153838933,-0.008340095640115907,0.9998160579121254,75.14207859434177,4.623170508896486,465.3051974686108,-108.37837041940828,-123.53410339355469,4761.76025390625,True
1599386263.7469304,0.0,10,0.5,0.5,3.172989887237549,-0.1005,-0.001,-0.37525,-0.0895266852838644,10,1,100,0.1631734847049448,-10,-1,-100,18961.139411980286,-0.01701470955730193,-0.008317284010399375,0.9998206451386024,75.143960226935,4.623821873432797,466.1603056488239,-108.56001773610586,-123.04811096191406,4761.76025390625,True
1599386263.7778497,0.0,10,0.5,0.5,2.7879563739776616,-0.1005,-0.001,-0.37525,-0.08738565132780421,10,1,100,0.12722966942839165,-10,-1,-100,18956.786112326547,-0.01645687439937399,-0.008277649695715247,0.9998303115031663,75.11322538798133,4.623085396782475,467.65681181667514,-108.92330628914253,-121.8553695678711,4761.76025390625,True
1599386263.8137515,0.0,10,0.5,0.5,3.2354578529357916,-0.1005,-0.001,-0.37525,-0.09128269705228928,10,1,100,0.18272989414721302,-10,-1,-100,18956.786112326547,-0.01645687439937399,-0.008277649695715247,0.9998303115031663,75.11322538798133,4.623085396782475,467.65681181667514,-108.92330628914253,-121.8553695678711,4761.76025390625,True
1599386263.8456678,0.0,10,0.5,0.5,2.5277906147003177,-0.1005,-0.001,-0.37525,-0.08725918001272795,10,1,100,0.11492011699687096,-10,-1,-100,18952.41828131315,-0.01584286041070515,-0.008241499647604612,0.9998405280131254,75.02849961475737,4.619157184334272,468.81594419923573,-109.28658989909948,-120.36834716796875,4761.76025390625,True
1599386263.8795466,0.0,10,0.5,0.5,1.7617866733551026,-0.1005,-0.001,-0.37525,-0.08395651205275578,10,1,100,0.06506951453862933,-10,-1,-100,18945.83928867604,-0.014834395331876351,-0.008179019848445589,0.9998565118803078,74.77235126070359,4.605600957625201,469.7395998689004,-109.83151516389685,-117.58618927001953,4761.76025390625,True
1599386263.9124546,0.0,10,0.5,0.5,2.8051157318115236,-0.1005,-0.001,-0.37525,-0.09015334912519889,10,1,100,0.16549433325966895,-10,-1,-100,18945.83928867604,-0.014834395331876351,-0.008179019848445589,0.9998565118803078,74.77235126070359,4.605600957625201,469.7395998689004,-109.83151516389685,-117.58618927001953,4761.76025390625,True
1599386263.9473987,0.0,10,0.5,0.5,1.7471137458801271,-0.1005,-0.001,-0.37525,-0.08471434036557385,10,1,100,0.08437284402869427,-10,-1,-100,18941.43512912607,-0.014100557454609659,-0.008129949472942372,0.9998675303264112,74.49279543646092,4.590057921822042,469.6620462268952,-110.19480627312898,-115.36383819580078,4761.76025390625,True
1599386263.978311,0.0,10,0.5,0.5,1.3828993637084963,-0.1005,-0.001,-0.37525,-0.0819314158256429,10,1,100,0.07466592448648955,-10,-1,-100,18937.016437592334,-0.013349359105758345,-0.008060420658986586,0.9998784047224271,74.10688650793519,4.568103883789027,468.9009464531315,-110.55811120176074,-112.8473892211914,4761.76025390625,True
1599386264.0117521,0.0,10,0.5,0.5,1.6750262405395513,-0.1005,-0.001,-0.37525,-0.08535332713087013,10,1,100,0.10363695502241373,-10,-1,-100,18934.801642097882,-0.012934378836399796,-0.00802869585716323,0.9998841142287188,73.86892429844002,4.5543970089696515,468.2293921505387,-110.73977124908095,-111.47908782958984,4761.76025390625,True
1599386264.046696,0.0,10,0.5,0.5,0.7803531826019288,-0.1005,-0.001,-0.37525,-0.07894197859672016,10,1,100,0.053174006834389706,-10,-1,-100,18930.361150942044,-0.012102748486147799,-0.007941894871595362,0.9998952194029781,73.28749051864045,4.520536243296763,466.2007565916803,-111.10311203093687,-108.52197265625,4761.76025390625,True
1599386264.0806887,0.0,10,0.5,0.5,0.34190452461242704,-0.1005,-0.001,-0.37525,-0.07543455734566656,10,1,100,0.04236236758322265,-10,-1,-100,18925.90612503013,-0.011253131826060548,-0.007831461237677285,0.999906013202735,72.5486725321313,4.476987797071788,463.1435898119752,-111.46648821570174,-105.2710952758789,4761.76025390625,True
1599386264.1156065,0.0,10,0.5,0.5,-0.12627112998962398,-0.1005,-0.001,-0.37525,-0.07187385928260455,10,1,100,0.028227208825919614,-10,-1,-100,18921.436562880874,-0.010357489398852329,-0.007699138699699127,0.9999167193704861,71.63133454883729,4.422352546303069,458.9118475422442,-111.82991015208667,-101.72660827636719,4761.76025390625,True
1599386264.1475213,0.0,10,0.5,0.5,0.31089321136474624,-0.1005,-0.001,-0.37525,-0.07646676348175599,10,1,100,0.06836831480032562,-10,-1,-100,18919.19632987003,-0.009913733051158113,-0.007621125076980375,0.9999218151183378,71.11485158357966,4.391405204716396,456.4102956375949,-112.01164131293253,-99.85400390625,4761.76025390625,True
1599386264.178402,0.0,10,0.5,0.5,-0.8234974769592285,-0.1005,-0.001,-0.37525,-0.06491654057791957,10,1,100,0.012943658904994701,-10,-1,-100,18914.704959194176,-0.009012405991795105,-0.007445798415945482,0.9999316659773249,70.0746178783717,4.328870207395794,451.3270225790283,-112.37514441642465,-95.99717712402344,4761.76025390625,True
1599386264.2143373,0.0,10,0.5,0.5,-0.3065710247039794,-0.1005,-0.001,-0.37525,-0.07160391334286205,10,1,100,0.05253269501650957,-10,-1,-100,18912.45382065035,-0.008559127588314243,-0.007347928204896565,0.9999363726187896,69.4920740147681,4.293623634781678,448.3656984998787,-112.55691830000698,-94.04676055908203,4761.76025390625,True
1599386264.2462547,0.0,10,0.5,0.5,-1.4355348499298095,-0.1005,-0.001,-0.37525,-0.05704910493040358,10,1,100,-0.003856336096667995,-10,-1,-100,18907.940636284067,-0.007640133545705991,-0.007127394383505699,0.9999454128144724,68.38873005984003,4.226644465247416,442.80440415877206,-112.92050754392862,-90.14028930664062,4761.76025390625,True
1599386264.279165,0.0,10,0.5,0.5,-1.782732036590576,-0.1005,-0.001,-0.37525,-0.05189245555915493,10,1,100,-0.011792289660564448,-10,-1,-100,18903.412906629266,-0.006739079621650495,-0.006880986483834415,0.9999536173397555,67.1678336646009,4.151944038836227,436.430333611117,-113.28415502401282,-86.33502197265625,4761.76025390625,True
1599386264.3160346,0.0,10,0.5,0.5,-1.2350901947021484,-0.1005,-0.001,-0.37525,-0.06135729356025117,10,1,100,0.027011219386407936,-10,-1,-100,18901.14358644397,-0.006279391116420665,-0.006744158705042402,0.9999575418839383,66.53753801818208,4.11318513202269,433.0935213964862,-113.46600079778467,-84.49081420898438,4761.76025390625,True
1599386264.3549666,0.0,10,0.5,0.5,-3.826657030487061,-0.1005,-0.001,-0.37525,-0.008676240653801494,10,1,100,-0.12349564408182313,-10,-1,-100,18892.029938308056,-0.004499675505581753,-0.006142047754221888,0.9999710136647608,67.92655957647567,4.198729835640587,445.2325682845223,-114.19330949289457,-77.59481811523438,4761.76025390625,True
1599386264.3878405,0.0,10,0.5,0.5,-2.682291337585449,-0.1005,-0.001,-0.37525,-0.030845435184606952,10,1,100,-0.04342478206098479,-10,-1,-100,18887.45130001288,-0.003617337062582017,-0.005797927429304145,0.9999766491824198,69.10857782903713,4.271112304874319,454.5555400984048,-114.55683314076006,-74.56808471679688,4761.76025390625,True
1599386264.415803,0.0,10,0.5,0.5,-2.2169539077758786,-0.1005,-0.001,-0.37525,-0.04761038880549405,10,1,100,-0.000332896715841767,-10,-1,-100,18885.156528556254,-0.0032146696279231617,-0.00563944850087998,0.9999789310379441,69.62748313645677,4.302757226408462,458.761917411881,-114.73856595546947,-73.16598510742188,4761.76025390625,True
1599386264.4487119,0.0,10,0.5,0.5,-2.9223117576599122,-0.1005,-0.001,-0.37525,-0.02563608505388948,10,1,100,-0.05014633851117445,-10,-1,-100,18880.556083123898,-0.0024030665457285758,-0.005297603088876877,0.9999830801932048,70.53695891490464,4.357991414685939,466.36115712677025,-115.10197913583342,-70.58419799804688,4761.76025390625,True
1599386264.4813933,0.0,10,0.5,0.5,-1.9566103858947756,-0.1005,-0.001,-0.37525,-0.05958047269311755,10,1,100,0.03021852742297177,-10,-1,-100,18880.556083123898,-0.0024030665457285758,-0.005297603088876877,0.9999830801932048,70.53695891490464,4.357991414685939,466.36115712677025,-115.10197913583342,-70.58419799804688,4761.76025390625,True
1599386264.514306,0.0,10,0.5,0.5,-2.5208027320861817,-0.1005,-0.001,-0.37525,-0.03889717124704792,10,1,100,-0.015405509244615367,-10,-1,-100,18878.250409580767,-0.0019951304546645377,-0.005111685368447247,0.9999849449502541,70.93296090616107,4.38193554267555,469.78708013401877,-115.28366179760499,-69.40444946289062,4761.76025390625,True
1599386264.5482152,0.0,10,0.5,0.5,-3.0972327186584474,-0.1005,-0.001,-0.37525,-0.017500747678133907,10,1,100,-0.06019841681283364,-10,-1,-100,18873.628163084155,-0.0012234505535653648,-0.0047502782383824545,0.9999879689403273,71.61887033989345,4.423222086139804,475.9605200097591,-115.64698456301424,-67.26788330078125,4761.76025390625,True
1599386264.5791237,0.0,10,0.5,0.5,-3.1736004867553707,-0.1005,-0.001,-0.37525,-0.01030715954591388,10,1,100,-0.06779933849887558,-10,-1,-100,18868.99138519913,-0.0004594928799973254,-0.004358691546182019,0.999990395291024,72.17938410925117,4.4567422061889985,481.3285963682218,-116.01025690686623,-65.42776489257812,4761.76025390625,True
1599386264.6150384,0.0,10,0.5,0.5,-2.870299339294434,-0.1005,-0.001,-0.37525,-0.02822467238939925,10,1,100,-0.03222029115587643,-10,-1,-100,18866.66754758125,-9.495964411338056e-05,-0.0041681071271563305,0.9999913088950536,72.41773092287605,4.470918337268563,483.74215230610685,-116.19187648046031,-64.61907958984375,4761.76025390625,True
1599386264.6469505,0.0,10,0.5,0.5,-3.2326632781982427,-0.1005,-0.001,-0.37525,-0.004485680846519152,10,1,100,-0.07447339563065908,-10,-1,-100,18862.008976022014,0.0006145132292086504,-0.003781505804340138,0.9999926612667428,72.82092944208269,4.494758427252875,488.0928501348745,-116.55508637259177,-63.22412109375,4761.76025390625,True
1599386264.678307,0.0,10,0.5,0.5,-3.233919219970703,-0.1005,-0.001,-0.37525,-0.0003549628147955716,10,1,100,-0.07907142835439329,-10,-1,-100,18857.335876952275,0.001295021680312054,-0.00339519139503766,0.9999933977753245,73.13886541864714,4.513382665102126,491.88852346434624,-116.91826206239985,-62.12567138671875,4761.76025390625,True
1599386264.712176,0.0,10,0.5,0.5,-3.0317329193115237,-0.1005,-0.001,-0.37525,-0.01658539736743812,10,1,100,-0.048379870731401764,-10,-1,-100,18854.99388009333,0.001629383660028049,-0.0031940430246586884,0.9999935715783603,73.2699485272669,4.5209939820585285,493.60400947809774,-117.09983883647705,-61.6875,4761.76025390625,True
1599386264.748765,0.0,10,0.5,0.5,-3.1797046783447267,-0.1005,-0.001,-0.37525,0.006218249379545661,10,1,100,-0.08545757931322245,-10,-1,-100,18850.298992335214,0.002265649428038587,-0.002806242157891267,0.9999934958976585,73.48250588481518,4.533196290264662,496.70886777747245,-117.46297295851893,-61.0335693359375,4761.76025390625,True
1599386264.7836976,0.0,10,0.5,0.5,-3.038192433166504,-0.1005,-0.001,-0.37525,-0.011731700348169265,10,1,100,-0.055723308288964976,-10,-1,-100,18847.94610145758,0.002568779190504043,-0.0026194529186664636,0.9999932698972915,73.56616928599085,4.5379216623296434,498.11197634402146,-117.6445314409331,-60.817779541015625,4761.76025390625,True
1599386264.8206067,0.0,10,0.5,0.5,-3.05789412689209,-0.1005,-0.001,-0.37525,0.01130820927434404,10,1,100,-0.09050194801015737,-10,-1,-100,18843.229426839156,0.003156001294086904,-0.0022426254775030764,0.9999925051153131,73.69269107982011,4.544889537646122,500.64714617728265,-118.00763384435461,-60.60821533203125,4761.76025390625,True
1599386264.855478,0.0,10,0.5,0.5,-2.9390050216674806,-0.1005,-0.001,-0.37525,0.01285129236422431,10,1,100,-0.09239645207866726,-10,-1,-100,18838.498228868004,0.003702008636294308,-0.0018888043007296072,0.9999913637378927,73.76832870248444,4.548756029669004,502.8419758699289,-118.37071988269831,-60.694915771484375,4761.76025390625,True
1599386264.887428,0.0,10,0.5,0.5,-2.7904614929199223,-0.1005,-0.001,-0.37525,0.01682082864870438,10,1,100,-0.09551547461612772,-10,-1,-100,18833.752507606172,0.004221554480377081,-0.0015339918838654688,0.9999899126224572,73.79533693309787,4.549649507982917,504.7085656196058,-118.73379319172577,-61.077362060546875,4761.76025390625,True
1599386264.9153445,0.0,10,0.5,0.5,-2.6117693801879884,-0.1005,-0.001,-0.37525,0.017230438203708353,10,1,100,-0.09633475784109755,-10,-1,-100,18828.992263570195,0.004696366908830288,-0.0012106353147203223,0.9999882391808377,73.77317337237074,4.547526169260825,506.24002753779075,-119.09685741487712,-61.75592041015625,4761.76025390625,True
1599386264.9472663,0.0,10,0.5,0.5,-2.6526142028808595,-0.1005,-0.001,-0.37525,0.0025112478807338447,10,1,100,-0.07407430694964783,-10,-1,-100,18826.606695895083,0.004920959690421091,-0.0010533474877349226,0.9999873372272249,73.74291911602121,4.545285337968023,506.8740465276732,-119.27838726739951,-62.2060546875,4761.76025390625,True
1599386264.9821696,0.0,10,0.5,0.5,-1.9683424667358398,-0.1005,-0.001,-0.37525,0.03553331137484012,10,1,100,-0.11995840161877519,-10,-1,-100,18819.428208771627,0.005537703153100674,-0.0006129895765648852,0.9999844789233315,73.56856844122613,4.533412974953361,508.19660641235464,-119.82297399066161,-63.999908447265625,4761.76025390625,True
1599386265.0150511,0.0,10,0.5,0.5,-2.641408511352539,-0.1005,-0.001,-0.37525,-0.008185628119386088,10,1,100,-0.05877637434320605,-10,-1,-100,18819.428208771627,0.005537703153100674,-0.0006129895765648852,0.9999844789233315,73.56856844122613,4.533412974953361,508.19660641235464,-119.82297399066161,-63.999908447265625,4761.76025390625,True
1599386265.0480037,0.0,10,0.5,0.5,-1.896598582458496,-0.1005,-0.001,-0.37525,0.021908715871179194,10,1,100,-0.09931469559150594,-10,-1,-100,18814.62439786666,0.005902376363109956,-0.00034193390557653975,0.9999825223645025,73.37331596590857,4.520630024096961,508.52595874697937,-120.18603502163411,-65.5650634765625,4761.76025390625,True
1599386265.0798807,0.0,10,0.5,0.5,-1.5982987701416018,-0.1005,-0.001,-0.37525,0.020575867012188165,10,1,100,-0.09783082108643566,-10,-1,-100,18809.80606429011,0.006216523156069499,-0.0001102292935044006,0.9999806711578744,73.10355296677403,4.5032660682538355,508.33002956010137,-120.54910438537352,-67.42578125,4761.76025390625,True
1599386265.1158369,0.0,10,0.5,0.5,-0.7051048309326173,-0.1005,-0.001,-0.37525,0.035125839159168656,10,1,100,-0.11245408615329236,-10,-1,-100,18802.551332482253,0.006631458219615026,0.00023023281620246952,0.9999779851350387,72.53235297772724,4.4670210783827855,506.8527977511644,-121.09373731009836,-70.76953125,4761.76025390625,True
1599386265.1477523,0.0,10,0.5,0.5,-1.9588518432617188,-0.1005,-0.001,-0.37525,0.0013645967619685308,10,1,100,-0.0713668477016508,-10,-1,-100,18802.551332482253,0.006631458219615026,0.00023023281620246952,0.9999779851350387,72.53235297772724,4.4670210783827855,506.8527977511644,-121.09373731009836,-70.76953125,4761.76025390625,True
1599386265.1796515,0.0,10,0.5,0.5,-0.057579753112793286,-0.1005,-0.001,-0.37525,0.03244561928342908,10,1,100,-0.10590317136666169,-10,-1,-100,18795.263920855825,0.006942265292091917,0.0005105395134032876,0.9999757718575083,71.71703375011943,4.415918850115664,503.6268631569087,-121.63842505492353,-74.76376342773438,4761.76025390625,True
1599386265.2135234,0.0,10,0.5,0.5,-0.1422481933593751,-0.1005,-0.001,-0.37525,0.02340198864145569,10,1,100,-0.09254541848029195,-10,-1,-100,18790.38748865563,0.007100437371144096,0.0006809677379186979,0.9999745597124351,71.02391678769588,4.37282249795671,500.3941066938091,-122.00159331604644,-77.73330688476562,4761.76025390625,True
1599386265.2604318,0.0,10,0.5,0.5,-0.5189489624023439,-0.1005,-0.001,-0.37525,0.014631465000967077,10,1,100,-0.08352635092034519,-10,-1,-100,18787.9438247364,0.007159621480745863,0.0007541568547266434,0.9999740851980569,70.62765824454657,4.348291659331656,498.41589696077386,-122.1831931483161,-79.28024291992188,4761.76025390625,True
1599386265.2933443,0.0,10,0.5,0.5,-1.09768427734375,-0.1005,-0.001,-0.37525,0.007509032537117227,10,1,100,-0.07785426541736001,-10,-1,-100,18787.9438247364,0.007159621480745863,0.0007541568547266434,0.9999740851980569,70.62765824454657,4.348291659331656,498.41589696077386,-122.1831931483161,-79.28024291992188,4761.76025390625,True
