Timestamp,Input Throttle,horizon,dT,dt,Input Roll,Roll P,Roll I,Roll D,Input Pitch,Pitch P,Pitch I,Pitch D,Input Yaw,Yaw P,Yaw I,Yaw D,Altitude,Direction X,Direction Y,Direction Z,Drag X,Drag Y,Drag Z,Vertical Velocity,Roll,Mass,Has Fuel
1599387421.1235108,0.0,10,0.5,0.5,-8.42502279663086,-0.15025,-0.0155,-0.2505,-0.00012587198756836373,10,1,100,0.49820028156200646,-10,-1,-100,19348.346771601122,-0.04884913999408124,-0.00017420642245301817,0.9988061529515931,61.16651467127028,3.6919141237878668,234.71089158327382,-68.84811729612123,-33.9229736328125,4761.76025390625,True
1599387421.1723835,0.0,10,0.5,0.5,-8.512027865600587,-0.15025,-0.0155,-0.2505,-0.0008349771902143752,10,1,100,0.4990266928498185,-10,-1,-100,19346.966160204378,-0.048900507075077586,-0.00016580180721155355,0.9988036408211382,61.25636446715625,3.6980129208906325,235.70234421634578,-69.03057069595786,-33.92413330078125,4761.76025390625,True
1599387421.2192566,0.0,10,0.5,0.5,-8.580450799560547,-0.15025,-0.0155,-0.2505,0.011924964420053743,10,1,100,0.5097953931197021,-10,-1,-100,19342.802431861404,-0.04900064669018677,-4.201104980122867e-05,0.9987987459238299,61.52754220866028,3.716430083323412,238.6954644756841,-69.57790995715577,-33.97100830078125,4761.76025390625,True
1599387421.2734745,0.0,10,0.5,0.5,-8.679037924194335,-0.15025,-0.0155,-0.2505,-0.00045831242595886676,10,1,100,0.5046814962778022,-10,-1,-100,19342.802431861404,-0.04900064669018677,-4.201104980122867e-05,0.9987987459238299,61.52754220866028,3.716430083323412,238.6954644756841,-69.57790995715577,-33.97100830078125,4761.76025390625,True
1599387421.3189917,0.0,10,0.5,0.5,-8.42562204284668,-0.15025,-0.0155,-0.2505,0.05843628079553212,10,1,100,0.49885240570557776,-10,-1,-100,19337.199711456313,-0.04890310891526638,0.0004934325349848723,0.9988034053119537,61.92234475578014,3.743007101908017,242.84575571214,-70.30764429944482,-34.820068359375,4761.76025390625,True
1599387421.366863,0.0,10,0.5,0.5,-8.566380268859863,-0.15025,-0.0155,-0.2505,0.028455445551027487,10,1,100,0.5053773378683456,-10,-1,-100,19335.789910137188,-0.04882929840416821,0.0007071978075358448,0.9988068879861701,62.02860337583322,3.750095010290424,243.91865197202543,-70.49006760493833,-35.212982177734375,4761.76025390625,True
1599387421.4076605,0.0,10,0.5,0.5,-8.56290080871582,-0.15025,-0.0155,-0.2505,0.03473852194617493,10,1,100,0.5067427284460031,-10,-1,-100,19334.376460170373,-0.04873022030987207,0.0009580058427130368,0.9988115176815677,62.13675949854411,3.7572865842869327,245.001419424582,-70.67248657094869,-35.679168701171875,4761.76025390625,True
1599387421.4471335,0.0,10,0.5,0.5,-7.722487951660155,-0.15025,-0.0155,-0.2505,0.15756788472315167,10,1,100,0.44502605983468546,-10,-1,-100,19328.68617886945,-0.04803478849103644,0.002301772803716897,0.998843011156699,62.56673178979283,3.785715424707579,249.34610136235307,-71.40211576266994,-38.27777099609375,4761.76025390625,True
1599387421.486567,0.0,10,0.5,0.5,-8.45360728149414,-0.15025,-0.0155,-0.2505,0.023421365903137332,10,1,100,0.519372720567352,-10,-1,-100,19328.68617886945,-0.04803478849103644,0.002301772803716897,0.998843011156699,62.56673178979283,3.785715424707579,249.34610136235307,-71.40211576266994,-38.27777099609375,4761.76025390625,True
1599387421.5284553,0.0,10,0.5,0.5,-7.836659098815917,-0.15025,-0.0155,-0.2505,0.12052698796902668,10,1,100,0.46669859947933257,-10,-1,-100,19325.81915036624,-0.047512264855244415,0.003182458665403421,0.9988655848737448,62.76080288639895,3.7985064538346913,251.44902778607033,-71.76690253636656,-40.017303466796875,4761.76025390625,True
1599387421.569345,0.0,10,0.5,0.5,-6.602498733520507,-0.15025,-0.0155,-0.2505,0.26252939728600594,10,1,100,0.36381898704125665,-10,-1,-100,19320.041321252473,-0.046058781196128024,0.005271120025576979,0.9989248239824673,63.03313334764837,3.816601860431796,255.21208607319687,-72.49642533563183,-44.377593994140625,4761.76025390625,True
1599387421.610236,0.0,10,0.5,0.5,-7.678546849060059,-0.15025,-0.0155,-0.2505,0.05420779391345318,10,1,100,0.5088883170731006,-10,-1,-100,19320.041321252473,-0.046058781196128024,0.005271120025576979,0.9989248239824673,63.03313334764837,3.816601860431796,255.21208607319687,-72.49642533563183,-44.377593994140625,4761.76025390625,True
1599387421.6521242,0.0,10,0.5,0.5,-6.611989584350585,-0.15025,-0.0155,-0.2505,0.18432442624412726,10,1,100,0.4045937730834312,-10,-1,-100,19317.130521613522,-0.0451132323652028,0.0064490558450987535,0.9989610632773782,63.07447148901424,3.8196054351234334,256.7171326173906,-72.8611668506963,-46.998565673828125,4761.76025390625,True
1599387421.6958625,0.0,10,0.5,0.5,-6.0799282333374025,-0.15025,-0.0155,-0.2505,0.19896420798994874,10,1,100,0.3779267862098717,-10,-1,-100,19314.205132670933,-0.04401474937853386,0.0076470945451761075,0.9990016135032828,63.02356487098182,3.8167863060914753,257.8471966194608,-73.22590099572008,-49.914154052734375,4761.76025390625,True
1599387421.735756,0.0,10,0.5,0.5,-5.499900965881348,-0.15025,-0.0155,-0.2505,0.23085149212609513,10,1,100,0.35010777119599157,-10,-1,-100,19311.265154502704,-0.042767760978991966,0.00901911494139778,0.9990443304411059,62.85516429771059,3.8065992557794104,258.49271290273913,-73.59063395432503,-53.122314453125,4761.76025390625,True
1599387421.7776432,0.0,10,0.5,0.5,-4.871145223999023,-0.15025,-0.0155,-0.2505,0.23984068907444034,10,1,100,0.3190747119043794,-10,-1,-100,19308.310586762265,-0.04135759402942674,0.010340375562578429,0.9990908997930678,62.54430377887289,3.7875346995525687,258.5431712431167,-73.95537334454212,-56.625823974609375,4761.76025390625,True
1599387421.8185344,0.0,10,0.5,0.5,-4.193693280029297,-0.15025,-0.0155,-0.2505,0.25816079377982637,10,1,100,0.2872717858682784,-10,-1,-100,19305.341429086635,-0.03979329902437993,0.011699310553923398,0.9991394394604385,62.06302010854507,3.757925149102035,257.87350371424446,-74.32012807024827,-60.423431396484375,4761.76025390625,True
1599387421.864411,0.0,10,0.5,0.5,-3.4666448257446287,-0.15025,-0.0155,-0.2505,0.2713332216495574,10,1,100,0.2534895488608389,-10,-1,-100,19302.357680481044,-0.038072225884529284,0.013044690522406187,0.9991898426552245,61.383058316191104,3.7161129023264934,256.35503730593695,-74.68490825192607,-64.5157470703125,4761.76025390625,True
1599387421.9053023,0.0,10,0.5,0.5,-0.8165402023315433,-0.15025,-0.0155,-0.2505,0.41998965856248077,10,1,100,-0.0006676254921448299,-10,-1,-100,19296.346404495183,-0.03420615104746203,0.015609419085945582,0.9992928926327445,59.31238608178105,3.5893088432834617,250.23753854089168,-75.41458798329404,-73.58514404296875,4761.76025390625,True
1599387421.945195,0.0,10,0.5,0.5,-3.0336977157592773,-0.15025,-0.0155,-0.2505,0.16484756683676416,10,1,100,0.384556994470223,-10,-1,-100,19296.346404495183,-0.03420615104746203,0.015609419085945582,0.9992928926327445,59.31238608178105,3.5893088432834617,250.23753854089168,-75.41458798329404,-73.58514404296875,4761.76025390625,True
1599387421.9840925,0.0,10,0.5,0.5,-0.986906553649902,-0.15025,-0.0155,-0.2505,0.2949741172526896,10,1,100,0.14975869966088837,-10,-1,-100,19293.318873376003,-0.03208371756174788,0.01678109048934441,0.9993443000634998,57.867345379714784,3.501285764969961,245.37784494893378,-75.77950845545487,-78.56271362304688,4761.76025390625,True
1599387422.0285516,0.0,10,0.5,0.5,2.1331320632934574,-0.15025,-0.0155,-0.2505,0.3991903919415871,10,1,100,-0.135999913741557,-10,-1,-100,19287.220011769794,-0.027569131601653134,0.018783203380093535,0.9994434122317843,54.062792353718386,3.2709797601487045,231.56065466764548,-76.50955173862218,-89.32736206054688,4761.76025390625,True
1599387422.0704424,0.0,10,0.5,0.5,-0.4937402297973632,-0.15025,-0.0155,-0.2505,0.20033031120212633,10,1,100,0.3136097173084703,-10,-1,-100,19287.220011769794,-0.027569131601653134,0.018783203380093535,0.9994434122317843,54.062792353718386,3.2709797601487045,231.56065466764548,-76.50955173862218,-89.32736206054688,4761.76025390625,True
1599387422.1109366,0.0,10,0.5,0.5,4.225265082168579,-0.15025,-0.0155,-0.2505,0.36174978825665627,10,1,100,-0.1942960503402204,-10,-1,-100,19281.062737818225,-0.02296775562372281,0.020239440310102903,0.9995313137953922,54.58196363937367,3.3044903607909037,236.1246800395474,-77.23970543208098,-100.93907928466797,4761.76025390625,True
1599387422.152845,0.0,10,0.5,0.5,1.3956185516357422,-0.15025,-0.0155,-0.2505,0.21738532983221215,10,1,100,0.263736848077331,-10,-1,-100,19281.062737818225,-0.02296775562372281,0.020239440310102903,0.9995313137953922,54.58196363937367,3.3044903607909037,236.1246800395474,-77.23970543208098,-100.93907928466797,4761.76025390625,True
1599387422.195697,0.0,10,0.5,0.5,3.785154861450195,-0.15025,-0.0155,-0.2505,0.2813820115078619,10,1,100,-0.01420808471802773,-10,-1,-100,19277.962200792972,-0.020458983512269793,0.02081102802954635,0.999574074846881,56.19641564773198,3.404048407933983,244.31299510404736,-77.60465626714426,-106.716796875,4761.76025390625,True
1599387422.2360327,0.0,10,0.5,0.5,4.688619105911255,-0.15025,-0.0155,-0.2505,0.27217375667264543,10,1,100,-0.010751722985352485,-10,-1,-100,19274.847068148316,-0.018228701799897877,0.021237423046477546,0.9996082664189184,57.65587850430295,3.494547913245144,251.89227695041978,-77.96951483805586,-112.3890151977539,4761.76025390625,True
1599387422.2799087,0.0,10,0.5,0.5,7.5664446056365975,-0.15025,-0.0155,-0.2505,0.2835487680991142,10,1,100,-0.30885912369578616,-10,-1,-100,19268.57303113432,-0.013510709870578086,0.021719793063480573,0.9996728021248117,59.912916562569585,3.6356032122964765,264.3146900210573,-78.69898905242597,-122.91470336914062,4761.76025390625,True
1599387422.3242993,0.0,10,0.5,0.5,6.95340643119812,-0.15025,-0.0155,-0.2505,0.24564037459401666,10,1,100,-0.08779170784141616,-10,-1,-100,19265.414132041507,-0.011253658729885232,0.02180580304476328,0.9996988857244787,60.569961114424935,3.6772759902637913,268.5068794300265,-79.06363430840071,-127.73847961425781,4761.76025390625,True
1599387422.366221,0.0,10,0.5,0.5,5.828988151931762,-0.15025,-0.0155,-0.2505,0.23765901486162783,10,1,100,0.1356181569961116,-10,-1,-100,19265.414132041507,-0.011253658729885232,0.02180580304476328,0.9996988857244787,60.569961114424935,3.6772759902637913,268.5068794300265,-79.06363430840071,-127.73847961425781,4761.76025390625,True
1599387422.4081082,0.0,10,0.5,0.5,9.423952242660523,-0.15025,-0.0155,-0.2505,0.24142573429588698,10,1,100,-0.32428759083024,-10,-1,-100,19259.052580734366,-0.0070935632881161965,0.02183441287238489,0.9997364351539839,61.11963368695549,3.713242035786442,273.5533281278594,-79.79282310849358,-136.49961853027344,4761.76025390625,True
1599387422.4483242,0.0,10,0.5,0.5,8.897586503219605,-0.15025,-0.0155,-0.2505,0.22231276371133085,10,1,100,-0.1316223640432847,-10,-1,-100,19255.849930630648,-0.005085878724819968,0.02168207359910581,0.9997519800040604,61.09811746242316,3.712708428918361,274.761800128992,-80.15739342573575,-140.4384765625,4761.76025390625,True
1599387422.488232,0.0,10,0.5,0.5,9.449288711166382,-0.15025,-0.0155,-0.2505,0.2332368095384793,10,1,100,-0.1292861509390089,-10,-1,-100,19252.6326977656,-0.0033023885617502985,0.021640257521627074,0.999760368030352,60.92642556290712,3.7027412881180157,275.2914417989023,-80.5219617312717,-144.07955932617188,4761.76025390625,True
1599387422.530119,0.0,10,0.5,0.5,8.622063384628296,-0.15025,-0.0155,-0.2505,0.2377041227005062,10,1,100,0.04663619106396781,-10,-1,-100,19252.6326977656,-0.0033023885617502985,0.021640257521627074,0.999760368030352,60.92642556290712,3.7027412881180157,275.2914417989023,-80.5219617312717,-144.07955932617188,4761.76025390625,True
1599387422.570013,0.0,10,0.5,0.5,10.030198622894286,-0.15025,-0.0155,-0.2505,0.21985902837488713,10,1,100,-0.14963944827966907,-10,-1,-100,19249.40088177554,-0.001535942174137211,0.02147675592120188,0.9997681680453419,60.649708379236635,3.686134972756307,275.3378053749837,-80.88653508953283,-147.42645263671875,4761.76025390625,True
1599387422.6099057,0.0,10,0.5,0.5,10.486476208114622,-0.15025,-0.0155,-0.2505,0.21919936456511552,10,1,100,-0.15473511091340883,-10,-1,-100,19246.15448271332,9.675891722724313e-05,0.021320996326534596,0.9997726770388135,60.297879932887525,3.6647661894807184,275.0307316171406,-81.25111863814618,-150.47727966308594,4761.76025390625,True
1599387422.6527913,0.0,10,0.5,0.5,11.880117097854612,-0.15025,-0.0155,-0.2505,0.19123207601171993,10,1,100,-0.3221783582852949,-10,-1,-100,19239.617932761554,0.003084556937821623,0.020924685009718027,0.9997762965112452,59.47909389202561,3.614657885307878,273.84453032410084,-81.9803255970151,-155.69261169433594,4761.76025390625,True
1599387422.6919613,0.0,10,0.5,0.5,10.64079699859619,-0.15025,-0.0155,-0.2505,0.2308319338897009,10,1,100,-0.025529882099628864,-10,-1,-100,19239.617932761554,0.003084556937821623,0.020924685009718027,0.9997762965112452,59.47909389202561,3.614657885307878,273.84453032410084,-81.9803255970151,-155.69261169433594,4761.76025390625,True
1599387422.7318563,0.0,10,0.5,0.5,12.306936630249023,-0.15025,-0.0155,-0.2505,0.1975215471658229,10,1,100,-0.30868557743396197,-10,-1,-100,19233.02304351132,0.005643613016489742,0.020622586137731647,0.9997714031582979,58.66757259669013,3.5647775727655975,272.6260513578501,-82.70958670821736,-159.723388671875,4761.76025390625,True
1599387422.7767353,0.0,10,0.5,0.5,11.346803606414793,-0.15025,-0.0155,-0.2505,0.2276131126737577,10,1,100,-0.054469696741787525,-10,-1,-100,19233.02304351132,0.005643613016489742,0.020622586137731647,0.9997714031582979,58.66757259669013,3.5647775727655975,272.6260513578501,-82.70958670821736,-159.723388671875,4761.76025390625,True
1599387422.8166294,0.0,10,0.5,0.5,12.537395008850098,-0.15025,-0.0155,-0.2505,0.20164611761730772,10,1,100,-0.29268937962345387,-10,-1,-100,19226.36981109006,0.0077938853410990955,0.02038759819804304,0.9997617722192648,58.0191255934648,3.524808500092979,272.1064131143912,-83.4388875302107,-162.57058715820312,4761.76025390625,True
1599387422.8555644,0.0,10,0.5,0.5,12.257516870880126,-0.15025,-0.0155,-0.2505,0.21121535431793004,10,1,100,-0.18147073756920173,-10,-1,-100,19223.02131571248,0.008724065755133292,0.020262281145308456,0.9997566357066546,57.78872469392044,3.5105546408157386,272.26894840308756,-83.80354522616561,-163.55108642578125,4761.76025390625,True
1599387422.9014444,0.0,10,0.5,0.5,12.32123626785278,-0.15025,-0.0155,-0.2505,0.22747628227203442,10,1,100,-0.17843054451725543,-10,-1,-100,19219.658233957016,0.009529491699710365,0.020297473890090508,0.9997485690620549,57.62986623783862,3.5006702393683513,272.76090161172294,-84.16820307680626,-164.23358154296875,4761.76025390625,True
1599387422.9393404,0.0,10,0.5,0.5,12.274004856109618,-0.15025,-0.0155,-0.2505,0.22366163320142504,10,1,100,-0.1399813313389637,-10,-1,-100,19217.971223167027,0.00990049345655827,0.020296009378915503,0.9997449936021724,57.58098153362167,3.497591290268594,273.14945906316296,-84.35053083222245,-164.46438598632812,4761.76025390625,True
1599387422.9802308,0.0,10,0.5,0.5,12.310597690582277,-0.15025,-0.0155,-0.2505,0.22512922318960518,10,1,100,-0.14209938190870594,-10,-1,-100,19216.280565959052,0.010245020166128287,0.02030924177605142,0.9997412536553033,57.55281429610757,3.4957753415436064,273.63562329731894,-84.5328571094702,-164.62112426757812,4761.76025390625,True
1599387423.022118,0.0,10,0.5,0.5,12.252717445373536,-0.15025,-0.0155,-0.2505,0.2428364720873874,10,1,100,-0.23119236839042945,-10,-1,-100,19209.48147283902,0.011357452540716457,0.02048330759446859,0.999725683566135,57.64829848113318,3.501184698143062,276.57427102307827,-85.26213736272265,-164.50816345214844,4761.76025390625,True
1599387423.0679953,0.0,10,0.5,0.5,12.302761999511718,-0.15025,-0.0155,-0.2505,0.2253461213724636,10,1,100,-0.1210752002939614,-10,-1,-100,19209.48147283902,0.011357452540716457,0.02048330759446859,0.999725683566135,57.64829848113318,3.501184698143062,276.57427102307827,-85.26213736272265,-164.50816345214844,4761.76025390625,True
1599387423.1038988,0.0,10,0.5,0.5,11.797058116149904,-0.15025,-0.0155,-0.2505,0.2632077706525209,10,1,100,-0.1968473549099891,-10,-1,-100,19202.624039977905,0.012038769495768622,0.020827905658301157,0.999710591308763,58.07001192543585,3.5264189435577027,281.1022856341779,-85.99135391444658,-163.21217346191406,4761.76025390625,True
1599387423.145788,0.0,10,0.5,0.5,11.69612096481323,-0.15025,-0.0155,-0.2505,0.2523613248252403,10,1,100,-0.149701731797204,-10,-1,-100,19199.17344818788,0.012221411778828956,0.021042660553674954,0.9997038779213349,58.396601641890264,3.546059097691213,283.9432554854285,-86.35592838567862,-162.12112426757812,4761.76025390625,True
1599387423.1866775,0.0,10,0.5,0.5,11.417417739105225,-0.15025,-0.0155,-0.2505,0.2604023046138764,10,1,100,-0.13752534587601642,-10,-1,-100,19195.708274306613,0.0122707759834527,0.021310610207169695,0.9996975972509697,58.79030588802044,3.5697731495776934,287.126414640696,-86.72047536568951,-160.73440551757812,4761.76025390625,True
1599387423.2299805,0.0,10,0.5,0.5,11.766357862091064,-0.15025,-0.0155,-0.2505,0.23367614167134615,10,1,100,-0.13325164171033826,-10,-1,-100,19195.708274306613,0.0122707759834527,0.021310610207169695,0.9996975972509697,58.79030588802044,3.5697731495776934,287.126414640696,-86.72047536568951,-160.73440551757812,4761.76025390625,True
1599387423.272865,0.0,10,0.5,0.5,11.089618759918213,-0.15025,-0.0155,-0.2505,0.2646528734002202,10,1,100,-0.12778474793007644,-10,-1,-100,19192.228519383818,0.012217007048502726,0.02159137775742389,0.999692231211843,59.241926348593275,3.5970100331073938,290.6109292642501,-87.08499156403468,-159.05282592773438,4761.76025390625,True
1599387423.3117623,0.0,10,0.5,0.5,10.27144870223999,-0.15025,-0.0155,-0.2505,0.28713548412134365,10,1,100,-0.10036185025430629,-10,-1,-100,19186.981550976867,0.011915651727592685,0.022049800085472356,0.999685862438845,59.99809102761574,3.642691109682203,296.26339224606096,-87.63170215518582,-155.97750854492188,4761.76025390625,True
1599387423.356641,0.0,10,0.5,0.5,10.559157518768309,-0.15025,-0.0155,-0.2505,0.259056836853739,10,1,100,-0.1136724119078186,-10,-1,-100,19185.225272309966,0.01176052821449923,0.022209694202906027,0.9996841598522653,60.26326914739374,3.6587385533252177,298.2234421033167,-87.81392099215515,-154.8050537109375,4761.76025390625,True
1599387423.4005241,0.0,10,0.5,0.5,9.809734507751463,-0.15025,-0.0155,-0.2505,0.27772047525108257,10,1,100,-0.08449491570450704,-10,-1,-100,19181.701782895485,0.011352565932786038,0.022522982217981588,0.9996818666549626,60.7994367687395,3.6912456834941603,302.1896871665473,-88.17833099453325,-152.23948669433594,4761.76025390625,True
1599387423.4414148,0.0,10,0.5,0.5,8.023440296936036,-0.15025,-0.0155,-0.2505,0.31127870952261233,10,1,100,0.0014228892137012061,-10,-1,-100,19174.6110796812,0.010199613317638826,0.023110851870116977,0.9996808772873512,61.8225614467668,3.7536574457538956,309.9452930268712,-88.90704119483814,-146.226318359375,4761.76025390625,True
1599387423.4813082,0.0,10,0.5,0.5,8.825423883056642,-0.15025,-0.0155,-0.2505,0.26684486641708893,10,1,100,-0.07424908178798986,-10,-1,-100,19172.829295414034,0.009840454166814078,0.023238946121757437,0.9996815077037992,62.05053772453326,3.767687743958394,311.7584248559607,-89.08919734485411,-144.53953552246094,4761.76025390625,True
1599387423.5221982,0.0,10,0.5,0.5,8.511620432281493,-0.15025,-0.0155,-0.2505,0.2676379314457293,10,1,100,-0.06743836032684952,-10,-1,-100,19171.04386857734,0.00945340928766658,0.023360099997575233,0.9996824189616137,62.26060930769087,3.7806900605074167,313.48640659651454,-89.27134575465173,-142.77935791015625,4761.76025390625,True
1599387423.5620944,0.0,10,0.5,0.5,7.422189157867432,-0.15025,-0.0155,-0.2505,0.2750768383088454,10,1,100,-0.013181378144960704,-10,-1,-100,19167.46208611317,0.008610655341522683,0.023535564315856763,0.9996859175895815,62.611802499715786,3.8027104364398663,316.6076598658357,-89.63562245245248,-139.03965759277344,4761.76025390625,True
1599387423.5999906,0.0,10,0.5,0.5,6.706871086883545,-0.15025,-0.0155,-0.2505,0.2753958066006722,10,1,100,0.007710134378167047,-10,-1,-100,19163.86573325086,0.0076578750552155316,0.023695710768072777,0.9996898870353919,62.84433859873152,3.817829238634556,319.14217680209595,-89.99987852855365,-135.00637817382812,4761.76025390625,True
1599387423.639887,0.0,10,0.5,0.5,5.943786978912353,-0.15025,-0.0155,-0.2505,0.2686466686864801,10,1,100,0.027949691695215245,-10,-1,-100,19160.25481060031,0.0066119087292615345,0.023777774379448405,0.9996954036647943,62.925798748102096,3.82410213340888,320.9172675904677,-90.36412331359512,-130.68063354492188,4761.76025390625,True
1599387423.6777859,0.0,10,0.5,0.5,3.162371101379395,-0.15025,-0.0155,-0.2505,0.2513657630544636,10,1,100,0.17822558854524678,-10,-1,-100,19152.989255278604,0.004300030159079606,0.023693035643887663,0.9997100328608334,62.49059540763208,3.8012523933880087,321.40637871613245,-91.09262840970948,-121.15242004394531,4761.76025390625,True
1599387423.7174098,0.0,10,0.5,0.5,5.49044295425415,-0.15025,-0.0155,-0.2505,0.2600498023991842,10,1,100,-0.05217057078400374,-10,-1,-100,19152.989255278604,0.004300030159079606,0.023693035643887663,0.9997100328608334,62.49059540763208,3.8012523933880087,321.40637871613245,-91.09262840970948,-121.15242004394531,4761.76025390625,True
1599387423.7582989,0.0,10,0.5,0.5,2.2655364185333253,-0.15025,-0.0155,-0.2505,0.22590793836709905,10,1,100,0.15250066586549732,-10,-1,-100,19147.50183952984,0.0024463058455100628,0.023381161211270148,0.9997236302539432,61.49265820817324,3.7438366512220966,318.27844534222714,-91.63907959506574,-113.23993682861328,4761.76025390625,True
1599387423.7972264,0.0,10,0.5,0.5,3.067791363143921,-0.15025,-0.0155,-0.2505,0.23967899197797965,10,1,100,0.03593568593294008,-10,-1,-100,19145.665414368734,0.001829251034714625,0.023221765426254627,0.9997286649142056,61.006392585096435,3.7153664348544444,316.42588203294696,-91.82125481547027,-110.4566650390625,4761.76025390625,True
1599387423.8347378,0.0,10,0.5,0.5,1.3816558143615718,-0.15025,-0.0155,-0.2505,0.2148819329576003,10,1,100,0.12316299326448064,-10,-1,-100,19141.98163236142,0.0004839741536121049,0.022850797100411366,0.9997387692997078,59.992966910984435,3.6558274728678026,312.4780686777504,-92.18564817509818,-104.67105865478516,4761.76025390625,True
1599387423.872637,0.0,10,0.5,0.5,0.3312599113464356,-0.15025,-0.0155,-0.2505,0.197642890012362,10,1,100,0.1264897111137379,-10,-1,-100,19138.283272687928,-0.0007604153195070461,0.02235707100902415,0.9997497602622566,58.68570546058139,3.578069958520286,306.95180693584973,-92.55010933741669,-98.59425354003906,4761.76025390625,True
1599387423.9095378,0.0,10,0.5,0.5,-3.4386865455627444,-0.15025,-0.0155,-0.2505,0.10689240593172555,10,1,100,0.28304966401300746,-10,-1,-100,19130.842809510767,-0.0033053136218938873,0.021084026411677923,0.9997722434295387,58.02565030123752,3.5401010068120864,306.04180732912926,-93.27919021845607,-85.56625366210938,4761.76025390625,True
1599387423.9454422,0.0,10,0.5,0.5,-3.009164052581787,-0.15025,-0.0155,-0.2505,0.14972228120506118,10,1,100,0.16278463096629653,-10,-1,-100,19127.10070902726,-0.004513940211903134,0.020318144801653403,0.9997833752046401,60.62515197330712,3.698966494306672,321.08140590827355,-93.64360833876002,-78.7158203125,4761.76025390625,True
1599387423.981346,0.0,10,0.5,0.5,-1.3866324462890622,-0.15025,-0.0155,-0.2505,0.22598870025609286,10,1,100,0.04323443152071444,-10,-1,-100,19127.10070902726,-0.004513940211903134,0.020318144801653403,0.9997833752046401,60.62515197330712,3.698966494306672,321.08140590827355,-93.64360833876002,-78.7158203125,4761.76025390625,True
1599387424.018247,0.0,10,0.5,0.5,-2.8400626510620115,-0.15025,-0.0155,-0.2505,0.18330075995541245,10,1,100,0.10543484072413609,-10,-1,-100,19125.224193599657,-0.005068333190782314,0.01993314313161669,0.9997884685289993,61.81309800059146,3.7714254842338857,328.0503846592059,-93.82576933425406,-75.3067626953125,4761.76025390625,True
1599387424.0566547,0.0,10,0.5,0.5,-4.730683242797851,-0.15025,-0.0155,-0.2505,0.12967110573403917,10,1,100,0.1711881345164013,-10,-1,-100,19121.460235389764,-0.0061594656224930305,0.019099094421614313,0.9997986225113134,63.87432466672481,3.896981662096484,340.38879453656244,-94.19000180189715,-68.67230224609375,4761.76025390625,True
1599387424.1035302,0.0,10,0.5,0.5,-8.119747304534911,-0.15025,-0.0155,-0.2505,0.004591748416310215,10,1,100,0.28380897519057585,-10,-1,-100,19113.888624117477,-0.008165721388557475,0.01720795956528941,0.9998185871055827,66.71117680163097,4.069882124523336,358.4259254406726,-94.91817336413482,-56.27142333984375,4761.76025390625,True
1599387424.1424243,0.0,10,0.5,0.5,-5.1138926834106435,-0.15025,-0.0155,-0.2505,0.19305672644094063,10,1,100,0.08442997373889508,-10,-1,-100,19113.888624117477,-0.008165721388557475,0.01720795956528941,0.9998185871055827,66.71117680163097,4.069882124523336,358.4259254406726,-94.91817336413482,-56.27142333984375,4761.76025390625,True
1599387424.1783288,0.0,10,0.5,0.5,-9.695857636642456,-0.15025,-0.0155,-0.2505,-0.014218432738403175,10,1,100,0.27222180303101395,-10,-1,-100,19106.25877263001,-0.00986327253918213,0.015329251937882631,0.9998338511421998,68.04816306081347,4.152785385733251,368.5862930107184,-95.64609750515949,-45.05828857421875,4761.76025390625,True
1599387424.2232087,0.0,10,0.5,0.5,-8.036940383529663,-0.15025,-0.0155,-0.2505,0.11579353998205047,10,1,100,0.1457766087208155,-10,-1,-100,19104.342211367213,-0.010246369524590107,0.01481043794996093,0.9998378182681908,68.18606281523705,4.161842047132945,370.0795433702476,-95.82805996216376,-42.441680908203125,4761.76025390625,True
1599387424.5303898,0.0,10,0.5,0.5,-10.446075995635987,-0.15025,-0.0155,-0.2505,0.016966785255252026,10,1,100,0.22419546986048727,-10,-1,-100,19098.570692167268,-0.011297783391068737,0.013447673244470717,0.9998457481905688,68.21472462770626,4.1662022503720175,372.47771694419754,-96.37394031526611,-35.03521728515625,4761.76025390625,True
1599387424.5802536,0.0,10,0.5,0.5,-10.518991610717771,-0.15025,-0.0155,-0.2505,0.05075054783073306,10,1,100,0.1878552689666012,-10,-1,-100,19094.704816463636,-0.011913669290585288,0.012524020806315398,0.9998505955325913,67.96770798268179,4.15332005241384,372.6215176188622,-96.73787277565135,-30.469482421875,4761.76025390625,True
1599387424.6321151,0.0,10,0.5,0.5,-11.171763050842285,-0.15025,-0.0155,-0.2505,0.05017990884797055,10,1,100,0.1902430383299577,-10,-1,-100,19090.824382706545,-0.012487446779204766,0.011686930967790325,0.9998537289611369,67.5563118660643,4.130626401009736,371.8524253866556,-97.10182832927673,-26.19976806640625,4761.76025390625,True
1599387424.6759973,0.0,10,0.5,0.5,-11.775824926757812,-0.15025,-0.0155,-0.2505,0.045071700739276466,10,1,100,0.19185463337252462,-10,-1,-100,19086.929390093544,-0.01301646489963917,0.010887348507992006,0.9998560082751827,67.02045096654825,4.100428397114829,370.38028038008486,-97.46581471570126,-22.226654052734375,4761.76025390625,True
1599387424.7322814,0.0,10,0.5,0.5,-12.34161545715332,-0.15025,-0.0155,-0.2505,0.04201788127066684,10,1,100,0.1936182005143792,-10,-1,-100,19083.019836816704,-0.01350569332433482,0.010141266818727684,0.9998573653052422,66.3968601016333,4.064849940354454,368.4006102354121,-97.82983657516759,-18.5498046875,4761.76025390625,True
1599387424.7771595,0.0,10,0.5,0.5,-11.50853797607422,-0.15025,-0.0155,-0.2505,0.11564686256581012,10,1,100,0.1455390940581695,-10,-1,-100,19083.019836816704,-0.01350569332433482,0.010141266818727684,0.9998573653052422,66.3968601016333,4.064849940354454,368.4006102354121,-97.82983657516759,-18.5498046875,4761.76025390625,True
1599387424.8160553,0.0,10,0.5,0.5,-12.941046092224122,-0.15025,-0.0155,-0.2505,0.03928835921233689,10,1,100,0.1968126574915125,-10,-1,-100,19079.09572152712,-0.013965138239454446,0.00945524208606237,0.9998577765417673,65.74320904167801,4.027319014906356,366.2286628381057,-98.1938952953425,-15.169097900390625,4761.76025390625,True
1599387424.8549516,0.0,10,0.5,0.5,-13.394100132751465,-0.15025,-0.0155,-0.2505,0.03842229303414063,10,1,100,0.1991952885228329,-10,-1,-100,19075.1570429235,-0.014399203519983476,0.008830757834273234,0.9998573301496883,65.16124875013999,3.993996757135914,364.4312445310306,-98.55798671649822,-12.0843505859375,4761.76025390625,True
1599387424.8958423,0.0,10,0.5,0.5,-13.807345321655273,-0.15025,-0.0155,-0.2505,0.035235752659257845,10,1,100,0.19860105733289407,-10,-1,-100,19071.20379960537,-0.014782739416800035,0.008241691967176008,0.999856762305908,64.62728153585459,3.963389052290226,362.8797665374858,-98.92210765759613,-9.295867919921875,4761.76025390625,True
1599387424.934738,0.0,10,0.5,0.5,-14.618460736083984,-0.15025,-0.0155,-0.2505,0.013161677722656973,10,1,100,0.224159413251256,-10,-1,-100,19065.24662399711,-0.015359284861456908,0.00751194737036462,0.9998538208234489,63.9470526578311,3.924409450849015,361.1936236320426,-99.46833058229238,-5.66717529296875,4761.76025390625,True
1599387424.9733214,0.0,10,0.5,0.5,-14.95409673309326,-0.15025,-0.0155,-0.2505,0.02014668669945499,10,1,100,0.22602490810091466,-10,-1,-100,19059.256673542666,-0.015895728023108357,0.006918678264488427,0.9998497175684392,63.34105655211964,3.8894166627125286,359.88758285690574,-100.01459460400606,-2.70367431640625,4761.76025390625,True
1599387425.0122497,0.0,10,0.5,0.5,-14.905685508728027,-0.15025,-0.0155,-0.2505,0.0462942253123583,10,1,100,0.21249743691984252,-10,-1,-100,19055.245163930114,-0.016256246664207163,0.006622983060154629,0.9998459234000894,63.005286348645676,3.8699851352766306,359.38532505726386,-100.37878692156892,-1.09710693359375,4761.76025390625,True
1599387425.0491192,0.0,10,0.5,0.5,-14.54876756134033,-0.15025,-0.0155,-0.2505,0.07527364197112199,10,1,100,0.17687983054732404,-10,-1,-100,19055.245163930114,-0.016256246664207163,0.006622983060154629,0.9998459234000894,63.005286348645676,3.8699851352766306,359.38532505726386,-100.37878692156892,-1.09710693359375,4761.76025390625,True
1599387425.0840635,0.0,10,0.5,0.5,-15.331598225402832,-0.15025,-0.0155,-0.2505,0.04110307279723503,10,1,100,0.23587013103335852,-10,-1,-100,19049.200584621285,-0.016789095941457475,0.006316945111217144,0.9998390982862845,62.63543951313168,3.8486864304190616,359.3739384145704,-100.92508985414753,0.75921630859375,4761.76025390625,True
1599387425.1229227,0.0,10,0.5,0.5,-14.902217352294922,-0.15025,-0.0155,-0.2505,0.07124982735130608,10,1,100,0.1829624664125092,-10,-1,-100,19049.200584621285,-0.016789095941457475,0.006316945111217144,0.9998390982862845,62.63543951313168,3.8486864304190616,359.3739384145704,-100.92508985414753,0.75921630859375,4761.76025390625,True
1599387425.1608582,0.0,10,0.5,0.5,-15.280270991516113,-0.15025,-0.0155,-0.2505,0.05816749139729266,10,1,100,0.2216078682395083,-10,-1,-100,19045.152654509642,-0.017137432864778264,0.006201491440460213,0.9998339111566077,62.49198603143859,3.8406261656653045,359.94796733945725,-101.28929490957042,1.627899169921875,4761.76025390625,True
1599387425.1987503,0.0,10,0.5,0.5,-15.32398616027832,-0.15025,-0.0155,-0.2505,0.06721408043346812,10,1,100,0.22676008482695273,-10,-1,-100,19041.090156823047,-0.01749763954628262,0.006182356890444842,0.9998277907087737,62.847100652751394,3.8631000449963824,363.39959517451916,-101.65348354574013,2.201934814453125,4761.76025390625,True
1599387425.2386496,0.0,10,0.5,0.5,-15.31887233581543,-0.15025,-0.0155,-0.2505,0.07229797299049393,10,1,100,0.22862570067729396,-10,-1,-100,19037.013092478388,-0.017838848945101654,0.0062141544002180275,0.9998215639569914,63.236145032278166,3.887599582201731,367.06523751201615,-102.01764527311065,2.480804443359375,4761.76025390625,True
1599387425.6299608,0.0,10,0.5,0.5,-15.265366455078125,-0.15025,-0.0155,-0.2505,0.08298237233960276,10,1,100,0.23291217537268225,-10,-1,-100,19032.921462286147,-0.0181848803090542,0.006342570860852872,0.9998145237607925,63.51035545433268,3.90501990920547,370.08035804207304,-102.38178542234141,2.46527099609375,4761.76025390625,True
1599387425.6639476,0.0,10,0.5,0.5,-15.163194677734376,-0.15025,-0.0155,-0.2505,0.09231140695460244,10,1,100,0.23550291197475226,-10,-1,-100,19028.815267087542,-0.0185199135718551,0.006545848977117567,0.9998070637190257,63.67146304878257,3.915506025552288,372.44741053081583,-102.74590962717338,2.155120849609375,4761.76025390625,True
1599387425.6998498,0.0,10,0.5,0.5,-15.010761604309081,-0.15025,-0.0155,-0.2505,0.10319714816486672,10,1,100,0.23821932720929004,-10,-1,-100,19024.694507027627,-0.018846310650433174,0.00683048681962719,0.9997990603239605,63.7180404380895,3.9190099252741257,374.15043868728264,-103.11002354595992,1.550628662109375,4761.76025390625,True
1599387425.748723,0.0,10,0.5,0.5,-14.808609939575195,-0.15025,-0.0155,-0.2505,0.11536781482943893,10,1,100,0.2402474980236221,-10,-1,-100,19020.559182746918,-0.019158790835973237,0.007199971092900105,0.9997905286358563,63.66415246894347,3.9164383679956307,375.26465386862236,-103.47413234081381,0.651885986328125,4761.76025390625,True
1599387425.7856212,0.0,10,0.5,0.5,-14.558437287902832,-0.15025,-0.0155,-0.2505,0.128446890194634,10,1,100,0.2416944554714329,-10,-1,-100,19016.40929459606,-0.019453379214015423,0.0076542420373474866,0.9997814654293155,64.18231445440635,3.949213272580656,379.7624980943894,-103.83821623085569,-0.540924072265625,4761.76025390625,True
1599387425.8215253,0.0,10,0.5,0.5,-14.26226884613037,-0.15025,-0.0155,-0.2505,0.1425929851345287,10,1,100,0.24205317504446203,-10,-1,-100,19012.244844306377,-0.01972154143330876,0.00819487897813761,0.9997719263722242,64.801411234798,3.988407536577603,384.8843944434784,-104.20226284868369,-2.0277099609375,4761.76025390625,True
1599387425.855036,0.0,10,0.5,0.5,-14.288318128967285,-0.15025,-0.0155,-0.2505,0.12195655619552387,10,1,100,0.2291176344517634,-10,-1,-100,19010.157158794114,-0.01984506358592194,0.008497055994076842,0.9997669595914361,65.14062351848422,4.009922844549897,387.6327597503982,-104.38427057145762,-2.88128662109375,4761.76025390625,True
1599387425.9058664,0.0,10,0.5,0.5,-13.293708186340332,-0.15025,-0.0155,-0.2505,0.2056980032581005,10,1,100,0.2510810478182962,-10,-1,-100,19003.872263639816,-0.02015424569377107,0.009531066335606058,0.9997514516893793,66.26089576837165,4.081219126105202,396.5395113488151,-104.93022418311526,-5.88262939453125,4761.76025390625,True
1599387425.9457903,0.0,10,0.5,0.5,-12.566349589538573,-0.15025,-0.0155,-0.2505,0.23630581374856374,10,1,100,0.24434533364703862,-10,-1,-100,18997.55461582006,-0.020371344014959762,0.010746301673368515,0.9997347274869315,67.49978815383649,4.160554516372906,406.2377928092691,-105.47606114050954,-9.544647216796875,4761.76025390625,True
1599387425.9804723,0.0,10,0.5,0.5,-13.465477851867675,-0.15025,-0.0155,-0.2505,0.11523867445061038,10,1,100,0.22292287197503707,-10,-1,-100,18997.55461582006,-0.020371344014959762,0.010746301673368515,0.9997347274869315,67.49978815383649,4.160554516372906,406.2377928092691,-105.47606114050954,-9.544647216796875,4761.76025390625,True
1599387426.0193963,0.0,10,0.5,0.5,-11.714629302978514,-0.15025,-0.0155,-0.2505,0.2684703622989386,10,1,100,0.2272068592286643,-10,-1,-100,18991.204222932225,-0.020407987085383775,0.012135196883559544,0.9997180857920498,68.8013487477799,4.2445439805343295,416.4001364940433,-106.02176750205419,-13.8670654296875,4761.76025390625,True
1599387426.073754,0.0,10,0.5,0.5,-12.13587953491211,-0.15025,-0.0155,-0.2505,0.1847376441032934,10,1,100,0.22097708230754431,-10,-1,-100,18989.080150015652,-0.02038264362578058,0.01263135634011579,0.9997124569974275,69.2782824937665,4.275372248197163,420.06838743016976,-106.20363776681114,-15.45458984375,4761.76025390625,True
1599387426.1146462,0.0,10,0.5,0.5,-9.667487139892579,-0.15025,-0.0155,-0.2505,0.3706657729424119,10,1,100,0.1927648122371725,-10,-1,-100,18980.547491712263,-0.02010143554363436,0.01476713382882891,0.9996888836270844,71.3275335081157,4.408181087451753,435.7121865740101,-106.93093805868406,-22.538238525390625,4761.76025390625,True
1599387426.1585593,0.0,10,0.5,0.5,-11.40460339050293,-0.15025,-0.0155,-0.2505,0.15788168877202005,10,1,100,0.22101113294111446,-10,-1,-100,18980.547491712263,-0.02010143554363436,0.01476713382882891,0.9996888836270844,71.3275335081157,4.408181087451753,435.7121865740101,-106.93093805868406,-22.538238525390625,4761.76025390625,True
1599387426.19842,0.0,10,0.5,0.5,-9.772935499572753,-0.15025,-0.0155,-0.2505,0.28433789322463704,10,1,100,0.19023208063652283,-10,-1,-100,18976.259347761516,-0.019820769027494745,0.01590985644863822,0.99967695461231,72.37523487235403,4.476338337357665,443.74348720902066,-107.29447258586701,-26.52008056640625,4761.76025390625,True
1599387426.2343268,0.0,10,0.5,0.5,-9.016560766601563,-0.15025,-0.0155,-0.2505,0.29523234779027085,10,1,100,0.16931628288137918,-10,-1,-100,18971.95666483103,-0.019375140042490625,0.017040230585960364,0.99966706182104,73.33695951707742,4.539245213206855,451.29163657180305,-107.65793142047372,-30.79595947265625,4761.76025390625,True
1599387426.275216,0.0,10,0.5,0.5,-9.142368539428709,-0.15025,-0.0155,-0.2505,0.24950495260602418,10,1,100,0.18916378716261528,-10,-1,-100,18969.7998719007,-0.019150769550853406,0.017644098616752958,0.9996609094135934,73.7724505929398,4.567869615716134,454.8017252851369,-107.8396343071515,-33.04351806640625,4761.76025390625,True
1599387426.315111,0.0,10,0.5,0.5,-7.768863357543944,-0.15025,-0.0155,-0.2505,0.3203421021750441,10,1,100,0.14836847501036637,-10,-1,-100,18965.475385558326,-0.018576561078921916,0.018828728147534883,0.9996501339842991,74.5313309734048,4.618032186736669,461.15669897116095,-108.20299196460647,-37.75909423828125,4761.76025390625,True
1599387426.355037,0.0,10,0.5,0.5,-6.893153163146972,-0.15025,-0.0155,-0.2505,0.3296542567362782,10,1,100,0.12867923664439906,-10,-1,-100,18961.136366471415,-0.01787699455985254,0.019981867615337007,0.999640504397511,75.10448427101917,4.656361268039625,466.3914356565432,-108.56629545715248,-42.768585205078125,4761.76025390625,True
1599387426.3978863,0.0,10,0.5,0.5,-5.971499435424805,-0.15025,-0.0155,-0.2505,0.3428450083516081,10,1,100,0.11037747472872672,-10,-1,-100,18956.782816386083,-0.01707691293369709,0.02114169617716742,0.9996306356486917,75.4460343355232,4.679861095734638,470.20805871422033,-108.92956002913564,-48.07122802734375,4761.76025390625,True
1599387426.4388244,0.0,10,0.5,0.5,-4.997128038024902,-0.15025,-0.0155,-0.2505,0.34711783026244225,10,1,100,0.08882717258500207,-10,-1,-100,18952.414736466482,-0.01615664910050488,0.022225479255744654,0.9996224240990673,75.5101196643683,4.685581489610203,472.30494858171795,-109.29280469665184,-53.66815185546875,4761.76025390625,True
1599387426.4757073,0.0,10,0.5,0.5,-3.9767855743408203,-0.15025,-0.0155,-0.2505,0.3524247118914465,10,1,100,0.06839026802628202,-10,-1,-100,18948.032126608072,-0.015138120427055306,0.023249807994376554,0.9996150677826743,75.24891954375272,4.670522522892782,472.3642654139709,-109.6560523785688,-59.558807373046875,4761.76025390625,True
1599387426.513604,0.0,10,0.5,0.5,-2.9054810821533206,-0.15025,-0.0155,-0.2505,0.35372160348865256,10,1,100,0.04720670499899954,-10,-1,-100,18943.63498631725,-0.014024375172033783,0.024183152724330827,0.9996091696384871,74.61649537325553,4.631895176962742,470.07576050606895,-110.01932818043312,-65.74359130859375,4761.76025390625,True
1599387426.5514753,0.0,10,0.5,0.5,-1.7913648056030271,-0.15025,-0.0155,-0.2505,0.3521534774169145,10,1,100,0.027000351582779664,-10,-1,-100,18939.223313209484,-0.012833709964022765,0.025008832224641182,0.999604849027514,73.5696436347382,4.567186204830922,465.14211449349114,-110.38265911418783,-72.2225341796875,4761.76025390625,True
1599387426.587381,0.0,10,0.5,0.5,-0.622984327697754,-0.15025,-0.0155,-0.2505,0.34785181467632637,10,1,100,0.007780057967708781,-10,-1,-100,18934.797104458325,-0.011583164128948114,0.02571103329237633,0.9996023074582211,72.07032692066298,4.4742985892551115,457.29437249654467,-110.74607188831988,-78.99569702148438,4761.76025390625,True
1599387426.6243145,0.0,10,0.5,0.5,0.5939537078857422,-0.15025,-0.0155,-0.2505,0.3412615242074779,10,1,100,-0.009644570257975743,-10,-1,-100,18930.356355931377,-0.010295387299463615,0.02628057600710626,0.9996015887968009,70.08787496694855,4.35165056159554,446.3062598777349,-111.10959144580626,-86.06314086914062,4761.76025390625,True
1599387426.6621807,0.0,10,0.5,0.5,1.8593854705810546,-0.15025,-0.0155,-0.2505,0.3325976253528354,10,1,100,-0.02498385734008407,-10,-1,-100,18925.90106302011,-0.008993487347134019,0.026711179080526587,0.9996027361394451,67.60158262023513,4.198272742520002,432.0114115064046,-111.47323919018584,-93.42474365234375,4761.76025390625,True
1599387426.6961222,0.0,10,0.5,0.5,4.684245319747925,-0.15025,-0.0155,-0.2505,0.3332115570831691,10,1,100,-0.1076455182471525,-10,-1,-100,18919.190843421035,-0.007067706184228055,0.027099974817126487,0.9996077425141348,67.09224487820309,4.169810760804668,431.04680251955676,-112.01883976707445,-104.84171295166016,4761.76025390625,True
1599387426.7319932,0.0,10,0.5,0.5,3.4467118488311765,-0.15025,-0.0155,-0.2505,0.30206773112946805,10,1,100,0.015099077939466146,-10,-1,-100,18916.94683049037,-0.006443318596823433,0.027162780481120394,0.9996102575514092,68.22862189763123,4.241929205077144,439.1233659110185,-112.20064373795871,-108.63070678710938,4761.76025390625,True
1599387426.7699223,0.0,10,0.5,0.5,4.095585294342041,-0.15025,-0.0155,-0.2505,0.3001650101273965,10,1,100,0.009374532666002675,-10,-1,-100,18914.699182153214,-0.005834046447572317,0.02719605097303622,0.9996130945088302,69.37249450024292,4.3146900177738905,447.2734055468201,-112.3824084590879,-112.36353302001953,4761.76025390625,True
1599387426.80583,0.0,10,0.5,0.5,6.169727436065673,-0.15025,-0.0155,-0.2505,0.2964526393367524,10,1,100,-0.05593826048026353,-10,-1,-100,18910.192982619046,-0.00469663079827445,0.027187044090503053,0.9996193306918219,71.24018806004206,4.434389931050281,460.9312080029581,-112.74583388052805,-119.62382507324219,4761.76025390625,True
1599387426.8417406,0.0,10,0.5,0.5,8.598403313446045,-0.15025,-0.0155,-0.2505,0.2717899184759959,10,1,100,-0.12160708867760363,-10,-1,-100,18903.40643447265,-0.003076045422848053,0.026950138948707153,0.9996320462826318,73.44024941234032,4.5764710038027765,477.6589041068215,-113.29075017680499,-129.96730041503906,4761.76025390625,True
1599387426.8746405,0.0,10,0.5,0.5,7.438886518096924,-0.15025,-0.0155,-0.2505,0.2820635545693571,10,1,100,-0.014577152524576989,-10,-1,-100,18901.136987634934,-0.002586750932946304,0.026824803392510227,0.9996368033653843,73.92963524639303,4.608449425134995,481.67739049417065,-113.47234451752844,-133.26708984375,4761.76025390625,True
1599387426.9115446,0.0,10,0.5,0.5,8.009555333709717,-0.15025,-0.0155,-0.2505,0.27989759956031135,10,1,100,-0.017054303907616326,-10,-1,-100,18898.863908967236,-0.0021298160424980724,0.02668876997709608,0.9996415224672968,74.30017803788581,4.632877504797576,484.93104670246794,-113.6539238436993,-136.4925537109375,4761.76025390625,True
1599387426.949445,0.0,10,0.5,0.5,9.797107698059081,-0.15025,-0.0155,-0.2505,0.25894211394190914,10,1,100,-0.06489881802893016,-10,-1,-100,18894.306857887073,-0.0012892013718254858,0.026373071604959147,0.9996513387446357,74.71286129816156,4.6607725858318405,489.3127331900553,-114.01705388780695,-142.7206573486328,4761.76025390625,True
1599387426.989305,0.0,10,0.5,0.5,12.970831970977782,-0.15025,-0.0155,-0.2505,0.19720038619002292,10,1,100,-0.13456299674907737,-10,-1,-100,18885.149181472138,9.894635100809253e-05,0.025524182797715168,0.9996742000782696,74.42285314433205,4.645123627051218,490.7818407415401,-114.7432983386538,-154.2866973876953,4761.76025390625,True
1599387427.0272381,0.0,10,0.5,0.5,12.318084339141844,-0.15025,-0.0155,-0.2505,0.23144005856787844,10,1,100,-0.05427632909017299,-10,-1,-100,18880.548554741777,0.0006215706351845132,0.025064423079300593,0.9996856447632162,73.83188903449555,4.608790903246645,488.56012289644553,-115.10645838610412,-159.62368774414062,4761.76025390625,True
1599387427.0651095,0.0,10,0.5,0.5,12.108411498260498,-0.15025,-0.0155,-0.2505,0.25282698727163044,10,1,100,-0.02801070690345412,-10,-1,-100,18878.242793379817,0.0008491642754817072,0.024842383374413475,0.9996910197197493,73.44954814509471,4.5851133372353345,486.8648456491579,-115.28805531502609,-162.18048095703125,4761.76025390625,True
1599387427.1030428,0.0,10,0.5,0.5,12.551664915084839,-0.15025,-0.0155,-0.2505,0.2498559431119819,10,1,100,-0.02808969627845338,-10,-1,-100,18875.933400077396,0.0010495885151066862,0.02461557196073994,0.9996964399161352,73.01849270737706,4.558367588196179,484.83836876908595,-115.46966557082678,-164.6629638671875,4761.76025390625,True
1599387427.1369185,0.0,10,0.5,0.5,13.917206884384155,-0.15025,-0.0155,-0.2505,0.21851924388921307,10,1,100,-0.04322576491336558,-10,-1,-100,18871.30371541076,0.0013625812595268415,0.024126816326757353,0.9997079774145279,72.03566207713473,4.497349015311677,479.95443272760986,-115.83292981419709,-169.40545654296875,4761.76025390625,True
1599387427.1778793,0.0,10,0.5,0.5,13.723216294860839,-0.15025,-0.0155,-0.2505,0.24043065697111188,10,1,100,-0.02510922163001736,-10,-1,-100,18868.983423640253,0.001475881881235545,0.023884477900832517,0.9997136357417945,71.49558446928039,4.463846384702942,477.17219068671994,-116.01458527443113,-171.66519165039062,4761.76025390625,True
1599387427.2157822,0.0,10,0.5,0.5,14.959593746185302,-0.15025,-0.0155,-0.2505,0.21222957253937974,10,1,100,-0.030898290533611712,-10,-1,-100,18864.33193917689,0.0016258989703856698,0.02341079907896662,0.9997246075490102,70.34640365336982,4.392701978745697,471.1107736144266,-116.37794513798785,-175.96157836914062,4761.76025390625,True
1599387427.2536774,0.0,10,0.5,0.5,15.557273106384276,-0.15025,-0.0155,-0.2505,0.20879451183060466,10,1,100,-0.02274853235170659,-10,-1,-100,18859.66591845476,0.0016839149366927968,0.02295217172525398,0.9997351460479823,69.13908823885077,4.31823223734927,464.6087486207305,-116.74137058462858,-179.96066284179688,4761.76025390625,True
1599387427.290572,0.0,10,0.5,0.5,-128.15850487442017,-0.15025,-0.0155,-0.2505,0.20422251019384596,10,1,100,-0.01107144923092494,-10,-1,-100,18854.985358959413,0.0016266189996288617,0.022497194690333094,0.9997455828067934,67.91032980980856,4.242784964494997,457.90882002539587,-117.10486045944879,176.3372344970703,4761.76025390625,True
1599387427.329441,0.0,10,0.5,0.5,-38.02621450195312,-0.15025,-0.0155,-0.2505,0.20162673329944136,10,1,100,-0.001349408672233864,-10,-1,-100,18850.290258194436,0.0014827346562716138,0.022063791755262033,0.9997554653970737,67.15783920425149,4.197487207339363,454.37624669895695,-117.46839840386,172.93223571777344,4761.76025390625,True
1599387427.3654795,0.0,10,0.5,0.5,-38.12286642074585,-0.15025,-0.0155,-0.2505,0.19887309964270355,10,1,100,0.010533849858838552,-10,-1,-100,18845.58061766904,0.0012413811429115508,0.02164867358090863,0.9997648693093019,68.39918709750441,4.277232989968718,464.3457198228088,-117.83187618107843,169.82415771484375,4761.76025390625,True
1599387427.4003828,0.0,10,0.5,0.5,-38.15649453277588,-0.15025,-0.0155,-0.2505,0.1967372253548748,10,1,100,0.022873684574399086,-10,-1,-100,18840.856440131203,0.0009087499653592129,0.021255399573622373,0.9997736654675727,69.51510163227577,4.349547275053014,473.5184029626573,-118.1952765473993,166.71170043945312,4761.76025390625,True
1599387427.4342926,0.0,10,0.5,0.5,-37.37953131866455,-0.15025,-0.0155,-0.2505,0.17573820499159554,10,1,100,0.06279199630558842,-10,-1,-100,18833.742924250662,0.00024320317063702558,0.02071044031233749,0.9997854862490688,71.17371471595285,4.457759867584084,487.269547913473,-118.74023160412835,161.56521606445312,4761.76025390625,True
1599387427.4702377,0.0,10,0.5,0.5,-39.170531484985354,-0.15025,-0.0155,-0.2505,0.22982093681387628,10,1,100,-0.0037020870561458364,-10,-1,-100,18833.742924250662,0.00024320317063702558,0.02071044031233749,0.9997854862490688,71.17371471595285,4.457759867584084,487.269547913473,-118.74023160412835,161.56521606445312,4761.76025390625,True
1599387427.5061412,0.0,10,0.5,0.5,-38.156587099456786,-0.15025,-0.0155,-0.2505,0.19292870983384114,10,1,100,0.05712541391654885,-10,-1,-100,18828.982418617932,-0.0003090410333470446,0.02037860655038117,0.9997922868719806,72.40976724533057,4.538470331919266,497.3953661556664,-119.10342916912339,157.77333068847656,4761.76025390625,True
1599387427.5420454,0.0,10,0.5,0.5,-37.97655175552369,-0.15025,-0.0155,-0.2505,0.19021312651216932,10,1,100,0.07216555874155459,-10,-1,-100,18824.207387749455,-0.0009462901514754572,0.02005565983638421,0.9997984172039264,73.67279655230955,4.6211156046594635,507.7632684437039,-119.46653638318963,153.68841552734375,4761.76025390625,True
1599387427.5749953,0.0,10,0.5,0.5,-36.82872837905884,-0.15025,-0.0155,-0.2505,0.17955605452592127,10,1,100,0.13217952326471544,-10,-1,-100,18817.017614954384,-0.0020689870526821026,0.019668670185661485,0.999804412225563,75.57255098909776,4.745604383799169,523.4582654331764,-120.01102067885286,147.012451171875,4761.76025390625,True
1599387427.6099024,0.0,10,0.5,0.5,-39.00166719589233,-0.15025,-0.0155,-0.2505,0.21788080670886306,10,1,100,0.02027932174635768,-10,-1,-100,18817.017614954384,-0.0020689870526821026,0.019668670185661485,0.999804412225563,75.57255098909776,4.745604383799169,523.4582654331764,-120.01102067885286,147.012451171875,4761.76025390625,True
1599387427.645807,0.0,10,0.5,0.5,-37.578166188812254,-0.15025,-0.0155,-0.2505,0.19205873226122328,10,1,100,0.11472481238174798,-10,-1,-100,18812.20628732769,-0.002924170693013492,0.019436909055718935,0.999806809234723,76.69465838336936,4.8194282671155895,532.989644827964,-120.37390072358583,142.19570922851562,4761.76025390625,True
1599387427.681221,0.0,10,0.5,0.5,-36.68423419036865,-0.15025,-0.0155,-0.2505,0.19151259248571145,10,1,100,0.1346982388343177,-10,-1,-100,18807.380446681753,-0.003879049888617532,0.019224034290207068,0.9998076762445719,77.64878839701213,4.882403410652353,541.4007775946238,-120.73670548807938,137.08627319335938,4761.76025390625,True
1599387427.71513,0.0,10,0.5,0.5,-35.74418445358277,-0.15025,-0.0155,-0.2505,0.19863753871335046,10,1,100,0.1515004606552171,-10,-1,-100,18802.54009572824,-0.004894995006134027,0.019097865612233957,0.9998056363878668,78.38527081782743,4.931226281234572,548.3334023320832,-121.09945038887065,131.68539428710938,4761.76025390625,True
1599387427.7510343,0.0,10,0.5,0.5,-34.756351306915285,-0.15025,-0.0155,-0.2505,0.19745240391871502,10,1,100,0.1742772014853851,-10,-1,-100,18797.68523641082,-0.006020064233105964,0.018974711777733237,0.9998018399360852,78.84806797206228,4.962233242750261,553.3804197375072,-121.46215585051792,125.99197387695312,4761.76025390625,True
1599387427.7864501,0.0,10,0.5,0.5,-34.93481085739136,-0.15025,-0.0155,-0.2505,0.20522789649607193,10,1,100,0.1279000633633131,-10,-1,-100,18795.252366222325,-0.006614945170881192,0.018935513395068455,0.9997988241805704,78.95998936754523,4.969972898569673,555.0729737813764,-121.64350131610273,123.03594970703125,4761.76025390625,True
1599387427.839307,0.0,10,0.5,0.5,-31.88656204452515,-0.15025,-0.0155,-0.2505,0.2051234642934948,10,1,100,0.2809374208569969,-10,-1,-100,18787.931993981823,-0.00854076004758169,0.018900542688001832,0.9997848893156511,78.7346133309596,4.956950033406442,556.2083252345723,-122.18755109798374,113.73086547851562,4761.76025390625,True
1599387427.8752117,0.0,10,0.5,0.5,-32.84199947814941,-0.15025,-0.0155,-0.2505,0.2102328896989751,10,1,100,0.1650360270941989,-10,-1,-100,18785.484615428722,-0.009229866389267417,0.018916845819467756,0.9997784567146257,78.44912881804358,4.939123553060166,555.0975916667184,-122.36891820843033,110.48359680175781,4761.76025390625,True
1599387427.907126,0.0,10,0.5,0.5,-30.89208480529785,-0.15025,-0.0155,-0.2505,0.21849876780117108,10,1,100,0.25383737225707853,-10,-1,-100,18780.578975248267,-0.010655501814684328,0.01900814006784848,0.9997625472542159,77.5212573050149,4.880839968679899,550.3277031150611,-122.73170233574727,103.77104187011719,4761.76025390625,True
1599387427.9430296,0.0,10,0.5,0.5,-31.10745161514282,-0.15025,-0.0155,-0.2505,0.21630646944137372,10,1,100,0.19811769333048387,-10,-1,-100,18778.12071255187,-0.011436164927855015,0.019072157144713286,0.999752702898867,76.86558362818835,4.839639651642855,546.5659176555405,-122.91312744549262,100.30564880371094,4761.76025390625,True
1599387427.9779358,0.0,10,0.5,0.5,-29.038467971038816,-0.15025,-0.0155,-0.2505,0.2321728767678918,10,1,100,0.2959842779931061,-10,-1,-100,18773.193299609702,-0.013027039275056594,0.019275136838505045,0.9997293460470104,75.14577808711758,4.731815509873393,536.0878933236132,-123.27606321543405,93.15737915039062,4761.76025390625,True
1599387428.013841,0.0,10,0.5,0.5,-27.764768629455567,-0.15025,-0.0155,-0.2505,0.24451982286714913,10,1,100,0.32496214252470634,-10,-1,-100,18768.251365102362,-0.014726761948052237,0.019572266554988216,0.9996999794260405,72.84799462008445,4.588347645219729,521.3986580762167,-123.63913680150267,85.71916198730469,4761.76025390625,True
1599387428.044758,0.0,10,0.5,0.5,-26.443545342254637,-0.15025,-0.0155,-0.2505,0.2587372766055352,10,1,100,0.34967143171225545,-10,-1,-100,18763.294905500254,-0.016485864651339596,0.019971511006231638,0.999664621267966,73.56708878999292,4.636061716347099,528.2686232078609,-124.00224870869302,77.99125671386719,4761.76025390625,True
1599387428.0796647,0.0,10,0.5,0.5,-26.69589310455322,-0.15025,-0.0155,-0.2505,0.24657231197404533,10,1,100,0.27735009293665164,-10,-1,-100,18760.81123064831,-0.01741612147022014,0.020223190395515726,0.9996437871978003,75.0938802084867,4.733944410806506,540.1118652259104,-124.1837286472978,74.01896667480469,4761.76025390625,True
1599387428.1135733,0.0,10,0.5,0.5,-24.330927557373045,-0.15025,-0.0155,-0.2505,0.2883387793472982,10,1,100,0.3951876878145395,-10,-1,-100,18755.832997031976,-0.019321677507670446,0.02083066197572785,0.9995962966617786,78.19162036837038,4.933306201913237,564.2230411370634,-124.54652833322136,65.857666015625,4761.76025390625,True
1599387428.1464856,0.0,10,0.5,0.5,-22.89592956237793,-0.15025,-0.0155,-0.2505,0.3123329005143044,10,1,100,0.4228196504814524,-10,-1,-100,18750.840257097967,-0.021293108462983965,0.021599350013622568,0.9995399299732715,80.97679837268905,5.113572202268322,586.2134006260977,-124.90912571922958,57.40802001953125,4761.76025390625,True
1599387428.1803946,0.0,10,0.5,0.5,-19.615085684967042,-0.15025,-0.0155,-0.2505,0.39599576457579067,10,1,100,0.5597158388720627,-10,-1,-100,18743.323965246906,-0.02431648544109989,0.02305630714261441,0.9994383999210448,84.37926265441375,5.3346314793122565,613.7978848415429,-125.45269052439436,44.19340515136719,4761.76025390625,True
1599387428.214304,0.0,10,0.5,0.5,-22.81756364593506,-0.15025,-0.0155,-0.2505,0.2507156281220676,10,1,100,0.2589557135998219,-10,-1,-100,18743.323965246906,-0.02431648544109989,0.02305630714261441,0.9994383999210448,84.37926265441375,5.3346314793122565,613.7978848415429,-125.45269052439436,44.19340515136719,4761.76025390625,True
1599387428.246219,0.0,10,0.5,0.5,-19.04049354400635,-0.15025,-0.0155,-0.2505,0.387791362028355,10,1,100,0.4853460501662912,-10,-1,-100,18738.294990273193,-0.026360864301657037,0.02429868703146871,0.9993571326817137,85.70195713867447,5.421031828712632,625.4197259122127,-125.81492423062946,35.02479553222656,4761.76025390625,True
1599387428.2841172,0.0,10,0.5,0.5,-19.35056194229126,-0.15025,-0.0155,-0.2505,0.3443322294416014,10,1,100,0.39428025794251426,-10,-1,-100,18735.775069892872,-0.027377242097868314,0.025028230682398837,0.9993118003326205,86.03212854327826,5.442799692394667,628.8350834330572,-125.99602403387595,30.33331298828125,4761.76025390625,True
1599387428.3190236,0.0,10,0.5,0.5,-16.57047342071533,-0.15025,-0.0155,-0.2505,0.4415787518021836,10,1,100,0.5140646283591342,-10,-1,-100,18730.724362524226,-0.029375678846238734,0.026570096865124532,0.9992152417997338,85.96012404975309,5.439147385680907,630.3260327290798,-126.35823771678774,20.73419189453125,4761.76025390625,True
1599387428.355925,0.0,10,0.5,0.5,-14.901501950073243,-0.15025,-0.0155,-0.2505,0.4889464535880336,10,1,100,0.5270362186019132,-10,-1,-100,18725.659164266428,-0.03129550067462694,0.028395777083813238,0.9991067367810762,84.82802373216677,5.3678475724692545,624.0280742965102,-126.72053530951035,10.8494873046875,4761.76025390625,True
1599387428.3918288,0.0,10,0.5,0.5,-13.185193547821044,-0.15025,-0.0155,-0.2505,0.5249119337902799,10,1,100,0.5372160762078606,-10,-1,-100,18720.57946957182,-0.033118274916191584,0.03037442391125173,0.9989897768439051,82.56195801011117,5.22526131247134,609.3217569469606,-127.08298874512599,0.6776123046875,4761.76025390625,True
1599387428.4277325,0.0,10,0.5,0.5,-13.532332305908202,-0.15025,-0.0155,-0.2505,0.4480481622771889,10,1,100,0.44868780781017936,-10,-1,-100,18718.03418360313,-0.03395541959557611,0.0314649750016177,0.9989279177339254,80.98947002804621,5.126689910585449,598.6839953201239,-127.26429283351372,-4.515350341796875,4761.76025390625,True
1599387428.4686239,0.0,10,0.5,0.5,-10.463060764312743,-0.15025,-0.0155,-0.2505,0.5923938486443664,10,1,100,0.5351623041607565,-10,-1,-100,18712.932730020373,-0.03548755627263515,0.0337583987920101,0.9987997816683762,78.98738366220248,5.003557173584628,585.7755534629935,-127.62702076303313,-15.116424560546875,4761.76025390625,True
1599387428.5075195,0.0,10,0.5,0.5,-8.629766049957276,-0.15025,-0.0155,-0.2505,0.6320259972977336,10,1,100,0.5260062607849394,-10,-1,-100,18707.81677314872,-0.0367824747858496,0.036191869283019,0.9986677115769936,83.32475453676928,5.284448199724812,619.9349179225018,-127.98952156797222,-26.00439453125,4761.76025390625,True
1599387428.5452073,0.0,10,0.5,0.5,-4.4670670631408695,-0.15025,-0.0155,-0.2505,0.8099435488675024,10,1,100,0.5618927613111644,-10,-1,-100,18700.115670319414,-0.03827183310598946,0.040008281544325536,0.9984661257141261,88.56536274623163,5.628186879809958,662.0860664552006,-128.53273805921503,-42.8748779296875,4761.76025390625,True
1599387428.582144,0.0,10,0.5,0.5,-1.5377043640136714,-0.15025,-0.0155,-0.2505,0.8510022286835369,10,1,100,0.5021480490263083,-10,-1,-100,18692.381993390503,-0.03906997478746801,0.043835597076202965,0.9982745000745432,91.33108814981733,5.813111683636616,686.006431617652,-129.07551474146362,-60.3931884765625,4761.76025390625,True
1599387428.6190093,0.0,10,0.5,0.5,-3.365815953826904,-0.15025,-0.0155,-0.2505,0.6034336572487018,10,1,100,0.4345195688361819,-10,-1,-100,18689.796865206095,-0.03916734150585975,0.04504546119219886,0.9982168230326244,91.46329925255866,5.823535601502938,688.0840149693239,-129.256411881046,-66.37725830078125,4761.76025390625,True
1599387428.6539538,0.0,10,0.5,0.5,-2.2805636001586915,-0.15025,-0.0155,-0.2505,0.6138392909031061,10,1,100,0.4296338799041045,-10,-1,-100,18687.2081187116,-0.0391997990984659,0.046221073627089056,0.9981618045704809,91.16364165046254,5.805993183019133,686.9134601761884,-129.43732380051435,-72.43362426757812,4761.76025390625,True
1599387428.6858664,0.0,10,0.5,0.5,1.3029209762573242,-0.15025,-0.0155,-0.2505,0.7390112465449479,10,1,100,0.4158121297629612,-10,-1,-100,18682.019767922116,-0.039092905947733285,0.04840847285287444,0.9980623048991552,89.210551575897,5.683897598624785,674.3300513406508,-129.79925978341828,-84.7637939453125,4761.76025390625,True
1599387428.722732,0.0,10,0.5,0.5,6.006936426544189,-0.15025,-0.0155,-0.2505,0.8469833829546576,10,1,100,0.36821564403289286,-10,-1,-100,18674.210079395794,-0.038554201188519835,0.051358729410960556,0.9979357967745254,82.83554621212592,5.282630637397544,629.1402901540068,-130.34265621602387,-103.80110168457031,4761.76025390625,True
1599387428.759665,0.0,10,0.5,0.5,1.415799250793457,-0.15025,-0.0155,-0.2505,0.5542540223787605,10,1,100,0.4228119900056272,-10,-1,-100,18674.210079395794,-0.038554201188519835,0.051358729410960556,0.9979357967745254,82.83554621212592,5.282630637397544,629.1402901540068,-130.34265621602387,-103.80110168457031,4761.76025390625,True
