Timestamp,Input Throttle,horizon,dT,dt,Input Roll,Roll P,Roll I,Roll D,Input Pitch,Pitch P,Pitch I,Pitch D,Input Yaw,Yaw P,Yaw I,Yaw D,Altitude,Direction X,Direction Y,Direction Z,Drag X,Drag Y,Drag Z,Vertical Velocity,Roll,Mass,Has Fuel
1599388344.715179,0.0,10,0.5,0.5,-11.214623474121096,-0.2,-0.0155,-0.37525,-0.0001949188474876522,10,1,100,0.4981450515575565,-10,-1,-100,19348.34677256702,-0.048847549674430384,-0.00017403485763142472,0.9988062307588356,61.16629544906676,3.69190091358641,234.7100439132402,-68.848117123068,-33.922760009765625,4761.76025390625,True
1599388344.750127,0.0,10,0.5,0.5,-11.301700621032715,-0.2,-0.0155,-0.37525,-0.0008168332415272087,10,1,100,0.4990256382080847,-10,-1,-100,19346.96616105165,-0.048899053188033455,-0.00016548105017187762,0.9988037120542432,61.25619564739151,3.698002757814614,235.7016872522795,-69.03057038977002,-33.923919677734375,4761.76025390625,True
1599388344.790047,0.0,10,0.5,0.5,-11.38836905670166,-0.2,-0.0155,-0.37525,-0.000712624294214557,10,1,100,0.5046034278464696,-10,-1,-100,19345.581900365883,-0.048952128057850625,-0.00015660707018747263,0.9988011136521792,61.3462502182176,3.704117641218495,236.6960000049829,-69.21302019060934,-33.92510986328125,4761.76025390625,True
1599388344.827952,0.0,10,0.5,0.5,-11.2872587310791,-0.2,-0.0155,-0.37525,0.03515521821773028,10,1,100,0.5076618292109135,-10,-1,-100,19340.00836981379,-0.04898367965367222,0.00017767384997074628,0.998799563255606,61.71789763013879,3.729297962684985,240.73862107461306,-69.94278464474827,-34.25274658203125,4761.76025390625,True
1599388344.8658538,0.0,10,0.5,0.5,-11.49661265258789,-0.2,-0.0155,-0.37525,0.00174489358690546,10,1,100,0.5094050375941209,-10,-1,-100,19340.00836981379,-0.04898367965367222,0.00017767384997074628,0.998799563255606,61.71789763013879,3.729297962684985,240.73862107461306,-69.94278464474827,-34.25274658203125,4761.76025390625,True
1599388344.9067078,0.0,10,0.5,0.5,-10.762594458007813,-0.2,-0.0155,-0.37525,0.08696330350880532,10,1,100,0.4854457259437649,-10,-1,-100,19334.37646102393,-0.0487213371117111,0.0009522251457607716,0.9988119565650578,62.13679378944003,3.7572888398429027,245.00154570297028,-70.67248634857413,-35.678955078125,4761.76025390625,True
1599388344.9466343,0.0,10,0.5,0.5,-11.381976815795898,-0.2,-0.0155,-0.37525,0.009603396444378865,10,1,100,0.516552113851048,-10,-1,-100,19334.37646102393,-0.0487213371117111,0.0009522251457607716,0.9988119565650578,62.13679378944003,3.7572888398429027,245.00154570297028,-70.67248634857413,-35.678955078125,4761.76025390625,True
1599388344.9863546,0.0,10,0.5,0.5,-10.803253582763672,-0.2,-0.0155,-0.37525,0.0771812242150319,10,1,100,0.49087246033270404,-10,-1,-100,19331.538616632926,-0.048443593591442784,0.0015657033753614712,0.9988246927328577,62.354696933929574,3.7717220552745734,247.18065038383912,-71.0373103026646,-36.83135986328125,4761.76025390625,True
1599388345.0272453,0.0,10,0.5,0.5,-10.486144642639161,-0.2,-0.0155,-0.37525,0.09566481886376435,10,1,100,0.47780050571441335,-10,-1,-100,19328.686179701006,-0.0480282239004949,0.002290020168736619,0.9988433538431293,62.566913398241326,3.7857265279106835,249.3468164987013,-71.40211551564319,-38.277618408203125,4761.76025390625,True
1599388345.0661411,0.0,10,0.5,0.5,-10.108479685974121,-0.2,-0.0155,-0.37525,0.1219184369166903,10,1,100,0.46768745699641795,-10,-1,-100,19325.819151393604,-0.04751501626228733,0.003185077399405411,0.9988654456489896,62.76082232475251,3.7985079036451768,251.44909566672527,-71.76690209990039,-40.016937255859375,4761.76025390625,True
1599388345.106035,0.0,10,0.5,0.5,-9.668980067443847,-0.2,-0.0155,-0.37525,0.14158969474854327,10,1,100,0.45127071212576675,-10,-1,-100,19322.937531929463,-0.04685602525939972,0.0041746998826671525,0.9988929295864398,62.9224699621579,3.809188758622962,253.4301250233393,-72.13167126197891,-42.05023193359375,4761.76025390625,True
1599388345.144931,0.0,10,0.5,0.5,-9.080842172241212,-0.2,-0.0155,-0.37525,0.16464045654988932,10,1,100,0.4300103121424982,-10,-1,-100,19320.041322203353,-0.04606547664275857,0.005279955670426156,0.9989244685809802,63.03418388186015,3.8166663833854115,255.21633118493375,-72.49642497342545,-44.377105712890625,4761.76025390625,True
1599388345.1848266,0.0,10,0.5,0.5,-9.205148866271974,-0.2,-0.0155,-0.37525,0.11927806889739385,10,1,100,0.45917341852766635,-10,-1,-100,19318.587746008066,-0.0456144912098093,0.005867397919983838,0.9989418861141618,63.06526282782384,3.818827389513675,256.0108307392548,-72.67879703083558,-45.650726318359375,4761.76025390625,True
1599388345.2247171,0.0,10,0.5,0.5,-6.311534066772461,-0.2,-0.0155,-0.37525,0.33964827097815614,10,1,100,0.2641670043985591,-10,-1,-100,19312.736968321376,-0.04343475308490721,0.008399325433961232,0.9990209575162613,62.95868390864582,3.8128996609821333,258.2499805968835,-73.40826670843916,-51.480133056640625,4761.76025390625,True
1599388345.26461,0.0,10,0.5,0.5,-8.472316496276855,-0.2,-0.0155,-0.37525,0.08727768473881574,10,1,100,0.48158592423189156,-10,-1,-100,19312.736968321376,-0.04343475308490721,0.008399325433961232,0.9990209575162613,62.95868390864582,3.8128996609821333,258.2499805968835,-73.40826670843916,-51.480133056640625,4761.76025390625,True
1599388345.3055012,0.0,10,0.5,0.5,-6.515398204040528,-0.2,-0.0155,-0.37525,0.23933409720883442,10,1,100,0.3352047669266056,-10,-1,-100,19309.78969532356,-0.04210905976992167,0.009774182227703229,0.9990652093067164,62.723914138838616,3.7985696435863274,258.61915524191426,-73.7730016756136,-54.8355712890625,4761.76025390625,True
1599388345.3503833,0.0,10,0.5,0.5,-3.375721417236328,-0.2,-0.0155,-0.37525,0.40176365958096605,10,1,100,0.12343943821163827,-10,-1,-100,19303.851379435975,-0.038984755838291286,0.012492664464413565,0.9991617097080975,61.757155769674874,3.739115933094642,257.2598239428345,-74.50251330952355,-62.43072509765625,4761.76025390625,True
1599388345.3922687,0.0,10,0.5,0.5,-3.7453008132934573,-0.2,-0.0155,-0.37525,0.2750317405512538,10,1,100,0.23838137607477797,-10,-1,-100,19300.860334877507,-0.03719825768217713,0.013801412289044985,0.9992125953190533,60.96844638434934,3.690664595774404,255.27307373648836,-74.8673099679984,-66.67068481445312,4761.76025390625,True
1599388345.4331594,0.0,10,0.5,0.5,-5.290094743347168,-0.2,-0.0155,-0.37525,0.14538052897948017,10,1,100,0.4159066580952668,-10,-1,-100,19300.860334877507,-0.03719825768217713,0.013801412289044985,0.9992125953190533,60.96844638434934,3.690664595774404,255.27307373648836,-74.8673099679984,-66.67068481445312,4761.76025390625,True
1599388345.47405,0.0,10,0.5,0.5,0.1416342437744138,-0.2,-0.0155,-0.37525,0.4106811134605305,10,1,100,-0.016224357990917537,-10,-1,-100,19294.834464464337,-0.03327963932341029,0.016202770882399707,0.9993147331157668,58.63827535457959,3.54821537647807,248.01997232409423,-75.59703872224055,-76.03656005859375,4761.76025390625,True
1599388345.5169356,0.0,10,0.5,0.5,-0.36892377624511763,-0.2,-0.0155,-0.37525,0.29791094940231855,10,1,100,0.1311691623681479,-10,-1,-100,19291.79963431845,-0.031070141343194555,0.017348806572662988,0.9993666320362206,57.04350213717267,3.4512682174892824,242.49476200828542,-75.96199099647701,-81.16156005859375,4761.76025390625,True
1599388345.5578258,0.0,10,0.5,0.5,0.7888859161376951,-0.2,-0.0155,-0.37525,0.28405095827178933,10,1,100,0.11524850288711111,-10,-1,-100,19288.75020374218,-0.028931124351276465,0.018252680820179345,0.9994147435807856,55.15056722413319,3.3366633036957962,235.62889195864955,-76.3270118556458,-86.41204833984375,4761.76025390625,True
1599388345.9298542,0.0,10,0.5,0.5,-1.1162056503295898,-0.2,-0.0155,-0.37525,0.19496080603512897,10,1,100,0.3274367668497719,-10,-1,-100,19288.75020374218,-0.028931124351276465,0.018252680820179345,0.9994147435807856,55.15056722413319,3.3366633036957962,235.62889195864955,-76.3270118556458,-86.41204833984375,4761.76025390625,True
1599388345.9647634,0.0,10,0.5,0.5,2.0022527038574216,-0.2,-0.0155,-0.37525,0.29232516987255985,10,1,100,0.07248630444002824,-10,-1,-100,19285.686170786386,-0.02662855957196837,0.01912655205242854,0.9994624029055359,53.0343214676671,3.2090329148546854,227.72404467071289,-76.69210253321666,-91.7232666015625,4761.76025390625,True
1599388346.0021744,0.0,10,0.5,0.5,0.07159490814208985,-0.2,-0.0155,-0.37525,0.20601076930948717,10,1,100,0.30106216301954375,-10,-1,-100,19285.686170786386,-0.02662855957196837,0.01912655205242854,0.9994624029055359,53.0343214676671,3.2090329148546854,227.72404467071289,-76.69210253321666,-91.7232666015625,4761.76025390625,True
1599388346.0390859,0.0,10,0.5,0.5,3.193195609664917,-0.2,-0.0155,-0.37525,0.2886962429419532,10,1,100,0.03866873252756586,-10,-1,-100,19282.607533337083,-0.024258443107053062,0.01986848615216144,0.999508264696217,53.455613669925114,3.2355055344420527,230.67919863664025,-77.05719872984746,-97.04134368896484,4761.76025390625,True
1599388346.0899978,0.0,10,0.5,0.5,4.274545562362671,-0.2,-0.0155,-0.37525,0.28063731499713446,10,1,100,0.01792162920672291,-10,-1,-100,19279.514294662396,-0.02193140957845227,0.02046053207612531,0.9995500887404613,55.03594766206649,3.3326644591390124,238.67871786089748,-77.42221103829176,-102.27652740478516,4761.76025390625,True
1599388346.1308804,0.0,10,0.5,0.5,6.752217278671264,-0.2,-0.0155,-0.37525,0.29650750978022195,10,1,100,-0.1538349003350594,-10,-1,-100,19274.847066276125,-0.018270004598671567,0.021135786625382614,0.9996096665477435,57.0806135656835,3.4594109724043673,249.38011590748727,-77.96957448613936,-109.89132690429688,4761.76025390625,True
1599388346.1697886,0.0,10,0.5,0.5,5.363541421508789,-0.2,-0.0155,-0.37525,0.24780400938033376,10,1,100,0.07916450188684923,-10,-1,-100,19273.284026347334,-0.017076838503691464,0.021300227689857235,0.9996272714802649,57.651084874239075,3.495045403413738,252.4894533610018,-78.15198910085117,-112.32815551757812,4761.76025390625,True
1599388346.2077174,0.0,10,0.5,0.5,7.201637317657471,-0.2,-0.0155,-0.37525,0.2592154152393091,10,1,100,-0.06737526671866445,-10,-1,-100,19270.147003198625,-0.014678254538367142,0.021546642515005928,0.9996600877498499,58.759910223344214,3.5644220939247715,258.60264721665555,-78.51676190742363,-116.99003601074219,4761.76025390625,True
1599388346.2486157,0.0,10,0.5,0.5,9.223116515731812,-0.2,-0.0155,-0.37525,0.25589607255522795,10,1,100,-0.21110915926514132,-10,-1,-100,19265.414114858722,-0.011207962260181645,0.021735622084710724,0.9997009274350831,59.927829412843074,3.6383183924073346,265.66394844878215,-79.0638042011633,-123.4348373413086,4761.76025390625,True
1599388346.2884722,0.0,10,0.5,0.5,10.196449837493898,-0.2,-0.0155,-0.37525,0.23507160499853597,10,1,100,-0.23257314081951685,-10,-1,-100,19260.648408369627,-0.007876080519594155,0.02171412033800693,0.9997331965747639,60.58289219718863,3.6806439334255803,270.5089348592558,-79.61074526992599,-129.21705627441406,4761.76025390625,True
1599388346.327,0.0,10,0.5,0.5,10.09805620765686,-0.2,-0.0155,-0.37525,0.2306091320117829,10,1,100,-0.1292894838680253,-10,-1,-100,19257.453040617984,-0.005805180403920616,0.021650858596107703,0.9997487385351027,60.79526938054338,3.6949088061389572,272.75556616491065,-79.9753359680508,-132.7025604248047,4761.76025390625,True
1599388346.3659077,0.0,10,0.5,0.5,8.861871068954468,-0.2,-0.0155,-0.37525,0.2372751239792985,10,1,100,0.07548793330459302,-10,-1,-100,19257.453040617984,-0.005805180403920616,0.021650858596107703,0.9997487385351027,60.79526938054338,3.6949088061389572,272.75556616491065,-79.9753359680508,-132.7025604248047,4761.76025390625,True
1599388346.4048004,0.0,10,0.5,0.5,10.760516877365113,-0.2,-0.0155,-0.37525,0.22609967372559475,10,1,100,-0.14394562891234475,-10,-1,-100,19254.2430897241,-0.003829260183010316,0.021546968769670688,0.9997605037724234,60.872554533527186,3.7006936993701203,274.4024238731009,-80.33990801820534,-135.8927001953125,4761.76025390625,True
1599388346.4441535,0.0,10,0.5,0.5,12.793279262161256,-0.2,-0.0155,-0.37525,0.19217155501727828,10,1,100,-0.3560603700308986,-10,-1,-100,19247.7794406577,-0.00012537988054951585,0.02114188565127303,0.9997764774943417,60.74379974701678,3.6943065470805823,276.4179389416587,-81.06902332860591,-141.38839721679688,4761.76025390625,True
1599388346.486044,0.0,10,0.5,0.5,10.799756887817383,-0.2,-0.0155,-0.37525,0.2328072068069551,10,1,100,0.011914353892531088,-10,-1,-100,19247.7794406577,-0.00012537988054951585,0.02114188565127303,0.9997764774943417,60.74379974701678,3.6943065470805823,276.4179389416587,-81.06902332860591,-141.38839721679688,4761.76025390625,True
1599388346.5241802,0.0,10,0.5,0.5,13.340821139144897,-0.2,-0.0155,-0.37525,0.19309033707836643,10,1,100,-0.3432016408018566,-10,-1,-100,19241.25746310572,0.0030831236805831884,0.02078020378685391,0.999779314388404,60.39661827015455,3.673870645025865,277.4215587748631,-81.7981282389045,-145.70033264160156,4761.76025390625,True
1599388346.563106,0.0,10,0.5,0.5,11.778271329879761,-0.2,-0.0155,-0.37525,0.2292229652364258,10,1,100,-0.024486597516511707,-10,-1,-100,19241.25746310572,0.0030831236805831884,0.02078020378685391,0.999779314388404,60.39661827015455,3.673870645025865,277.4215587748631,-81.7981282389045,-145.70033264160156,4761.76025390625,True
1599388346.6039639,0.0,10,0.5,0.5,12.816286519241334,-0.2,-0.0155,-0.37525,0.1949699401885135,10,1,100,-0.1928117197323458,-10,-1,-100,19237.974600962247,0.004595024826014158,0.020469285399057437,0.9997799228340706,60.20255334339108,3.6622070496642234,277.81880346962316,-82.16268162165728,-147.4148712158203,4761.76025390625,True
1599388346.64685,0.0,10,0.5,0.5,13.034723955917357,-0.2,-0.0155,-0.37525,0.21109393284421335,10,1,100,-0.18868641145102374,-10,-1,-100,19234.67715691228,0.005914456447153583,0.02033419348621787,0.9997757447448903,60.013579430270205,3.6507615753891334,278.23206229617944,-82.52723583542942,-148.8310546875,4761.76025390625,True
1599388346.6877413,0.0,10,0.5,0.5,13.663742668151855,-0.2,-0.0155,-0.37525,0.17495510931478403,10,1,100,-0.3249509729587445,-10,-1,-100,19228.038522405084,0.008337142644889307,0.019884121923003897,0.9997675298527502,59.713122033092525,3.6324084417497766,279.3989473018689,-83.25634202333067,-150.7799072265625,4761.76025390625,True
1599388346.728678,0.0,10,0.5,0.5,13.27117885055542,-0.2,-0.0155,-0.37525,0.1993952433902503,10,1,100,-0.1986698671190309,-10,-1,-100,19224.697331964504,0.009376835295956676,0.019698812628418164,0.9997619875454673,59.61754053630725,3.6265060842837946,280.2305581932774,-83.62089040702514,-151.3106689453125,4761.76025390625,True
1599388346.7695684,0.0,10,0.5,0.5,13.235545638275148,-0.2,-0.0155,-0.37525,0.20651227709893577,10,1,100,-0.1974127729195757,-10,-1,-100,19221.341559747118,0.010296780471750257,0.019596824527026175,0.9997549403630739,59.56836267692055,3.6234130098688913,281.2777614855335,-83.98543243713786,-151.54481506347656,4761.76025390625,True
1599388346.8144476,0.0,10,0.5,0.5,13.1419792137146,-0.2,-0.0155,-0.37525,0.2030254408797209,10,1,100,-0.1977907633534883,-10,-1,-100,19217.971206198912,0.011121892398347563,0.01947427686383067,0.9997484963980244,59.57080988076553,3.623459856827104,282.56826448992433,-84.34996581917287,-151.484130859375,4761.76025390625,True
1599388346.8573358,0.0,10,0.5,0.5,13.188917678833008,-0.2,-0.0155,-0.37525,0.21507293800868751,10,1,100,-0.11677468595189353,-10,-1,-100,19217.971206198912,0.011121892398347563,0.01947427686383067,0.9997484963980244,59.57080988076553,3.623459856827104,282.56826448992433,-84.34996581917287,-151.484130859375,4761.76025390625,True
1599388346.8982253,0.0,10,0.5,0.5,12.999398013305665,-0.2,-0.0155,-0.37525,0.20732310908980334,10,1,100,-0.19556437275479277,-10,-1,-100,19214.586271711043,0.011827937485393104,0.01940533988164758,0.999741732988535,59.62320959020974,3.6265570145376933,284.09736748175237,-84.7144875188171,-151.12747192382812,4761.76025390625,True
1599388346.9391148,0.0,10,0.5,0.5,12.773148101043702,-0.2,-0.0155,-0.37525,0.21013867636118033,10,1,100,-0.19196680559196716,-10,-1,-100,19211.18675667816,0.012426224847257961,0.019369844641920583,0.9997351639582321,59.72363681111713,3.6325993187037917,285.8590329476845,-85.07899515299476,-150.4752655029297,4761.76025390625,True
1599388346.9810026,0.0,10,0.5,0.5,12.480541930389407,-0.2,-0.0155,-0.37525,0.20863644173140972,10,1,100,-0.18835274903404903,-10,-1,-100,19207.772662206087,0.012928773661002507,0.01932520170839352,0.9997296551521077,59.867271327140514,3.6413068786072373,287.8331354544942,-85.44348614515505,-149.52828979492188,4761.76025390625,True
1599388347.0214727,0.0,10,0.5,0.5,12.127013765716551,-0.2,-0.0155,-0.37525,0.21366334683206012,10,1,100,-0.1810049907667544,-10,-1,-100,19204.343988367706,0.013309887825630853,0.019331639089809796,0.9997245293660502,60.04615808274104,3.65221111355524,289.9840129157912,-85.80795872924604,-148.28567504882812,4761.76025390625,True
1599388347.062364,0.0,10,0.5,0.5,11.71025697479248,-0.2,-0.0155,-0.37525,0.21390937163229953,10,1,100,-0.17428473401740913,-10,-1,-100,19200.90073603089,0.013587339402117468,0.019340762067744266,0.9997206205388637,60.25303460279876,3.664888635745809,292.27868431456204,-86.17241128781603,-146.74826049804688,4761.76025390625,True
1599388347.1032565,0.0,10,0.5,0.5,10.006388472747805,-0.2,-0.0155,-0.37525,0.2190391206600521,10,1,100,-0.1723195077725662,-10,-1,-100,19193.970500100404,0.013814727066738579,0.019396592885590147,0.9997164225421639,60.70352748119289,3.6927832859195515,297.075504895645,-86.90125315044972,-142.7890167236328,4761.76025390625,True
1599388347.1436634,0.0,10,0.5,0.5,11.479708818817139,-0.2,-0.0155,-0.37525,0.21340728597172262,10,1,100,-0.15012849975264006,-10,-1,-100,19193.970500100404,0.013814727066738579,0.019396592885590147,0.9997164225421639,60.70352748119289,3.6927832859195515,297.075504895645,-86.90125315044972,-142.7890167236328,4761.76025390625,True
1599388347.1844559,0.0,10,0.5,0.5,8.51129558029175,-0.2,-0.0155,-0.37525,0.22147046630788975,10,1,100,-0.12712071939127084,-10,-1,-100,19186.981960841338,0.01360153098002542,0.0194701692702306,0.9997179156460025,61.09940985026222,3.7179442804147755,301.6430514294684,-87.63001415494547,-137.65176391601562,4761.76025390625,True
1599388347.2256749,0.0,10,0.5,0.5,10.417515467071535,-0.2,-0.0155,-0.37525,0.2141001623181648,10,1,100,-0.14877080311341415,-10,-1,-100,19186.981960841338,0.01360153098002542,0.0194701692702306,0.9997179156460025,61.09940985026222,3.7179442804147755,301.6430514294684,-87.63001415494547,-137.65176391601562,4761.76025390625,True
1599388347.2655344,0.0,10,0.5,0.5,6.764318126678468,-0.2,-0.0155,-0.37525,0.21660195121407189,10,1,100,-0.08007850098249791,-10,-1,-100,19179.93512398482,0.012974801289215566,0.019492916539823938,0.9997258027760797,61.28164831776106,3.7309129806143564,305.1831546751981,-88.35871586129247,-131.33840942382812,4761.76025390625,True
1599388347.3104508,0.0,10,0.5,0.5,7.032837436676026,-0.2,-0.0155,-0.37525,0.21239709512193805,10,1,100,-0.09128840572286073,-10,-1,-100,19176.389844862162,0.012505270787127298,0.019475352966183943,0.9997321285371312,61.2321299862031,3.729184711149241,306.2570564163605,-88.72305737867896,-127.74111938476562,4761.76025390625,True
1599388347.3523433,0.0,10,0.5,0.5,8.346471677398682,-0.2,-0.0155,-0.37525,0.2141604537943912,10,1,100,-0.13830918926186095,-10,-1,-100,19176.389844862162,0.012505270787127298,0.019475352966183943,0.9997321285371312,61.2321299862031,3.729184711149241,306.2570564163605,-88.72305737867896,-127.74111938476562,4761.76025390625,True
1599388347.3931932,0.0,10,0.5,0.5,6.0733360496521005,-0.2,-0.0155,-0.37525,0.2061319495091427,10,1,100,-0.0787994134736478,-10,-1,-100,19172.829992176732,0.011964200965470934,0.019402270646932354,0.9997401711389822,61.05295514423994,3.719790113015346,306.6787873636237,-89.08740285309199,-123.85081481933594,4761.76025390625,True
1599388347.4341166,0.0,10,0.5,0.5,5.086791168594361,-0.2,-0.0155,-0.37525,0.20149526211106916,10,1,100,-0.06315401642588804,-10,-1,-100,19169.255565116764,0.011330965311435997,0.019293610408595206,0.9997496515740889,60.71379940096467,3.7008492059667906,306.2872548391767,-89.45176209420045,-119.66727447509766,4761.76025390625,True
1599388347.4760087,0.0,10,0.5,0.5,1.2938198928833007,-0.2,-0.0155,-0.37525,0.17059773426514507,10,1,100,0.039266151218069575,-10,-1,-100,19162.062984231045,0.009826003122381162,0.0189139763284905,0.9997728297778872,59.437885882926864,3.6268669602584165,302.42524475558145,-90.18056675694712,-110.4217529296875,4761.76025390625,True
1599388347.5159006,0.0,10,0.5,0.5,3.2720887058258064,-0.2,-0.0155,-0.37525,0.19376010134053223,10,1,100,-0.06540178460161167,-10,-1,-100,19160.25572813081,0.00941280176367363,0.01877980939793452,0.9997793346143613,59.00531652674347,3.6014364404692594,300.86460643462453,-90.36279410978227,-107.92752075195312,4761.76025390625,True
1599388347.5567884,0.0,10,0.5,0.5,2.677140215301514,-0.2,-0.0155,-0.37525,0.19056346114575037,10,1,100,-0.05909436098622561,-10,-1,-100,19158.444827349507,0.008983825700438786,0.018629339807919844,0.9997860964096796,58.57050508738731,3.575835551679699,299.2836801174074,-90.54503327290315,-105.36016082763672,4761.76025390625,True
1599388347.5986807,0.0,10,0.5,0.5,0.5026936077117918,-0.2,-0.0155,-0.37525,0.16685573902339076,10,1,100,-0.008365899379899469,-10,-1,-100,19154.812090443796,0.008137071356864417,0.018277722027773842,0.9997998364408791,57.49515138832996,3.511899716380427,295.03938797881705,-90.90955285550496,-100.00625610351562,4761.76025390625,True
1599388347.6415284,0.0,10,0.5,0.5,-0.7944678234100337,-0.2,-0.0155,-0.37525,0.1549256542787758,10,1,100,0.009629950986411645,-10,-1,-100,19151.164770750795,0.007208663731760491,0.017850698227455938,0.9998146766976341,56.29123641617726,3.4397551917120657,290.0877122668023,-91.27413109118807,-94.3602523803711,4761.76025390625,True
1599388347.684417,0.0,10,0.5,0.5,-5.6994282974243164,-0.2,-0.0155,-0.37525,0.07932429181054003,10,1,100,0.12303130418175337,-10,-1,-100,19143.826377791236,0.005339547104661329,0.016776681905676404,0.9998450040786085,57.26393750239169,3.500605334838895,297.59901545491937,-92.00334481873338,-82.2672119140625,4761.76025390625,True
1599388347.7293277,0.0,10,0.5,0.5,-4.755960670852661,-0.2,-0.0155,-0.37525,0.11620318389202414,10,1,100,0.040251041253909645,-10,-1,-100,19140.13530965417,0.004399839155901174,0.016138035390830453,0.9998600928275548,59.43780492251897,3.633531616112273,310.19365248746624,-92.36780574108397,-76.15093994140625,4761.76025390625,True
1599388347.771219,0.0,10,0.5,0.5,-2.5407943912506106,-0.2,-0.0155,-0.37525,0.17973410361908382,10,1,100,-0.05290921045898326,-10,-1,-100,19140.13530965417,0.004399839155901174,0.016138035390830453,0.9998600928275548,59.43780492251897,3.633531616112273,310.19365248746624,-92.36780574108397,-76.15093994140625,4761.76025390625,True
1599388347.8131037,0.0,10,0.5,0.5,-9.219509360122682,-0.2,-0.0155,-0.37525,0.026062179883737074,10,1,100,0.14495720115590655,-10,-1,-100,19132.70945171651,0.0026084221699760176,0.014744051827395804,0.9998878982513462,62.80491339971123,3.8388641102143963,330.50517160024907,-93.0964229015036,-64.67984008789062,4761.76025390625,True
1599388347.8569891,0.0,10,0.5,0.5,-8.05207130241394,-0.2,-0.0155,-0.37525,0.07565379281163487,10,1,100,0.06340172718683798,-10,-1,-100,19128.97466897755,0.001729779926849676,0.013931861631635682,0.9999014506904575,64.00369483814706,3.911950845196074,338.2084007037837,-93.46060601949705,-59.385833740234375,4761.76025390625,True
1599388347.8988414,0.0,10,0.5,0.5,-6.158931653594971,-0.2,-0.0155,-0.37525,0.15633663750995114,10,1,100,-0.023502378587337548,-10,-1,-100,19128.97466897755,0.001729779926849676,0.013931861631635682,0.9999014506904575,64.00369483814706,3.911950845196074,338.2084007037837,-93.46060601949705,-59.385833740234375,4761.76025390625,True
1599388347.9407623,0.0,10,0.5,0.5,-9.113076016998292,-0.2,-0.0155,-0.37525,0.07362598634879779,10,1,100,0.06635658179459047,-10,-1,-100,19125.225320828264,0.0009202404899189955,0.0131844758162587,0.999912657563095,64.91913985929028,3.9679405559191343,344.46017997171066,-93.82472594391021,-54.387939453125,4761.76025390625,True
1599388347.990596,0.0,10,0.5,0.5,-12.55574970779419,-0.2,-0.0155,-0.37525,-0.04048921436668931,10,1,100,0.15919839739600736,-10,-1,-100,19117.6829360947,-0.0006520004479638181,0.011472709917213086,0.9999339737315516,66.0344504967222,4.0371498407299224,353.25622597445926,-94.55283625839336,-45.28729248046875,4761.76025390625,True
1599388348.031521,0.0,10,0.5,0.5,-9.233844877243042,-0.2,-0.0155,-0.37525,0.12997171254880147,10,1,100,0.0029378862225662686,-10,-1,-100,19117.6829360947,-0.0006520004479638181,0.011472709917213086,0.9999339737315516,66.0344504967222,4.0371498407299224,353.25622597445926,-94.55283625839336,-45.28729248046875,4761.76025390625,True
1599388348.073373,0.0,10,0.5,0.5,-11.679943954086305,-0.2,-0.0155,-0.37525,0.03663343680038686,10,1,100,0.0842740503424078,-10,-1,-100,19113.889901956427,-0.0013834300565034427,0.010630366512328009,0.9999425390636665,66.30465642910566,4.054710631727117,356.1480674290832,-94.91685297349696,-41.1824951171875,4761.76025390625,True
1599388348.1163008,0.0,10,0.5,0.5,-12.412779824829103,-0.2,-0.0155,-0.37525,0.03144712764522904,10,1,100,0.09075630112144378,-10,-1,-100,19110.08230752754,-0.0020994846224504614,0.009824015453490256,0.9999495391691972,66.42899221811625,4.063675169677528,358.2664287363316,-95.28085865500346,-37.374176025390625,4761.76025390625,True
1599388348.1561894,0.0,10,0.5,0.5,-13.07232007751465,-0.2,-0.0155,-0.37525,0.01205368109677056,10,1,100,0.09346106715234731,-10,-1,-100,19106.26015306916,-0.0027682693447494996,0.00892098558269921,0.9999563753989811,66.43951369189907,4.065954427964039,359.7756384299075,-95.64486113434613,-33.864349365234375,4761.76025390625,True
1599388348.196079,0.0,10,0.5,0.5,-13.669789601135255,-0.2,-0.0155,-0.37525,0.011373880149866927,10,1,100,0.09977930815460608,-10,-1,-100,19102.423438162892,-0.0034271775482231136,0.008100430282288344,0.9999613179934985,66.36590063202138,4.063304108497,360.82980210050437,-96.00886647200575,-30.650115966796875,4761.76025390625,True
1599388348.2379327,0.0,10,0.5,0.5,-14.212402769470216,-0.2,-0.0155,-0.37525,0.0020278148147787334,10,1,100,0.10432256984581523,-10,-1,-100,19098.57216291607,-0.004060371915206369,0.0072768136016945215,0.9999652800791218,66.23622320495019,4.057379941115886,361.57673205072444,-96.37287850379381,-27.73272705078125,4761.76025390625,True
1599388348.2798545,0.0,10,0.5,0.5,-16.0200627243042,-0.2,-0.0155,-0.37525,-0.08982399752589966,10,1,100,0.1764109393337741,-10,-1,-100,19090.825929957442,-0.00528528943136788,0.0056998430873536985,0.9999697882958295,65.9065359563547,4.041486413472779,362.6727021642473,-97.10092917589812,-22.78680419921875,4761.76025390625,True
1599388348.3225617,0.0,10,0.5,0.5,-14.220833670043946,-0.2,-0.0155,-0.37525,0.06704985205375444,10,1,100,0.054620694653444775,-10,-1,-100,19090.825929957442,-0.00528528943136788,0.0056998430873536985,0.9999697882958295,65.9065359563547,4.041486413472779,362.6727021642473,-97.10092917589812,-22.78680419921875,4761.76025390625,True
1599388348.3654463,0.0,10,0.5,0.5,-15.444686975097657,-0.2,-0.0155,-0.37525,-0.015456546159588344,10,1,100,0.12114386185743761,-10,-1,-100,19086.930971240858,-0.005883668161078526,0.0049572685749999295,0.9999704035306471,65.748818267285,4.034023965454483,363.2522051164814,-97.4649673287133,-20.757904052734375,4761.76025390625,True
1599388348.4073431,0.0,10,0.5,0.5,-15.732764198303224,-0.2,-0.0155,-0.37525,-0.0151285230293366,10,1,100,0.13022957857367512,-10,-1,-100,19083.021450995584,-0.0065040608776440025,0.0042926621442635725,0.9999696346608806,65.61960514573654,4.028303503775817,363.98477930275624,-97.82901192457531,-19.02423095703125,4761.76025390625,True
1599388348.4482207,0.0,10,0.5,0.5,-15.949481884765627,-0.2,-0.0155,-0.37525,-0.026068418273193644,10,1,100,0.13170657187818033,-10,-1,-100,19079.097369124414,-0.007076161413262955,0.003595548202989047,0.9999684994902456,65.53337352851977,4.0251998193021565,364.95282384001234,-98.19306012697037,-17.58734130859375,4761.76025390625,True
1599388348.4921024,0.0,10,0.5,0.5,-16.110246261596682,-0.2,-0.0155,-0.37525,-0.023592800168406425,10,1,100,0.14190572789232248,-10,-1,-100,19075.158725021407,-0.00768313226307666,0.0029914749316141114,0.9999660097005104,65.50167915331738,4.025418283734347,366.2236827036844,-98.5571086538312,-16.4451904296875,4761.76025390625,True
1599388348.534306,0.0,10,0.5,0.5,-16.206926570129397,-0.2,-0.0155,-0.37525,-0.027071779053785466,10,1,100,0.14768143892920754,-10,-1,-100,19071.20551923383,-0.008281703406691189,0.0024176347782977367,0.9999627835228481,65.53429154680046,4.029562288761592,367.8556924869928,-98.9211534735717,-15.598724365234375,4761.76025390625,True
1599388348.5772254,0.0,10,0.5,0.5,-16.240107261657716,-0.2,-0.0155,-0.37525,-0.028722118751793646,10,1,100,0.1550340902804129,-10,-1,-100,19067.23775174236,-0.0088870810779115,0.0018876918968238603,0.9999587273528929,65.63848466088164,4.038089366144524,369.89400686201145,-99.2851901721335,-15.04754638671875,4761.76025390625,True
1599388348.6202283,0.0,10,0.5,0.5,-16.20974976196289,-0.2,-0.0155,-0.37525,-0.02897823160116548,10,1,100,0.16214306600813147,-10,-1,-100,19063.25542329019,-0.009496488911333622,0.001409991245658661,0.9999539132495278,65.8194024217083,4.051331408416495,372.37238362490405,-99.64921422530419,-14.791473388671875,4761.76025390625,True
1599388348.6611085,0.0,10,0.5,0.5,-15.923907379150391,-0.2,-0.0155,-0.37525,-0.06899873190805955,10,1,100,0.23872327232233956,-10,-1,-100,19055.247085497133,-0.010741162170607343,0.0006179774136609242,0.9999421210945867,66.42001424443454,4.09256352081937,378.7184076214308,-100.37720525162459,-15.1640625,4761.76025390625,True
1599388348.7040043,0.0,10,0.5,0.5,-16.083202873229983,-0.2,-0.0155,-0.37525,0.009536767672910767,10,1,100,0.11492402542050759,-10,-1,-100,19055.247085497133,-0.010741162170607343,0.0006179774136609242,0.9999421210945867,66.42001424443454,4.09256352081937,378.7184076214308,-100.37720525162459,-15.1640625,4761.76025390625,True
1599388348.7448888,0.0,10,0.5,0.5,-15.733555796813965,-0.2,-0.0155,-0.37525,-0.024836099304186784,10,1,100,0.18512947464126622,-10,-1,-100,19051.22107825172,-0.011374433642851295,0.0003101166826633945,0.9999352609479013,66.83851035543847,4.120517765086846,382.58960047828856,-100.74116242909132,-15.79241943359375,4761.76025390625,True
1599388348.786782,0.0,10,0.5,0.5,-15.120560751342774,-0.2,-0.0155,-0.37525,-0.030060344079302356,10,1,100,0.22862773642238743,-10,-1,-100,19045.154772782116,-0.012340038139072822,-1.2350092194782921e-05,0.9999238587543561,67.6028711404767,4.170981778692873,389.2195576415479,-101.28703670123414,-17.286773681640625,4761.76025390625,True
1599388348.826897,0.0,10,0.5,0.5,-14.901873017883302,-0.2,-0.0155,-0.37525,-0.014323806229764237,10,1,100,0.20372141881476988,-10,-1,-100,19041.092375075445,-0.012985569911952238,-0.00015792443555442067,0.999915671461316,68.19363789338911,4.209717359294479,394.1380868247245,-101.65090520680177,-18.651092529296875,4761.76025390625,True
1599388348.867757,0.0,10,0.5,0.5,-14.958607861328126,-0.2,-0.0155,-0.37525,-0.0045832856316553264,10,1,100,0.17551088248475447,-10,-1,-100,19039.0557185692,-0.013310065276084014,-0.0001976685726441758,0.99991139761955,68.51020603172927,4.230417582133504,396.73011751588194,-101.8328235866033,-19.443450927734375,4761.76025390625,True
1599388348.9076943,0.0,10,0.5,0.5,-14.214653567504882,-0.2,-0.0155,-0.37525,-0.003137682321574605,10,1,100,0.21423468488052128,-10,-1,-100,19034.971491284785,-0.013951428443562763,-0.00021720937920173463,0.9999026504937718,69.1770793882093,4.273944554837761,402.1318058877518,-102.19662663036898,-21.24859619140625,4761.76025390625,True
1599388348.9495761,0.0,10,0.5,0.5,-12.300370413208007,-0.2,-0.0155,-0.37525,0.014072398743500194,10,1,100,0.2890996480458147,-10,-1,-100,19026.759386474034,-0.015209377991700215,-7.560148065263919e-05,0.9998843278627392,70.59149164527578,4.3660695854748495,413.49768965605506,-102.92408688619435,-25.740936279296875,4761.76025390625,True
1599388348.9944568,0.0,10,0.5,0.5,-12.424977995300296,-0.2,-0.0155,-0.37525,0.02061294240641226,10,1,100,0.23006945336949589,-10,-1,-100,19022.63151309383,-0.015810032470599537,0.00011485903883569403,0.9998750070287186,71.30335757613216,4.412382092844895,419.25546559468575,-103.28774116369232,-28.427459716796875,4761.76025390625,True
1599388349.0363429,0.0,10,0.5,0.5,-11.698228616333008,-0.2,-0.0155,-0.37525,0.03233574086626472,10,1,100,0.23179413473892718,-10,-1,-100,19018.489094952936,-0.01636546732623676,0.0003961875269673722,0.999865998279088,71.98715703014071,4.456853016428805,424.8793062135943,-103.65134502802465,-31.407257080078125,4761.76025390625,True
1599388349.077232,0.0,10,0.5,0.5,-12.790643112182618,-0.2,-0.0155,-0.37525,0.004101511681227778,10,1,100,0.17693754701669503,-10,-1,-100,19018.489094952936,-0.01636546732623676,0.0003961875269673722,0.999865998279088,71.98715703014071,4.456853016428805,424.8793062135943,-103.65134502802465,-31.407257080078125,4761.76025390625,True
1599388349.1211164,0.0,10,0.5,0.5,-9.877594593811036,-0.2,-0.0155,-0.37525,0.062044980673584375,10,1,100,0.26318882207740407,-10,-1,-100,19012.248200762202,-0.017144456822101726,0.0009231479631585172,0.9998525968352102,72.89806090229612,4.5160880205851095,432.6908410496659,-104.19666250477408,-36.427459716796875,4761.76025390625,True
1599388349.1639931,0.0,10,0.5,0.5,-8.461034025573731,-0.2,-0.0155,-0.37525,0.08388935702379849,10,1,100,0.26181091183333577,-10,-1,-100,19005.974591373815,-0.017834281457349714,0.0016005107169255977,0.9998396755332053,73.58280783603055,4.560624874591504,439.2138202435719,-104.74189032335931,-42.10748291015625,4761.76025390625,True
1599388349.2198517,0.0,10,0.5,0.5,-10.551674380493164,-0.2,-0.0155,-0.37525,0.016282121050516657,10,1,100,0.1934744330899868,-10,-1,-100,19005.974591373815,-0.017834281457349714,0.0016005107169255977,0.9998396755332053,73.58280783603055,4.560624874591504,439.2138202435719,-104.74189032335931,-42.10748291015625,4761.76025390625,True
1599388349.2617366,0.0,10,0.5,0.5,-8.124127658081056,-0.2,-0.0155,-0.37525,0.07491146513961006,10,1,100,0.23340330735094905,-10,-1,-100,19001.77401208086,-0.018192276456705483,0.002132038516999974,0.999832233671772,73.85891788431663,4.5786250907162644,442.50798499677006,-105.10534026113064,-46.260589599609375,4761.76025390625,True
1599388349.3036225,0.0,10,0.5,0.5,-7.081988218688965,-0.2,-0.0155,-0.37525,0.08452242740499612,10,1,100,0.23103746419651278,-10,-1,-100,18997.55889517453,-0.01849148542149335,0.0027005362077051395,0.9998253707878679,73.94337919282164,4.584276088213623,444.6632623867289,-105.46877640343904,-50.707000732421875,4761.76025390625,True
1599388349.3435194,0.0,10,0.5,0.5,-5.975699661254883,-0.2,-0.0155,-0.37525,0.09586080798205814,10,1,100,0.23076010737674227,-10,-1,-100,18993.329240572755,-0.01875626176371585,0.003317793745610082,0.9998185809882274,73.79646814353426,4.575108088442685,445.42773819253404,-105.83221417640262,-55.4464111328125,4761.76025390625,True
1599388349.3874087,0.0,10,0.5,0.5,-3.2953716827392583,-0.2,-0.0155,-0.37525,0.14066341060318177,10,1,100,0.22771753015860227,-10,-1,-100,18986.957499768585,-0.01896493970618944,0.004283019710147688,0.9998109755369278,73.05941744540048,4.52856592382198,443.43150123844305,-106.37741319396142,-63.105316162109375,4761.76025390625,True
1599388349.4272933,0.0,10,0.5,0.5,-1.3262721099853523,-0.2,-0.0155,-0.37525,0.15375267521271724,10,1,100,0.211686214268122,-10,-1,-100,18980.55304275325,-0.0190054935442388,0.005275528791458743,0.99980546108286,71.5775575801531,4.435388899132772,436.8485015974269,-106.92272376567294,-71.42376708984375,4761.76025390625,True
1599388349.4671896,0.0,10,0.5,0.5,-4.381126544189454,-0.2,-0.0155,-0.37525,0.05501783405687404,10,1,100,0.2079503765705498,-10,-1,-100,18980.55304275325,-0.0190054935442388,0.005275528791458743,0.99980546108286,71.5775575801531,4.435388899132772,436.8485015974269,-106.92272376567294,-71.42376708984375,4761.76025390625,True
1599388349.5080805,0.0,10,0.5,0.5,2.6518378128051756,-0.2,-0.0155,-0.37525,0.19211002908438551,10,1,100,0.1822554129803125,-10,-1,-100,18971.962858411367,-0.018769502942311188,0.006517385708741128,0.9998025952370908,68.22590844667884,4.226578593723607,419.47122066456325,-107.65009877203518,-83.5418701171875,4761.76025390625,True
1599388349.549935,0.0,10,0.5,0.5,-1.8146716979980468,-0.2,-0.0155,-0.37525,0.0685364571743244,10,1,100,0.2060948767346813,-10,-1,-100,18971.962858411367,-0.018769502942311188,0.006517385708741128,0.9998025952370908,68.22590844667884,4.226578593723607,419.47122066456325,-107.65009877203518,-83.5418701171875,4761.76025390625,True
1599388349.592851,0.0,10,0.5,0.5,1.9965984874725342,-0.2,-0.0155,-0.37525,0.13593501520186374,10,1,100,0.18094107839151374,-10,-1,-100,18967.645938935806,-0.018539354733627656,0.007125014201950047,0.9998027437943362,65.89384763318878,4.082439582046971,406.6245412590715,-108.01395378902316,-90.04033660888672,4761.76025390625,True
1599388349.6357431,0.0,10,0.5,0.5,5.232566346740722,-0.2,-0.0155,-0.37525,0.15911028103684113,10,1,100,0.15331531497300807,-10,-1,-100,18961.143269809778,-0.018078344809859596,0.007883065700198836,0.999805496446235,67.71477546084306,4.197497417755384,420.1626147046984,-108.55971102676317,-99.77561950683594,4761.76025390625,True
1599388349.6795855,0.0,10,0.5,0.5,3.565577723312378,-0.2,-0.0155,-0.37525,0.11064310921821843,10,1,100,0.17866608384375016,-10,-1,-100,18958.96843859402,-0.017889484538574914,0.008125881359361826,0.9998069495633033,68.76645919727476,4.263827420452989,427.46693697828414,-108.74156224358201,-103.07295227050781,4761.76025390625,True
1599388349.721474,0.0,10,0.5,0.5,9.741191439437866,-0.2,-0.0155,-0.37525,0.16899753410825558,10,1,100,0.10766490575896351,-10,-1,-100,18950.232756396756,-0.017072603392925444,0.008871668691380917,0.999814892721657,72.59598707751202,4.506971161713501,454.55499463010403,-109.468630582958,-115.80633544921875,4761.76025390625,True
1599388349.763908,0.0,10,0.5,0.5,8.485382693099975,-0.2,-0.0155,-0.37525,0.1259211104078823,10,1,100,0.13754495070863526,-10,-1,-100,18945.84310990956,-0.01660291083463073,0.009152443202773355,0.9998202719165267,74.04064260274399,4.599487310854202,465.27094572890724,-109.83198862076792,-121.75416564941406,4761.76025390625,True
1599388349.8097513,0.0,10,0.5,0.5,6.356236429977417,-0.2,-0.0155,-0.37525,0.09842712421435479,10,1,100,0.18429887144519808,-10,-1,-100,18945.84310990956,-0.01660291083463073,0.009152443202773355,0.9998202719165267,74.04064260274399,4.599487310854202,465.27094572890724,-109.83198862076792,-121.75416564941406,4761.76025390625,True
1599388349.8506417,0.0,10,0.5,0.5,9.698714332199096,-0.2,-0.0155,-0.37525,0.12060693453183233,10,1,100,0.13560890068855294,-10,-1,-100,18941.438931966084,-0.016162422035817192,0.009349651093393491,0.9998256648728157,75.06612235263371,4.665636043174097,473.40668187401184,-110.19526072267236,-127.4066162109375,4761.76025390625,True
1599388349.8925297,0.0,10,0.5,0.5,13.656183552932738,-0.2,-0.0155,-0.37525,0.12092871417528407,10,1,100,0.07505105920628842,-10,-1,-100,18932.586990202894,-0.015214036452064681,0.009528152515895963,0.9998388607193005,76.04384556447035,4.72956454658693,482.9986868363695,-110.92165182176393,-137.82257080078125,4761.76025390625,True
1599388349.9330597,0.0,10,0.5,0.5,9.850514738845826,-0.2,-0.0155,-0.37525,0.10350383429748064,10,1,100,0.16951047187232213,-10,-1,-100,18932.586990202894,-0.015214036452064681,0.009528152515895963,0.9998388607193005,76.04384556447035,4.72956454658693,482.9986868363695,-110.92165182176393,-137.82257080078125,4761.76025390625,True
1599388349.9739473,0.0,10,0.5,0.5,12.674899405288699,-0.2,-0.0155,-0.37525,0.10198152480668962,10,1,100,0.12008907227615827,-10,-1,-100,18928.139229124063,-0.014767983243454325,0.009511576277973176,0.9998457063905557,76.08512517765932,4.732785354256427,484.97628973540975,-111.28481643205052,-142.58615112304688,4761.76025390625,True
1599388350.0168328,0.0,10,0.5,0.5,15.948324409103392,-0.2,-0.0155,-0.37525,0.07817339688981546,10,1,100,0.07058580470684395,-10,-1,-100,18919.200126155396,-0.013916088366541013,0.009277347452827031,0.9998601268721612,75.51208216664239,4.696977949488425,484.7358979606115,-112.01117262334496,-151.2248992919922,4761.76025390625,True
1599388350.0577564,0.0,10,0.5,0.5,12.801470230865478,-0.2,-0.0155,-0.37525,0.1018115127295177,10,1,100,0.15531296576146647,-10,-1,-100,18919.200126155396,-0.013916088366541013,0.009277347452827031,0.9998601268721612,75.51208216664239,4.696977949488425,484.7358979606115,-112.01117262334496,-151.2248992919922,4761.76025390625,True
1599388350.0986145,0.0,10,0.5,0.5,17.16935531311035,-0.2,-0.0155,-0.37525,0.05207079381508069,10,1,100,0.07307154536678392,-10,-1,-100,18910.2029094483,-0.013172222959719643,0.008823891570193396,0.9998743078406691,74.35090158576095,4.623486627590098,480.65424266822384,-112.73763958670806,-158.67929077148438,4761.76025390625,True
1599388350.1435337,0.0,10,0.5,0.5,14.458284735107423,-0.2,-0.0155,-0.37525,0.09748618309952732,10,1,100,0.14698635989103537,-10,-1,-100,18910.2029094483,-0.013172222959719643,0.008823891570193396,0.9998743078406691,74.35090158576095,4.623486627590098,480.65424266822384,-112.73763958670806,-158.67929077148438,4761.76025390625,True
1599388350.1853824,0.0,10,0.5,0.5,16.413786628723145,-0.2,-0.0155,-0.37525,0.05976108939916295,10,1,100,0.11026345951093203,-10,-1,-100,18905.68250507035,-0.012841924211203436,0.00848097960666389,0.9998815719711335,73.64826984847461,4.579058942810649,477.7871552115473,-113.10093002216054,-161.96316528320312,4761.76025390625,True
1599388350.2282674,0.0,10,0.5,0.5,16.96238024291992,-0.2,-0.0155,-0.37525,0.05574682772173314,10,1,100,0.10938408045360398,-10,-1,-100,18901.147567862063,-0.0125370773453252,0.008133358591475078,0.999888328849607,72.90803785479532,4.532367382431748,474.64643545921746,-113.46426122629906,-164.9506378173828,4761.76025390625,True
1599388350.272924,0.0,10,0.5,0.5,18.16773246078491,-0.2,-0.0155,-0.37525,0.016980965870919823,10,1,100,0.09731029842744261,-10,-1,-100,18894.317909556557,-0.012153878388370159,0.007465849001397216,0.9998982669946024,71.79157918243506,4.462235430764099,469.83733768523814,-114.00933276509268,-168.87840270996094,4761.76025390625,True
1599388350.3147786,0.0,10,0.5,0.5,17.42621960144043,-0.2,-0.0155,-0.37525,0.057190800447811815,10,1,100,0.12262346531343937,-10,-1,-100,18892.03408850229,-0.012039279529781408,0.007226278599381811,0.9999014134633513,71.43017879803966,4.439623353896856,468.28904920357604,-114.19104203899639,-170.03981018066406,4761.76025390625,True
1599388350.3572114,0.0,10,0.5,0.5,18.249156665802,-0.2,-0.0155,-0.37525,0.02376680574139675,10,1,100,0.11151904245840816,-10,-1,-100,18887.45554340759,-0.0118370355932207,0.006706725440142682,0.9999074479281747,70.73989938147686,4.396581039789527,465.38327730695624,-114.55448618953332,-172.1411895751953,4761.76025390625,True
1599388350.401095,0.0,10,0.5,0.5,18.55273559951782,-0.2,-0.0155,-0.37525,0.014056868682685061,10,1,100,0.11089444724965411,-10,-1,-100,18882.8624596867,-0.011650569331593967,0.006148697164914962,0.9999132251137716,70.10839515238918,4.35740666327401,462.83588485563087,-114.91796069367544,-173.94723510742188,4761.76025390625,True
1599388350.4435854,0.0,10,0.5,0.5,18.792909355163573,-0.2,-0.0155,-0.37525,0.0019212894336716468,10,1,100,0.11392926035863046,-10,-1,-100,18878.254836259526,-0.011511477771025687,0.005534132448001511,0.9999184263016536,69.55129555377869,4.323060609918371,460.75417371351574,-115.28146049992985,-175.4583740234375,4761.76025390625,True
1599388350.485439,0.0,10,0.5,0.5,18.962939884185793,-0.2,-0.0155,-0.37525,-0.008411353153042735,10,1,100,0.11344342835926374,-10,-1,-100,18873.632672054693,-0.011382800252874385,0.004884907059114448,0.9999232818278746,69.08237872580392,4.2943780638859534,459.23464245419717,-115.64498008828413,-176.67440795898438,4761.76025390625,True
1599388350.5298984,0.0,10,0.5,0.5,19.076009822082522,-0.2,-0.0155,-0.37525,-0.020247239881096724,10,1,100,0.11470289036309442,-10,-1,-100,18868.99596679129,-0.011279573334693177,0.00419109631750182,0.9999276003476676,68.71216085756414,4.271983340220518,458.35336400297723,-116.00851368211691,-177.59564208984375,4761.76025390625,True
1599388350.571786,0.0,10,0.5,0.5,19.12008118133545,-0.2,-0.0155,-0.37525,-0.03250713404136045,10,1,100,0.1154156053090217,-10,-1,-100,18864.344719764893,-0.011193930499150533,0.0034531173284449352,0.9999313835962426,68.45727936643753,4.2568768713110465,458.22840431235517,-116.3720549701989,-178.22222900390625,4761.76025390625,True
1599388350.6147087,0.0,10,0.5,0.5,19.12798035583496,-0.2,-0.0155,-0.37525,-0.1355936595490572,10,1,100,0.10924830701591842,-10,-1,-100,18854.998603318236,-0.011061805475502253,0.0018499596285430227,0.9999371050766117,69.13075174662066,4.3004513266232305,465.9217544532689,-117.0990695403268,-178.592041015625,4761.76025390625,True
1599388350.6601346,0.0,10,0.5,0.5,18.867466500854494,-0.2,-0.0155,-0.37525,-0.07124508763588301,10,1,100,0.11607524889813418,-10,-1,-100,18850.3037362569,-0.011005373215420052,0.0009835587550957048,0.9999389553230559,69.35637115794073,4.3153458264956805,469.04215945626845,-117.4625399868781,-178.33560180664062,4761.76025390625,True
1599388350.702023,0.0,10,0.5,0.5,18.66775431365967,-0.2,-0.0155,-0.37525,-0.08481374273172528,10,1,100,0.11073550184793231,-10,-1,-100,18845.59433083632,-0.010906920464097948,7.907000548719445e-05,0.9999405146477085,69.48705608039506,4.32428317422145,471.5300405362794,-117.82599310249091,-177.7850799560547,4761.76025390625,True
1599388350.7429154,0.0,10,0.5,0.5,18.402451028442385,-0.2,-0.0155,-0.37525,-0.09963624695675136,10,1,100,0.11194804465279753,-10,-1,-100,18840.870387596427,-0.010829574677416876,-0.0008712272789335884,0.9999409788959219,69.51857247278768,4.326951093027896,473.34997998387695,-118.18943443981608,-176.94076538085938,4761.76025390625,True
1599388350.7867956,0.0,10,0.5,0.5,18.075306661987305,-0.2,-0.0155,-0.37525,-0.11412885271457728,10,1,100,0.10740142729063068,-10,-1,-100,18836.131906874245,-0.010719027172461988,-0.0018595234935887945,0.9999408205633236,69.4536644826198,4.323470413886172,474.5138055498093,-118.55286920893951,-175.80270385742188,4761.76025390625,True
1599388350.828683,0.0,10,0.5,0.5,18.508039595794678,-0.2,-0.0155,-0.37525,-0.016155856142429825,10,1,100,0.11834437694404357,-10,-1,-100,18836.131906874245,-0.010719027172461988,-0.0018595234935887945,0.9999408205633236,69.4536644826198,4.323470413886172,474.5138055498093,-118.55286920893951,-175.80270385742188,4761.76025390625,True
1599388350.8685765,0.0,10,0.5,0.5,17.687390635681155,-0.2,-0.0155,-0.37525,-0.13008530777776048,10,1,100,0.10325593756425006,-10,-1,-100,18831.378889388405,-0.010582706398244894,-0.0028879655805840697,0.9999398311799035,69.85932017884733,4.349090607145537,478.9015903018667,-118.91628109898039,-174.37110900878906,4761.76025390625,True
1599388350.9094708,0.0,10,0.5,0.5,17.230601580810546,-0.2,-0.0155,-0.37525,-0.14516232850929825,10,1,100,0.09851648956522033,-10,-1,-100,18826.611337036244,-0.010416536868395249,-0.003952320304476858,0.9999379355359412,70.5062341545915,4.389499093240412,484.96864110383973,-119.27964742990824,-172.64610290527344,4761.76025390625,True
1599388350.9493608,0.0,10,0.5,0.5,16.710782325744628,-0.2,-0.0155,-0.37525,-0.16199096907815297,10,1,100,0.09838563038673837,-10,-1,-100,18821.829251270974,-0.010265162451804352,-0.0050648693064929895,0.9999344846232409,71.24688867778467,4.435473866941943,491.71346463445417,-119.64296166898106,-170.6280517578125,4761.76025390625,True
1599388350.9912484,0.0,10,0.5,0.5,16.127675283050536,-0.2,-0.0155,-0.37525,-0.1763927424314433,10,1,100,0.08824472336833769,-10,-1,-100,18817.032635040116,-0.010036281473720703,-0.0061987881882430255,0.9999304216190132,72.07282948840276,4.486455711811578,499.08382761992186,-120.00621738533587,-168.31674194335938,4761.76025390625,True
1599388351.0341344,0.0,10,0.5,0.5,15.481547097015381,-0.2,-0.0155,-0.37525,-0.19222467557863643,10,1,100,0.08326798914559416,-10,-1,-100,18812.221490004915,-0.00978401722709738,-0.007364775740702371,0.9999250137311243,72.96760922526022,4.541397676715716,506.97111353335174,-120.36940860882748,-165.71249389648438,4761.76025390625,True
1599388351.4471009,0.0,10,0.5,0.5,13.875851079559325,-0.2,-0.0155,-0.37525,-0.27343036891360123,10,1,100,0.05606351203402765,-10,-1,-100,18804.977538405918,-0.00930853429119685,-0.009154620968374869,0.9999147684199263,74.39954525477516,4.628776997550942,519.5065116892026,-120.91406342178804,-161.257080078125,4761.76025390625,True
1599388351.484999,0.0,10,0.5,0.5,14.582735335540772,-0.2,-0.0155,-0.37525,-0.16182489445370168,10,1,100,0.08286458981796738,-10,-1,-100,18802.55562685791,-0.009121465819254205,-0.009757941244147625,0.9999107867424895,74.89046851637893,4.658592468296034,523.8020734747311,-121.09557773485353,-159.62554931640625,4761.76025390625,True
1599388351.5219035,0.0,10,0.5,0.5,13.163469021606446,-0.2,-0.0155,-0.37525,-0.2356269422311778,10,1,100,0.054654022305883516,-10,-1,-100,18797.700914226123,-0.008696567007964532,-0.010968399191691154,0.9999020271713862,75.87502658481652,4.718185382726427,532.4456924080271,-121.45854826584633,-156.14297485351562,4761.76025390625,True
1599388351.566781,0.0,10,0.5,0.5,13.373167848205568,-0.2,-0.0155,-0.37525,-0.1808321691179313,10,1,100,0.06932336598213118,-10,-1,-100,18795.268113861443,-0.008445592129002947,-0.011561501959416888,0.9998974965695399,76.36191754873137,4.747559582026522,536.7463110177557,-121.64000422416255,-154.29177856445312,4761.76025390625,True
1599388351.6276176,0.0,10,0.5,0.5,9.354313851928712,-0.2,-0.0155,-0.37525,-0.38268311650529924,10,1,100,-0.03219346577707388,-10,-1,-100,18785.500629650545,-0.00729661961853915,-0.013926874925901965,0.9998763931091386,78.18310939724017,4.85689895689587,553.1636679990551,-122.36563491561456,-146.1558837890625,4761.76025390625,True
1599388351.6681054,0.0,10,0.5,0.5,11.086204836273193,-0.2,-0.0155,-0.37525,-0.21158738975937233,10,1,100,0.04635842564527219,-10,-1,-100,18783.049689634005,-0.006969318537915138,-0.014510827969168779,0.9998704238403926,78.58656037765368,4.881013445978022,556.9258894272704,-122.54699651741336,-143.93919372558594,4761.76025390625,True
1599388351.7070436,0.0,10,0.5,0.5,7.792248921966554,-0.2,-0.0155,-0.37525,-0.3310053502707845,10,1,100,-0.04551587260102763,-10,-1,-100,18775.675109345233,-0.005839836105890883,-0.01611674595643455,0.999853062611718,79.60010336595792,4.941424954314617,566.864715272177,-123.09098520791703,-136.84906005859375,4761.76025390625,True
1599388351.7459362,0.0,10,0.5,0.5,10.397336164093018,-0.2,-0.0155,-0.37525,-0.17162999410940294,10,1,100,0.06697470052514745,-10,-1,-100,18775.675109345233,-0.005839836105890883,-0.01611674595643455,0.999853062611718,79.60010336595792,4.941424954314617,566.864715272177,-123.09098520791703,-136.84906005859375,4761.76025390625,True
1599388351.7887852,0.0,10,0.5,0.5,7.4160454612731925,-0.2,-0.0155,-0.37525,-0.2889479880624422,10,1,100,-0.02321121469813913,-10,-1,-100,18770.740592044545,-0.005023987173266381,-0.017173226013598598,0.9998399071157186,80.05778369144569,4.968595704494219,571.970741206719,-123.45357848136658,-131.75747680664062,4761.76025390625,True
1599388351.8286753,0.0,10,0.5,0.5,6.172022574615479,-0.2,-0.0155,-0.37525,-0.28310413380281835,10,1,100,-0.040340607908354933,-10,-1,-100,18765.791571904672,-0.004131141200151648,-0.0180705597197281,0.9998281795107598,80.29220353850339,4.9824078991565806,575.4975779241194,-123.81613719258742,-126.37203979492188,4761.76025390625,True
1599388351.8666022,0.0,10,0.5,0.5,4.866524397277832,-0.2,-0.0155,-0.37525,-0.2944639574026505,10,1,100,-0.05561381879292298,-10,-1,-100,18760.82805000886,-0.0031857546493030417,-0.018979856227136098,0.9998147908612433,80.25810646143798,4.980132256283021,577.1054445057235,-124.178681092882,-120.69554138183594,4761.76025390625,True
1599388351.9084625,0.0,10,0.5,0.5,1.7193982711792,-0.2,-0.0155,-0.37525,-0.3247312736978163,10,1,100,-0.12472995072309613,-10,-1,-100,18753.355575463036,-0.0017035500215680924,-0.020072714804500548,0.9997970714288481,79.60910990365524,4.940671366878389,575.1993048937026,-124.7225213251879,-111.63102722167969,4761.76025390625,True
1599388351.9483557,0.0,10,0.5,0.5,-0.5460622039794916,-0.2,-0.0155,-0.37525,-0.31368225961733387,10,1,100,-0.14462990615833016,-10,-1,-100,18745.8504665402,-0.00018192614312299832,-0.020956399952681705,0.9997803739841573,78.11441303116936,4.849575634844764,567.1172283455167,-125.26647122317196,-101.90911865234375,4761.76025390625,True
1599388351.9902458,0.0,10,0.5,0.5,-0.9206319232940672,-0.2,-0.0155,-0.37525,-0.2735260881758278,10,1,100,-0.10127745463491296,-10,-1,-100,18740.828925738926,0.0007995145135552568,-0.021385613982686347,0.9997709819209228,76.60732861270117,4.757188859617205,557.9582710066846,-125.62921175870854,-95.06226348876953,4761.76025390625,True
1599388352.0341527,0.0,10,0.5,0.5,1.5568447284698488,-0.2,-0.0155,-0.37525,-0.2315870963776906,10,1,100,-0.004057899631343271,-10,-1,-100,18740.828925738926,0.0007995145135552568,-0.021385613982686347,0.9997709819209228,76.60732861270117,4.757188859617205,557.9582710066846,-125.62921175870854,-95.06226348876953,4761.76025390625,True
1599388352.075109,0.0,10,0.5,0.5,-2.495069752883911,-0.2,-0.0155,-0.37525,-0.26743743327404684,10,1,100,-0.10865720637834281,-10,-1,-100,18735.792871888378,0.001743057180226076,-0.02170474546441978,0.9997629047809241,74.91643756755641,4.653045074252374,547.390421638814,-125.99205630010768,-88.15618896484375,4761.76025390625,True
1599388352.1159582,0.0,10,0.5,0.5,-7.738822699737549,-0.2,-0.0155,-0.37525,-0.27267203962261244,10,1,100,-0.211925582729325,-10,-1,-100,18725.67720809509,0.00353170632064653,-0.02203591239871418,0.9997509417926151,70.91202106534976,4.404070003393332,521.4458138478933,-126.71809072287793,-74.68588256835938,4761.76025390625,True
1599388352.158844,0.0,10,0.5,0.5,-6.633413860321045,-0.2,-0.0155,-0.37525,-0.24250873267074913,10,1,100,-0.11802711895118982,-10,-1,-100,18720.59759411693,0.004295609011748862,-0.022057380306290078,0.9997474779749345,73.00570415612333,4.532745428542604,538.5466422993189,-127.08108727159285,-67.98797607421875,4761.76025390625,True
1599388352.2007716,0.0,10,0.5,0.5,-4.226759128570556,-0.2,-0.0155,-0.37525,-0.24095600534814496,10,1,100,-0.0426503943527206,-10,-1,-100,18720.59759411693,0.004295609011748862,-0.022057380306290078,0.9997474779749345,73.00570415612333,4.532745428542604,538.5466422993189,-127.08108727159285,-67.98797607421875,4761.76025390625,True
1599388352.240664,0.0,10,0.5,0.5,-11.564433535003662,-0.2,-0.0155,-0.37525,-0.2258256398231742,10,1,100,-0.18271394366900745,-10,-1,-100,18710.39482731046,0.005560441645365092,-0.02191539138852426,0.9997443658800965,76.90666380144201,4.770838637756239,570.906754314436,-127.80660704912843,-55.4041748046875,4761.76025390625,True
1599388352.2835102,0.0,10,0.5,0.5,-6.952362299346924,-0.2,-0.0155,-0.37525,-0.24040901476663554,10,1,100,-0.05719983859193611,-10,-1,-100,18710.39482731046,0.005560441645365092,-0.02191539138852426,0.9997443658800965,76.90666380144201,4.770838637756239,570.906754314436,-127.80660704912843,-55.4041748046875,4761.76025390625,True
1599388352.3253984,0.0,10,0.5,0.5,-10.417568617248534,-0.2,-0.0155,-0.37525,-0.22125600416488672,10,1,100,-0.11441276513509474,-10,-1,-100,18705.27168523951,0.0060726080718532,-0.02173860444199801,0.9997452458042099,78.25758552267497,4.852600510335586,582.7541911005347,-128.1691799713689,-49.5562744140625,4761.76025390625,True
1599388352.3662887,0.0,10,0.5,0.5,-14.531139968109132,-0.2,-0.0155,-0.37525,-0.1921852006576787,10,1,100,-0.13785368020824004,-10,-1,-100,18694.981904051267,0.006744243907422417,-0.021312094559056347,0.9997501236807241,79.92925094451542,4.953327870327802,598.9143894725659,-128.8940808434584,-38.75787353515625,4761.76025390625,True
1599388352.408177,0.0,10,0.5,0.5,-10.576924468231201,-0.2,-0.0155,-0.37525,-0.23487175841248242,10,1,100,-0.07138271365637285,-10,-1,-100,18694.981904051267,0.006744243907422417,-0.021312094559056347,0.9997501236807241,79.92925094451542,4.953327870327802,598.9143894725659,-128.8940808434584,-38.75787353515625,4761.76025390625,True
1599388352.4522176,0.0,10,0.5,0.5,-13.512006789016723,-0.2,-0.0155,-0.37525,-0.20808476014991678,10,1,100,-0.09199287184188325,-10,-1,-100,18689.815269398503,0.006926204682387178,-0.021068643228872686,0.9997540397323695,80.33307081099473,4.977694966453512,603.8062048971279,-129.25645625515554,-33.80731201171875,4761.76025390625,True
1599388352.4940655,0.0,10,0.5,0.5,-14.42498783721924,-0.2,-0.0155,-0.37525,-0.20521334844059344,10,1,100,-0.08395600244576645,-10,-1,-100,18684.634140470996,0.00701299140132787,-0.02082150825021534,0.9997586122388699,80.50528088098872,4.988253969484639,606.9725470055805,-129.61880842235038,-29.1558837890625,4761.76025390625,True
1599388352.5354648,0.0,10,0.5,0.5,-17.60698362121582,-0.2,-0.0155,-0.37525,-0.1699602978675327,10,1,100,-0.06073928363753983,-10,-1,-100,18674.228400793974,0.006876036489179982,-0.02027716075278466,0.9997707521597164,80.3194970542346,4.977875199354991,609.3165314178151,-130.34350451268614,-20.749114990234375,4761.76025390625,True
1599388352.5763557,0.0,10,0.5,0.5,-14.53594561920166,-0.2,-0.0155,-0.37525,-0.2242191724460078,10,1,100,-0.07476920786918191,-10,-1,-100,18674.228400793974,0.006876036489179982,-0.02027716075278466,0.9997707521597164,80.3194970542346,4.977875199354991,609.3165314178151,-130.34350451268614,-20.749114990234375,4761.76025390625,True
1599388352.6163547,0.0,10,0.5,0.5,-18.757678976440427,-0.2,-0.0155,-0.37525,-0.16705264463401454,10,1,100,-0.01866243251879042,-10,-1,-100,18663.764682634268,0.006363629051924213,-0.01975908342681518,0.9997845182075094,79.67622489973392,4.94025826150878,608.1669088728119,-131.068258129372,-13.537445068359375,4761.76025390625,True
1599388352.660238,0.0,10,0.5,0.5,-17.952566732788085,-0.2,-0.0155,-0.37525,-0.192100269648805,10,1,100,-0.024464562030566434,-10,-1,-100,18658.51107985014,0.005948670722671318,-0.019517899082322362,0.9997918107946501,79.26552993469166,4.916078504804839,606.8938129891956,-131.4306709559018,-10.37939453125,4761.76025390625,True
1599388352.7021263,0.0,10,0.5,0.5,-16.83729667816162,-0.2,-0.0155,-0.37525,-0.2159789548674666,10,1,100,-0.06599921786358655,-10,-1,-100,18658.51107985014,0.005948670722671318,-0.019517899082322362,0.9997918107946501,79.26552993469166,4.916078504804839,606.8938129891956,-131.4306709559018,-10.37939453125,4761.76025390625,True
1599388352.744014,0.0,10,0.5,0.5,-18.552291661071777,-0.2,-0.0155,-0.37525,-0.18869092905297116,10,1,100,-0.013987038990218123,-10,-1,-100,18653.24297967751,0.0054754797973886,-0.019272005658832587,0.9997992843160444,78.83599643192608,4.890712368719648,605.4607167318384,-131.7931104148114,-7.5194091796875,4761.76025390625,True
1599388352.7918868,0.0,10,0.5,0.5,-20.320073344421388,-0.2,-0.0155,-0.37525,-0.16555784137333693,10,1,100,0.07641096195401456,-10,-1,-100,18642.6632831943,0.004224049064251708,-0.018840407748375358,0.9998135808466385,78.06631852923759,4.845235719524184,603.2355666856096,-132.5180635018792,-2.6939697265625,4761.76025390625,True
1599388352.833774,0.0,10,0.5,0.5,-19.69632770385742,-0.2,-0.0155,-0.37525,-0.1852726872264263,10,1,100,0.033852497833154145,-10,-1,-100,18637.351685458445,0.0034755709759925106,-0.01862951887099749,0.9998204145910535,77.79678987719191,4.8294410243193635,602.9945283082695,-132.8805661110883,-0.727691650390625,4761.76025390625,True
1599388352.8756618,0.0,10,0.5,0.5,-19.017428637695314,-0.2,-0.0155,-0.37525,-0.20609331739540718,10,1,100,-0.040668443699622574,-10,-1,-100,18637.351685458445,0.0034755709759925106,-0.01862951887099749,0.9998204145910535,77.79678987719191,4.8294410243193635,602.9945283082695,-132.8805661110883,-0.727691650390625,4761.76025390625,True
