Timestamp,Input Throttle,horizon,dT,dt,Input Roll,Roll P,Roll I,Roll D,Input Pitch,Pitch P,Pitch I,Pitch D,Input Yaw,Yaw P,Yaw I,Yaw D,Altitude,Direction X,Direction Y,Direction Z,Drag X,Drag Y,Drag Z,Vertical Velocity,Roll,Mass,Has Fuel
1599386092.9743836,0.0,10,0.5,0.5,-2.845117698669434,-0.05075,-0.03,-0.37525,-0.0001317992873875267,10,1,100,0.4981081165830651,-10,-1,-100,19351.09416718327,-0.04884411224899477,-0.00017449922082374893,0.9988063987823814,60.98676822124491,3.6806960387547125,232.75497658518188,-68.48187356692848,-33.92254638671875,4761.76025390625,True
1599386093.0067856,0.0,10,0.5,0.5,-3.01262907409668,-0.05075,-0.03,-0.37525,0.001134036432536858,10,1,100,0.5107095771003973,-10,-1,-100,19346.963359662448,-0.04900214900704523,-0.00014816759752505146,0.998798662113168,61.25661143908727,3.699004961469656,235.72456594171703,-69.02924332390168,-33.9261474609375,4761.76025390625,True
1599386093.0401335,0.0,10,0.5,0.5,-3.1179665222167974,-0.05075,-0.03,-0.37525,0.021761340635198995,10,1,100,0.49813074360263143,-10,-1,-100,19344.191242879722,-0.048986918347105,6.342588695026118e-05,0.9987994182056831,61.440596662120264,3.7114748672761824,237.73049042839776,-69.39413929302607,-34.076934814453125,4761.76025390625,True
1599386093.076643,0.0,10,0.5,0.5,-3.342318672180176,-0.05075,-0.03,-0.37525,0.0006083347763627579,10,1,100,0.5045525014313645,-10,-1,-100,19344.191242879722,-0.048986918347105,6.342588695026118e-05,0.9987994182056831,61.440596662120264,3.7114748672761824,237.73049042839776,-69.39413929302607,-34.076934814453125,4761.76025390625,True
1599386093.1065679,0.0,10,0.5,0.5,-3.435322059631348,-0.05075,-0.03,-0.37525,0.013249782011096351,10,1,100,0.5081664251437266,-10,-1,-100,19342.79971101263,-0.048975238636901834,0.00017829047464152089,0.9987999770789772,61.53735158738022,3.71799849081129,238.75509882787884,-69.57658181136809,-34.25244140625,4761.76025390625,True
1599386093.1410465,0.0,10,0.5,0.5,-3.060923767089844,-0.05075,-0.03,-0.37525,0.08762918766488842,10,1,100,0.4859078722572078,-10,-1,-100,19337.197097166558,-0.04871774729353342,0.00095872715987292,0.9988121254474618,61.95521396429911,3.7459046466406183,242.99648155110998,-70.30631088251623,-35.678497314453125,4761.76025390625,True
1599386093.1739583,0.0,10,0.5,0.5,-3.7590157546997074,-0.05075,-0.03,-0.37525,0.009681391857735816,10,1,100,0.5165287813234027,-10,-1,-100,19337.197097166558,-0.04871774729353342,0.00095872715987292,0.9988121254474618,61.95521396429911,3.7459046466406183,242.99648155110998,-70.30631088251623,-35.678497314453125,4761.76025390625,True
1599386093.2098627,0.0,10,0.5,0.5,-3.692144630432129,-0.05075,-0.03,-0.37525,0.0413462292767198,10,1,100,0.5071728369872909,-10,-1,-100,19335.787322549615,-0.04858840439293828,0.0012457177480819808,0.9988181091399175,62.06426838253587,3.753130947132992,244.08074663433322,-70.48873219905849,-36.218017578125,4761.76025390625,True
1599386093.2409973,0.0,10,0.5,0.5,-3.502449768066406,-0.05075,-0.03,-0.37525,0.08642302242429228,10,1,100,0.48667025245677453,-10,-1,-100,19332.956828027498,-0.048240261529035336,0.0019152748407517115,0.9988339245790034,62.28091194618518,3.767438810044019,246.25078501497794,-70.85356085357948,-37.517303466796875,4761.76025390625,True
1599386093.2749045,0.0,10,0.5,0.5,-3.469050407409668,-0.05075,-0.03,-0.37525,0.11121472471609582,10,1,100,0.47681512032473367,-10,-1,-100,19330.11174120882,-0.0477903211228968,0.0027476010596126335,0.998853610843645,62.485941480232725,3.780945067112915,248.38430563343886,-71.21837066237634,-39.10980224609375,4761.76025390625,True
1599386093.3079352,0.0,10,0.5,0.5,-3.8331916656494145,-0.05075,-0.03,-0.37525,0.07870936780386656,10,1,100,0.4962624074754981,-10,-1,-100,19328.683725609444,-0.04751463216312063,0.0032062601947753762,0.9988653961500352,62.58017294166453,3.7871500457196996,249.4214830285108,-71.4007687618815,-40.01617431640625,4761.76025390625,True
1599386093.34384,0.0,10,0.5,0.5,-3.288960372924805,-0.05075,-0.03,-0.37525,0.14413942585477596,10,1,100,0.4523290480392578,-10,-1,-100,19325.81675086636,-0.046865820277618174,0.004214968336826501,0.998892300967239,62.74269131783507,3.7978760503223805,251.39822242743801,-71.7655518490292,-42.0491943359375,4761.76025390625,True
1599386093.3747635,0.0,10,0.5,0.5,-2.493827392578125,-0.05075,-0.03,-0.37525,0.23291570040420365,10,1,100,0.38133420954485087,-10,-1,-100,19321.48893138254,-0.045632525785148086,0.005935066292836547,0.9989406626915173,62.887121103208074,3.807605884544463,253.97596900672357,-72.31269864322734,-45.649322509765625,4761.76025390625,True
1599386093.4077456,0.0,10,0.5,0.5,-2.631187049865723,-0.05075,-0.03,-0.37525,0.20038245149868023,10,1,100,0.3935466462295524,-10,-1,-100,19318.5854805212,-0.044625420573274344,0.00719769704424466,0.9989778601129845,62.887338649181196,3.808002670971979,255.31028544568946,-72.67744992636337,-48.4166259765625,4761.76025390625,True
1599386093.4407523,0.0,10,0.5,0.5,-3.626598602294922,-0.05075,-0.03,-0.37525,0.07483280347359829,10,1,100,0.49382101763954345,-10,-1,-100,19318.5854805212,-0.044625420573274344,0.00719769704424466,0.9989778601129845,62.887338649181196,3.808002670971979,255.31028544568946,-72.67744992636337,-48.4166259765625,4761.76025390625,True
1599386093.4767466,0.0,10,0.5,0.5,-2.2798710632324224,-0.05075,-0.03,-0.37525,0.2191369025442239,10,1,100,0.36542659964129526,-10,-1,-100,19315.66744020756,-0.04346215297152993,0.008503171211641618,0.9990188873782242,62.78399181441959,3.8018851163808,256.22268775799597,-73.04219646920826,-51.47821044921875,4761.76025390625,True
1599386093.5076966,0.0,10,0.5,0.5,-1.9518108062744144,-0.05075,-0.03,-0.37525,0.2385247639800969,10,1,100,0.3363567642987209,-10,-1,-100,19312.734809509246,-0.04214514355257706,0.009859360609554271,0.9990628508173565,62.55137693013437,3.7876894266421086,256.6013034176557,-73.40694538386164,-54.833892822265625,4761.76025390625,True
1599386093.5406075,0.0,10,0.5,0.5,-2.3919958267211916,-0.05075,-0.03,-0.37525,0.18356545366583255,10,1,100,0.38789796199286364,-10,-1,-100,19311.26302296552,-0.0414223936996039,0.010584538483481842,0.999085658412374,62.378235171887795,3.7770587634845545,256.5535488783231,-73.58932322934595,-56.621612548828125,4761.76025390625,True
1599386093.5746732,0.0,10,0.5,0.5,-1.3838981094360356,-0.05075,-0.03,-0.37525,0.2624058236404062,10,1,100,0.28833415223735137,-10,-1,-100,19308.308506820584,-0.03986673739066303,0.011952031895243577,0.9991335206985096,61.90139766383821,3.7477287654838527,255.90819643797158,-73.95409152008781,-60.419097900390625,4761.76025390625,True
1599386093.6107237,0.0,10,0.5,0.5,-1.884285957336426,-0.05075,-0.03,-0.37525,0.2019483353526961,10,1,100,0.35128089827901426,-10,-1,-100,19306.825777053018,-0.039032359823039514,0.012636469869634615,0.9991580428119862,61.590442202477924,3.728603171753612,255.27778401441287,-74.13648442103445,-62.42828369140625,4761.76025390625,True
1599386093.6406443,0.0,10,0.5,0.5,-0.7624186553955081,-0.05075,-0.03,-0.37525,0.28590418318877286,10,1,100,0.23664541951506074,-10,-1,-100,19303.849373269477,-0.03723965582852752,0.014012931309581691,0.9992081093495419,60.80543961088186,3.680388013696846,253.3188198465419,-74.50129448043394,-66.66738891601562,4761.76025390625,True
1599386093.67474,0.0,10,0.5,0.5,-0.3415116958618165,-0.05075,-0.03,-0.37525,0.292404403367882,10,1,100,0.20343522685959775,-10,-1,-100,19300.85837585712,-0.03531735496968022,0.015313528555602928,0.9992588154633024,59.77943500240864,3.6175487422924433,250.31892502692673,-74.86614580637992,-71.20184326171875,4761.76025390625,True
1599386093.7086496,0.0,10,0.5,0.5,-0.9427657012939452,-0.05075,-0.03,-0.37525,0.23500775049692857,10,1,100,0.28167061015128425,-10,-1,-100,19299.357403861242,-0.03429153809638704,0.015964012334778316,0.9992843642953487,59.1674125980464,3.5801614052628197,248.38753811616968,-75.04859034556591,-73.57940673828125,4761.76025390625,True
1599386093.7455204,0.0,10,0.5,0.5,0.3645303192138669,-0.05075,-0.03,-0.37525,0.30509138775046934,10,1,100,0.14848623729119526,-10,-1,-100,19296.34451229358,-0.032158520265291306,0.017183367976295456,0.9993350596468324,57.72910439909341,3.4925604065543565,243.58281351588644,-75.4135230819161,-78.54580688476562,4761.76025390625,True
1599386093.7769825,0.0,10,0.5,0.5,0.7818454818725584,-0.05075,-0.03,-0.37525,0.30694478439397765,10,1,100,0.11561485585583525,-10,-1,-100,19293.317021297175,-0.02993191595152644,0.01829964428267743,0.9993844122391535,56.00568963830473,3.388016618665285,237.5091272139795,-75.77852039686637,-83.68798828125,4761.76025390625,True
1599386093.8089042,0.0,10,0.5,0.5,1.2351435241699216,-0.05075,-0.03,-0.37525,0.31114451650310304,10,1,100,0.07637500174591483,-10,-1,-100,19290.27492839226,-0.027564361996760694,0.019342527628345426,0.9994328754712135,54.01885340266326,3.267968950516795,230.24016221701862,-76.14358622897711,-89.03326416015625,4761.76025390625,True
1599386093.841808,0.0,10,0.5,0.5,1.6490995635986327,-0.05075,-0.03,-0.37525,0.3059342894757044,10,1,100,0.04851942949644472,-10,-1,-100,19287.218230952276,-0.02517326028195553,0.020233383736506613,0.9994783225009676,52.36549940259482,3.168624254661567,224.3153062042677,-76.50871076128202,-94.44900512695312,4761.76025390625,True
1599386093.8826659,0.0,10,0.5,0.5,1.9782788314819337,-0.05075,-0.03,-0.37525,0.30331436743455165,10,1,100,0.017304345690079548,-10,-1,-100,19284.146930029267,-0.022731186945957174,0.021010004522527256,0.9995208216190352,54.06435028920623,3.2726802685878997,232.75115545726396,-76.87377833862342,-99.71330261230469,4761.76025390625,True
1599386093.9165754,0.0,10,0.5,0.5,1.2116023139953613,-0.05075,-0.03,-0.37525,0.26397160761826627,10,1,100,0.12421010664883775,-10,-1,-100,19282.605804415536,-0.021499982837177967,0.021348884269635205,0.9995408825448024,54.79695154880065,3.317828661662812,236.49204974279132,-77.05628134034104,-102.24728393554688,4761.76025390625,True
1599386093.9495263,0.0,10,0.5,0.5,1.4352457809448242,-0.05075,-0.03,-0.37525,0.2648037800065096,10,1,100,0.11027163674141291,-10,-1,-100,19281.061028920463,-0.02027069006145072,0.021655979377467924,0.9995599620241076,55.45106015791504,3.358326735522958,239.90887945547016,-77.23876480128425,-104.70980834960938,4761.76025390625,True
1599386093.9824364,0.0,10,0.5,0.5,2.642895118713379,-0.05075,-0.03,-0.37525,0.29217385917999494,10,1,100,-0.03735174715149636,-10,-1,-100,19277.960530536016,-0.017828176475182766,0.02217577609570405,0.9995951135725519,56.723790537522966,3.4374030314100406,246.62966679185803,-77.60367190014139,-109.41606903076172,4761.76025390625,True
1599386094.011358,0.0,10,0.5,0.5,2.884863939285278,-0.05075,-0.03,-0.37525,0.2838191469810223,10,1,100,-0.06700293882806505,-10,-1,-100,19274.845438249875,-0.01535580009001886,0.022564945869758848,0.9996274419109802,57.77927544666376,3.503498321260021,252.4548433672376,-77.9685063532247,-113.82862091064453,4761.76025390625,True
1599386094.0462596,0.0,10,0.5,0.5,2.2497882137298584,-0.05075,-0.03,-0.37525,0.2619532809475055,10,1,100,0.04413681406726375,-10,-1,-100,19273.28242035443,-0.014136693452445262,0.022713363775582005,0.9996420644431835,58.26901276961385,3.5342678880746368,255.2175765995077,-78.1508978436151,-115.92452239990234,4761.76025390625,True
1599386094.078179,0.0,10,0.5,0.5,3.281943811416626,-0.05075,-0.03,-0.37525,0.2718291530123424,10,1,100,-0.09911475011895293,-10,-1,-100,19270.145441879285,-0.011744450329907242,0.022931934025609935,0.999668042046105,59.06222718021759,3.5844867047219267,259.9540686059107,-78.515636499034,-119.89543151855469,4761.76025390625,True
1599386094.1120546,0.0,10,0.5,0.5,3.4819511070251465,-0.05075,-0.03,-0.37525,0.2645278030703561,10,1,100,-0.11813545262638181,-10,-1,-100,19266.993875500164,-0.00941532662292822,0.0230590323752088,0.9996897682033675,59.63817075411741,3.62141212199787,263.7628970269289,-78.88032523665063,-123.57158660888672,4761.76025390625,True
1599386094.144002,0.0,10,0.5,0.5,2.9581700992584232,-0.05075,-0.03,-0.37525,0.2538862308850714,10,1,100,-0.01584962929871346,-10,-1,-100,19265.412622417323,-0.008246464000770273,0.023073508047621063,0.9996997594567383,59.8560665154894,3.6355583402073663,265.36569201333356,-79.06265426765121,-125.29939270019531,4761.76025390625,True
1599386094.175881,0.0,10,0.5,0.5,4.438215602874756,-0.05075,-0.03,-0.37525,0.2476974736590058,10,1,100,-0.26695326456191537,-10,-1,-100,19260.64698496752,-0.004918663021866659,0.023027014520105,0.9997227432425293,60.27398890449433,3.663370065549052,269.1488408240552,-79.60959450284746,-130.04025268554688,4761.76025390625,True
1599386094.2097905,0.0,10,0.5,0.5,2.7659816360473632,-0.05075,-0.03,-0.37525,0.252626189488972,10,1,100,0.06380137360243711,-10,-1,-100,19260.64698496752,-0.004918663021866659,0.023027014520105,0.9997227432425293,60.27398890449433,3.663370065549052,269.1488408240552,-79.60959450284746,-130.04025268554688,4761.76025390625,True
1599386094.2457314,0.0,10,0.5,0.5,4.04645516204834,-0.05075,-0.03,-0.37525,0.23862333500490102,10,1,100,-0.17192094620395584,-10,-1,-100,19257.451662982,-0.0027919260453758963,0.022897882197524737,0.9997339106681464,60.39660336897846,3.6721584840501786,270.9858252329314,-79.97419226948878,-132.83248901367188,4761.76025390625,True
1599386094.2772138,0.0,10,0.5,0.5,5.092252281188965,-0.05075,-0.03,-0.37525,0.20888548504637533,10,1,100,-0.39329570656196766,-10,-1,-100,19251.01726897247,0.00113696170305963,0.02250873690653073,0.9997459997824237,60.39296915878436,3.6739840961764294,273.5489319590395,-80.70334514000822,-137.5316162109375,4761.76025390625,True
1599386094.3092203,0.0,10,0.5,0.5,3.4273702239990236,-0.05075,-0.03,-0.37525,0.2478852898986823,10,1,100,-0.002547696894866079,-10,-1,-100,19251.01726897247,0.00113696170305963,0.02250873690653073,0.9997459997824237,60.39296915878436,3.6739840961764294,273.5489319590395,-80.70334514000822,-137.5316162109375,4761.76025390625,True
1599386094.3431282,0.0,10,0.5,0.5,3.9334592056274413,-0.05075,-0.03,-0.37525,0.23691432096823434,10,1,100,-0.10339826339384947,-10,-1,-100,19249.39955641073,0.002036544000161077,0.022408698133698633,0.9997468193180152,60.35603851175854,3.6721356308578588,274.0263407458762,-80.88562758234946,-138.52162170410156,4761.76025390625,True
1599386094.378512,0.0,10,0.5,0.5,4.712862590789795,-0.05075,-0.03,-0.37525,0.20625365698892445,10,1,100,-0.2981801970624659,-10,-1,-100,19244.524544801796,0.004609279718067833,0.022039162529253965,0.9997464827922574,60.20244707120733,3.663763778518202,275.25883720760135,-81.43246571211037,-141.04937744140625,4761.76025390625,True
1599386094.4094288,0.0,10,0.5,0.5,3.839696815490723,-0.05075,-0.03,-0.37525,0.2431397973087585,10,1,100,-0.04278122258884165,-10,-1,-100,19244.524544801796,0.004609279718067833,0.022039162529253965,0.9997464827922574,60.20244707120733,3.663763778518202,275.25883720760135,-81.43246571211037,-141.04937744140625,4761.76025390625,True
1599386094.4414997,0.0,10,0.5,0.5,4.4641297225952155,-0.05075,-0.03,-0.37525,0.20833108454071275,10,1,100,-0.22131423202730974,-10,-1,-100,19241.256309068645,0.00621744004928302,0.021723531296359327,0.9997446832202959,60.08448169098168,3.6570852888534553,276.0041382377715,-81.79701849916071,-142.3662109375,4761.76025390625,True
1599386094.4761465,0.0,10,0.5,0.5,4.631479553222657,-0.05075,-0.03,-0.37525,0.1940424876671879,10,1,100,-0.30029046445642266,-10,-1,-100,19236.326614891994,0.008383158130041297,0.021307911568585657,0.9997378134112724,59.91540483609917,3.6473854969122974,277.15003198950626,-82.34383929942351,-143.78665161132812,4761.76025390625,True
1599386094.5111744,0.0,10,0.5,0.5,4.400260719299316,-0.05075,-0.03,-0.37525,0.20174703152357862,10,1,100,-0.23067043511199847,-10,-1,-100,19233.02192492166,0.009703965552935137,0.02100172184792136,0.9997323445462641,59.823170304545705,3.642093235941867,278.003772509205,-82.70837991276939,-144.3649139404297,4761.76025390625,True
1599386094.5471127,0.0,10,0.5,0.5,4.226241764068604,-0.05075,-0.03,-0.37525,0.23216347432279,10,1,100,-0.10005195568009466,-10,-1,-100,19233.02192492166,0.009703965552935137,0.02100172184792136,0.9997323445462641,59.823170304545705,3.642093235941867,278.003772509205,-82.70837991276939,-144.3649139404297,4761.76025390625,True
1599386094.6099513,0.0,10,0.5,0.5,4.383860553741456,-0.05075,-0.03,-0.37525,0.17627608804088346,10,1,100,-0.3510583862219466,-10,-1,-100,19226.368800906115,0.011972548895520334,0.020495495875060558,0.9997182566712381,59.71755237906911,3.6362265014946122,280.0706934407041,-83.43744028618597,-144.634033203125,4761.76025390625,True
1599386094.6458893,0.0,10,0.5,0.5,4.187233261108399,-0.05075,-0.03,-0.37525,0.1955931714973184,10,1,100,-0.23408321029774734,-10,-1,-100,19223.020367415622,0.012958064448613343,0.020213084282356932,0.9997117183416127,59.710676175695646,3.6360874509987333,281.31786019611235,-83.80195708994852,-144.326416015625,4761.76025390625,True
1599386094.6817932,0.0,10,0.5,0.5,4.323051010131836,-0.05075,-0.03,-0.37525,0.2236047655052636,10,1,100,-0.13671376526300189,-10,-1,-100,19223.020367415622,0.012958064448613343,0.020213084282356932,0.9997117183416127,59.710676175695646,3.6360874509987333,281.31786019611235,-83.80195708994852,-144.326416015625,4761.76025390625,True
1599386094.712677,0.0,10,0.5,0.5,4.086214248657226,-0.05075,-0.03,-0.37525,0.2001157463946381,10,1,100,-0.2312577977226412,-10,-1,-100,19219.657353819814,0.01380680919575047,0.020001634701918677,0.9997046096868231,59.730726081926136,3.6376102449598173,282.69259880657273,-84.16646295298504,-143.7226104736328,4761.76025390625,True
1599386094.7495797,0.0,10,0.5,0.5,4.152687145233155,-0.05075,-0.03,-0.37525,0.209070599277105,10,1,100,-0.19010806614230752,-10,-1,-100,19217.970379457227,0.01419360661951247,0.01989300380357158,0.9997013603725872,59.75091718753712,3.639004402503278,283.4286690136465,-84.34871137837611,-143.31015014648438,4761.76025390625,True
1599386094.7849002,0.0,10,0.5,0.5,3.868731468200684,-0.05075,-0.03,-0.37525,0.19418484077009776,10,1,100,-0.2292415676765556,-10,-1,-100,19214.585496014566,0.01489228672151523,0.01966087441748841,0.9996957886343945,59.80886348829823,3.6429020504125558,284.98610674195646,-84.7131985661206,-142.26434326171875,4761.76025390625,True
1599386094.823794,0.0,10,0.5,0.5,3.360618438720703,-0.05075,-0.03,-0.37525,0.18619357678080561,10,1,100,-0.2503679012619745,-10,-1,-100,19209.48083562043,0.01571015984047296,0.01937936192852084,0.9996887671715782,59.923166276362494,3.650553029093005,287.4590532651328,-85.25990378504564,-140.14181518554688,4761.76025390625,True
1599386094.862692,0.0,10,0.5,0.5,3.7862607345581054,-0.05075,-0.03,-0.37525,0.20374160157248444,10,1,100,-0.1936211856084595,-10,-1,-100,19207.771992799593,0.01592917187922877,0.019285100045172712,0.9996871242541288,59.96412153405416,3.6533240594150955,288.2989404592016,-85.44213199870117,-139.28697204589844,4761.76025390625,True
1599386094.8986304,0.0,10,0.5,0.5,3.270909687042236,-0.05075,-0.03,-0.37525,0.1951157083457709,10,1,100,-0.2104450199523335,-10,-1,-100,19204.343373992713,0.01627435766872455,0.01912282913236194,0.9996846816313857,60.04106248475409,3.6586497232234674,289.9576995984388,-85.80657842053259,-137.3559112548828,4761.76025390625,True
1599386094.9455054,0.0,10,0.5,0.5,3.0263096275329593,-0.05075,-0.03,-0.37525,0.195000861267082,10,1,100,-0.20159320446694137,-10,-1,-100,19200.900177579257,0.016501718798293707,0.018975974140650935,0.9996837528349228,60.100377858957586,3.663034414607819,291.53478655083603,-86.1710128997113,-135.1300811767578,4761.76025390625,True
1599386094.99337,0.0,10,0.5,0.5,3.312762294769287,-0.05075,-0.03,-0.37525,0.20042979899088603,10,1,100,-0.18794335350664315,-10,-1,-100,19199.17311302875,0.01657814140440354,0.01889366517086394,0.9996840474089735,60.11856254610539,3.6645837638618044,292.26873070222285,-86.35322618156668,-133.90687561035156,4761.76025390625,True
1599386095.0452018,0.0,10,0.5,0.5,2.6032680320739745,-0.05075,-0.03,-0.37525,0.19239610010308134,10,1,100,-0.18753036329845238,-10,-1,-100,19195.708051149384,0.016639675142148123,0.018747261418172265,0.9996857813335561,60.12034145539836,3.6656971600459647,293.5694054101952,-86.71764685421013,-131.2394561767578,4761.76025390625,True
1599386095.0821028,0.0,10,0.5,0.5,0.9164090690612796,-0.05075,-0.03,-0.37525,0.17225919462370054,10,1,100,-0.15901717306436586,-10,-1,-100,19188.73419713124,0.016433057164611926,0.018432436886698357,0.9996950534551236,59.9140481999685,3.6556506463672425,295.1398803213553,-87.4464809827427,-125.02220916748047,4761.76025390625,True
1599386095.1209993,0.0,10,0.5,0.5,3.191518388748169,-0.05075,-0.03,-0.37525,0.20356358303152552,10,1,100,-0.18002647008958542,-10,-1,-100,19188.73419713124,0.016433057164611926,0.018432436886698357,0.9996950534551236,59.9140481999685,3.6556506463672425,295.1398803213553,-87.4464809827427,-125.02220916748047,4761.76025390625,True
1599386095.1629143,0.0,10,0.5,0.5,0.8220160465240482,-0.05075,-0.03,-0.37525,0.17273285915263453,10,1,100,-0.13346706572270556,-10,-1,-100,19183.465542528545,0.016007402354032235,0.01815358412217682,0.9997070623204555,59.48599443852102,3.6318723832139845,294.95385234460946,-87.99312412277115,-119.59169006347656,4761.76025390625,True
1599386095.2097983,0.0,10,0.5,0.5,1.9582697715759276,-0.05075,-0.03,-0.37525,0.18877177139722712,10,1,100,-0.1555500182020556,-10,-1,-100,19181.702035422553,0.01581954864355886,0.018047471192727534,0.9997119738526,59.27496724580435,3.619838681494283,294.54681483185414,-88.17534694204481,-117.64241027832031,4761.76025390625,True
1599386095.253413,0.0,10,0.5,0.5,0.8635353965759278,-0.05075,-0.03,-0.37525,0.172250029688147,10,1,100,-0.1235528906058854,-10,-1,-100,19178.16408749018,0.015357046599597845,0.017802273971531783,0.9997235818771009,58.73241605800088,3.5884673999948267,293.1189528474893,-88.53981213890157,-113.52894592285156,4761.76025390625,True
1599386095.2912772,0.0,10,0.5,0.5,0.4621397361755375,-0.05075,-0.03,-0.37525,0.16583791838191753,10,1,100,-0.11191056279167305,-10,-1,-100,19174.61155991198,0.014831071864268512,0.017522509202167184,0.9997364657641616,58.007807221675804,3.5459800492920963,290.7569014765735,-88.90431153427755,-109.15069580078125,4761.76025390625,True
1599386095.3301735,0.0,10,0.5,0.5,-2.060918807983398,-0.05075,-0.03,-0.37525,0.11485515367252686,10,1,100,-0.020804544172479872,-10,-1,-100,19167.462759582908,0.013525674753808236,0.016806300269789458,0.9997672751164121,56.24403219085963,3.4414068110219183,284.35398645946475,-89.6334362161038,-99.58358764648438,4761.76025390625,True
1599386095.3750553,0.0,10,0.5,0.5,-0.7620202407836913,-0.05075,-0.03,-0.37525,0.13753250507928372,10,1,100,-0.06917486918005752,-10,-1,-100,19163.86648302665,0.012781179137926797,0.0163634649157462,0.999784415999667,55.198182425816846,3.3786893563026084,280.26522766196746,-89.99807138808916,-94.47128295898438,4761.76025390625,True
1599386095.4179387,0.0,10,0.5,0.5,1.0343956985473632,-0.05075,-0.03,-0.37525,0.18155478956111917,10,1,100,-0.14325237680216477,-10,-1,-100,19163.86648302665,0.012781179137926797,0.0163634649157462,0.999784415999667,55.198182425816846,3.3786893563026084,280.26522766196746,-89.99807138808916,-94.47128295898438,4761.76025390625,True
1599386095.4598272,0.0,10,0.5,0.5,-1.229134651184082,-0.05075,-0.03,-0.37525,0.12807253798791063,10,1,100,-0.05956516281156135,-10,-1,-100,19160.255619377713,0.012023838067345381,0.015879562810767137,0.999801613722977,53.95925434364232,3.303750994885083,275.14777541797247,-90.36275944480117,-89.435546875,4761.76025390625,True
1599386095.5086966,0.0,10,0.5,0.5,-3.577785888671875,-0.05075,-0.03,-0.37525,0.04494162386280563,10,1,100,0.050191654019939205,-10,-1,-100,19152.99013447936,0.010341753156598455,0.014686523222019222,0.999838664074008,57.07108694323631,3.4949897851113803,293.4991736548951,-91.09199271096482,-79.78085327148438,4761.76025390625,True
1599386095.551616,0.0,10,0.5,0.5,-2.13410693359375,-0.05075,-0.03,-0.37525,0.08999621395574132,10,1,100,-0.023340482872059642,-10,-1,-100,19149.3355198591,0.00948659657676307,0.014014934336424787,0.9998567827948838,58.70826377935309,3.595168888168232,303.19629128911873,-91.45647915954063,-74.98385620117188,4761.76025390625,True
1599386095.643337,0.0,10,0.5,0.5,-2.417880470275879,-0.05075,-0.03,-0.37525,0.08059988641082334,10,1,100,-0.014771651737421565,-10,-1,-100,19145.666328118765,0.008637598003495872,0.013322993737794477,0.9998739369233466,60.133082040503524,3.68217504100178,311.8630977626429,-91.82088400811496,-70.444580078125,4761.76025390625,True
1599386095.7001846,0.0,10,0.5,0.5,-2.671314392089844,-0.05075,-0.03,-0.37525,0.06450681046714918,10,1,100,-0.00216398333980497,-10,-1,-100,19141.982562511577,0.0077578657735933015,0.012552047585355686,0.9998911248831314,61.341037062459606,3.7558314038979375,319.4621999293965,-92.18521559337903,-66.197265625,4761.76025390625,True
1599386095.7480552,0.0,10,0.5,0.5,-2.914966293334961,-0.05075,-0.03,-0.37525,0.053770940133061135,10,1,100,0.005711203058561931,-10,-1,-100,19138.284225540585,0.006893845399942144,0.01175858446519905,0.9999071009783741,62.35335827662899,3.8175268881123583,326.0905341606959,-92.54948289415742,-62.24627685546875,4761.76025390625,True
1599386095.7824745,0.0,10,0.5,0.5,-3.142728225708008,-0.05075,-0.03,-0.37525,0.042462943432962405,10,1,100,0.014464150296451109,-10,-1,-100,19134.57131952909,0.0060364939046417855,0.010939948649152422,0.9999219360854592,63.195064926304525,3.8688639658646466,331.8668815913808,-92.9136951745481,-58.59246826171875,4761.76025390625,True
1599386095.8203733,0.0,10,0.5,0.5,-3.3532349395751955,-0.05075,-0.03,-0.37525,0.030816538339430974,10,1,100,0.023188924992085393,-10,-1,-100,19130.84384645475,0.005185762391644445,0.010095842006944307,0.9999355888468957,63.89146060874272,3.911441134939608,336.913743228631,-93.2778607234874,-55.23583984375,4761.76025390625,True
1599386095.8593044,0.0,10,0.5,0.5,-2.894226440429687,-0.05075,-0.03,-0.37525,0.06751235506552136,10,1,100,-0.014584123089540137,-10,-1,-100,19128.97464774165,0.004763343191809062,0.009668171082685792,0.9999419168279491,64.19284489788704,3.929924743279676,339.2012968076221,-93.45992833964709,-53.66888427734375,4761.76025390625,True
1599386095.8946893,0.0,10,0.5,0.5,-3.064513442993164,-0.05075,-0.03,-0.37525,0.06195652415615326,10,1,100,-0.009785126021765927,-10,-1,-100,19127.101807958563,0.004342987433111783,0.009234958410395669,0.9999479256457878,64.4668863796637,3.946778162640712,341.3507494281343,-93.64198704237222,-52.17620849609375,4761.76025390625,True
1599386095.9276047,0.0,10,0.5,0.5,-3.808206283569336,-0.05075,-0.03,-0.37525,0.008668529704519007,10,1,100,0.04080020498628648,-10,-1,-100,19123.345205583144,0.003508650272136339,0.008363172855576473,0.9999588725107927,64.94444179786801,3.9763013068910724,345.2930362975288,-94.00608059669591,-49.4134521484375,4761.76025390625,True
1599386095.9625142,0.0,10,0.5,0.5,-4.419729644775391,-0.05075,-0.03,-0.37525,-0.05467540065096631,10,1,100,0.09436388495228004,-10,-1,-100,19117.682996416115,0.0022709604786452747,0.00700161970246842,0.9999729096630801,65.52344379735105,4.012505131226316,350.51231913040374,-94.55217046015703,-45.826171875,4761.76025390625,True
1599386095.9974535,0.0,10,0.5,0.5,-3.175466766357422,-0.05075,-0.03,-0.37525,0.08071142430788392,10,1,100,-0.028598015129031054,-10,-1,-100,19117.682996416115,0.0022709604786452747,0.00700161970246842,0.9999729096630801,65.52344379735105,4.012505131226316,350.51231913040374,-94.55217046015703,-45.826171875,4761.76025390625,True
1599386096.0313628,0.0,10,0.5,0.5,-4.123975158691406,-0.05075,-0.03,-0.37525,-0.017942538855624593,10,1,100,0.06194173297711512,-10,-1,-100,19113.889988415292,0.0014544315286785985,0.006111141232467394,0.9999802690962283,65.84565287572683,4.0329327564744775,353.6714306234009,-94.91620204451316,-43.804962158203125,4761.76025390625,True
1599386096.0622776,0.0,10,0.5,0.5,-4.1804046707153315,-0.05075,-0.03,-0.37525,-0.024820290879952488,10,1,100,0.07067763643880576,-10,-1,-100,19110.08241964376,0.0006392453303979026,0.005245646561795596,0.999986037181298,66.13619156461888,4.051555610010175,356.67488509657244,-95.28021412931497,-42.079681396484375,4761.76025390625,True
1599386096.0951579,0.0,10,0.5,0.5,-4.470723320007324,-0.05075,-0.03,-0.37525,-0.08917563571499246,10,1,100,0.12249930516481713,-10,-1,-100,19104.343766983482,-0.0005664676378726558,0.0038804268181604705,0.9999923106714993,66.54209025858034,4.077861548110659,361.04373219989986,-95.82619807392499,-40.04827880859375,4761.76025390625,True
1599386096.1231186,0.0,10,0.5,0.5,-3.775033493041992,-0.05075,-0.03,-0.37525,0.046558522883816206,10,1,100,0.002674039641542777,-10,-1,-100,19104.343766983482,-0.0005664676378726558,0.0038804268181604705,0.9999923106714993,66.54209025858034,4.077861548110659,361.04373219989986,-95.82619807392499,-40.04827880859375,4761.76025390625,True
1599386096.156029,0.0,10,0.5,0.5,-4.056237533569336,-0.05075,-0.03,-0.37525,-0.0012308415541607068,10,1,100,0.047646307517852274,-10,-1,-100,19102.42360312387,-0.0009693037444368199,0.003452395797661582,0.9999935706860855,66.67499551857145,4.086525378144949,362.49350030155296,-96.00818380658758,-39.518768310546875,4761.76025390625,True
1599386096.191928,0.0,10,0.5,0.5,-4.491609977722168,-0.05075,-0.03,-0.37525,-0.1491023997438759,10,1,100,0.18416178207559333,-10,-1,-100,19094.70655265136,-0.0025709726408054503,0.0017250292920372571,0.9999952071753253,67.221828362163,4.122241454079953,368.4079703568328,-96.73608170519533,-38.141021728515625,4761.76025390625,True
1599386096.2208557,0.0,10,0.5,0.5,-4.089251716613769,-0.05075,-0.03,-0.37525,-0.02282002215336205,10,1,100,0.0687889377273892,-10,-1,-100,19092.768191661336,-0.0029715236744908818,0.001309938757556768,0.9999947270398495,67.36567350314633,4.131625270112553,369.93398930333876,-96.9180443858422,-37.98126220703125,4761.76025390625,True
1599386096.251772,0.0,10,0.5,0.5,-4.0718867950439455,-0.05075,-0.03,-0.37525,0.017896529329402965,10,1,100,0.029465285469606327,-10,-1,-100,19092.768191661336,-0.0029715236744908818,0.001309938757556768,0.9999947270398495,67.36567350314633,4.131625270112553,369.93398930333876,-96.9180443858422,-37.98126220703125,4761.76025390625,True
1599386096.2792614,0.0,10,0.5,0.5,-4.121757949829102,-0.05075,-0.03,-0.37525,-0.11313544488587363,10,1,100,0.16301009372089453,-10,-1,-100,19086.93127430044,-0.004179676318642023,0.00012515102296154407,0.9999912572833289,67.81962894307902,4.1611421574384515,374.6564939454278,-97.46390190622087,-37.9447021484375,4761.76025390625,True
1599386096.3141592,0.0,10,0.5,0.5,-4.073883026123047,-0.05075,-0.03,-0.37525,-0.03904599301262427,10,1,100,0.08694727120934326,-10,-1,-100,19084.978357397835,-0.004580652484313242,-0.0002721369290232045,0.9999894717267326,67.97830450447053,4.171418984876187,376.27856863366407,-97.6458438644064,-38.08038330078125,4761.76025390625,True
1599386096.344064,0.0,10,0.5,0.5,-4.058747390747071,-0.05075,-0.03,-0.37525,-0.04368243371597113,10,1,100,0.09163907065365981,-10,-1,-100,19083.021801492898,-0.004981600254450901,-0.0006688447493747731,0.9999873680730204,68.14023150820137,4.181883251412781,377.9224209776707,-97.82778017341222,-38.28997802734375,4761.76025390625,True
1599386096.3779807,0.0,10,0.5,0.5,-4.03354524230957,-0.05075,-0.03,-0.37525,-0.04245406430625011,10,1,100,0.09691377957896823,-10,-1,-100,19081.061607348267,-0.005388199188639642,-0.0010121576041679696,0.999984971310313,68.30479916712018,4.192493906503843,379.5847651476915,-98.0097108770548,-38.572601318359375,4761.76025390625,True
1599386096.4109874,0.0,10,0.5,0.5,-3.353996971130371,-0.05075,-0.03,-0.37525,-0.15804815399845573,10,1,100,0.2354724921296268,-10,-1,-100,19073.184446083265,-0.007011979747890813,-0.0023694266473945963,0.9999726086035445,68.97413001731402,4.2353864667351635,386.33480386561354,-98.73737631302497,-40.441436767578125,4761.76025390625,True
1599386096.4462326,0.0,10,0.5,0.5,-3.7766285781860356,-0.05075,-0.03,-0.37525,-0.057256919269529236,10,1,100,0.11846991397232394,-10,-1,-100,19071.206060514436,-0.007418624534770927,-0.0026813419587326023,0.9999688867236384,69.13886742322923,4.245873855667491,388.0175829516157,-98.91927820570601,-41.0927734375,4761.76025390625,True
1599386096.478147,0.0,10,0.5,0.5,-4.0179091796875,-0.05075,-0.03,-0.37525,-0.026721565013417947,10,1,100,0.07849065097400242,-10,-1,-100,19071.206060514436,-0.007418624534770927,-0.0026813419587326023,0.9999688867236384,69.13886742322923,4.245873855667491,388.0175829516157,-98.91927820570601,-41.0927734375,4761.76025390625,True
1599386096.51106,0.0,10,0.5,0.5,-2.589945709228516,-0.05075,-0.03,-0.37525,-0.1476368885267528,10,1,100,0.2578114932064829,-10,-1,-100,19063.256139472476,-0.009042950990711354,-0.0037749960472571063,0.9999519860684426,69.74148872189882,4.283932077081582,394.46902283146653,-99.64683137447429,-44.4337158203125,4761.76025390625,True
1599386096.5442383,0.0,10,0.5,0.5,-3.8247562561035156,-0.05075,-0.03,-0.37525,-0.03882148220823184,10,1,100,0.09602604544743071,-10,-1,-100,19063.256139472476,-0.009042950990711354,-0.0037749960472571063,0.9999519860684426,69.74148872189882,4.283932077081582,394.46902283146653,-99.64683137447429,-44.4337158203125,4761.76025390625,True
1599386096.5802605,0.0,10,0.5,0.5,-2.4090294494628908,-0.05075,-0.03,-0.37525,-0.11405526528703686,10,1,100,0.22922080843574438,-10,-1,-100,19057.255504659493,-0.010248292993044915,-0.004454316861787321,0.9999375638268738,70.07821883017229,4.3048295889122725,398.6899861253,-100.19244779318514,-47.711578369140625,4761.76025390625,True
1599386096.6111794,0.0,10,0.5,0.5,-3.6098564224243166,-0.05075,-0.03,-0.37525,-0.04669960939594978,10,1,100,0.10941428513424376,-10,-1,-100,19057.255504659493,-0.010248292993044915,-0.004454316861787321,0.9999375638268738,70.07821883017229,4.3048295889122725,398.6899861253,-100.19244779318514,-47.711578369140625,4761.76025390625,True
1599386096.6435952,0.0,10,0.5,0.5,-2.492869941711426,-0.05075,-0.03,-0.37525,-0.09354455544435168,10,1,100,0.19834513608563203,-10,-1,-100,19053.23689449916,-0.011051238350171714,-0.004876016855059385,0.9999270446340357,70.2109339979746,4.312800103659197,400.9940038497034,-100.55617642871543,-50.26483154296875,4761.76025390625,True
1599386096.6775126,0.0,10,0.5,0.5,-1.5486727752685547,-0.05075,-0.03,-0.37525,-0.10201410153834309,10,1,100,0.24570528523468918,-10,-1,-100,19047.18170021719,-0.012205853134491271,-0.00533219101350115,0.9999112885092631,70.21376048022444,4.3121825029643945,403.3370245936204,-101.10176167309355,-54.64453125,4761.76025390625,True
1599386096.7137277,0.0,10,0.5,0.5,-1.7429908447265623,-0.05075,-0.03,-0.37525,-0.0813321618726792,10,1,100,0.21231804502127793,-10,-1,-100,19043.126717723673,-0.012945415070223457,-0.005554637754883877,0.9999007761913538,70.04600270086944,4.301020270903564,403.9235707977612,-101.46549205292601,-57.93115234375,4761.76025390625,True
1599386096.7442393,0.0,10,0.5,0.5,-2.9182197570800783,-0.05075,-0.03,-0.37525,-0.05954173574947808,10,1,100,0.13911757303621772,-10,-1,-100,19043.126717723673,-0.012945415070223457,-0.005554637754883877,0.9999007761913538,70.04600270086944,4.301020270903564,403.9235707977612,-101.46549205292601,-57.93115234375,4761.76025390625,True
1599386096.7771869,0.0,10,0.5,0.5,-0.531330932617188,-0.05075,-0.03,-0.37525,-0.0823466715194325,10,1,100,0.2534496612993803,-10,-1,-100,19037.01696283929,-0.01397940365868645,-0.0057590597063312,0.9998856982198747,69.4674950161254,4.263816482612147,402.898576869255,-102.01112390945057,-63.4110107421875,4761.76025390625,True
1599386096.8105063,0.0,10,0.5,0.5,-0.8081387634277348,-0.05075,-0.03,-0.37525,-0.07134990137555772,10,1,100,0.2242602565860105,-10,-1,-100,19032.92560403573,-0.014648070715236796,-0.005842129281113905,0.9998756440426899,68.81961734051966,4.222783265597321,400.6710346946131,-102.3749200886255,-67.43109130859375,4761.76025390625,True
1599386096.846274,0.0,10,0.5,0.5,-1.343498458862305,-0.05075,-0.03,-0.37525,-0.06360576977240419,10,1,100,0.19044382926325762,-10,-1,-100,19030.874467156595,-0.014941955567184388,-0.005844372436958259,0.9998712823532069,68.40606467741277,4.1967720026653605,399.02495173184957,-102.55683546913289,-69.53005981445312,4761.76025390625,True
1599386097.0676572,0.0,10,0.5,0.5,-2.0558473587036135,-0.05075,-0.03,-0.37525,-0.06358839182693893,10,1,100,0.16164524452614573,-10,-1,-100,19030.874467156595,-0.014941955567184388,-0.005844372436958259,0.9998712823532069,68.40606467741277,4.1967720026653605,399.02495173184957,-102.55683546913289,-69.53005981445312,4761.76025390625,True
1599386097.0905962,0.0,10,0.5,0.5,-1.0675340347290039,-0.05075,-0.03,-0.37525,-0.06296765098121053,10,1,100,0.19353823955281516,-10,-1,-100,19028.819691713783,-0.015226529154175498,-0.0058368480870973636,0.9998670331670733,67.93316936019453,4.167147643567004,397.0236819730147,-102.73876455842189,-71.67330932617188,4761.76025390625,True
1599386097.1175542,0.0,10,0.5,0.5,-0.8642060775756839,-0.05075,-0.03,-0.37525,-0.062407102951085,10,1,100,0.19639602432028871,-10,-1,-100,19026.761277502985,-0.015506686607361602,-0.005823655031290581,0.9998628044449588,67.40114022051063,4.133943674527911,394.66644660439187,-102.92070871574745,-73.86978149414062,4761.76025390625,True
1599386097.1517355,0.0,10,0.5,0.5,0.34691484832763675,-0.05075,-0.03,-0.37525,-0.057555739439281814,10,1,100,0.22785338578364409,-10,-1,-100,19022.633530935273,-0.016042570856639186,-0.005766313186659383,0.9998546822176425,66.13926488680542,4.0556320503564525,388.7560286910133,-103.2846480930746,-78.46337890625,4761.76025390625,True
1599386097.1826577,0.0,10,0.5,0.5,0.7867751464843749,-0.05075,-0.03,-0.37525,-0.05194511186908812,10,1,100,0.2260106647284858,-10,-1,-100,19018.491224385914,-0.016508448771384215,-0.005662369171509624,0.9998476927485146,64.57931302232288,3.9594951404391545,381.03339406132073,-103.64866582494821,-83.34368896484375,4761.76025390625,True
1599386097.2628083,0.0,10,0.5,0.5,0.12510096740722632,-0.05075,-0.03,-0.37525,-0.055305876251985395,10,1,100,0.20322465573620924,-10,-1,-100,19016.414610110805,-0.016720917161552735,-0.0055981268538016285,0.9998445238660884,63.678266463582425,3.9042270776020462,376.4310839381213,-103.83070761729623,-85.88726806640625,4761.76025390625,True
1599386097.288698,0.0,10,0.5,0.5,1.4263268280029298,-0.05075,-0.03,-0.37525,-0.045450233828401965,10,1,100,0.22293180109785035,-10,-1,-100,19012.250459054834,-0.017089793835819645,-0.0054500884619445855,0.99983910479757,64.27226721831656,3.941125114995369,381.38527038346825,-104.19478344408921,-90.9854736328125,4761.76025390625,True
1599386097.328634,0.0,10,0.5,0.5,2.7576645355224607,-0.05075,-0.03,-0.37525,-0.03190422009584872,10,1,100,0.23477022558791127,-10,-1,-100,19005.976934155915,-0.017528990690730484,-0.005192457571135825,0.9998328724690623,66.95621851677883,4.107617223781753,399.5674418180693,-104.74069781946986,-98.3687515258789,4761.76025390625,True
1599386097.3715208,0.0,10,0.5,0.5,0.09196272850036619,-0.05075,-0.03,-0.37525,-0.05761064896320519,10,1,100,0.19120549880003174,-10,-1,-100,19005.976934155915,-0.017528990690730484,-0.005192457571135825,0.9998328724690623,66.95621851677883,4.107617223781753,399.5674418180693,-104.74069781946986,-98.3687515258789,4761.76025390625,True
1599386097.3984778,0.0,10,0.5,0.5,2.2166252727508544,-0.05075,-0.03,-0.37525,-0.03715765282009762,10,1,100,0.21407871110870758,-10,-1,-100,19001.7763915892,-0.01773430996628618,-0.005007111853207555,0.9998301971239463,68.615817720736,4.2112869557881085,411.0120753845097,-105.1045105148701,-103.13835144042969,4761.76025390625,True
1599386097.4234052,0.0,10,0.5,0.5,2.4524320716857906,-0.05075,-0.03,-0.37525,-0.03617093561439966,10,1,100,0.20807782025080457,-10,-1,-100,18997.561299346155,-0.017863871795902146,-0.004830406735569828,0.9998287599660397,70.09243118235456,4.304042259459802,421.43009398817907,-105.46822332262704,-107.65660095214844,4761.76025390625,True
1599386097.4513056,0.0,10,0.5,0.5,3.635216373443604,-0.05075,-0.03,-0.37525,-0.024171725586043958,10,1,100,0.2044952711148365,-10,-1,-100,18991.21138888423,-0.017946430361381754,-0.004561603779006287,0.9998285440055449,72.03605551772385,4.426717248707317,435.53890424370326,-106.01361765389228,-114.14457702636719,4761.76025390625,True
1599386097.479289,0.0,10,0.5,0.5,1.3280171546936037,-0.05075,-0.03,-0.37525,-0.050924496811588976,10,1,100,0.1965114046875964,-10,-1,-100,18991.21138888423,-0.017946430361381754,-0.004561603779006287,0.9998285440055449,72.03605551772385,4.426717248707317,435.53890424370326,-106.01361765389228,-114.14457702636719,4761.76025390625,True
1599386097.51119,0.0,10,0.5,0.5,2.325418964385986,-0.05075,-0.03,-0.37525,-0.04219059378811835,10,1,100,0.19599798082828251,-10,-1,-100,18989.087481239694,-0.017939544922884337,-0.004483351979931357,0.9998290215246723,72.5685752280843,4.4604911575069695,439.57158305579026,-106.19537490772818,-116.2022705078125,4761.76025390625,True
1599386097.5443122,0.0,10,0.5,0.5,4.112918045043945,-0.05075,-0.03,-0.37525,-0.026907877308107682,10,1,100,0.1847134128354711,-10,-1,-100,18982.69395114074,-0.017828973929709994,-0.0042744465229601685,0.9998319142713621,73.81735258317167,4.540042594055832,449.61561415282955,-106.74054868430756,-121.945068359375,4761.76025390625,True
1599386097.5773351,0.0,10,0.5,0.5,2.073737289428711,-0.05075,-0.03,-0.37525,-0.04765963074037162,10,1,100,0.1959025646687379,-10,-1,-100,18982.69395114074,-0.017828973929709994,-0.0042744465229601685,0.9998319142713621,73.81735258317167,4.540042594055832,449.61561415282955,-106.74054868430756,-121.945068359375,4761.76025390625,True
1599386097.6133497,0.0,10,0.5,0.5,4.345968719482421,-0.05075,-0.03,-0.37525,-0.031198949280738558,10,1,100,0.1697851102493907,-10,-1,-100,18976.26771480206,-0.01759053520156306,-0.004126007309991542,0.9998367612440545,74.61792090818368,4.591322397839407,456.99781998860715,-107.28561016380051,-127.02501678466797,4761.76025390625,True
1599386097.645297,0.0,10,0.5,0.5,2.547836702346802,-0.05075,-0.03,-0.37525,-0.045910462462405904,10,1,100,0.19367905720065862,-10,-1,-100,18976.26771480206,-0.01759053520156306,-0.004126007309991542,0.9998367612440545,74.61792090818368,4.591322397839407,456.99781998860715,-107.28561016380051,-127.02501678466797,4761.76025390625,True
1599386097.6782165,0.0,10,0.5,0.5,5.078160554885864,-0.05075,-0.03,-0.37525,-0.03627969228946007,10,1,100,0.1392750290305576,-10,-1,-100,18967.648533253465,-0.01709589717773411,-0.004039424354111257,0.999845694770236,75.16894821020746,4.62666096538015,463.7400916738785,-108.01224864759618,-132.762939453125,4761.76025390625,True
1599386097.711214,0.0,10,0.5,0.5,3.0281876373291015,-0.05075,-0.03,-0.37525,-0.04482268455578617,10,1,100,0.18869552206215273,-10,-1,-100,18967.648533253465,-0.01709589717773411,-0.004039424354111257,0.999845694770236,75.16894821020746,4.62666096538015,463.7400916738785,-108.01224864759618,-132.762939453125,4761.76025390625,True
1599386097.7472222,0.0,10,0.5,0.5,3.6494313964843754,-0.05075,-0.03,-0.37525,-0.044970741603010525,10,1,100,0.1712206539750553,-10,-1,-100,18965.48465526523,-0.016937615115841,-0.004041650043176111,0.9998483796351906,75.23879477475053,4.63110060073014,465.014218271433,-108.19389557223386,-134.01263427734375,4761.76025390625,True
1599386097.7773793,0.0,10,0.5,0.5,5.074354675292969,-0.05075,-0.03,-0.37525,-0.05543050024426839,10,1,100,0.10684318033465316,-10,-1,-100,18956.79281500762,-0.016209314623461844,-0.004139479163330499,0.9998600516230728,75.34051662380017,4.637194151342055,469.0235165222286,-108.92045381466156,-138.27273559570312,4761.76025390625,True
1599386097.811331,0.0,10,0.5,0.5,3.548136131286621,-0.05075,-0.03,-0.37525,-0.04560537576726201,10,1,100,0.17949951799877675,-10,-1,-100,18956.79281500762,-0.016209314623461844,-0.004139479163330499,0.9998600516230728,75.34051662380017,4.637194151342055,469.0235165222286,-108.92045381466156,-138.27273559570312,4761.76025390625,True
1599386097.8453903,0.0,10,0.5,0.5,3.9955846939086914,-0.05075,-0.03,-0.37525,-0.05080715407349531,10,1,100,0.15648041792904005,-10,-1,-100,18954.610773275723,-0.01600162927349871,-0.004187151806674143,0.999863198452839,75.33525975799006,4.636673563505873,469.836756461576,-109.10208814761491,-139.15316772460938,4761.76025390625,True
1599386097.8804498,0.0,10,0.5,0.5,4.389819358825683,-0.05075,-0.03,-0.37525,-0.05851445202871695,10,1,100,0.12871331813918713,-10,-1,-100,18950.235791438958,-0.015562157971487548,-0.004300826191282432,0.9998696525714452,75.30483009269085,4.634258923629362,471.3393291788381,-109.46535231820944,-140.69252014160156,4761.76025390625,True
1599386097.911784,0.0,10,0.5,0.5,4.398612133026123,-0.05075,-0.03,-0.37525,-0.06596769077278244,10,1,100,0.11847981299054705,-10,-1,-100,18945.846279448248,-0.015071667482815422,-0.004471899275264816,0.9998764158415576,75.26218473142299,4.630930164253256,472.76526420642875,-109.82861103459686,-141.93710327148438,4761.76025390625,True
1599386097.9442582,0.0,10,0.5,0.5,4.2094986038208,-0.05075,-0.03,-0.37525,-0.0591136172390677,10,1,100,0.13914865175387015,-10,-1,-100,18943.64607462089,-0.014816172215004511,-0.004564930998803844,0.9998798140005987,75.24030002149661,4.629182303505743,473.47451082655954,-110.01023821104454,-142.44869995117188,4761.76025390625,True
1599386097.9771702,0.0,10,0.5,0.5,4.5291714782714845,-0.05075,-0.03,-0.37525,-0.08552139992225181,10,1,100,0.07436465164385145,-10,-1,-100,18937.023664988927,-0.01399748048234584,-0.00488917702306026,0.999890077202581,75.18964399673393,4.624715223769456,475.6961897345858,-110.55510988646834,-143.5411376953125,4761.76025390625,True
1599386098.0141277,0.0,10,0.5,0.5,4.261118545532227,-0.05075,-0.03,-0.37525,-0.06670774498850399,10,1,100,0.1239092042842842,-10,-1,-100,18934.808930305997,-0.013706886708222997,-0.005012219118701959,0.9998934937863503,75.18172413471179,4.623741243069335,476.4934347197946,-110.73672977261596,-143.7578887939453,4761.76025390625,True
1599386098.0440502,0.0,10,0.5,0.5,4.273746334075928,-0.05075,-0.03,-0.37525,-0.06937308832535186,10,1,100,0.1195845631708557,-10,-1,-100,18932.590563396225,-0.013406476549325164,-0.005147421604379765,0.9998968799018022,75.17978389685315,4.623122447750604,477.328754220626,-110.91834730096407,-143.90103149414062,4761.76025390625,True
1599386098.078161,0.0,10,0.5,0.5,4.28117635345459,-0.05075,-0.03,-0.37525,-0.08603264645223016,10,1,100,0.08092032194079016,-10,-1,-100,18928.14293235517,-0.012785237321534183,-0.005420776213194602,0.99990357179674,75.19551081938114,4.623064969152516,479.1249833125284,-111.28157415446309,-143.96612548828125,4761.76025390625,True
1599386098.1110353,0.0,10,0.5,0.5,4.188944137573243,-0.05075,-0.03,-0.37525,-0.09272676780428127,10,1,100,0.07033089297078504,-10,-1,-100,18923.68077274051,-0.012127981739991705,-0.005728882300617629,0.9999100419370235,75.23991660251953,4.624755511642483,481.1062367007072,-111.64478793964916,-143.7368621826172,4761.76025390625,True
1599386098.146938,0.0,10,0.5,0.5,4.195482471466065,-0.05075,-0.03,-0.37525,-0.07965196718269774,10,1,100,0.09819534213758911,-10,-1,-100,18921.444244832033,-0.011787500142727189,-0.005888672007953906,0.9999131854227987,75.27287059688297,4.626263198671103,482.16679092095103,-111.82638922843702,-143.51177978515625,4761.76025390625,True
1599386098.178305,0.0,10,0.5,0.5,4.0097875366210936,-0.05075,-0.03,-0.37525,-0.09963429883959628,10,1,100,0.05436397759449703,-10,-1,-100,18916.96029351838,-0.011083524298895642,-0.006214002763463578,0.9999192675705231,75.35888915940528,4.630531772979749,484.419922598332,-112.1895788995457,-142.84071350097656,4761.76025390625,True
1599386098.2111769,0.0,10,0.5,0.5,3.6087783622741703,-0.05075,-0.03,-0.37525,-0.1230081422378012,10,1,100,0.0014645782459022788,-10,-1,-100,18910.20712831046,-0.009967113633129377,-0.006720404889404424,0.9999277437914934,75.53075367515852,4.639656978752324,488.08478125771404,-112.7343280533519,-141.28228759765625,4761.76025390625,True
1599386098.244234,0.0,10,0.5,0.5,4.195346984863281,-0.05075,-0.03,-0.37525,-0.07260988751352872,10,1,100,0.11254614038869297,-10,-1,-100,18910.20712831046,-0.009967113633129377,-0.006720404889404424,0.9999277437914934,75.53075367515852,4.639656978752324,488.08478125771404,-112.7343280533519,-141.28228759765625,4761.76025390625,True
1599386098.2802699,0.0,10,0.5,0.5,3.5941120300292972,-0.05075,-0.03,-0.37525,-0.11049990395701856,10,1,100,0.02588711536736217,-10,-1,-100,18905.686860941583,-0.009183944818253357,-0.007062815488332387,0.999932883645174,75.66324021332491,4.646943074808151,490.65119246296365,-113.09746817488616,-139.87554931640625,4761.76025390625,True
1599386098.3113654,0.0,10,0.5,0.5,3.3895068969726556,-0.05075,-0.03,-0.37525,-0.11064298734013457,10,1,100,0.015206244638494043,-10,-1,-100,18901.152068528696,-0.008379994550282493,-0.007373127804941109,0.9999377043984835,75.79886548145655,4.654542096197639,493.2443772278895,-113.46058664283593,-138.17422485351562,4761.76025390625,True
1599386098.3453448,0.0,10,0.5,0.5,3.6026572952270506,-0.05075,-0.03,-0.37525,-0.0997419652382189,10,1,100,0.048658891497510105,-10,-1,-100,18898.87922557362,-0.007958352447147366,-0.0075538715729480945,0.9999398000132739,75.86414774412081,4.658243177301137,494.5268988954043,-113.64213767859734,-137.21372985839844,4761.76025390625,True
1599386098.3783472,0.0,10,0.5,0.5,3.0309592933654788,-0.05075,-0.03,-0.37525,-0.1172530133879692,10,1,100,-0.003826191857754249,-10,-1,-100,18894.322647103807,-0.007103130263123098,-0.00787506484299377,0.9999437628657842,75.97888260247164,4.6648128369347,496.99308655525965,-114.0052241515751,-135.0717315673828,4761.76025390625,True
1599386098.414364,0.0,10,0.5,0.5,2.2046915245056153,-0.05075,-0.03,-0.37525,-0.1336663873996624,10,1,100,-0.06465151569214617,-10,-1,-100,18887.460549419397,-0.005778428375775839,-0.0083137915401974,0.9999487440042776,76.08037587065324,4.670756457042494,500.2386635145225,-114.54981929101126,-131.3074951171875,4761.76025390625,True
1599386098.441295,0.0,10,0.5,0.5,2.3537478332519535,-0.05075,-0.03,-0.37525,-0.11914654927712376,10,1,100,-0.03314545910033877,-10,-1,-100,18882.867665026337,-0.00486694245533636,-0.008578005449880346,0.9999513641640968,76.07197900553315,4.670389723715298,501.90519043939855,-114.91286515491944,-128.4307403564453,4761.76025390625,True
1599386098.4651954,0.0,10,0.5,0.5,3.3873316917419434,-0.05075,-0.03,-0.37525,-0.09301007062375541,10,1,100,0.0572770290151436,-10,-1,-100,18882.867665026337,-0.00486694245533636,-0.008578005449880346,0.9999513641640968,76.07197900553315,4.670389723715298,501.90519043939855,-114.91286515491944,-128.4307403564453,4761.76025390625,True
1599386098.4931548,0.0,10,0.5,0.5,2.6823202934265136,-0.05075,-0.03,-0.37525,-0.10493244966983153,10,1,100,0.0069042758223482464,-10,-1,-100,18880.56577713508,-0.004415299751481303,-0.008683945865352014,0.9999525459802142,76.03669934903252,4.668412372491648,502.5332256848053,-115.09438491307178,-126.88198852539062,4761.76025390625,True
1599386098.5196893,0.0,10,0.5,0.5,1.0488673629760745,-0.05075,-0.03,-0.37525,-0.12742145374756478,10,1,100,-0.10236232368374487,-10,-1,-100,18873.638331563445,-0.003017444774782599,-0.00898245542275848,0.9999551042529906,75.7722935050116,4.653229779497121,503.36103336770867,-115.63894234822915,-121.79573059082031,4761.76025390625,True
1599386098.5456178,0.0,10,0.5,0.5,2.899025981903076,-0.05075,-0.03,-0.37525,-0.09779670306025363,10,1,100,0.0367282071002908,-10,-1,-100,18873.638331563445,-0.003017444774782599,-0.00898245542275848,0.9999551042529906,75.7722935050116,4.653229779497121,503.36103336770867,-115.63894234822915,-121.79573059082031,4761.76025390625,True
1599386098.5795348,0.0,10,0.5,0.5,0.3923631095886235,-0.05075,-0.03,-0.37525,-0.11934474441528778,10,1,100,-0.11818959975701797,-10,-1,-100,18866.678211765364,-0.0016154189568601072,-0.009176290298228468,0.9999565921168561,75.19504832708476,4.619547167879448,502.0859142415699,-116.18352254860835,-116.04877471923828,4761.76025390625,True
1599386098.612069,0.0,10,0.5,0.5,2.4774279766082765,-0.05075,-0.03,-0.37525,-0.10017260434927854,10,1,100,0.021256129449091884,-10,-1,-100,18866.678211765364,-0.0016154189568601072,-0.009176290298228468,0.9999565921168561,75.19504832708476,4.619547167879448,502.0859142415699,-116.18352254860835,-116.04877471923828,4761.76025390625,True
1599386098.6480467,0.0,10,0.5,0.5,-0.30672970008850076,-0.05075,-0.03,-0.37525,-0.11289384561331718,10,1,100,-0.13534821183388634,-10,-1,-100,18859.685414861888,-0.00019789274119068906,-0.009290298707453104,0.9999568246621398,74.2112108260283,4.561440561084674,498.04817333464035,-116.72816523383455,-109.66900634765625,4761.76025390625,True
1599386098.6790693,0.0,10,0.5,0.5,2.00464421081543,-0.05075,-0.03,-0.37525,-0.10166664740430413,10,1,100,0.005628363762459797,-10,-1,-100,18859.685414861888,-0.00019789274119068906,-0.009290298707453104,0.9999568246621398,74.2112108260283,4.561440561084674,498.04817333464035,-116.72816523383455,-109.66900634765625,4761.76025390625,True
1599386098.711986,0.0,10,0.5,0.5,-0.013180389404296777,-0.05075,-0.03,-0.37525,-0.10485600848627796,10,1,100,-0.10045494825769004,-10,-1,-100,18855.005393686588,0.0007602235157907345,-0.009318006322866994,0.9999562974542302,73.29662255847984,4.50694771491825,493.5805853864738,-117.09131769544527,-105.11122131347656,4761.76025390625,True
1599386098.7458038,0.0,10,0.5,0.5,0.6271321372985842,-0.05075,-0.03,-0.37525,-0.1004214402613555,10,1,100,-0.05362922047620815,-10,-1,-100,18852.659935201984,0.0011996056314953147,-0.009301967885032444,0.9999560162026101,72.75045693716326,4.474228356564208,490.73283121108176,-117.27291646371432,-102.78397369384766,4761.76025390625,True
1599386098.781701,0.0,10,0.5,0.5,-0.5692623386383056,-0.05075,-0.03,-0.37525,-0.09636323027138992,10,1,100,-0.10966717374890507,-10,-1,-100,18847.958121211617,0.002102964813626876,-0.00924983652124212,0.9999550080195224,71.5851761672336,4.404188499229187,484.50839273781224,-117.63616421403829,-98.10614776611328,4761.76025390625,True
1599386098.8126535,0.0,10,0.5,0.5,-0.9301792545318602,-0.05075,-0.03,-0.37525,-0.0904252341674796,10,1,100,-0.11366397290343619,-10,-1,-100,18843.241775065195,0.002954198692179521,-0.009147851834059584,0.9999537936909431,70.34948453422412,4.3295441771600345,477.7551580822863,-117.99947979227485,-93.3519287109375,4761.76025390625,True
1599386098.845715,0.0,10,0.5,0.5,-0.2730462799072265,-0.05075,-0.03,-0.37525,-0.09341989482749541,10,1,100,-0.07582337471455833,-10,-1,-100,18840.878151667304,0.003377342690561526,-0.00908194093719496,0.9999530548506584,69.67911413927317,4.288846187627763,474.00084369360735,-118.18116484868217,-90.94277954101562,4761.76025390625,True
1599386098.8796923,0.0,10,0.5,0.5,-3.5565177078247068,-0.05075,-0.03,-0.37525,-0.060499730895639696,10,1,100,-0.2040179075985251,-10,-1,-100,18831.38731388992,0.00492161045397637,-0.008722657281106218,0.999949845242498,66.84669194786493,4.115509851264264,457.7994076492201,-118.90808609153916,-81.33023071289062,4761.76025390625,True
1599386098.9156954,0.0,10,0.5,0.5,-1.0491440048217773,-0.05075,-0.03,-0.37525,-0.08402829735495532,10,1,100,-0.09018418328813664,-10,-1,-100,18829.00551735377,0.005283420876778371,-0.008610168014420824,0.9999489739334715,67.28415027267104,4.142365098773644,461.5671955155874,-119.0898286941397,-79.03366088867188,4761.76025390625,True
1599386098.946053,0.0,10,0.5,0.5,-0.29840151977539064,-0.05075,-0.03,-0.37525,-0.09522061179511403,10,1,100,-0.05469302499130043,-10,-1,-100,18829.00551735377,0.005283420876778371,-0.008610168014420824,0.9999489739334715,67.28415027267104,4.142365098773644,461.5671955155874,-119.0898286941397,-79.03366088867188,4761.76025390625,True
1599386098.9794343,0.0,10,0.5,0.5,-2.3193615951538087,-0.05075,-0.03,-0.37525,-0.06956390114200539,10,1,100,-0.12705430166843734,-10,-1,-100,18824.231021803105,0.005934978992176308,-0.008377439846923298,0.9999472958741243,68.98665320201752,4.246679309631463,474.82866489562144,-119.45322738170009,-74.55029296875,4761.76025390625,True
1599386099.0124705,0.0,10,0.5,0.5,-2.5412244873046874,-0.05075,-0.03,-0.37525,-0.06352592087284122,10,1,100,-0.13045529201140138,-10,-1,-100,18819.441993396264,0.006552647307716499,-0.008111807927533627,0.9999456292146125,70.46349956554008,4.336745183493436,486.60892205692465,-119.81651841775897,-70.32754516601562,4761.76025390625,True
1599386099.048327,0.0,10,0.5,0.5,-3.62322647857666,-0.05075,-0.03,-0.37525,-0.042512316550508425,10,1,100,-0.15829034930089625,-10,-1,-100,18812.231210840982,0.007361073078976711,-0.007680362953139918,0.9999434117128999,72.27804474787457,4.4468099419912885,501.62291690794734,-120.36127846414114,-64.34500122070312,4761.76025390625,True
1599386099.0793524,0.0,10,0.5,0.5,-1.5005755233764648,-0.05075,-0.03,-0.37525,-0.08549304965290656,10,1,100,-0.0781078571311937,-10,-1,-100,18812.231210840982,0.007361073078976711,-0.007680362953139918,0.9999434117128999,72.27804474787457,4.4468099419912885,501.62291690794734,-120.36127846414114,-64.34500122070312,4761.76025390625,True
1599386099.1123724,0.0,10,0.5,0.5,-3.9243501434326173,-0.05075,-0.03,-0.37525,-0.03818593697174963,10,1,100,-0.15127177416134596,-10,-1,-100,18804.987749657826,0.008020598263389475,-0.007251772478703848,0.9999415391908741,73.67789421607418,4.531281905707032,513.8667261275292,-120.90585876763782,-58.92608642578125,4761.76025390625,True
1599386099.1454005,0.0,10,0.5,0.5,-3.3907454681396483,-0.05075,-0.03,-0.37525,-0.04831264699950345,10,1,100,-0.12646293900187333,-10,-1,-100,18800.14062592818,0.008389252080996999,-0.006956022196780218,0.9999406153390906,74.39897196934531,4.574666615120296,520.5971418320484,-121.26883126287726,-55.681243896484375,4761.76025390625,True
1599386099.1824374,0.0,10,0.5,0.5,-3.5415485153198243,-0.05075,-0.03,-0.37525,-0.048647767460199644,10,1,100,-0.12261709362321621,-10,-1,-100,18795.278984590783,0.008684488726844394,-0.006692197426162592,0.9999398952682919,74.97985878573888,4.609599510528194,526.3760033448137,-121.63175079691855,-52.7342529296875,4761.76025390625,True
1599386099.2123566,0.0,10,0.5,0.5,-2.5503157348632812,-0.05075,-0.03,-0.37525,-0.07479127017085904,10,1,100,-0.09362414364210496,-10,-1,-100,18795.278984590783,0.008684488726844394,-0.006692197426162592,0.9999398952682919,74.97985878573888,4.609599510528194,526.3760033448137,-121.63175079691855,-52.7342529296875,4761.76025390625,True
1599386099.259201,0.0,10,0.5,0.5,-3.2162894592285154,-0.05075,-0.03,-0.37525,-0.059921267672178716,10,1,100,-0.10805543306419438,-10,-1,-100,18792.842720664223,0.008812261468615327,-0.006558861457860901,0.9999396608716874,75.22584686467256,4.624407682497845,528.9627836876294,-121.81319350262443,-51.372314453125,4761.76025390625,True
1599386099.2931085,0.0,10,0.5,0.5,-3.853453094482422,-0.05075,-0.03,-0.37525,-0.04507431419845514,10,1,100,-0.11861483458830088,-10,-1,-100,18787.95930688805,0.009021205028997292,-0.00630453946105875,0.9999394334868531,75.64396523310889,4.649644356427839,533.6323743027691,-122.17604976208924,-48.871734619140625,4761.76025390625,True
1599386099.322075,0.0,10,0.5,0.5,-4.755982032775879,-0.05075,-0.03,-0.37525,-0.017360841580137176,10,1,100,-0.12474473015931936,-10,-1,-100,18778.148940892424,0.009263482058033592,-0.005823493011575142,0.9999401356227805,76.26042509974914,4.687249425476738,541.4702573149966,-122.9016652594831,-44.762847900390625,4761.76025390625,True
1599386099.3470042,0.0,10,0.5,0.5,-3.30348462677002,-0.05075,-0.03,-0.37525,-0.06521009184496317,10,1,100,-0.10084987756227506,-10,-1,-100,18778.148940892424,0.009263482058033592,-0.005823493011575142,0.9999401356227805,76.26042509974914,4.687249425476738,541.4702573149966,-122.9016652594831,-44.762847900390625,4761.76025390625,True
1599386099.3799772,0.0,10,0.5,0.5,-3.738589179992676,-0.05075,-0.03,-0.37525,-0.053225925470920046,10,1,100,-0.10399075454988596,-10,-1,-100,18775.687279731617,0.00928957108996613,-0.005716626330825621,0.9999405102566643,76.3828996922225,4.694830823475334,543.2140826324246,-123.0830522311614,-43.9215087890625,4761.76025390625,True
