Timestamp,Input Throttle,horizon,dT,dt,Input Roll,Roll P,Roll I,Roll D,Input Pitch,Pitch P,Pitch I,Pitch D,Input Yaw,Yaw P,Yaw I,Yaw D,Altitude,Direction X,Direction Y,Direction Z,Drag X,Drag Y,Drag Z,Vertical Velocity,Roll,Mass,Has Fuel
1599385029.177985,0.0,10,0.5,0.5,-0.056073455810546874,-0.001,-0.02275,-0.001,0.0007659118547324053,10,1,100,0.5037563614197336,-10,-1,-100,19348.345352838398,-0.04889689189459974,-0.0001668942415112275,0.9988038176285472,61.16625885558305,3.6923865640082743,234.72048544921643,-68.84745141042964,-33.92327880859375,4761.76025390625,True
1599385029.21065,0.0,10,0.5,0.5,-0.18364888153076173,-0.001,-0.02275,-0.001,-0.0006935164802979338,10,1,100,0.49968755611697757,-10,-1,-100,19346.964754611487,-0.04894988233079538,-0.00015787501097517783,0.9988012235151109,61.25624211722472,3.698494430794356,235.7125030814659,-69.02990470974845,-33.924468994140625,4761.76025390625,True
1599385029.2464635,0.0,10,0.5,0.5,-0.31121171188354496,-0.001,-0.02275,-0.001,0.012216139404534695,10,1,100,0.5106955737308897,-10,-1,-100,19342.801066114916,-0.0490536284489808,-3.21716797066768e-05,0.9987961456177995,61.528032916229726,3.716951727940271,238.70816130540845,-69.5772439414257,-33.9295654296875,4761.76025390625,True
1599385029.267407,0.0,10,0.5,0.5,-0.43877704696655273,-0.001,-0.02275,-0.001,-0.0003574108902860762,10,1,100,0.5052263247572456,-10,-1,-100,19342.801066114916,-0.0490536284489808,-3.21716797066768e-05,0.9987961456177995,61.528032916229726,3.716951727940271,238.70816130540845,-69.5772439414257,-33.9295654296875,4761.76025390625,True
1599385029.3116493,0.0,10,0.5,0.5,-0.566266790008545,-0.001,-0.02275,-0.001,0.023846461620615357,10,1,100,0.5088789455668218,-10,-1,-100,19340.00702981348,-0.04904223988502333,0.0001878927719194332,0.9987966877214631,61.704803137221724,3.7290082871676287,240.6984726280891,-69.94211948976199,-33.964813232421875,4761.76025390625,True
1599385029.3445642,0.0,10,0.5,0.5,-0.693573713684082,-0.001,-0.02275,-0.001,0.037041351162398206,10,1,100,0.5063392678309283,-10,-1,-100,19337.19839880115,-0.048964214811203846,0.0005077340939849051,0.9988004044222311,61.87384091640851,3.7406132483792853,242.666637446017,-70.30698129027294,-34.069000244140625,4761.76025390625,True
1599385029.3825479,0.0,10,0.5,0.5,-0.8201866722106934,-0.001,-0.02275,-0.001,0.08860952839037765,10,1,100,0.4870326143598014,-10,-1,-100,19332.958088521496,-0.04867325497180207,0.0012668389669406154,0.998813951329016,62.1178032551647,3.757463464593805,245.595642894807,-70.85424754382234,-34.436126708984375,4761.76025390625,True
1599385029.4015298,0.0,10,0.5,0.5,-0.9469616104125976,-0.001,-0.02275,-0.001,0.012825724991500673,10,1,100,0.5209959237971593,-10,-1,-100,19332.958088521496,-0.04867325497180207,0.0012668389669406154,0.998813951329016,62.1178032551647,3.757463464593805,245.595642894807,-70.85424754382234,-34.436126708984375,4761.76025390625,True
1599385029.421476,0.0,10,0.5,0.5,-1.072463172149658,-0.001,-0.02275,-0.001,0.08869401471356175,10,1,100,0.4896281857130274,-10,-1,-100,19330.11297354498,-0.04834384530288105,0.0019553990198984974,0.9988288387086168,62.27875547344182,3.7685998919011316,247.55101643709935,-71.21907329721154,-34.889251708984375,4761.76025390625,True
1599385029.444385,0.0,10,0.5,0.5,-1.1976803955078126,-0.001,-0.02275,-0.001,0.06293472081008705,10,1,100,0.5041915297943999,-10,-1,-100,19328.684944009874,-0.048132827054326345,0.0023454096698105305,0.9988381901055041,62.35978108331755,3.7741986098730247,248.53367889799932,-71.40148035471915,-35.1956787109375,4761.76025390625,True
1599385029.478431,0.0,10,0.5,0.5,-1.322666653442383,-0.001,-0.02275,-0.001,0.024168196785864786,10,1,100,0.530106637355303,-10,-1,-100,19328.684944009874,-0.048132827054326345,0.0023454096698105305,0.9988381901055041,62.35978108331755,3.7741986098730247,248.53367889799932,-71.40148035471915,-35.1956787109375,4761.76025390625,True
1599385029.513618,0.0,10,0.5,0.5,-1.3171283279418944,-0.001,-0.02275,-0.001,0.17906857864149697,10,1,100,0.4430563232096959,-10,-1,-100,19324.378967014723,-0.0473421551664938,0.0037513110467605306,0.9988716874602173,62.60683819568428,3.7911978497010557,251.50879480837528,-71.94867692563734,-36.517486572265625,4761.76025390625,True
1599385029.5446095,0.0,10,0.5,0.5,-1.3125510208129882,-0.001,-0.02275,-0.001,0.038869359552270534,10,1,100,0.5219627392765201,-10,-1,-100,19324.378967014723,-0.0473421551664938,0.0037513110467605306,0.9988716874602173,62.60683819568428,3.7911978497010557,251.50879480837528,-71.94867692563734,-36.517486572265625,4761.76025390625,True
1599385029.578478,0.0,10,0.5,0.5,-1.3041793693542483,-0.001,-0.02275,-0.001,0.16195468792463721,10,1,100,0.4474258069885185,-10,-1,-100,19321.490076317335,-0.046666102575950594,0.004866829047667076,0.9988986879786116,62.77179373245657,3.802484788348046,253.50258393432773,-72.31345315431446,-37.759552001953125,4761.76025390625,True
1599385029.6125214,0.0,10,0.5,0.5,-1.2936361328125,-0.001,-0.02275,-0.001,0.18054862056769663,10,1,100,0.4234033714503584,-10,-1,-100,19318.58659511956,-0.04583529401226716,0.006045518435494135,0.9989307170818481,62.92742468557459,3.813126465832053,255.46597529221802,-72.67821166089878,-39.29559326171875,4761.76025390625,True
1599385029.6485019,0.0,10,0.5,0.5,-1.2773372520446777,-0.001,-0.02275,-0.001,0.2892912283587646,10,1,100,0.3440782152795792,-10,-1,-100,19314.204017739976,-0.04436179112179582,0.008100298290107012,0.9989826908691049,63.11582662605073,3.826140949107543,258.2399633844489,-73.22531711724848,-42.1492919921875,4761.76025390625,True
1599385029.6786718,0.0,10,0.5,0.5,-1.2596113876342774,-0.001,-0.02275,-0.001,0.16243025799887412,10,1,100,0.4283771046690208,-10,-1,-100,19312.735864090733,-0.04379278060098899,0.008808096096305057,0.999001806710274,63.15943633281285,3.82924166667219,259.08879002299307,-73.40767779046232,-43.24774169921875,4761.76025390625,True
1599385029.7118802,0.0,10,0.5,0.5,-1.2383197242736816,-0.001,-0.02275,-0.001,0.17332178984166124,10,1,100,0.41831526175095224,-10,-1,-100,19311.264063280425,-0.043188463804973806,0.009543706884938287,0.9990213582566996,63.18984622618773,3.831498648933712,259.88437062732305,-73.5900349132703,-44.419586181640625,4761.76025390625,True
1599385029.7447097,0.0,10,0.5,0.5,-1.2142877433776855,-0.001,-0.02275,-0.001,0.1803165002817175,10,1,100,0.4070575729384043,-10,-1,-100,19309.788615352358,-0.042541728447724865,0.010268507816861736,0.9990419205858657,63.20463458667176,3.832760882947171,260.61630737016134,-73.77238906878213,-45.665313720703125,4761.76025390625,True
1599385029.7809563,0.0,10,0.5,0.5,-1.179583176422119,-0.001,-0.02275,-0.001,0.4495367443639018,10,1,100,0.14498236946917448,-10,-1,-100,19303.85035394132,-0.039576560015828426,0.013367317147723852,0.9991271244088941,63.054112681461994,3.824553342831178,262.6751904428832,-74.50178600051109,-51.3826904296875,4761.76025390625,True
1599385029.8119724,0.0,10,0.5,0.5,-1.1484751014709471,-0.001,-0.02275,-0.001,0.14075800202548142,10,1,100,0.44064358595496866,-10,-1,-100,19303.85035394132,-0.039576560015828426,0.013367317147723852,0.9991271244088941,63.054112681461994,3.824553342831178,262.6751904428832,-74.50178600051109,-51.3826904296875,4761.76025390625,True
1599385029.8455033,0.0,10,0.5,0.5,-1.1084229652404785,-0.001,-0.02275,-0.001,0.22883542681436395,10,1,100,0.34724115599504646,-10,-1,-100,19302.35667124507,-0.03873522544077322,0.014158001093551954,0.999149204731249,62.950080572438935,3.818327701103361,262.91103398528134,-74.68413386381388,-52.99603271484375,4761.76025390625,True
1599385029.8795533,0.0,10,0.5,0.5,-1.065650520324707,-0.001,-0.02275,-0.001,0.31747571659719465,10,1,100,0.23382620715716476,-10,-1,-100,19299.358364518033,-0.03694715531922022,0.015673164869560698,0.9991943052363685,62.64083699036724,3.7995619259483364,262.9520424190974,-75.04883408874376,-56.444580078125,4761.76025390625,True
1599385029.9147806,0.0,10,0.5,0.5,-1.0162820198059082,-0.001,-0.02275,-0.001,0.34716658224770885,10,1,100,0.19512242084131037,-10,-1,-100,19296.345469599473,-0.03497923442388907,0.017309665395643502,0.9992381240940568,62.174738018883964,3.7710615566526147,262.31918902602115,-75.4135474880917,-60.18603515625,4761.76025390625,True
1599385030.060987,0.0,10,0.5,0.5,-0.9650396026611329,-0.001,-0.02275,-0.001,0.26947088180336287,10,1,100,0.2769397214092324,-10,-1,-100,19294.8335513724,-0.03394463349525282,0.018079756927726565,0.9992601684477909,61.87449008140966,3.752664712938641,261.71155901275654,-75.59591200804944,-62.1678466796875,4761.76025390625,True
1599385030.079923,0.0,10,0.5,0.5,-0.9108761367797852,-0.001,-0.02275,-0.001,0.2778668381718782,10,1,100,0.2611308593535861,-10,-1,-100,19293.317985461792,-0.032871179960093096,0.018845226797977458,0.9992819136534815,61.525072829484294,3.731248492176838,260.8893835759831,-75.77828345168108,-64.22329711914062,4761.76025390625,True
1599385030.1008356,0.0,10,0.5,0.5,-0.8584542533874511,-0.001,-0.02275,-0.001,0.28310689479442325,10,1,100,0.2465560073356915,-10,-1,-100,19291.79877219547,-0.03177326046538676,0.01957897725976698,0.9993033191022934,61.122817812742035,3.706600604510384,259.83551681111624,-75.96066301150566,-66.352783203125,4761.76025390625,True
1599385030.1356084,0.0,10,0.5,0.5,-0.7990629219055175,-0.001,-0.02275,-0.001,0.3697143977116982,10,1,100,0.10148384034657312,-10,-1,-100,19288.74940203759,-0.029467240788603202,0.02102357235958408,0.9993446308083852,60.14703240584897,3.646884324154726,256.9714757883615,-76.325452108759,-70.83120727539062,4761.76025390625,True
1599385030.2273767,0.0,10,0.5,0.5,-0.7339406257629394,-0.001,-0.02275,-0.001,0.37756345521308865,10,1,100,0.0620499596477006,-10,-1,-100,19285.685438529006,-0.027024843278825098,0.02239775945899895,0.9993838092629738,58.92286663024706,3.5721573792102794,253.00093587119187,-76.69028935842172,-75.58834838867188,4761.76025390625,True
1599385030.2499635,0.0,10,0.5,0.5,-0.665666869354248,-0.001,-0.02275,-0.001,0.3124535149658942,10,1,100,0.1659099983020455,-10,-1,-100,19284.14798386919,-0.025762770335128957,0.023044085318363303,0.9994024463630752,58.21186722334028,3.528856065981262,250.57087533431545,-76.87272900395973,-78.06634521484375,4761.76025390625,True
1599385030.2808816,0.0,10,0.5,0.5,-0.5918468391418457,-0.001,-0.02275,-0.001,0.43632097415645515,10,1,100,-0.13269088004712398,-10,-1,-100,19279.51372386748,-0.021913435846486105,0.02474892503027178,0.9994534966866881,55.66592771546782,3.3743560707317144,241.40083246071623,-77.42014306922067,-85.86270141601562,4761.76025390625,True
1599385030.3130267,0.0,10,0.5,0.5,-0.5212011703491211,-0.001,-0.02275,-0.001,0.2669751637538623,10,1,100,0.2504762564002269,-10,-1,-100,19279.51372386748,-0.021913435846486105,0.02474892503027178,0.9994534966866881,55.66592771546782,3.3743560707317144,241.40083246071623,-77.42014306922067,-85.86270141601562,4761.76025390625,True
1599385030.3480914,0.0,10,0.5,0.5,-0.4298571113586426,-0.001,-0.02275,-0.001,0.4214024129174705,10,1,100,-0.1858403718058094,-10,-1,-100,19274.84661294869,-0.017962213580607855,0.026143181000907564,0.9994968198901077,52.492846598802636,3.182789425258138,229.32954442444887,-77.96771102662318,-94.14889526367188,4761.76025390625,True
1599385030.3801234,0.0,10,0.5,0.5,-0.3523659881591797,-0.001,-0.02275,-0.001,0.2830238174670268,10,1,100,0.20738336060815446,-10,-1,-100,19274.84661294869,-0.017962213580607855,0.026143181000907564,0.9994968198901077,52.492846598802636,3.182789425258138,229.32954442444887,-77.96771102662318,-94.14889526367188,4761.76025390625,True
1599385030.4131424,0.0,10,0.5,0.5,-0.2635946220397949,-0.001,-0.02275,-0.001,0.3657190007874581,10,1,100,-0.08860271040352713,-10,-1,-100,19271.71695270075,-0.015286901135813732,0.026886924925997608,0.9995215875215941,53.46655572618119,3.243052738076446,234.7307209109346,-78.33275640650338,-99.90182495117188,4761.76025390625,True
1599385030.4461522,0.0,10,0.5,0.5,-0.1657130172729492,-0.001,-0.02275,-0.001,0.38102325062871184,10,1,100,-0.2488283232144374,-10,-1,-100,19266.99509026832,-0.011415164008046654,0.02769417879463789,0.9995512625631365,55.8596307529523,3.3909610556384124,247.03367411005775,-78.88015675870923,-108.79669189453125,4761.76025390625,True
1599385030.482056,0.0,10,0.5,0.5,-0.07320341110229492,-0.001,-0.02275,-0.001,0.30118275896434965,10,1,100,0.13619978796706578,-10,-1,-100,19266.99509026832,-0.011415164008046654,0.02769417879463789,0.9995512625631365,55.8596307529523,3.3909610556384124,247.03367411005775,-78.88015675870923,-108.79669189453125,4761.76025390625,True
1599385030.5121212,0.0,10,0.5,0.5,0.04772504196166993,-0.001,-0.02275,-0.001,0.37100262837834247,10,1,100,-0.39989370256808043,-10,-1,-100,19260.648197412607,-0.00656009418177927,0.02832152742427885,0.9995773388030974,58.59033011013178,3.5611581837192303,261.6185502950035,-79.6097076532023,-120.98097229003906,4761.76025390625,True
1599385030.5461433,0.0,10,0.5,0.5,0.1496314769744873,-0.001,-0.02275,-0.001,0.30899756092071584,10,1,100,0.08332256539797553,-10,-1,-100,19260.648197412607,-0.00656009418177927,0.02832152742427885,0.9995773388030974,58.59033011013178,3.5611581837192303,261.6185502950035,-79.6097076532023,-120.98097229003906,4761.76025390625,True
1599385030.5791416,0.0,10,0.5,0.5,0.25905728912353515,-0.001,-0.02275,-0.001,0.3157811819837205,10,1,100,-0.05432411340672304,-10,-1,-100,19259.052356446977,-0.005327365055461143,0.028377811463065002,0.9995830725848315,59.14172502367931,3.595719394479933,264.7129098605035,-79.79204447089782,-124.05976867675781,4761.76025390625,True
1599385030.6151984,0.0,10,0.5,0.5,0.3791151485443115,-0.001,-0.02275,-0.001,0.31856099677840094,10,1,100,-0.30408558329070456,-10,-1,-100,19254.242955936934,-0.0019547210373899843,0.028449400972690688,0.9995933226317397,60.25980864528242,3.6663795348583714,271.64869775976405,-80.33896737044263,-133.31057739257812,4761.76025390625,True
1599385030.647439,0.0,10,0.5,0.5,0.4778082576751709,-0.001,-0.02275,-0.001,0.3117720934100742,10,1,100,0.031182947035501694,-10,-1,-100,19254.242955936934,-0.0019547210373899843,0.028449400972690688,0.9995933226317397,60.25980864528242,3.6663795348583714,271.64869775976405,-80.33896737044263,-133.31057739257812,4761.76025390625,True
1599385030.6790466,0.0,10,0.5,0.5,0.5980044338226319,-0.001,-0.02275,-0.001,0.30153570738627566,10,1,100,-0.20753825665532324,-10,-1,-100,19251.018459853134,0.0001973274372456099,0.02835297884889032,0.9995979540056477,60.550617344545806,3.6853155305777783,274.2530623631111,-80.70353748547058,-139.43670654296875,4761.76025390625,True
1599385030.7121956,0.0,10,0.5,0.5,0.7069830875396728,-0.001,-0.02275,-0.001,0.30426649727505023,10,1,100,-0.20878949328429222,-10,-1,-100,19247.779381262022,0.0021486013462523644,0.02828813882819886,0.999597501354366,60.48291779042136,3.6819661903169365,275.23885788578684,-81.06809804723974,-145.47421264648438,4761.76025390625,True
1599385030.74935,0.0,10,0.5,0.5,0.8236609958648682,-0.001,-0.02275,-0.001,0.2974755655390599,10,1,100,-0.12382477462465413,-10,-1,-100,19246.154373497237,0.0031317976257828313,0.028165507650127358,0.9995983673568309,60.32390180343752,3.6725104912963262,275.1601122832473,-81.25038155696987,-148.44937133789062,4761.76025390625,True
1599385030.7792578,0.0,10,0.5,0.5,0.954123448562622,-0.001,-0.02275,-0.001,0.2665224947824779,10,1,100,-0.41080831981229804,-10,-1,-100,19239.61788293312,0.006617809473642203,0.027771470860707855,0.9995923919298324,58.933390472095795,3.5880084165447443,271.3413328702769,-81.97958894551094,-159.94534301757812,4761.76025390625,True
1599385030.8124678,0.0,10,0.5,0.5,1.0644818691253661,-0.001,-0.02275,-0.001,0.2928242660495105,10,1,100,-0.15160393359371105,-10,-1,-100,19237.974644475966,0.007414114030180215,0.027652292343603085,0.9995901068144339,58.42607079429847,3.557066209128737,269.63217043583995,-82.16191749506406,-162.69094848632812,4761.76025390625,True
1599385030.8453445,0.0,10,0.5,0.5,1.1949553165435791,-0.001,-0.02275,-0.001,0.2876413401047153,10,1,100,-0.23636881306088361,-10,-1,-100,19234.677227018867,0.008891499551245225,0.027496868807147006,0.9995823445027091,57.26364406595629,3.486206218255667,265.4973492612116,-82.52661421957299,-167.99575805664062,4761.76025390625,True
1599385030.8823917,0.0,10,0.5,0.5,1.2966091445922852,-0.001,-0.02275,-0.001,0.30310122788861005,10,1,100,-0.09017542032768507,-10,-1,-100,19234.677227018867,0.008891499551245225,0.027496868807147006,0.9995823445027091,57.26364406595629,3.486206218255667,265.4973492612116,-82.52661421957299,-167.99575805664062,4761.76025390625,True
1599385030.9129791,0.0,10,0.5,0.5,1.4136164882659912,-0.001,-0.02275,-0.001,0.2826161244975731,10,1,100,-0.2409625620048233,-10,-1,-100,19231.36521968327,0.01024824484491646,0.027311390284153154,0.9995744401685875,55.95476396416193,3.4065673007672665,260.6320633519443,-82.89136647452895,-173.02011108398438,4761.76025390625,True
1599385030.9463022,0.0,10,0.5,0.5,0.8139416358947753,-0.001,-0.02275,-0.001,0.28584965401314827,10,1,100,-0.30417753229694283,-10,-1,-100,19226.369848724804,0.012042171560091052,0.02717313864173571,0.9995582057291483,53.83315070531327,3.2779266617165232,252.48848423375287,-83.43859803121148,179.99752807617188,4761.76025390625,True
1599385030.9803371,0.0,10,0.5,0.5,0.4627506874084472,-0.001,-0.02275,-0.001,0.297136241676777,10,1,100,-0.2416490725187813,-10,-1,-100,19223.021357950754,0.013091849037177868,0.027151220911326435,0.9995456041080928,52.377993118690306,3.1900522413978067,246.7922938221089,-83.80348321200627,175.71385192871094,4761.76025390625,True
1599385031.0153966,0.0,10,0.5,0.5,-0.24048736305236817,-0.001,-0.02275,-0.001,0.30380645710899556,10,1,100,-0.1918181742207923,-10,-1,-100,19221.34163909615,0.013579414422661829,0.027193114187666685,0.9995379602820066,52.05818062133969,3.171066056441089,245.8465318412888,-83.98593522369971,173.67575073242188,4761.76025390625,True
1599385031.0463338,0.0,10,0.5,0.5,-0.9470462459564208,-0.001,-0.02275,-0.001,0.3123503663609918,10,1,100,-0.24257415921601191,-10,-1,-100,19217.971255723853,0.014471908193980684,0.02730992530904981,0.9995222518047504,53.219542592811976,3.243048773558561,252.47851321874646,-84.3507934685074,169.77072143554688,4761.76025390625,True
1599385031.0793502,0.0,10,0.5,0.5,-1.668133500289917,-0.001,-0.02275,-0.001,0.3005714328707645,10,1,100,-0.1545571127688992,-10,-1,-100,19217.971255723853,0.014471908193980684,0.02730992530904981,0.9995222518047504,53.219542592811976,3.243048773558561,252.47851321874646,-84.3507934685074,169.77072143554688,4761.76025390625,True
1599385031.1128325,0.0,10,0.5,0.5,-2.384383893966675,-0.001,-0.02275,-0.001,0.3214842111344355,10,1,100,-0.24196349264132738,-10,-1,-100,19214.586279694806,0.01525620245594076,0.027500819277211434,0.9995053542756565,54.2270073255835,3.305962825615125,258.4271591829026,-84.7155934993728,165.92056274414062,4761.76025390625,True
1599385031.1484177,0.0,10,0.5,0.5,-3.117369454574585,-0.001,-0.02275,-0.001,0.3581461471877724,10,1,100,-0.2751976313848624,-10,-1,-100,19209.48145926802,0.016263472689043604,0.02800789562291915,0.9994753910121392,55.67978456417336,3.3972464037237504,267.15089741268787,-85.26268545294991,159.8157958984375,4761.76025390625,True
1599385031.1703603,0.0,10,0.5,0.5,-3.8571770648956294,-0.001,-0.02275,-0.001,0.3074740729449322,10,1,100,-0.17535554394046438,-10,-1,-100,19209.48145926802,0.016263472689043604,0.02800789562291915,0.9994753910121392,55.67978456417336,3.3972464037237504,267.15089741268787,-85.26268545294991,159.8157958984375,4761.76025390625,True
1599385031.1893194,0.0,10,0.5,0.5,-4.594121689987182,-0.001,-0.02275,-0.001,0.3616017913789362,10,1,100,-0.23836967635626383,-10,-1,-100,19206.06001187407,0.01682962664451651,0.028499501220668487,0.9994521209628701,56.65273264808643,3.458614153976248,273.0397503153121,-85.62733677786858,155.4024658203125,4761.76025390625,True
1599385031.2131817,0.0,10,0.5,0.5,-5.3296352420806885,-0.001,-0.02275,-0.001,0.34535213743478,10,1,100,-0.2101411955968469,-10,-1,-100,19204.343819015427,0.01708047302704875,0.02879777978966326,0.9994393154766117,57.1550450207603,3.4903129532954966,276.07619533299453,-85.80963884189639,153.08709716796875,4761.76025390625,True
1599385031.2463412,0.0,10,0.5,0.5,-6.069067959213258,-0.001,-0.02275,-0.001,0.35191026383902135,10,1,100,-0.2115621625173333,-10,-1,-100,19202.623980521457,0.01731522195755327,0.029127210192873877,0.9994257294641463,57.66185531594681,3.5223050840743304,279.14508292569343,-85.99192483555319,150.69882202148438,4761.76025390625,True
1599385031.2832518,0.0,10,0.5,0.5,-5.999878399276733,-0.001,-0.02275,-0.001,0.3562261972937475,10,1,100,-0.21254005592642905,-10,-1,-100,19200.90049649717,0.017532726334096922,0.029464151707607276,0.9994120607994706,58.141460201926265,3.5526418867812146,282.09273177387485,-86.17419538653743,148.2371826171875,4761.76025390625,True
1599385031.3136575,0.0,10,0.5,0.5,-5.929547809600829,-0.001,-0.02275,-0.001,0.4125780234851918,10,1,100,-0.23358526731552043,-10,-1,-100,19197.44259328069,0.017917740527858418,0.030280648840199605,0.9993808267523411,59.00326868252992,3.6073305253780497,287.54389609332526,-86.53869317460406,143.0957794189453,4761.76025390625,True
1599385031.346333,0.0,10,0.5,0.5,-5.854253384017944,-0.001,-0.02275,-0.001,0.4358492657461071,10,1,100,-0.23231209686191534,-10,-1,-100,19193.970111743198,0.018252235221604098,0.031231668858880467,0.9993455052031327,59.70544640940163,3.6521256606789283,292.2503270590929,-86.90314030796408,137.66258239746094,4761.76025390625,True
1599385031.3802936,0.0,10,0.5,0.5,-5.769248474884033,-0.001,-0.02275,-0.001,0.5294283694424538,10,1,100,-0.2465053107279459,-10,-1,-100,19188.734058664064,0.018681913862857155,0.03294338641533001,0.9992826023632709,60.37748689873191,3.6955381451830824,297.4881000118325,-87.44974240599855,128.96653747558594,4761.76025390625,True
1599385031.4152343,0.0,10,0.5,0.5,-5.685115001296997,-0.001,-0.02275,-0.001,0.3588199599081274,10,1,100,-0.20395844716952785,-10,-1,-100,19188.734058664064,0.018681913862857155,0.03294338641533001,0.9992826023632709,60.37748689873191,3.6955381451830824,297.4881000118325,-87.44974240599855,128.96653747558594,4761.76025390625,True
1599385031.4471843,0.0,10,0.5,0.5,-5.588722480773925,-0.001,-0.02275,-0.001,0.5081281694185423,10,1,100,-0.23236876052270222,-10,-1,-100,19185.22513722221,0.018937075155697907,0.03429578598620822,0.9992322984412262,60.516134184277846,3.705148235155628,299.473600423494,-87.81412038050516,122.80548095703125,4761.76025390625,True
1599385031.4805079,0.0,10,0.5,0.5,-5.5043065612792965,-0.001,-0.02275,-0.001,0.4568391092990838,10,1,100,-0.22023012641014034,-10,-1,-100,19183.465211005067,0.019056258200469252,0.03505325969468125,0.9992037469946627,60.478886407659225,3.7033045042385906,299.94043807663826,-87.99630904143292,119.61622619628906,4761.76025390625,True
1599385031.5135968,0.0,10,0.5,0.5,-5.389072159957887,-0.001,-0.02275,-0.001,0.7540685744499719,10,1,100,-0.2683867038962595,-10,-1,-100,19176.3890662489,0.019599854595124807,0.038437553327326845,0.9990687664991128,59.51821036985063,3.6455765447337787,297.74345169105885,-88.72511737956734,106.13140869140625,4761.76025390625,True
1599385031.5496058,0.0,10,0.5,0.5,-5.283359914779663,-0.001,-0.02275,-0.001,0.5216842518444595,10,1,100,-0.23185624365701757,-10,-1,-100,19174.610919240513,0.01975941965359074,0.03939256455867576,0.9990284236158867,59.05525124580558,3.617415153907925,296.0656355406463,-88.90734505429441,102.57870483398438,4761.76025390625,True
1599385031.5805464,0.0,10,0.5,0.5,-5.17200602607727,-0.001,-0.02275,-0.001,0.42724260718646895,10,1,100,-0.21616763247307838,-10,-1,-100,19174.610919240513,0.01975941965359074,0.03939256455867576,0.9990284236158867,59.05525124580558,3.617415153907925,296.0656355406463,-88.90734505429441,102.57870483398438,4761.76025390625,True
1599385031.6136494,0.0,10,0.5,0.5,-5.0326635578155505,-0.001,-0.02275,-0.001,0.9083020546264895,10,1,100,-0.30731093148067967,-10,-1,-100,19167.461879386334,0.0205857731012089,0.0437565001223434,0.9988301130036424,56.22231699787968,3.4449971133818336,284.29868211494,-89.63642052701775,87.64410400390625,4761.76025390625,True
1599385031.6461377,0.0,10,0.5,0.5,-4.909748904800415,-0.001,-0.02275,-0.001,0.47333773310119914,10,1,100,-0.22498089139557492,-10,-1,-100,19167.461879386334,0.0205857731012089,0.0437565001223434,0.9988301130036424,56.22231699787968,3.4449971133818336,284.29868211494,-89.63642052701775,87.64410400390625,4761.76025390625,True
1599385031.6827059,0.0,10,0.5,0.5,-4.775765776824952,-0.001,-0.02275,-0.001,0.6044848523459075,10,1,100,-0.2542483367190252,-10,-1,-100,19165.665504495264,0.020849415301809948,0.0449364958870388,0.998772252928047,55.26022982193644,3.386537083257007,280.0332863473091,-89.81873831859653,83.72882080078125,4761.76025390625,True
1599385031.7126675,0.0,10,0.5,0.5,-4.640889436721801,-0.001,-0.02275,-0.001,0.7737718305644975,10,1,100,-0.3017404455191822,-10,-1,-100,19162.061813898268,0.021518475400466686,0.047535732905087114,0.9986377267626212,53.13035697281601,3.25736777220909,270.3935925021239,-90.18343662669122,75.68266296386719,4761.76025390625,True
1599385031.7464814,0.0,10,0.5,0.5,-4.502484280776977,-0.001,-0.02275,-0.001,0.9624443719982707,10,1,100,-0.374798068790965,-10,-1,-100,19156.628929949016,0.022788293373045738,0.05160061480135646,0.9984077675164922,56.335356130085124,3.4570900646310077,288.5386742258829,-90.73034484589303,63.067413330078125,4761.76025390625,True
1599385031.9052017,0.0,10,0.5,0.5,-4.356479346466064,-0.001,-0.02275,-0.001,0.7167908111840794,10,1,100,-0.30710890468196483,-10,-1,-100,19154.81067806459,0.023323584238481066,0.053045786673848655,0.9983196657055411,57.35217759490211,3.520765056721756,294.368430384101,-90.91258752053542,58.71757507324219,4761.76025390625,True
1599385031.9271593,0.0,10,0.5,0.5,-4.188061822128296,-0.001,-0.02275,-0.001,1.0780058722859014,10,1,100,-0.48807817179214963,-10,-1,-100,19149.33405862213,0.02545139971798506,0.05762630711277845,0.99801374488578,59.872264010401935,3.679534308986281,309.24815536753215,-91.459157007033,45.23388671875,4761.76025390625,True
1599385031.9602103,0.0,10,0.5,0.5,-4.032325688171387,-0.001,-0.02275,-0.001,0.622211133134732,10,1,100,-0.2759361379935018,-10,-1,-100,19149.33405862213,0.02545139971798506,0.05762630711277845,0.99801374488578,59.872264010401935,3.679534308986281,309.24815536753215,-91.459157007033,45.23388671875,4761.76025390625,True
1599385032.0371244,0.0,10,0.5,0.5,-3.8845030639648437,-0.001,-0.02275,-0.001,0.7937646583089923,10,1,100,-0.36594023976104617,-10,-1,-100,19147.501232616953,0.02626429923848741,0.059168440292739495,0.9979024412530695,60.55086626553499,3.7225185937252077,313.40826338134116,-91.64130100050441,40.593505859375,4761.76025390625,True
1599385032.0620635,0.0,10,0.5,0.5,-3.729130290985107,-0.001,-0.02275,-0.001,0.9885958651019997,10,1,100,-0.5025819846409547,-10,-1,-100,19143.824652958196,0.028239582956411532,0.06232359426742773,0.997656401549169,61.47980233588885,3.781934872381672,319.546232255278,-92.00554364472279,31.0950927734375,4761.76025390625,True
1599385032.1338353,0.0,10,0.5,0.5,-3.546414222717285,-0.001,-0.02275,-0.001,1.1946868093352085,10,1,100,-0.689228402794476,-10,-1,-100,19138.28246710403,0.03172437180746291,0.06704462371043825,0.9972454976909887,61.68583484435346,3.797263921370745,322.62005648935616,-92.55186997344745,16.300460815429688,4761.76025390625,True
1599385032.1558132,0.0,10,0.5,0.5,-3.3989020664215093,-0.001,-0.02275,-0.001,0.7249126773929662,10,1,100,-0.34186337755996354,-10,-1,-100,19138.28246710403,0.03172437180746291,0.06704462371043825,0.9972454976909887,61.68583484435346,3.797263921370745,322.62005648935616,-92.55186997344745,16.300460815429688,4761.76025390625,True
1599385032.1807091,0.0,10,0.5,0.5,-3.216135897064209,-0.001,-0.02275,-0.001,1.058413105844294,10,1,100,-0.6561034612042114,-10,-1,-100,19134.569464740693,0.03457097384176857,0.07005527476582478,0.9969438831976033,60.970017415320655,3.7545816796035285,320.19875899954843,-92.91612147210806,6.070770263671875,4761.76025390625,True
1599385032.2139602,0.0,10,0.5,0.5,-3.028641703796387,-0.001,-0.02275,-0.001,1.0597268745303141,10,1,100,-0.7246503234234665,-10,-1,-100,19130.841890179436,0.037769473021730615,0.07278133836888655,0.996632501824466,59.53100874159184,3.6673398938647366,313.9353821043889,-93.2804419319074,-4.45513916015625,4761.76025390625,True
1599385032.2498615,0.0,10,0.5,0.5,-2.8352140377044677,-0.001,-0.02275,-0.001,1.070612408046419,10,1,100,-0.7889029500703599,-10,-1,-100,19127.099740104633,0.04124654070246672,0.07533558685321293,0.9963048088981412,57.36309933418814,3.5354549156543342,303.7518042232577,-93.64485692882431,-15.275177001953125,4761.76025390625,True
1599385032.2822194,0.0,10,0.5,0.5,-2.6678046825408934,-0.001,-0.02275,-0.001,0.8175610568189666,10,1,100,-0.4430420067296914,-10,-1,-100,19127.099740104633,0.04124654070246672,0.07533558685321293,0.9963048088981412,57.36309933418814,3.5354549156543342,303.7518042232577,-93.64485692882431,-15.275177001953125,4761.76025390625,True
1599385032.3152218,0.0,10,0.5,0.5,-2.4658884689331053,-0.001,-0.02275,-0.001,1.1457867267347863,10,1,100,-1.0783369997814432,-10,-1,-100,19121.459177131183,0.04700565613342448,0.07829919312501187,0.9958211208080688,54.40737137141741,3.3567684670661437,289.8773716773747,-94.19164961486669,-32.0665283203125,4761.76025390625,True
1599385032.3475957,0.0,10,0.5,0.5,-2.3068213760375977,-0.001,-0.02275,-0.001,0.8514933881561157,10,1,100,-0.5045808823272114,-10,-1,-100,19121.459177131183,0.04700565613342448,0.07829919312501187,0.9958211208080688,54.40737137141741,3.3567684670661437,289.8773716773747,-94.19164961486669,-32.0665283203125,4761.76025390625,True
1599385032.3838332,0.0,10,0.5,0.5,-2.084089518737793,-0.001,-0.02275,-0.001,1.1116952857406375,10,1,100,-1.3999336867800998,-10,-1,-100,19113.887405061396,0.0551256323044367,0.0806458713884964,0.9952172667769716,58.31359527976001,3.604080835455584,313.2202999290668,-94.92038000409326,-55.50323486328125,4761.76025390625,True
1599385032.4147973,0.0,10,0.5,0.5,-1.8889061401367186,-0.001,-0.02275,-0.001,0.8791752025017601,10,1,100,-0.5908222029854726,-10,-1,-100,19113.887405061396,0.0551256323044367,0.0806458713884964,0.9952172667769716,58.31359527976001,3.604080835455584,313.2202999290668,-94.92038000409326,-55.50323486328125,4761.76025390625,True
1599385032.448127,0.0,10,0.5,0.5,-1.6551661849975585,-0.001,-0.02275,-0.001,0.9409826783928809,10,1,100,-1.2656934326701499,-10,-1,-100,19108.170328655862,0.06123638343852647,0.08119110091739652,0.9948156163205275,59.36338704625627,3.673025501305347,320.7861411941442,-95.4667048348509,-73.86761474609375,4761.76025390625,True
1599385032.4815164,0.0,10,0.5,0.5,-1.468398192977905,-0.001,-0.02275,-0.001,0.8878743732235641,10,1,100,-0.6575695204242791,-10,-1,-100,19108.170328655862,0.06123638343852647,0.08119110091739652,0.9948156163205275,59.36338704625627,3.673025501305347,320.7861411941442,-95.4667048348509,-73.86761474609375,4761.76025390625,True
1599385032.5174313,0.0,10,0.5,0.5,-1.2380306526184082,-0.001,-0.02275,-0.001,0.8672147728631632,10,1,100,-1.0917791654098914,-10,-1,-100,19104.340734101832,0.0651569147460038,0.0809904259348411,0.9945828911496895,58.910347713562565,3.6470375447925663,319.61344839932195,-95.83091488873853,-86.48519897460938,4761.76025390625,True
1599385032.5486052,0.0,10,0.5,0.5,-1.0272405265808107,-0.001,-0.02275,-0.001,0.8578424900753945,10,1,100,-0.8980571213917656,-10,-1,-100,19102.420473242062,0.06693211922454183,0.0807128505152028,0.9944875701474716,58.30172337644167,3.6102425789234465,316.94324566907284,-96.01304070140895,-92.9066390991211,4761.76025390625,True
1599385032.5819407,0.0,10,0.5,0.5,-0.7795806936264038,-0.001,-0.02275,-0.001,0.6878407722647837,10,1,100,-1.4227744567019114,-10,-1,-100,19094.702994157327,0.07328958757493881,0.07890782859712032,0.9941841836094473,53.41637020213346,3.311153238293261,292.7050154294364,-96.74181035374103,-119.33369445800781,4761.76025390625,True
1599385032.6146123,0.0,10,0.5,0.5,-0.5692746217727661,-0.001,-0.02275,-0.001,0.8687001882474219,10,1,100,-0.7902319263494607,-10,-1,-100,19094.702994157327,0.07328958757493881,0.07890782859712032,0.9941841836094473,53.41637020213346,3.311153238293261,292.7050154294364,-96.74181035374103,-119.33369445800781,4761.76025390625,True
1599385032.6505368,0.0,10,0.5,0.5,-0.29137624187469485,-0.001,-0.02275,-0.001,0.6738048018791905,10,1,100,-1.196079478327925,-10,-1,-100,19088.87661456433,0.07694998073213169,0.07713280486491467,0.9940468957141789,53.79567866989469,3.338171230952364,296.5345124225976,-97.28854224102486,-139.91632080078125,4761.76025390625,True
1599385032.6809225,0.0,10,0.5,0.5,-0.06660059032440185,-0.001,-0.02275,-0.001,0.8511905362737464,10,1,100,-0.8330345950685074,-10,-1,-100,19088.87661456433,0.07694998073213169,0.07713280486491467,0.9940468957141789,53.79567866989469,3.338171230952364,296.5345124225976,-97.28854224102486,-139.91632080078125,4761.76025390625,True
1599385032.7139804,0.0,10,0.5,0.5,0.22085583209991455,-0.001,-0.02275,-0.001,0.6559713452046042,10,1,100,-1.1283715488815704,-10,-1,-100,19083.017442476936,0.07960764001716071,0.07535914529906801,0.9939736530063018,56.25924728970046,3.494561591988056,311.94135084755567,-97.83499908590545,-160.96539306640625,4761.76025390625,True
1599385032.7479753,0.0,10,0.5,0.5,0.4397331697463989,-0.001,-0.02275,-0.001,0.8328086291803273,10,1,100,-0.8650538211499408,-10,-1,-100,19083.017442476936,0.07960764001716071,0.07535914529906801,0.9939736530063018,56.25924728970046,3.494561591988056,311.94135084755567,-97.83499908590545,-160.96539306640625,4761.76025390625,True
1599385032.7839646,0.0,10,0.5,0.5,0.7079755586624146,-0.001,-0.02275,-0.001,0.7267618751720184,10,1,100,-1.009088497437522,-10,-1,-100,19079.093114941614,0.0808947897945817,0.07439989001361923,0.9939419949625089,56.76937348851324,3.5280882067770354,315.9990819631406,-98.19924166427158,-175.12338256835938,4761.76025390625,True
1599385032.8143573,0.0,10,0.5,0.5,0.24652453861236562,-0.001,-0.02275,-0.001,0.7267504870863539,10,1,100,-1.0386530409568715,-10,-1,-100,19073.179303560988,0.08231582325481664,0.07353391005416318,0.9938897671844841,55.35727229738205,3.44259882821315,309.94079102809746,-98.7456738719422,163.70156860351562,4761.76025390625,True
1599385032.8480248,0.0,10,0.5,0.5,0.07280019092559811,-0.001,-0.02275,-0.001,0.799201893829273,10,1,100,-0.9765425221186279,-10,-1,-100,19069.21854446642,0.08302386764757683,0.07341226578037807,0.9938398646833547,53.10477576003443,3.3041797443336636,298.4840182817667,-99.11007845688923,149.74127197265625,4761.76025390625,True
1599385032.8810363,0.0,10,0.5,0.5,-0.47857532711029055,-0.001,-0.02275,-0.001,0.8106085051923376,10,1,100,-0.9075247781327662,-10,-1,-100,19069.21854446642,0.08302386764757683,0.07341226578037807,0.9938398646833547,53.10477576003443,3.3041797443336636,298.4840182817667,-99.11007845688923,149.74127197265625,4761.76025390625,True
1599385032.9164736,0.0,10,0.5,0.5,-1.0029476524353027,-0.001,-0.02275,-0.001,0.8405411721191021,10,1,100,-0.9842999645078918,-10,-1,-100,19065.243206854095,0.08370719502514794,0.07369101782947123,0.9937619128303711,52.364866101352504,3.2601882135599753,295.4637047935051,-99.474547820885,135.91543579101562,4761.76025390625,True
1599385032.9484756,0.0,10,0.5,0.5,-1.5836959423065184,-0.001,-0.02275,-0.001,0.8449721703579411,10,1,100,-0.9541328976002827,-10,-1,-100,19063.250071969116,0.08404468511700686,0.07398945314060686,0.9937112516860906,53.6978199797992,3.3443252003113364,303.5679214718952,-99.65673292832771,129.03077697753906,4761.76025390625,True
1599385032.9815593,0.0,10,0.5,0.5,-2.128087343215942,-0.001,-0.02275,-0.001,0.9129218554945856,10,1,100,-1.0063395273005429,-10,-1,-100,19059.25287381024,0.08481632265457,0.07488295362966012,0.9935787511149049,55.65736665215084,3.468707092886938,315.8535274110593,-100.02101162367835,115.26956176757812,4761.76025390625,True
1599385033.0152462,0.0,10,0.5,0.5,-2.6803997982025143,-0.001,-0.02275,-0.001,1.047907780409191,10,1,100,-1.1075736030469225,-10,-1,-100,19053.229760762188,0.08643096988466499,0.07692441689278245,0.9932836057896565,57.01421169030059,3.5563371692357753,325.40891122294965,-100.5673023915518,94.271240234375,4761.76025390625,True
1599385033.0502636,0.0,10,0.5,0.5,-3.2341748210906984,-0.001,-0.02275,-0.001,0.8437406152997441,10,1,100,-0.9470569789526762,-10,-1,-100,19053.229760762188,0.08643096988466499,0.07692441689278245,0.9932836057896565,57.01421169030059,3.5563371692357753,325.40891122294965,-100.5673023915518,94.271240234375,4761.76025390625,True
1599385033.0812933,0.0,10,0.5,0.5,-3.7861606716156,-0.001,-0.02275,-0.001,1.0338254143638679,10,1,100,-1.1126753274785177,-10,-1,-100,19049.196142908535,0.08793038820774764,0.07865103754646202,0.99301674765459,56.781899701565,3.543551372787689,325.3167108235918,-100.9314898594549,79.9324951171875,4761.76025390625,True
1599385033.1143627,0.0,10,0.5,0.5,-4.304460172653197,-0.001,-0.02275,-0.001,1.1835393593303793,10,1,100,-1.3025441434896867,-10,-1,-100,19043.118397897808,0.09101200978502377,0.08157873592018683,0.9925027576387659,54.50598359138029,3.4041067021239715,314.0577999266323,-101.47789411778788,57.89152526855469,4761.76025390625,True
1599385033.1474004,0.0,10,0.5,0.5,-4.841628246307373,-0.001,-0.02275,-0.001,1.0007625316825521,10,1,100,-1.1330992878916175,-10,-1,-100,19041.085196189117,0.09226387869530105,0.08257214614867771,0.9923050021885912,53.26690423208095,3.3277328431743536,307.4987715248877,-101.66007967407785,50.40061950683594,4761.76025390625,True
1599385033.1833432,0.0,10,0.5,0.5,-4.545544948196412,-0.001,-0.02275,-0.001,1.2195846281098446,10,1,100,-1.5157646449030056,-10,-1,-100,19034.96372855245,0.09687167362707438,0.08545632156383161,0.9916214479091648,54.37150485047509,3.4003656239459725,315.6505451335765,-102.20660705031958,27.49334716796875,4761.76025390625,True
1599385033.215282,0.0,10,0.5,0.5,-4.290338191604614,-0.001,-0.02275,-0.001,0.9323714921728,10,1,100,-1.0563699323236218,-10,-1,-100,19034.96372855245,0.09687167362707438,0.08545632156383161,0.9916214479091648,54.37150485047509,3.4003656239459725,315.6505451335765,-102.20660705031958,27.49334716796875,4761.76025390625,True
1599385033.2483602,0.0,10,0.5,0.5,-3.9966597095489504,-0.001,-0.02275,-0.001,1.0273208071662054,10,1,100,-1.2530671845426065,-10,-1,-100,19032.915954217315,0.09864724155090197,0.08630854801305943,0.9913725617921225,55.433067929472095,3.468015311132555,322.415712807707,-102.38871300601927,19.71112060546875,4761.76025390625,True
1599385033.2813013,0.0,10,0.5,0.5,-3.6763384105682375,-0.001,-0.02275,-0.001,1.2164720845261079,10,1,100,-1.9701573926623908,-10,-1,-100,19024.688442948973,0.10676681424044714,0.08879138591546239,0.9903115354090134,57.19836272424011,3.5829727413682453,335.16859674056377,-103.11697082918478,-12.158233642578125,4761.76025390625,True
1599385033.3173294,0.0,10,0.5,0.5,-3.3706948432922363,-0.001,-0.02275,-0.001,1.005007682480713,10,1,100,-1.4065097793450034,-10,-1,-100,19022.62246213935,0.10900351826521791,0.08911265132380253,0.9900389731620907,57.022245373857,3.5729277894358944,334.75683007920105,-103.29903135918613,-20.31219482421875,4761.76025390625,True
1599385033.338278,0.0,10,0.5,0.5,-3.053941934204102,-0.001,-0.02275,-0.001,0.9940365999682309,10,1,100,-1.43607800072646,-10,-1,-100,19020.5528398382,0.11128369921337672,0.08929203758336723,0.9897690994942191,56.55725845984853,3.544775840159731,332.6427307405184,-103.48110496437617,-28.5413818359375,4761.76025390625,True
1599385033.3582144,0.0,10,0.5,0.5,-2.74940357055664,-0.001,-0.02275,-0.001,0.9686004913955482,10,1,100,-1.7188220718343354,-10,-1,-100,19016.402669437346,0.11590439824056659,0.08921263535895568,0.9892458117984642,54.79665700189664,3.436476855216101,323.48163657821095,-103.84531417791936,-45.225799560546875,4761.76025390625,True
1599385033.3821433,0.0,10,0.5,0.5,-2.448732222747803,-0.001,-0.02275,-0.001,0.9777695356833205,10,1,100,-1.2596995119509389,-10,-1,-100,19016.402669437346,0.11590439824056659,0.08921263535895568,0.9892458117984642,54.79665700189664,3.436476855216101,323.48163657821095,-103.84531417791936,-45.225799560546875,4761.76025390625,True
1599385033.415212,0.0,10,0.5,0.5,-2.1300245071411132,-0.001,-0.02275,-0.001,0.904887824959859,10,1,100,-1.7669594523088434,-10,-1,-100,19012.2379275345,0.12049042132560861,0.08854047289982195,0.9887581317124292,52.25381255403623,3.279227758424335,309.60850089908894,-104.20962653745508,-62.21209716796875,4761.76025390625,True
1599385033.4512837,0.0,10,0.5,0.5,-1.8737750637054442,-0.001,-0.02275,-0.001,0.9728002445711961,10,1,100,-1.3113049849586997,-10,-1,-100,19012.2379275345,0.12049042132560861,0.08854047289982195,0.9887581317124292,52.25381255403623,3.279227758424335,309.60850089908894,-104.20962653745508,-62.21209716796875,4761.76025390625,True
1599385033.4881852,0.0,10,0.5,0.5,-1.565493608856201,-0.001,-0.02275,-0.001,0.7516894758974835,10,1,100,-2.027539411082569,-10,-1,-100,19005.963493443793,0.12697598288797987,0.08652494925119625,0.9881247557503604,54.26759657426509,3.4091473510163497,323.3091789523875,-104.7560041439436,-88.255859375,4761.76025390625,True
1599385033.5161078,0.0,10,0.5,0.5,-1.3105462593078614,-0.001,-0.02275,-0.001,0.854651478105654,10,1,100,-1.6013266828730282,-10,-1,-100,19003.864731676178,0.12896991922526618,0.08562770174734956,0.9879446627359729,54.756441968549346,3.4409155609781927,326.815873665514,-104.93808633622066,-97.0866928100586,4761.76025390625,True
1599385033.549094,0.0,10,0.5,0.5,-0.9820841955184936,-0.001,-0.02275,-0.001,0.5956580834333314,10,1,100,-1.988989728578147,-10,-1,-100,18997.54659658426,0.13427761790593828,0.08245738099211916,0.9875071147335736,54.50195805520549,3.4276462641570635,327.07279012235125,-105.48432960508568,-124.02334594726562,4761.76025390625,True
1599385033.584213,0.0,10,0.5,0.5,-0.6820249372482299,-0.001,-0.02275,-0.001,0.9123050422542769,10,1,100,-1.4617828981464405,-10,-1,-100,18997.54659658426,0.13427761790593828,0.08245738099211916,0.9875071147335736,54.50195805520549,3.4276462641570635,327.07279012235125,-105.48432960508568,-124.02334594726562,4761.76025390625,True
1599385033.6152315,0.0,10,0.5,0.5,-0.3908866041183471,-0.001,-0.02275,-0.001,0.6586201903346851,10,1,100,-1.7878993239743624,-10,-1,-100,18993.316296432517,0.13721730286467804,0.08015691325187137,0.987292398964195,53.068888163798114,3.339185259803439,319.6271879529818,-105.84855950288292,-142.345947265625,4761.76025390625,True
1599385033.7588472,0.0,10,0.5,0.5,-0.1130467435836792,-0.001,-0.02275,-0.001,0.7640996447866,10,1,100,-1.6424738214747001,-10,-1,-100,18991.195682117832,0.138542044818445,0.07903262465400163,0.9871980277825841,52.05820927517598,3.276448576573258,314.1064167780129,-106.03070910058764,-151.61378479003906,4761.76025390625,True
1599385033.779791,0.0,10,0.5,0.5,0.19514226818084715,-0.001,-0.02275,-0.001,0.6338654181026404,10,1,100,-1.761623183292397,-10,-1,-100,18986.943522601505,0.14080475138784398,0.07683592333420165,0.9870512969810578,49.99980362134155,3.148607873833746,302.77391660121384,-106.39507813554776,-170.34735107421875,4761.76025390625,True
1599385033.7997348,0.0,10,0.5,0.5,0.47992488613128664,-0.001,-0.02275,-0.001,0.7415329173579586,10,1,100,-1.649953531372244,-10,-1,-100,18984.811977777164,0.14182394202152596,0.07582896913854525,0.9869832505715891,51.1418824284343,3.2213845693582597,310.2454038304328,-106.57723679320868,-179.77967834472656,4761.76025390625,True
1599385033.8341007,0.0,10,0.5,0.5,0.07550317630767811,-0.001,-0.02275,-0.001,0.7374298703486278,10,1,100,-1.6525684873028372,-10,-1,-100,18982.676790310652,0.14275068806625954,0.0748884227753368,0.9869214584711552,52.00697876282318,3.2766998320048413,316.0582762517244,-106.759370017397,170.77005004882812,4761.76025390625,True
1599385033.9118595,0.0,10,0.5,0.5,-0.04730286083221437,-0.001,-0.02275,-0.001,0.5734423426935147,10,1,100,-1.8392986129022322,-10,-1,-100,18976.249374035397,0.14527049446079307,0.07255499587566853,0.9867280557542684,52.87494378801058,3.3336019398251597,323.0570192766828,-107.30570698901826,142.4307403564453,4761.76025390625,True
1599385033.9357986,0.0,10,0.5,0.5,-0.5035903070449829,-0.001,-0.02275,-0.001,0.6838263185072453,10,1,100,-1.7672746916025872,-10,-1,-100,18971.946218179422,0.14688393728661298,0.0714517216352078,0.9865696936570407,52.15745739752098,3.289766815313022,319.8086019245996,-107.6699549904693,123.62358093261719,4761.76025390625,True
1599385033.988694,0.0,10,0.5,0.5,-0.9856371519088745,-0.001,-0.02275,-0.001,0.7420544949987402,10,1,100,-1.7028145990394217,-10,-1,-100,18969.789176076418,0.14774660451005808,0.07099179504618071,0.9864740776583385,51.60081474061336,3.2553893693634772,316.95738130819393,-107.85209820042027,114.23056030273438,4761.76025390625,True
1599385034.0153096,0.0,10,0.5,0.5,-1.4757769233703613,-0.001,-0.02275,-0.001,0.7865835632313323,10,1,100,-1.61842554522339,-10,-1,-100,18969.789176076418,0.14774660451005808,0.07099179504618071,0.9864740776583385,51.60081474061336,3.2553893693634772,316.95738130819393,-107.85209820042027,114.23056030273438,4761.76025390625,True
1599385034.049463,0.0,10,0.5,0.5,-1.9612857917785642,-0.001,-0.02275,-0.001,0.6823357185560155,10,1,100,-1.9361144613325463,-10,-1,-100,18963.296189566492,0.1506224410323194,0.07005451062726505,0.9861061027081417,50.44736803607539,3.184893594081961,311.51963628006547,-108.39860277219253,85.97117614746094,4761.76025390625,True
1599385034.0824056,0.0,10,0.5,0.5,-2.4672827136993405,-0.001,-0.02275,-0.001,0.7748238734110964,10,1,100,-1.6501652914190532,-10,-1,-100,18963.296189566492,0.1506224410323194,0.07005451062726505,0.9861061027081417,50.44736803607539,3.184893594081961,311.51963628006547,-108.39860277219253,85.97117614746094,4761.76025390625,True
1599385034.1184106,0.0,10,0.5,0.5,-2.909708136749267,-0.001,-0.02275,-0.001,0.6761383921751785,10,1,100,-2.2030762961841694,-10,-1,-100,18954.587877503945,0.15563671822275896,0.0691665538911427,0.9853898719611812,52.855460429277784,3.33980731862312,328.68998393144295,-109.12704389711534,47.47315979003906,4761.76025390625,True
1599385034.1494098,0.0,10,0.5,0.5,-3.401128952026367,-0.001,-0.02275,-0.001,0.7639474587111265,10,1,100,-1.7033580444806444,-10,-1,-100,18954.587877503945,0.15563671822275896,0.0691665538911427,0.9853898719611812,52.855460429277784,3.33980731862312,328.68998393144295,-109.12704389711534,47.47315979003906,4761.76025390625,True
1599385034.183337,0.0,10,0.5,0.5,-3.857317434310913,-0.001,-0.02275,-0.001,0.6995899461007771,10,1,100,-2.0448148227872105,-10,-1,-100,18950.211869753897,0.1587273871466051,0.06858845774872413,0.9849371756783591,52.70213788617831,3.331466838365887,328.8845641927911,-109.4912348865067,27.79656982421875,4761.76025390625,True
1599385034.2164283,0.0,10,0.5,0.5,-4.289097542572021,-0.001,-0.02275,-0.001,0.5939453523455989,10,1,100,-2.3069935032882176,-10,-1,-100,18943.620541641372,0.16390516194999702,0.06710909268637819,0.9841907678722435,51.181188926154434,3.237457218622232,321.0664909158529,-110.03759117647256,-2.2696533203125,4761.76025390625,True
1599385034.2524261,0.0,10,0.5,0.5,-3.9254984405517575,-0.001,-0.02275,-0.001,0.7411039255712975,10,1,100,-1.7913314703373984,-10,-1,-100,18943.620541641372,0.16390516194999702,0.06710909268637819,0.9841907678722435,51.181188926154434,3.237457218622232,321.0664909158529,-110.03759117647256,-2.2696533203125,4761.76025390625,True
1599385034.283507,0.0,10,0.5,0.5,-3.5348348300933834,-0.001,-0.02275,-0.001,0.4688734505786437,10,1,100,-2.399777647729154,-10,-1,-100,18936.996429104125,0.16941955022856825,0.06463922100752614,0.9834219781497104,51.64353814121229,3.2688786858986196,325.65375728588555,-110.58398844902763,-33.0047607421875,4761.76025390625,True
1599385034.316345,0.0,10,0.5,0.5,-3.1675109680175777,-0.001,-0.02275,-0.001,0.46194086097227005,10,1,100,-2.2532516140116696,-10,-1,-100,18932.562144484953,0.17308008870898137,0.06233705275817333,0.9829330469294011,52.91541518650039,3.350701728466544,334.8259932015125,-110.94814828971451,-53.8695068359375,4761.76025390625,True
1599385034.3492968,0.0,10,0.5,0.5,-2.805948061370849,-0.001,-0.02275,-0.001,0.6912922116787509,10,1,100,-1.88973111439025,-10,-1,-100,18932.562144484953,0.17308008870898137,0.06233705275817333,0.9829330469294011,52.91541518650039,3.350701728466544,334.8259932015125,-110.94814828971451,-53.8695068359375,4761.76025390625,True
1599385034.3868515,0.0,10,0.5,0.5,-2.4024342269897465,-0.001,-0.02275,-0.001,0.5494438477645107,10,1,100,-2.081171728695116,-10,-1,-100,18930.33954018948,0.17479742748975385,0.06105539012466933,0.9827095698525015,53.21734949479153,3.370448769267015,337.316102322955,-111.13021257688112,-64.41259765625,4761.76025390625,True
1599385034.4167578,0.0,10,0.5,0.5,-1.985025832748413,-0.001,-0.02275,-0.001,0.001007717389171603,10,1,100,-2.57998133758075,-10,-1,-100,18921.41270978097,0.18087130011081876,0.054912640291255886,0.981972593676863,52.48382470495428,3.3265517782569662,334.9548595605802,-111.85848532362036,-107.32679748535156,4761.76025390625,True
1599385034.4507017,0.0,10,0.5,0.5,-1.5881871425628662,-0.001,-0.02275,-0.001,0.6137685136969153,10,1,100,-1.9756189613821096,-10,-1,-100,18921.41270978097,0.18087130011081876,0.054912640291255886,0.981972593676863,52.48382470495428,3.3265517782569662,334.9548595605802,-111.85848532362036,-107.32679748535156,4761.76025390625,True
1599385034.4836144,0.0,10,0.5,0.5,-1.2141964237213134,-0.001,-0.02275,-0.001,0.4296612366193254,10,1,100,-2.1147007772137507,-10,-1,-100,18919.171898091095,0.18211273972575362,0.05325189587564133,0.9818346019647248,51.799039168119684,3.28380408129862,331.14904444476815,-112.04058052487292,-118.2372055053711,4761.76025390625,True
1599385034.519484,0.0,10,0.5,0.5,-0.8040478033065797,-0.001,-0.02275,-0.001,0.2313794565742039,10,1,100,-2.238300116922475,-10,-1,-100,18914.679347883677,0.18434088244440736,0.049954034459231994,0.981592091197185,51.04177025931362,3.237000125415417,327.41983287859796,-112.40480434169514,-140.27117919921875,4761.76025390625,True
1599385034.5504005,0.0,10,0.5,0.5,-0.3990870840072632,-0.001,-0.02275,-0.001,0.19089784394866577,10,1,100,-2.202080482563894,-10,-1,-100,18910.17223092995,0.18601391233510747,0.04660490435070906,0.9814411889197683,52.57430606514802,3.3352422127947667,338.39597391287475,-112.76895323391487,-162.59146118164062,4761.76025390625,True
1599385034.5834668,0.0,10,0.5,0.5,-0.7086938077926637,-0.001,-0.02275,-0.001,0.026251403746153312,10,1,100,-2.2667290205420167,-10,-1,-100,18903.38424752571,0.18810246371701314,0.04208209496687962,0.9812474511695755,53.256676479171084,3.379995032720574,344.5301762898121,-113.31510008204091,163.41781616210938,4761.76025390625,True
1599385034.6166625,0.0,10,0.5,0.5,-0.7137434576034545,-0.001,-0.02275,-0.001,0.1762328194295003,10,1,100,-2.1950257844021723,-10,-1,-100,18898.840719945612,0.1893273016431406,0.039356669303901005,0.9811249795178137,52.53542503752581,3.3352466358062918,341.0106846901831,-113.67921622265962,140.477783203125,4761.76025390625,True
1599385034.6525695,0.0,10,0.5,0.5,-1.1313562780380249,-0.001,-0.02275,-0.001,0.4462471305569991,10,1,100,-2.0745327669308837,-10,-1,-100,18898.840719945612,0.1893273016431406,0.039356669303901005,0.9811249795178137,52.53542503752581,3.3352466358062918,341.0106846901831,-113.67921622265962,140.477783203125,4761.76025390625,True
1599385034.6833856,0.0,10,0.5,0.5,-1.504014917564392,-0.001,-0.02275,-0.001,0.03242018771947319,10,1,100,-2.2921844580292756,-10,-1,-100,18891.998116177856,0.1912911831868222,0.035615497444881926,0.9808869555543794,51.703225921514196,3.283827018742332,337.3007288590319,-114.225477654444,105.737060546875,4761.76025390625,True
1599385034.71639,0.0,10,0.5,0.5,-1.9018605810165408,-0.001,-0.02275,-0.001,0.403865218090052,10,1,100,-2.0976174131088996,-10,-1,-100,18891.998116177856,0.1912911831868222,0.035615497444881926,0.9808869555543794,51.703225921514196,3.283827018742332,337.3007288590319,-114.225477654444,105.737060546875,4761.76025390625,True
1599385034.750301,0.0,10,0.5,0.5,-2.2420680578231815,-0.001,-0.02275,-0.001,0.1563597956495991,10,1,100,-2.2673749282793896,-10,-1,-100,18887.418174454127,0.19281943900137477,0.03338857532513216,0.980666032337693,53.50984980564778,3.3993713201574813,350.25446724543,-114.58955643810017,82.29556274414062,4761.76025390625,True
1599385034.786203,0.0,10,0.5,0.5,-2.6732465250015256,-0.001,-0.02275,-0.001,0.24179546497116827,10,1,100,-2.2089577065920563,-10,-1,-100,18885.122742908075,0.19366683487300085,0.032160355905524934,0.9805400902453217,54.07020858838405,3.4353730350521663,354.5127077370536,-114.77156939921655,70.46861267089844,4761.76025390625,True
1599385034.8172526,0.0,10,0.5,0.5,-3.0418303110122684,-0.001,-0.02275,-0.001,0.0950797649311021,10,1,100,-2.3287017658121294,-10,-1,-100,18880.52095980069,0.19551414480851415,0.029730697600413882,0.9802501235909068,54.377954087280074,3.4558186395175388,357.7182817583691,-115.13557566110286,46.60475158691406,4761.76025390625,True
1599385034.8514187,0.0,10,0.5,0.5,-3.368030272674561,-0.001,-0.02275,-0.001,-0.12193846649212592,10,1,100,-2.4790677604344946,-10,-1,-100,18873.590982948663,0.19854829796910886,0.025570407217624696,0.9797574840991492,52.6764673534887,3.3490151971297117,348.2503459077497,-115.68164153596155,10.26507568359375,4761.76025390625,True
1599385034.8832967,0.0,10,0.5,0.5,-3.697655846405029,-0.001,-0.02275,-0.001,-0.06162803387082144,10,1,100,-2.400002932053577,-10,-1,-100,18868.952797179576,0.20057493202480053,0.022358768645502392,0.9794231884675303,54.86535838292484,3.4888484905974972,363.9188268317446,-116.04562788377191,-14.32696533203125,4761.76025390625,True
1599385034.9193532,0.0,10,0.5,0.5,-4.009783502197266,-0.001,-0.02275,-0.001,-0.12975779504832993,10,1,100,-2.393302307525599,-10,-1,-100,18864.300055266474,0.20234317456182072,0.018841777692600408,0.9791334061922448,56.42154591250334,3.5884300163131324,375.4733816146425,-116.40951078772042,-39.21002197265625,4761.76025390625,True
1599385034.9512675,0.0,10,0.5,0.5,-3.5233405097961423,-0.001,-0.02275,-0.001,-0.20076522628317517,10,1,100,-2.3833852157479556,-10,-1,-100,18859.632759211934,0.20384756629672884,0.01502011864898572,0.9788874121933896,56.57942232597558,3.5992164363333505,377.7603036621844,-116.77335863452092,-64.38388061523438,4761.76025390625,True
1599385034.9833195,0.0,10,0.5,0.5,-3.0824540832519527,-0.001,-0.02275,-0.001,0.1789670230128021,10,1,100,-2.2343980687225016,-10,-1,-100,18859.632759211934,0.20384756629672884,0.01502011864898572,0.9788874121933896,56.57942232597558,3.5992164363333505,377.7603036621844,-116.77335863452092,-64.38388061523438,4761.76025390625,True
1599385035.0174367,0.0,10,0.5,0.5,-2.5910055534362795,-0.001,-0.02275,-0.001,-0.039859648578382506,10,1,100,-2.300211953211881,-10,-1,-100,18857.293653264293,0.2044326740969472,0.013052909407843056,0.978793595870734,56.078520361540214,3.5677377317627847,375.028321561344,-116.95529309151252,-77.0780029296875,4761.76025390625,True
1599385035.052518,0.0,10,0.5,0.5,-2.1365953483581546,-0.001,-0.02275,-0.001,-0.28122530097423204,10,1,100,-2.336032958030638,-10,-1,-100,18852.60452355747,0.20527828896739794,0.009090815610512037,0.9786614231439559,54.415946120880086,3.4625279147517394,365.0975215162629,-117.31922400463372,-102.67803192138672,4761.76025390625,True
1599385035.083477,0.0,10,0.5,0.5,-1.6622367567062375,-0.001,-0.02275,-0.001,-0.1123172837120001,10,1,100,-2.278840611779883,-10,-1,-100,18850.254500488867,0.20551438378754577,0.007048552935171737,0.9786287120036614,56.03163273965246,3.5654955704327604,376.54947945713405,-117.50115359433838,-115.58517456054688,4761.76025390625,True
1599385035.1172976,0.0,10,0.5,0.5,-1.1729277769088744,-0.001,-0.02275,-0.001,-0.3377261694382586,10,1,100,-2.2730123350688256,-10,-1,-100,18845.5435408958,0.2056644902495922,0.003166724289523624,0.9786174376678812,58.19328437572673,3.7033373302827615,392.3482518010731,-117.86491770790614,-141.60389709472656,4761.76025390625,True
1599385035.151207,0.0,10,0.5,0.5,-1.3574043607711792,-0.001,-0.02275,-0.001,-0.5381529526288235,10,1,100,-2.2394391017991175,-10,-1,-100,18838.449822961702,0.20548483249865837,-0.0021579146613288852,0.9786579213480636,58.08895164698114,3.6973783344069546,393.54949656091173,-118.41049116378325,178.85751342773438,4761.76025390625,True
1599385035.1886978,0.0,10,0.5,0.5,-1.2844206140518188,-0.001,-0.02275,-0.001,-0.3620010330404229,10,1,100,-2.228301061755245,-10,-1,-100,18833.702489309362,0.20521118809951044,-0.005368124791062304,0.9787029945366547,56.09544356547531,3.570701443613147,381.26878291173034,-118.77429759607827,152.15882873535156,4761.76025390625,True
1599385035.2186167,0.0,10,0.5,0.5,-1.5799788259506224,-0.001,-0.02275,-0.001,-0.38338378543947593,10,1,100,-2.241313200260174,-10,-1,-100,18828.94060587138,0.20507465545930223,-0.008452760356257997,0.9787098326524609,59.172115126773875,3.766458698200353,403.4744016755498,-119.1379968076709,125.1844482421875,4761.76025390625,True
1599385035.2525234,0.0,10,0.5,0.5,-1.8971622289657593,-0.001,-0.02275,-0.001,-0.23968229558196033,10,1,100,-2.2490833107804646,-10,-1,-100,18826.55420972267,0.2050170815879933,-0.00992258684500234,0.9787080966904511,59.95183665039745,3.8160999458752887,409.4473484938312,-119.31980658682627,111.5947265625,4761.76025390625,True
1599385035.2871149,0.0,10,0.5,0.5,-2.2538327535629272,-0.001,-0.02275,-0.001,-0.09557608316128637,10,1,100,-2.2551080886139734,-10,-1,-100,18826.55420972267,0.2050170815879933,-0.00992258684500234,0.9787080966904511,59.95183665039745,3.8160999458752887,409.4473484938312,-119.31980658682627,111.5947265625,4761.76025390625,True
1599385035.3220186,0.0,10,0.5,0.5,-2.5718056364059447,-0.001,-0.02275,-0.001,-0.5895410146135743,10,1,100,-2.2718476918700703,-10,-1,-100,18819.373204151285,0.20516819660369304,-0.014390501944119513,0.9786209299602091,58.79325974054149,3.7426012344362247,403.46418334731203,-119.86524591686418,70.40550231933594,4761.76025390625,True
1599385035.3519409,0.0,10,0.5,0.5,-2.8918982751846314,-0.001,-0.02275,-0.001,-0.31753374548324226,10,1,100,-2.271127643969517,-10,-1,-100,18816.97226159484,0.20529782742768143,-0.01595271265977474,0.978569523852173,57.227349615538316,3.642855812152949,393.3438039084127,-120.0471205983787,56.53428649902344,4761.76025390625,True
1599385035.3853586,0.0,10,0.5,0.5,-3.125650749015808,-0.001,-0.02275,-0.001,-0.7255711641817499,10,1,100,-2.3002838670938046,-10,-1,-100,18809.7476186048,0.20567994370213646,-0.021055966551204452,0.9783927672623508,61.93923584010172,3.9422618142294357,427.7647965894573,-120.59246275116271,14.490936279296875,4761.76025390625,True
1599385035.4182715,0.0,10,0.5,0.5,-3.377481224060058,-0.001,-0.02275,-0.001,-0.6295160956657488,10,1,100,-2.264579231954342,-10,-1,-100,18804.913016427075,0.20570236940061434,-0.02479465420948444,0.9783004448254152,62.20099751335867,3.9588322382817243,430.93420715884855,-120.95590960977499,-13.89520263671875,4761.76025390625,True
1599385035.4551716,0.0,10,0.5,0.5,-3.6086132942199707,-0.001,-0.02275,-0.001,-0.47314715315505396,10,1,100,-2.2446851698542836,-10,-1,-100,18802.490263316315,0.20554173039321819,-0.026742976960419333,0.9782828886627098,61.22652490753186,3.8966824683714543,424.85208613701775,-121.13765575183487,-28.194580078125,4761.76025390625,True
1599385035.6576643,0.0,10,0.5,0.5,-3.8521803424835204,-0.001,-0.02275,-0.001,-0.49789476305608904,10,1,100,-2.2325059542096017,-10,-1,-100,18800.0638742788,0.205285086389594,-0.02871196709559688,0.9782809699935485,59.611689290690265,3.7936029364508097,414.29820495493306,-121.31944774133676,-42.5638427734375,4761.76025390625,True
1599385035.6845894,0.0,10,0.5,0.5,-3.3049183147430417,-0.001,-0.02275,-0.001,-0.7472236738117122,10,1,100,-2.1697330287203873,-10,-1,-100,18795.200192929246,0.20448129228740558,-0.032744444541323706,0.9783226474206517,63.42098504908177,4.03505110849792,442.1616934884746,-121.6828747237879,-71.5126953125,4761.76025390625,True
