Timestamp,Input Throttle,horizon,dT,dt,Input Roll,Roll P,Roll I,Roll D,Input Pitch,Pitch P,Pitch I,Pitch D,Input Yaw,Yaw P,Yaw I,Yaw D,Altitude,Direction X,Direction Y,Direction Z,Drag X,Drag Y,Drag Z,Vertical Velocity,Roll,Mass,Has Fuel
1599387039.418741,0.0,10,0.5,0.5,-8.42537410736084,-0.15025,-0.001,-0.12575,-0.00016711511485945313,10,1,100,0.498035685223724,-10,-1,-100,19351.094167672447,-0.04884199252705476,-0.00017505052256988117,0.9988065023433226,60.98658656415644,3.6806850535762132,232.75428566607462,-68.48187347276226,-33.9224853515625,4761.76025390625,True
1599387039.4516516,0.0,10,0.5,0.5,-8.430605767822266,-0.15025,-0.001,-0.12575,0.0001310275496223302,10,1,100,0.5046867769072052,-10,-1,-100,19348.343945098808,-0.04894547118509069,-0.0001577865423191709,0.9988014397035462,61.166189471761356,3.6928695799454005,234.7308108502183,-68.8467901370457,-33.924835205078125,4761.76025390625,True
1599387039.485611,0.0,10,0.5,0.5,-8.42392503814697,-0.15025,-0.001,-0.12575,0.011045288022225175,10,1,100,0.504264579970305,-10,-1,-100,19345.579126123223,-0.04899120865552872,-4.2728022756390984e-05,0.99879920887473,61.346876856069926,3.7051345026102482,236.71980697519092,-69.21169318997367,-33.970428466796875,4761.76025390625,True
1599387039.5205724,0.0,10,0.5,0.5,-8.435261347961426,-0.15025,-0.001,-0.12575,-0.0004648367363284541,10,1,100,0.5045899537920546,-10,-1,-100,19345.579126123223,-0.04899120865552872,-4.2728022756390984e-05,0.99879920887473,61.346876856069926,3.7051345026102482,236.71980697519092,-69.21169318997367,-33.970428466796875,4761.76025390625,True
1599387039.5517168,0.0,10,0.5,0.5,-8.294837327575683,-0.15025,-0.001,-0.12575,0.03918768498969821,10,1,100,0.5042228951853103,-10,-1,-100,19341.404530892964,-0.04894333429668966,0.00031778829113726637,0.9988015063257187,61.63735116148159,3.7247155274990376,239.79453426284417,-69.75902044867215,-34.49951171875,4761.76025390625,True
1599387039.5846286,0.0,10,0.5,0.5,-8.366919595336913,-0.15025,-0.001,-0.12575,0.003167832429446207,10,1,100,0.5139046644988858,-10,-1,-100,19341.404530892964,-0.04894333429668966,0.00031778829113726637,0.9988015063257187,61.63735116148159,3.7247155274990376,239.79453426284417,-69.75902044867215,-34.49951171875,4761.76025390625,True
1599387039.6176798,0.0,10,0.5,0.5,-8.047069619750976,-0.15025,-0.001,-0.12575,0.07308010730360213,10,1,100,0.49290361780978165,-10,-1,-100,19337.197097449796,-0.048707921750155356,0.0009530655279103773,0.9988126100650112,61.95491359295642,3.7458862375400463,242.99530060474464,-70.30631078860117,-35.678497314453125,4761.76025390625,True
1599387039.6536093,0.0,10,0.5,0.5,-8.200759208679198,-0.15025,-0.001,-0.12575,0.009647690179082081,10,1,100,0.5213156646382273,-10,-1,-100,19337.197097449796,-0.048707921750155356,0.0009530655279103773,0.9988126100650112,61.95491359295642,3.7458862375400463,242.99530060474464,-70.30631078860117,-35.678497314453125,4761.76025390625,True
1599387039.6865242,0.0,10,0.5,0.5,-7.488985548400879,-0.15025,-0.001,-0.12575,0.1569821041594744,10,1,100,0.44874296712575246,-10,-1,-100,19331.536109071458,-0.048003890025723625,0.002291602868161298,0.9988445199823108,62.38398187763787,3.774239115028012,247.31859684024232,-71.03596776300336,-38.277069091796875,4761.76025390625,True
1599387039.7194762,0.0,10,0.5,0.5,-7.820928242492675,-0.15025,-0.001,-0.12575,0.023357530421198456,10,1,100,0.5239465285714979,-10,-1,-100,19331.536109071458,-0.048003890025723625,0.002291602868161298,0.9988445199823108,62.38398187763787,3.774239115028012,247.31859684024232,-71.03596776300336,-38.277069091796875,4761.76025390625,True
1599387039.7515326,0.0,10,0.5,0.5,-7.346056956481933,-0.15025,-0.001,-0.12575,0.12202092154683145,10,1,100,0.4714976328878704,-10,-1,-100,19328.683726002928,-0.04748344198312181,0.003186459512150542,0.9988669426971808,62.577343350746716,3.786977507223918,249.41019726794812,-71.40076841831704,-40.016357421875,4761.76025390625,True
1599387039.7874382,0.0,10,0.5,0.5,-7.29362950744629,-0.15025,-0.001,-0.12575,0.08342801910562418,10,1,100,0.48777983838706157,-10,-1,-100,19327.252062510815,-0.047159562494880014,0.003646065066280043,0.9988807145374387,62.662942529961576,3.792622978246399,250.4149592656358,-71.58316209280616,-40.996551513671875,4761.76025390625,True
1599387039.819346,0.0,10,0.5,0.5,-6.814495341491698,-0.15025,-0.001,-0.12575,0.1534083878290187,10,1,100,0.43962308874221295,-10,-1,-100,19324.377792677493,-0.04642896151669813,0.004696615420602631,0.9989105532208938,62.80081934664101,3.801770515988861,252.2964166500171,-71.94793726801994,-43.17657470703125,4761.76025390625,True
1599387039.848267,0.0,10,0.5,0.5,-6.033112667846678,-0.15025,-0.001,-0.12575,0.24097344652877173,10,1,100,0.3614444793709165,-10,-1,-100,19320.03903035121,-0.045056393494192666,0.006443398691399685,0.9989636650141986,62.88874795405352,3.8079176022534136,254.64916363612718,-72.49507509516916,-46.997589111328125,4761.76025390625,True
1599387039.880182,0.0,10,0.5,0.5,-5.707861228942871,-0.15025,-0.001,-0.12575,0.20658691545420715,10,1,100,0.3770300985950914,-10,-1,-100,19317.128284662962,-0.04395386893500868,0.007712882176251733,0.9990037882081225,62.836877997607886,3.805036018727942,255.7718332773545,-72.85982345250068,-49.9122314453125,4761.76025390625,True
1599387039.9101043,0.0,10,0.5,0.5,-6.0728362304687495,-0.15025,-0.001,-0.12575,0.08037807635751386,10,1,100,0.48678360797732173,-10,-1,-100,19317.128284662962,-0.04395386893500868,0.007712882176251733,0.9990037882081225,62.836877997607886,3.805036018727942,255.7718332773545,-72.85982345250068,-49.9122314453125,4761.76025390625,True
1599387039.9430134,0.0,10,0.5,0.5,-4.712208898925781,-0.15025,-0.001,-0.12575,0.294434753001089,10,1,100,0.2727374922086751,-10,-1,-100,19312.734809939517,-0.04201253103289524,0.009652129151297767,0.9990704597970339,62.53272892826076,3.7865391403891158,256.5247491774767,-73.4069460011405,-54.836456298828125,4761.76025390625,True
1599387039.9729261,0.0,10,0.5,0.5,-4.836036351013183,-0.15025,-0.001,-0.12575,0.17914173397834288,10,1,100,0.38587130200808073,-10,-1,-100,19311.263023218373,-0.041282254293438764,0.010359054352384298,0.999093822157547,62.35760778049514,3.775785386982586,256.468648644027,-73.5893241543443,-56.624420166015625,4761.76025390625,True
1599387040.007811,0.0,10,0.5,0.5,-5.058778215026855,-0.15025,-0.001,-0.12575,0.10938981275213708,10,1,100,0.4581564092080568,-10,-1,-100,19311.263023218373,-0.041282254293438764,0.010359054352384298,0.999093822157547,62.35760778049514,3.775785386982586,256.468648644027,-73.5893241543443,-56.624420166015625,4761.76025390625,True
1599387040.0487413,0.0,10,0.5,0.5,-2.879375242614746,-0.15025,-0.001,-0.12575,0.4086294640290996,10,1,100,0.0946589985129308,-10,-1,-100,19305.33939934161,-0.03798384295596697,0.013072080771734664,0.9991928484424785,61.1969269533928,3.7044079382462196,254.29797730836933,-74.31888729482793,-64.51416015625,4761.76025390625,True
1599387040.0836825,0.0,10,0.5,0.5,-3.8688863372802733,-0.15025,-0.001,-0.12575,0.13840486988442038,10,1,100,0.42349812755313465,-10,-1,-100,19305.33939934161,-0.03798384295596697,0.013072080771734664,0.9991928484424785,61.1969269533928,3.7044079382462196,254.29797730836933,-74.31888729482793,-64.51416015625,4761.76025390625,True
1599387040.1125731,0.0,10,0.5,0.5,-2.6559043304443355,-0.15025,-0.001,-0.12575,0.2928600215528263,10,1,100,0.21282309745218403,-10,-1,-100,19302.35569899797,-0.036077251408710286,0.014467231585756914,0.9992442800141699,60.290618306882095,3.6488121291264073,251.8164219267485,-74.68371761184514,-68.900146484375,4761.76025390625,True
1599387040.1455066,0.0,10,0.5,0.5,-1.2356585876464843,-0.15025,-0.001,-0.12575,0.35858607982513896,10,1,100,0.06819774279831342,-10,-1,-100,19297.85278268205,-0.033039285242610995,0.016323222704144096,0.9993207483241846,58.44655051131813,3.536180511740253,245.98532107979185,-75.23105391316744,-76.0341796875,4761.76025390625,True
1599387040.1774368,0.0,10,0.5,0.5,-2.1294775024414063,-0.15025,-0.001,-0.12575,0.17414962871477496,10,1,100,0.37065539178083373,-10,-1,-100,19297.85278268205,-0.033039285242610995,0.016323222704144096,0.9993207483241846,58.44655051131813,3.536180511740253,245.98532107979185,-75.23105391316744,-76.0341796875,4761.76025390625,True
1599387040.21131,0.0,10,0.5,0.5,0.025835336303710932,-0.15025,-0.001,-0.12575,0.3578952218270382,10,1,100,0.009719778718650318,-10,-1,-100,19293.317020874005,-0.02976897704045622,0.01798465552878945,0.999394997071466,55.94420303937429,3.3842503894827454,237.2482168034666,-75.77852740835547,-83.832763671875,4761.76025390625,True
1599387040.2452219,0.0,10,0.5,0.5,-0.951444546508789,-0.15025,-0.001,-0.12575,0.1927791166977567,10,1,100,0.3353321097446726,-10,-1,-100,19293.317020874005,-0.02976897704045622,0.01798465552878945,0.999394997071466,55.94420303937429,3.3842503894827454,237.2482168034666,-75.77852740835547,-83.832763671875,4761.76025390625,True
1599387040.2761717,0.0,10,0.5,0.5,0.5885788543701173,-0.15025,-0.001,-0.12575,0.3088920088012653,10,1,100,0.07038040087816277,-10,-1,-100,19290.27492775186,-0.027373220497937542,0.019030889299409947,0.9994441115200212,53.8752267376633,3.2592525167603767,229.62784337067808,-76.14359753823044,-89.4002685546875,4761.76025390625,True
1599387040.311043,0.0,10,0.5,0.5,0.6784915954589843,-0.15025,-0.001,-0.12575,0.2522784586998351,10,1,100,0.18304172606499916,-10,-1,-100,19288.748404361424,-0.02623276233419631,0.019458816126190024,0.9994664559930387,52.714082322680845,3.1892938288838817,225.24352848152782,-76.32616011982533,-92.25016021728516,4761.76025390625,True
1599387040.3439837,0.0,10,0.5,0.5,3.5072486522674557,-0.15025,-0.001,-0.12575,0.37524220462149416,10,1,100,-0.23769136513673106,-10,-1,-100,19282.605803474784,-0.021384817258015134,0.0209574202391199,0.9995516375494375,55.165360366542515,3.340266912881047,238.0816066795508,-77.05627149456423,-103.78482818603516,4761.76025390625,True
1599387040.3739095,0.0,10,0.5,0.5,2.842065858840942,-0.15025,-0.001,-0.12575,0.25915486355506256,10,1,100,0.10766022179311824,-10,-1,-100,19281.061028396594,-0.020135242921790353,0.021254813272191555,0.9995713105653067,55.969512418632576,3.3899006792532917,242.15135607170387,-77.23874249961584,-106.613037109375,4761.76025390625,True
1599387040.4078062,0.0,10,0.5,0.5,2.4906284744262694,-0.15025,-0.001,-0.12575,0.23023383349794257,10,1,100,0.23083279541217863,-10,-1,-100,19281.061028396594,-0.020135242921790353,0.021254813272191555,0.9995713105653067,55.969512418632576,3.3899006792532917,242.15135607170387,-77.23874249961584,-106.613037109375,4761.76025390625,True
1599387040.4421678,0.0,10,0.5,0.5,4.012975233459472,-0.15025,-0.001,-0.12575,0.28584650760732977,10,1,100,-0.03523043176938326,-10,-1,-100,19277.96053215384,-0.01773271231107995,0.02175294418909466,0.9996061025890141,57.37399448689692,3.477042567355837,249.45549819718215,-77.603617790452,-112.11353302001953,4761.76025390625,True
1599387040.4720786,0.0,10,0.5,0.5,4.768296284103394,-0.15025,-0.001,-0.12575,0.2776170623565332,10,1,100,-0.06887639486040686,-10,-1,-100,19274.84544325259,-0.015259398036059035,0.022124353963450843,0.9996387666218618,58.604163337785714,3.553751142696495,256.0569626819905,-77.96841078299167,-117.34066009521484,4761.76025390625,True
1599387040.5069902,0.0,10,0.5,0.5,6.128204600143432,-0.15025,-0.001,-0.12575,0.2762601359611321,10,1,100,-0.223734000602031,-10,-1,-100,19270.145455069258,-0.011619297631303939,0.02244438976267163,0.9996805696274867,59.90748751594157,3.635811313944995,263.670692201637,-78.51547233421729,-124.63446044921875,4761.76025390625,True
1599387040.5404432,0.0,10,0.5,0.5,5.2158692337036126,-0.15025,-0.001,-0.12575,0.2448686727449062,10,1,100,0.1381340411123479,-10,-1,-100,19270.145455069258,-0.011619297631303939,0.02244438976267163,0.9996805696274867,59.90748751594157,3.635811313944995,263.670692201637,-78.51547233421729,-124.63446044921875,4761.76025390625,True
1599387040.5713315,0.0,10,0.5,0.5,6.4603490615844725,-0.15025,-0.001,-0.12575,0.2572431760373312,10,1,100,-0.11948650331386418,-10,-1,-100,19266.993896457832,-0.009293792390528513,0.022552830943299237,0.9997024533527187,60.41690830958439,3.668425694039255,267.2022878330494,-78.88011796030705,-129.128662109375,4761.76025390625,True
1599387040.605276,0.0,10,0.5,0.5,6.4893366134643555,-0.15025,-0.001,-0.12575,0.2511593178060296,10,1,100,-0.012153366653483363,-10,-1,-100,19265.412647727528,-0.008174066309145158,0.022591953145935675,0.9997113524878195,60.5810876550869,3.6791240664899854,268.57476801683083,-79.06242783297293,-131.26490783691406,4761.76025390625,True
1599387040.6351976,0.0,10,0.5,0.5,7.343246927642822,-0.15025,-0.001,-0.12575,0.24433931541344517,10,1,100,-0.14853875170077493,-10,-1,-100,19262.23921250773,-0.005933720147629269,0.022562281432175736,0.9997278301726851,60.757348197061056,3.69104108569508,270.65267655622733,-79.42702979492904,-135.31692504882812,4761.76025390625,True
1599387040.6691031,0.0,10,0.5,0.5,7.366563220977784,-0.15025,-0.001,-0.12575,0.2453568064729319,10,1,100,-0.04334291676620164,-10,-1,-100,19260.647025807993,-0.004871821265826006,0.022541735733565684,0.9997340323844498,60.77796180773364,3.6927773676438287,271.3930412606142,-79.60932488428378,-137.23196411132812,4761.76025390625,True
1599387040.7030063,0.0,10,0.5,0.5,8.1251529296875,-0.15025,-0.001,-0.12575,0.23693481414618184,10,1,100,-0.16605200887848356,-10,-1,-100,19257.451714967494,-0.0028059332595224674,0.022445053972318413,0.9997441404132973,60.707817520706364,3.6892539948086935,272.3757256669116,-79.9739090228285,-140.84088134765625,4761.76025390625,True
1599387040.732901,0.0,10,0.5,0.5,8.589198097229005,-0.15025,-0.001,-0.12575,0.2339392124558014,10,1,100,-0.17588999205355615,-10,-1,-100,19254.241820685216,-0.0008541709609842884,0.022328846682453683,0.9997503153276828,60.519035652537276,3.6782476735552883,272.8212088374967,-80.33849186689618,-144.15408325195312,4761.76025390625,True
1599387040.7678397,0.0,10,0.5,0.5,8.603060836791991,-0.15025,-0.001,-0.12575,0.23525695778291286,10,1,100,-0.08749211377010377,-10,-1,-100,19252.6314049731,9.901307878193807e-05,0.022234206800631977,0.9997527845644427,60.390974823001315,3.670610196441042,272.8890665114102,-80.5207845905272,-145.70025634765625,4761.76025390625,True
1599387040.8007517,0.0,10,0.5,0.5,9.204203757476806,-0.15025,-0.001,-0.12575,0.22466138247837492,10,1,100,-0.19306119620691614,-10,-1,-100,19249.399635648937,0.0019090522958223818,0.022051409621105956,0.9997550154178041,60.08514739668633,3.6521695966354946,272.79154425756366,-80.8853752701882,-148.5706024169922,4761.76025390625,True
1599387040.8336663,0.0,10,0.5,0.5,9.556932491302492,-0.15025,-0.001,-0.12575,0.22306835463056376,10,1,100,-0.20034023517064886,-10,-1,-100,19246.15328245447,0.0036051078925004635,0.02187081460868615,0.9997543051497383,59.73716491446772,3.6310146996969035,272.4895655730636,-81.24997510651185,-151.1450653076172,4761.76025390625,True
1599387040.8675756,0.0,10,0.5,0.5,9.56061315383911,-0.15025,-0.001,-0.12575,0.2285612077245549,10,1,100,-0.12224861457464051,-10,-1,-100,19244.524637058494,0.004423212424495185,0.021757093784753503,0.9997535016502263,59.55586019131126,3.6199501013339166,272.29990290216506,-81.43227890738098,-152.32176208496094,4761.76025390625,True
1599387040.901449,0.0,10,0.5,0.5,10.510075533294676,-0.15025,-0.001,-0.12575,0.19867378159594262,10,1,100,-0.3684581258958607,-10,-1,-100,19237.973592478666,0.007390628001905298,0.021382632158170913,0.9997440480741688,58.83967254287795,3.57606635865366,271.5464067913323,-82.16151916941153,-156.28793334960938,4761.76025390625,True
1599387040.9324007,0.0,10,0.5,0.5,10.23674561920166,-0.15025,-0.001,-0.12575,0.22490600594591434,10,1,100,-0.14809617705005643,-10,-1,-100,19236.32671564119,0.008069820427868604,0.0212817510815366,0.9997409489808676,58.67521700785599,3.5659571152458476,271.416487145596,-82.34383472079077,-157.09481811523438,4761.76025390625,True
1599387040.9673078,0.0,10,0.5,0.5,10.137862850952148,-0.15025,-0.001,-0.12575,0.23486309340290584,10,1,100,-0.08180132312742723,-10,-1,-100,19236.32671564119,0.008069820427868604,0.0212817510815366,0.9997409489808676,58.67521700785599,3.5659571152458476,271.416487145596,-82.34383472079077,-157.09481811523438,4761.76025390625,True
1599387041.0002217,0.0,10,0.5,0.5,10.52391631164551,-0.15025,-0.001,-0.12575,0.22107379615424633,10,1,100,-0.22162079182568614,-10,-1,-100,19233.022022853373,0.009328176015511414,0.021157557952322093,0.9997326356950232,58.3760023528895,3.5475323401948597,271.2846910665153,-82.70847068189963,-158.4856719970703,4761.76025390625,True
1599387041.0323958,0.0,10,0.5,0.5,10.653568503570556,-0.15025,-0.001,-0.12575,0.21711358495779934,10,1,100,-0.22517122115509383,-10,-1,-100,19229.70274473075,0.010491503182471005,0.021009911531051428,0.9997242179613485,58.12892535208451,3.532272480939172,271.3842370043287,-83.0731108869501,-159.5814208984375,4761.76025390625,True
1599387041.0653071,0.0,10,0.5,0.5,10.638271578979491,-0.15025,-0.001,-0.12575,0.2239454735678012,10,1,100,-0.16981475084223363,-10,-1,-100,19228.037635932444,0.011033744116461,0.02093910026493381,0.9997198660479182,58.02734125494336,3.5259783726492504,271.5330340934411,-83.2554316609014,-160.01844787597656,4761.76025390625,True
1599387041.1002548,0.0,10,0.5,0.5,10.764750811004639,-0.15025,-0.001,-0.12575,0.2214191532330512,10,1,100,-0.2262491476914116,-10,-1,-100,19224.69647927326,0.012028923195919482,0.020853023243981448,0.9997101862181523,57.871068763989335,3.5162460003655585,272.0450293634407,-83.62007225206514,-160.67007446289062,4761.76025390625,True
1599387041.1311316,0.0,10,0.5,0.5,10.782457238769531,-0.15025,-0.001,-0.12575,0.2253112276674979,10,1,100,-0.22546228465764798,-10,-1,-100,19221.340736978455,0.012915632776831944,0.02081140952302577,0.999699990829068,57.783739052019925,3.5107121264866104,272.8764941944461,-83.98470894668193,-161.02569580078125,4761.76025390625,True
1599387041.165041,0.0,10,0.5,0.5,10.757509426879883,-0.15025,-0.001,-0.12575,0.22679117973722585,10,1,100,-0.18254240671720448,-10,-1,-100,19219.657396318973,0.013321545705038323,0.020788160250152756,0.9996951479393317,57.76764493144708,3.5096239756940197,273.4215254236401,-84.16702469224353,-161.0928192138672,4761.76025390625,True
1599387041.1949604,0.0,10,0.5,0.5,10.725805620574953,-0.15025,-0.001,-0.12575,0.22921013274398133,10,1,100,-0.22272077743878482,-10,-1,-100,19216.279776599375,0.014046982248319819,0.02078999926065555,0.999685179554272,57.79049131373181,3.5107980509229755,274.7726013257454,-84.53164870637579,-161.0049285888672,4761.76025390625,True
1599387041.2298677,0.0,10,0.5,0.5,10.548249925994872,-0.15025,-0.001,-0.12575,0.23829434985665535,10,1,100,-0.24783324645400825,-10,-1,-100,19211.186000581714,0.014926016306147006,0.02087513405715885,0.9996706671776082,57.96292568701191,3.5209679480124336,277.4632905639093,-85.07855880822905,-160.31842041015625,4761.76025390625,True
1599387041.2637763,0.0,10,0.5,0.5,10.634981378173828,-0.15025,-0.001,-0.12575,0.229730120396224,10,1,100,-0.16068337950171377,-10,-1,-100,19211.186000581714,0.014926016306147006,0.02087513405715885,0.9996706671776082,57.96292568701191,3.5209679480124336,277.4632905639093,-85.07855880822905,-160.31842041015625,4761.76025390625,True
1599387041.2936962,0.0,10,0.5,0.5,10.40694338684082,-0.15025,-0.001,-0.12575,0.24271979552250766,10,1,100,-0.20998169655631332,-10,-1,-100,19207.771920286003,0.015367949919481294,0.020993591664692682,0.9996614903177419,58.16595572800847,3.5331089298803886,279.68724833657774,-85.4431431395139,-159.49102783203125,4761.76025390625,True
1599387041.3266084,0.0,10,0.5,0.5,10.36643038330078,-0.15025,-0.001,-0.12575,0.23964050871316733,10,1,100,-0.18571082642968093,-10,-1,-100,19206.059411781724,0.015542428812732522,0.02107354884547202,0.9996571104362029,58.29213527506128,3.540681982900741,280.9214935895387,-85.62542730095511,-158.96640014648438,4761.76025390625,True
1599387041.3615158,0.0,10,0.5,0.5,10.081764962768554,-0.15025,-0.001,-0.12575,0.25073162621103845,10,1,100,-0.19875071599824337,-10,-1,-100,19202.623457915266,0.015813941118314006,0.02124714190444011,0.9996491775754127,58.589927434381416,3.5586006032490127,283.6182795626121,-85.98997750865104,-157.69580078125,4761.76025390625,True
1599387041.3924327,0.0,10,0.5,0.5,9.809110374450684,-0.15025,-0.001,-0.12575,0.257756496733974,10,1,100,-0.18810872227285586,-10,-1,-100,19199.17292282323,0.015959186509579247,0.02146860057155289,0.9996421377450291,58.93918127165428,3.5796712652519163,286.5783582303847,-86.35450133242179,-156.12969970703125,4761.76025390625,True
1599387041.4253337,0.0,10,0.5,0.5,9.759003924560547,-0.15025,-0.001,-0.12575,0.24872426065010217,10,1,100,-0.17753480780034187,-10,-1,-100,19197.442187562003,0.015990623604258323,0.02158733403152329,0.9996390783508607,59.12973825531611,3.5911886696701387,288.14174537068874,-86.53675259347844,-155.23602294921875,4761.76025390625,True
1599387041.4592435,0.0,10,0.5,0.5,9.00873624572754,-0.15025,-0.001,-0.12575,0.2806889854236052,10,1,100,-0.16448728092320514,-10,-1,-100,19192.228113391786,0.015896987354712296,0.021985194392357736,0.9996319007617626,59.743826016851365,3.6284071780588554,293.0648620751522,-87.08346074624018,-152.11245727539062,4761.76025390625,True
1599387041.4911575,0.0,10,0.5,0.5,8.724215153503417,-0.15025,-0.001,-0.12575,0.27260701862651876,10,1,100,-0.15067576826353768,-10,-1,-100,19188.733841779525,0.01568359396314813,0.022272346126897963,0.9996289148871208,60.168920410685594,3.654283500074597,296.44655011315035,-87.44789368643903,-149.6616668701172,4761.76025390625,True
1599387041.5250676,0.0,10,0.5,0.5,8.662569661712647,-0.15025,-0.001,-0.12575,0.2602908799033682,10,1,100,-0.15554413259238037,-10,-1,-100,19186.98123968579,0.015531710511753722,0.022420079000927032,0.9996279838150646,60.37925206953358,3.6671328735813615,298.1333867960373,-87.6300984684785,-148.32583618164062,4761.76025390625,True
1599387041.5549867,0.0,10,0.5,0.5,8.440306753540039,-0.15025,-0.001,-0.12575,0.26148907195136684,10,1,100,-0.1502272727893396,-10,-1,-100,19185.224993856624,0.015343949804764404,0.022563792377989562,0.9996276499166636,60.58459275592941,3.6797161335498076,299.800105514781,-87.81229551106979,-146.91650390625,4761.76025390625,True
1599387041.5878992,0.0,10,0.5,0.5,8.206919526672364,-0.15025,-0.001,-0.12575,0.26292425644613293,10,1,100,-0.1454123970079882,-10,-1,-100,19183.46510394418,0.01512910671539945,0.022705952890434436,0.9996277056151112,60.78226958885254,3.6918761173731482,301.4332985049351,-87.99448513308043,-145.4336395263672,4761.76025390625,True
1599387041.6228063,0.0,10,0.5,0.5,7.512475524139404,-0.15025,-0.001,-0.12575,0.28003611065443074,10,1,100,-0.10970367325431069,-10,-1,-100,19179.934393582633,0.014608985426934921,0.022989087650156777,0.9996289708655952,61.14240845546185,3.714205028805325,304.53728710664893,-88.35884341658607,-142.247314453125,4761.76025390625,True
1599387041.6547246,0.0,10,0.5,0.5,6.950931652832032,-0.15025,-0.001,-0.12575,0.28112673180425574,10,1,100,-0.09108227933177729,-10,-1,-100,19176.38910964527,0.013967552460391906,0.023254583536734166,0.9996319981987367,61.433847740229425,3.7325926563541234,307.3135623292384,-88.7231774918202,-138.76724243164062,4761.76025390625,True
1599387041.687637,0.0,10,0.5,0.5,5.7939590774536125,-0.15025,-0.001,-0.12575,0.2918033188526197,10,1,100,-0.025351469735609006,-10,-1,-100,19171.043859666213,0.012788310472980673,0.023591020557070318,0.9996398965949301,61.67975205447526,3.7490654941383195,310.5398886968612,-89.26964614515296,-132.99705505371094,4761.76025390625,True
1599387041.7215464,0.0,10,0.5,0.5,6.517090265655518,-0.15025,-0.001,-0.12575,0.2583940046842676,10,1,100,-0.14297310541219904,-10,-1,-100,19171.043859666213,0.012788310472980673,0.023591020557070318,0.9996398965949301,61.67975205447526,3.7490654941383195,310.5398886968612,-89.26964614515296,-132.99705505371094,4761.76025390625,True
1599387041.7572267,0.0,10,0.5,0.5,5.351989708709716,-0.15025,-0.001,-0.12575,0.27628559750448384,10,1,100,-0.04173439323593592,-10,-1,-100,19167.462144409074,0.01187084115868428,0.02375174192817636,0.9996474067817925,61.670548257243134,3.7498935763859587,311.825435469517,-89.6339494947624,-128.7840576171875,4761.76025390625,True
1599387042.0714707,0.0,10,0.5,0.5,3.9835303985595694,-0.15025,-0.001,-0.12575,0.2734488663696012,10,1,100,0.03781264244486039,-10,-1,-100,19162.062248526374,0.01031736853263084,0.023870096157140506,0.9996618280278639,61.31203559063743,3.7306965853692833,312.0016889251934,-90.18041847826372,-121.91594696044922,4761.76025390625,True
1599387042.1023858,0.0,10,0.5,0.5,3.4796442295074463,-0.15025,-0.001,-0.12575,0.25876966004901136,10,1,100,0.007417286647344146,-10,-1,-100,19158.444101302885,0.009186514487852482,0.0238425300334982,0.9996735175611918,60.79326994247022,3.701141690700593,310.67901162358186,-90.54475977927422,-116.97199249267578,4761.76025390625,True
1599387042.1343,0.0,10,0.5,0.5,4.0980775363922115,-0.15025,-0.001,-0.12575,0.2616832908039018,10,1,100,-0.10501840988296215,-10,-1,-100,19158.444101302885,0.009186514487852482,0.0238425300334982,0.9996735175611918,60.79326994247022,3.701141690700593,310.67901162358186,-90.54475977927422,-116.97199249267578,4761.76025390625,True
1599387042.1675751,0.0,10,0.5,0.5,1.8970895824432374,-0.15025,-0.001,-0.12575,0.23808694528532026,10,1,100,0.09219219633953074,-10,-1,-100,19152.989552387036,0.007399459154942457,0.02362672466420876,0.9996934659613695,59.558602669507785,3.6291313460091947,306.30937648700547,-91.09135063236225,-109.00875854492188,4761.76025390625,True
1599387042.2005563,0.0,10,0.5,0.5,2.894675476837158,-0.15025,-0.001,-0.12575,0.2597737754428864,10,1,100,-0.0857188878864896,-10,-1,-100,19152.989552387036,0.007399459154942457,0.02362672466420876,0.9996934659613695,59.558602669507785,3.6291313460091947,306.30937648700547,-91.09135063236225,-109.00875854492188,4761.76025390625,True
1599387042.2346144,0.0,10,0.5,0.5,1.325104857635498,-0.15025,-0.001,-0.12575,0.23153736427468152,10,1,100,0.055670235802794926,-10,-1,-100,19149.334964419948,0.006121130437367559,0.023369192951976193,0.9997081637072602,58.529469953146005,3.568423451907497,302.29066454970587,-91.45581166025003,-103.3351058959961,4761.76025390625,True
1599387042.2865205,0.0,10,0.5,0.5,0.3883196224212646,-0.15025,-0.001,-0.12575,0.21690893697885333,10,1,100,0.06481255409366474,-10,-1,-100,19145.665796243935,0.004883617668736623,0.023001741960619222,0.9997234968456241,57.267869744944655,3.4932153671532413,297.0237776563416,-91.82033749925485,-97.37004852294922,4761.76025390625,True
1599387042.329436,0.0,10,0.5,0.5,0.2809372959136963,-0.15025,-0.001,-0.12575,0.22945182858650587,10,1,100,0.015854209472675185,-10,-1,-100,19143.825743475812,0.004211940043619001,0.02278195174816074,0.9997315850945262,56.56144844157424,3.450819436627676,293.97740592792985,-92.00262588604697,-94.27820587158203,4761.76025390625,True
1599387042.3613203,0.0,10,0.5,0.5,-2.9231734920501706,-0.15025,-0.001,-0.12575,0.12768351951763357,10,1,100,0.233482266560333,-10,-1,-100,19136.42907530116,0.0016306838385600562,0.021657711535125926,0.9997641143796271,58.76743982477687,3.5868763727631876,308.0123465158077,-92.7317320807795,-81.27444458007812,4761.76025390625,True
1599387042.394779,0.0,10,0.5,0.5,-1.2931227706909179,-0.15025,-0.001,-0.12575,0.23991420991892054,10,1,100,-0.023527591282119387,-10,-1,-100,19136.42907530116,0.0016306838385600562,0.021657711535125926,0.9997641143796271,58.76743982477687,3.5868763727631876,308.0123465158077,-92.7317320807795,-81.27444458007812,4761.76025390625,True
1599387042.427695,0.0,10,0.5,0.5,-4.972047926330566,-0.15025,-0.001,-0.12575,0.08186063123306461,10,1,100,0.2474016697776497,-10,-1,-100,19128.974101195112,-0.0008230002098740952,0.020222764483793645,0.9997951602539831,63.01036688431025,3.8457559696684385,333.00454953613973,-93.46038157177826,-67.96221923828125,4761.76025390625,True
1599387042.4565802,0.0,10,0.5,0.5,-4.187240776824951,-0.15025,-0.001,-0.12575,0.1771027985743996,10,1,100,0.07099699149137666,-10,-1,-100,19127.101251432323,-0.0014398155706276553,0.01978742080538857,0.9998031730840792,63.83345617114602,3.8959227961806007,338.05143494466773,-93.64247712495269,-64.760009765625,4761.76025390625,True
1599387042.4894938,0.0,10,0.5,0.5,-3.7897841339111324,-0.15025,-0.001,-0.12575,0.22023165549209625,10,1,100,0.010378088421868659,-10,-1,-100,19127.101251432323,-0.0014398155706276553,0.01978742080538857,0.9998031730840792,63.83345617114602,3.8959227961806007,338.05143494466773,-93.64247712495269,-64.760009765625,4761.76025390625,True
1599387042.5204093,0.0,10,0.5,0.5,-6.325962729644775,-0.15025,-0.001,-0.12575,0.07753957095204583,10,1,100,0.19552205606504505,-10,-1,-100,19121.46085533593,-0.0031132822491488224,0.0184939064997773,0.9998241259821723,65.7005235598205,4.009993509322955,350.0899018121293,-94.18864035387179,-55.589874267578125,4761.76025390625,True
1599387042.5533211,0.0,10,0.5,0.5,-5.178160079193115,-0.15025,-0.001,-0.12575,0.2063777196967295,10,1,100,0.02922666235333747,-10,-1,-100,19121.46085533593,-0.0031132822491488224,0.0184939064997773,0.9998241259821723,65.7005235598205,4.009993509322955,350.0899018121293,-94.18864035387179,-55.589874267578125,4761.76025390625,True
1599387042.5852757,0.0,10,0.5,0.5,-6.768151992034912,-0.15025,-0.001,-0.12575,0.10085244636266599,10,1,100,0.1461428229532425,-10,-1,-100,19117.682388621848,-0.004166599398780603,0.017539252031435297,0.9998374938396879,66.48388123333339,4.058348682090771,355.71480043499247,-94.55267341006844,-49.848388671875,4761.76025390625,True
1599387042.6151936,0.0,10,0.5,0.5,-7.554330871582032,-0.15025,-0.001,-0.12575,0.09738497819626062,10,1,100,0.1485625475440978,-10,-1,-100,19113.889361553127,-0.005136805458511681,0.016645161841357555,0.9998482643966315,66.9452330340791,4.087517363108147,359.64464871618827,-94.91667062361819,-44.40338134765625,4761.76025390625,True
1599387042.6500623,0.0,10,0.5,0.5,-7.59526540145874,-0.15025,-0.001,-0.12575,0.13003364402021683,10,1,100,0.10431743110724222,-10,-1,-100,19111.987388247042,-0.005607473160543748,0.016134937339794903,0.9998540993774014,67.06796858877657,4.095690210588689,361.0365374438497,-95.09866185834062,-41.793426513671875,4761.76025390625,True
1599387042.679983,0.0,10,0.5,0.5,-8.651638230895996,-0.15025,-0.001,-0.12575,0.07288106642224729,10,1,100,0.15571956670623865,-10,-1,-100,19108.172522267094,-0.006493718292196356,0.015157570736945828,0.9998640305922082,67.12497681570464,4.1008557820080656,362.8110616847605,-95.4626405858894,-36.795867919921875,4761.76025390625,True
1599387042.7128935,0.0,10,0.5,0.5,-9.94283950653076,-0.15025,-0.001,-0.12575,0.010939565514249655,10,1,100,0.20236037178110367,-10,-1,-100,19102.422924123588,-0.007716017183351358,0.013711860308645036,0.9998762163216517,66.81998122951511,4.085398922422712,363.3582956180845,-96.00862570262004,-29.85675048828125,4761.76025390625,True
1599387042.7468019,0.0,10,0.5,0.5,-9.075387258911132,-0.15025,-0.001,-0.12575,0.15471602322168077,10,1,100,0.08106515276779466,-10,-1,-100,19102.422924123588,-0.007716017183351358,0.013711860308645036,0.9998762163216517,66.81998122951511,4.085398922422712,363.3582956180845,-96.00862570262004,-29.85675048828125,4761.76025390625,True
1599387042.7777221,0.0,10,0.5,0.5,-10.810127493286133,-0.15025,-0.001,-0.12575,0.0027725492518181627,10,1,100,0.2050701185720394,-10,-1,-100,19096.64056515589,-0.00883706867523224,0.012336475003623693,0.9998848521713459,66.16860348619679,4.049207080023285,361.99651737039227,-96.55466251649699,-23.58526611328125,4761.76025390625,True
1599387042.8116276,0.0,10,0.5,0.5,-10.025605807495117,-0.15025,-0.001,-0.12575,0.13956598517377597,10,1,100,0.09370469469441167,-10,-1,-100,19096.64056515589,-0.00883706867523224,0.012336475003623693,0.9998848521713459,66.16860348619679,4.049207080023285,361.99651737039227,-96.55466251649699,-23.58526611328125,4761.76025390625,True
1599387042.8425477,0.0,10,0.5,0.5,-11.081240493774413,-0.15025,-0.001,-0.12575,0.03988329872806662,10,1,100,0.16957187245480237,-10,-1,-100,19092.767456543865,-0.009520045515686151,0.011437042350300667,0.9998892752678452,65.60536660896601,4.017235487209423,360.3598138466061,-96.91872680179475,-19.775421142578125,4761.76025390625,True
1599387042.8784518,0.0,10,0.5,0.5,-11.100930223083495,-0.15025,-0.001,-0.12575,0.08418239460948115,10,1,100,0.1395158012487437,-10,-1,-100,19090.825441016234,-0.009861872211255958,0.011028510686337572,0.9998905517248026,65.29778470877142,3.9996347769752605,359.39028550581037,-97.10077214758563,-17.981231689453125,4761.76025390625,True
1599387042.9143558,0.0,10,0.5,0.5,-11.807994371032715,-0.15025,-0.001,-0.12575,0.034382716348030584,10,1,100,0.17626775427134603,-10,-1,-100,19086.930486499332,-0.01050059733474116,0.010211180640188335,0.9998927288692259,64.70965074300315,3.9659862261339556,357.58219005528446,-97.46488853601478,-14.615570068359375,4761.76025390625,True
1599387042.9492674,0.0,10,0.5,0.5,-13.00103436126709,-0.15025,-0.001,-0.12575,-0.04688862958717077,10,1,100,0.2459365076842947,-10,-1,-100,19079.09687936015,-0.011708850661721823,0.008735984790997423,0.9998932869991244,63.689414979664555,3.9076569341040104,354.76416389345417,-98.19320847468,-8.77227783203125,4761.76025390625,True
1599387042.9811769,0.0,10,0.5,0.5,-12.26980347290039,-0.15025,-0.001,-0.12575,0.09984003762688444,10,1,100,0.12576837950654948,-10,-1,-100,19079.09687936015,-0.011708850661721823,0.008735984790997423,0.9998932869991244,63.689414979664555,3.9076569341040104,354.76416389345417,-98.19320847468,-8.77227783203125,4761.76025390625,True
1599387043.0160851,0.0,10,0.5,0.5,-13.268391842651369,-0.15025,-0.001,-0.12575,-0.004544244907588618,10,1,100,0.22342843753525413,-10,-1,-100,19073.18343468581,-0.01259112266425443,0.007793763088455665,0.9998903544324121,63.066969446566226,3.8720361256514284,353.39631195910647,-98.739506462707,-5.166168212890625,4761.76025390625,True
1599387043.051988,0.0,10,0.5,0.5,-12.818086528015137,-0.15025,-0.001,-0.12575,0.08894154458173811,10,1,100,0.13581097771919917,-10,-1,-100,19073.18343468581,-0.01259112266425443,0.007793763088455665,0.9998903544324121,63.066969446566226,3.8720361256514284,353.39631195910647,-98.739506462707,-5.166168212890625,4761.76025390625,True
1599387043.0830631,0.0,10,0.5,0.5,-13.38189652862549,-0.15025,-0.001,-0.12575,0.022581946992459648,10,1,100,0.194661280070155,-10,-1,-100,19069.22292766301,-0.013121693498825936,0.007195874107844215,0.9998880140073421,62.69407277186795,3.850563229980903,352.7001134154962,-99.10372631100942,-3.13232421875,4761.76025390625,True
1599387043.120961,0.0,10,0.5,0.5,-13.818139260864257,-0.15025,-0.001,-0.12575,0.0018169792142812696,10,1,100,0.2340178295013808,-10,-1,-100,19063.2548500126,-0.013956903182978925,0.006469489860396548,0.9998816682760453,62.23664723380203,3.8241856523162587,352.20419519825106,-99.65007870013176,-0.634765625,4761.76025390625,True
1599387043.1568644,0.0,10,0.5,0.5,-13.506366317749022,-0.15025,-0.001,-0.12575,0.07386870544472521,10,1,100,0.15100884453685653,-10,-1,-100,19063.2548500126,-0.013956903182978925,0.006469489860396548,0.9998816682760453,62.23664723380203,3.8241856523162587,352.20419519825106,-99.65007870013176,-0.634765625,4761.76025390625,True
1599387043.19277,0.0,10,0.5,0.5,-14.142565176391601,-0.15025,-0.001,-0.12575,-0.006792943002528848,10,1,100,0.274412896858341,-10,-1,-100,19055.246418774826,-0.015074103809076287,0.0057415357700971725,0.9998698946169716,61.88122697613295,3.8039918728983553,352.9513929150519,-100.3785688560973,1.6619873046875,4761.76025390625,True
1599387043.223686,0.0,10,0.5,0.5,-13.855892236328124,-0.15025,-0.001,-0.12575,0.06543291536938839,10,1,100,0.16324824007794383,-10,-1,-100,19055.246418774826,-0.015074103809076287,0.0057415357700971725,0.9998698946169716,61.88122697613295,3.8039918728983553,352.9513929150519,-100.3785688560973,1.6619873046875,4761.76025390625,True
1599387043.2575943,0.0,10,0.5,0.5,-13.965357412719726,-0.15025,-0.001,-0.12575,0.04791617753564363,10,1,100,0.19301327803636453,-10,-1,-100,19053.235204643686,-0.015339956670882093,0.005587099039714257,0.9998667261458678,61.89179788656281,3.8049651617418134,353.7021996857175,-100.56069029067851,2.051483154296875,4761.76025390625,True
1599387043.2915037,0.0,10,0.5,0.5,-14.072149507141113,-0.15025,-0.001,-0.12575,0.038660861374099,10,1,100,0.22858163099289727,-10,-1,-100,19049.201850178535,-0.01590059033636845,0.005366766484807086,0.9998591746063304,62.388205267277286,3.8360618701815126,357.9321031998264,-100.92491059714311,2.609832763671875,4761.76025390625,True
1599387043.322421,0.0,10,0.5,0.5,-14.07568865814209,-0.15025,-0.001,-0.12575,0.040955993141974845,10,1,100,0.23285374997423178,-10,-1,-100,19045.153927700478,-0.016445284077845772,0.005190391922150521,0.9998512951750842,62.77180158780092,3.8601659787341207,361.5356662861093,-101.28910504865168,2.8729248046875,4761.76025390625,True
1599387043.3573284,0.0,10,0.5,0.5,-14.049597967529296,-0.15025,-0.001,-0.12575,0.052416375372616675,10,1,100,0.2094061343012696,-10,-1,-100,19043.12450364791,-0.016722994215419933,0.005137459969894793,0.9998469622744917,62.92103655595156,3.869591318737884,363.09873116531764,-101.47119436630663,2.89404296875,4761.76025390625,True
1599387043.3907478,0.0,10,0.5,0.5,-13.998441006469728,-0.15025,-0.001,-0.12575,0.052129116678214356,10,1,100,0.2432715980315152,-10,-1,-100,19039.05473073921,-0.017279569582079435,0.005089143391639166,0.9998377453840185,63.134884550703,3.8832429029564044,365.7456200682276,-101.83536044447024,2.71539306640625,4761.76025390625,True
1599387043.4206672,0.0,10,0.5,0.5,-13.891106497192382,-0.15025,-0.001,-0.12575,0.060003814400993255,10,1,100,0.24922073859004346,-10,-1,-100,19034.970391431474,-0.017835368059649397,0.005119266135883692,0.9998278315592174,63.236003822633435,3.890000852374058,367.74783263110726,-102.19951438017128,2.24224853515625,4761.76025390625,True
1599387043.4565728,0.0,10,0.5,0.5,-13.855357211303712,-0.15025,-0.001,-0.12575,0.06102542065702363,10,1,100,0.22434657576810846,-10,-1,-100,19032.92275958648,-0.01811022549127648,0.005157825603862592,0.9998226925648842,63.24368987653745,3.890770421687666,368.5013347897642,-102.38158863846249,1.89520263671875,4761.76025390625,True
1599387043.4909892,0.0,10,0.5,0.5,-13.646818368530274,-0.15025,-0.001,-0.12575,0.07336626053107244,10,1,100,0.2579117151075344,-10,-1,-100,19028.816571408883,-0.018661457766470154,0.005306261541113431,0.9998117790776859,63.32895602949489,3.896693890312591,370.418696594681,-102.74573120803774,0.9805908203125,4761.76025390625,True
1599387043.5209093,0.0,10,0.5,0.5,-13.231167388916015,-0.15025,-0.001,-0.12575,0.10070383276354178,10,1,100,0.29285212260287535,-10,-1,-100,19022.62998081965,-0.019475941216982512,0.005690784166472353,0.9997941301534449,64.24738980439275,3.954531762090501,377.95501902338736,-103.29188538831303,-0.94268798828125,4761.76025390625,True
1599387043.554819,0.0,10,0.5,0.5,-13.017495681762695,-0.15025,-0.001,-0.12575,0.10246439597140786,10,1,100,0.2700700169972484,-10,-1,-100,19018.48738352931,-0.020005268996117223,0.006056401447418906,0.9997815307425421,64.9653528559663,3.9998731142284902,383.63929925455466,-103.65593716595136,-2.592193603515625,4761.76025390625,True
1599387043.5897284,0.0,10,0.5,0.5,-13.224495594787596,-0.15025,-0.001,-0.12575,0.06593415444448474,10,1,100,0.21763035560248137,-10,-1,-100,19018.48738352931,-0.020005268996117223,0.006056401447418906,0.9997815307425421,64.9653528559663,3.9998731142284902,383.63929925455466,-103.65593716595136,-2.592193603515625,4761.76025390625,True
1599387043.621645,0.0,10,0.5,0.5,-12.687773536682128,-0.15025,-0.001,-0.12575,0.11812026144468867,10,1,100,0.2728849896562149,-10,-1,-100,19014.33022554801,-0.020503342658128223,0.006530393963413756,0.9997684566410995,65.75597877581656,4.049961512498846,389.7878090009275,-104.01994246231385,-4.53515625,4761.76025390625,True
1599387043.6555536,0.0,10,0.5,0.5,-12.632847039794923,-0.15025,-0.001,-0.12575,0.09998032033643725,10,1,100,0.25002717206280656,-10,-1,-100,19012.24618694093,-0.020744154234269275,0.006795329851989873,0.9997617233907825,66.17397816292083,4.076517255824676,393.0105467046208,-104.20192604045906,-5.6168212890625,4761.76025390625,True
1599387043.7044268,0.0,10,0.5,0.5,-11.750899157714843,-0.15025,-0.001,-0.12575,0.17642472358001315,10,1,100,0.3010596876552607,-10,-1,-100,19005.97223571909,-0.021423097745095793,0.0077296707457008154,0.9997406178970458,67.4991084237064,4.161067426833498,403.1613898813728,-104.74779439279035,-9.302032470703125,4761.76025390625,True
1599387043.7450793,0.0,10,0.5,0.5,-11.013840827941895,-0.15025,-0.001,-0.12575,0.20869622692872725,10,1,100,0.29780362120718923,-10,-1,-100,18999.665537904948,-0.022006445693110454,0.008870092306084704,0.9997184792782604,68.89240525920395,4.250605778905044,413.8124336470638,-105.29352800728113,-13.64715576171875,4761.76025390625,True
1599387043.7809834,0.0,10,0.5,0.5,-11.558603826904296,-0.15025,-0.001,-0.12575,0.09503216578178295,10,1,100,0.23994151401682623,-10,-1,-100,18999.665537904948,-0.022006445693110454,0.008870092306084704,0.9997184792782604,68.89240525920395,4.250605778905044,413.8124336470638,-105.29352800728113,-13.64715576171875,4761.76025390625,True
1599387043.8119018,0.0,10,0.5,0.5,-10.656393060302733,-0.15025,-0.001,-0.12575,0.19197141766785508,10,1,100,0.2722978521956828,-10,-1,-100,18995.442884228192,-0.02229680233325146,0.009747948390348813,0.9997038712078147,69.95505248361476,4.3189791604547585,421.77214156843723,-105.65726485816523,-16.9102783203125,4761.76025390625,True
1599387043.8488019,0.0,10,0.5,0.5,-10.584174880981445,-0.15025,-0.001,-0.12575,0.1558701183828797,10,1,100,0.2565395158566497,-10,-1,-100,18993.326101930463,-0.022413699333168457,0.01021363290728324,0.9996966078691264,70.48010485914348,4.352894449145375,425.7319539444407,-105.83910585732828,-18.65185546875,4761.76025390625,True
1599387043.8828733,0.0,10,0.5,0.5,-9.779219845581054,-0.15025,-0.001,-0.12575,0.2185942043686035,10,1,100,0.26735436182902506,-10,-1,-100,18989.08162865648,-0.02261487498596305,0.01120274018494278,0.9996814822940945,71.6281712337199,4.426967633699208,434.280529338891,-106.20272795237588,-22.354736328125,4761.76025390625,True
1599387043.9167814,0.0,10,0.5,0.5,-9.139827725219725,-0.15025,-0.001,-0.12575,0.236843073570422,10,1,100,0.2570667023787325,-10,-1,-100,18984.822612973163,-0.022701384190074586,0.01226281656099665,0.9996670798250015,72.7317420839972,4.498466242738897,442.60911925594064,-106.56626977597905,-26.3507080078125,4761.76025390625,True
1599387043.9466999,0.0,10,0.5,0.5,-8.456180908203127,-0.15025,-0.001,-0.12575,0.2550693954271843,10,1,100,0.2503051419662171,-10,-1,-100,18980.549057706376,-0.022716109176249517,0.013386573996912935,0.9996523285725483,73.74606707766982,4.564491386014162,450.4411303449749,-106.92973432528154,-30.63970947265625,4761.76025390625,True
1599387043.980609,0.0,10,0.5,0.5,-8.37049677734375,-0.15025,-0.001,-0.12575,0.2068305914210563,10,1,100,0.24425348488499576,-10,-1,-100,18978.406828891602,-0.02267201606277914,0.013962973290827036,0.999645444677526,74.208191780313,4.59468650856037,454.0982016645819,-107.11143944448753,-32.894134521484375,4761.76025390625,True
1599387044.0115268,0.0,10,0.5,0.5,-7.346033979797363,-0.15025,-0.001,-0.12575,0.2798784420356187,10,1,100,0.2309596925315699,-10,-1,-100,18974.11147026636,-0.022509107235134333,0.01514428712785641,0.9996319275907839,75.01485971512767,4.647631105307991,460.72053711498864,-107.474800692658,-37.622833251953125,4761.76025390625,True
1599387044.0464344,0.0,10,0.5,0.5,-7.254550862121582,-0.15025,-0.001,-0.12575,0.22821437857117438,10,1,100,0.23366007503475977,-10,-1,-100,18971.95834087755,-0.022383952730030902,0.015740945532501015,0.9996255205295244,75.34807052992495,4.669635153073135,463.61350777718275,-107.65645978859759,-40.09716796875,4761.76025390625,True
1599387044.0803418,0.0,10,0.5,0.5,-4.628636517333984,-0.15025,-0.001,-0.12575,0.4338246550332191,10,1,100,0.15850527280038826,-10,-1,-100,18963.30949575291,-0.02158607692781992,0.018145263618390334,0.999602316269368,76.07629818009869,4.718922511592129,471.5125341524593,-108.38299945241428,-50.7275390625,4761.76025390625,True
1599387044.112261,0.0,10,0.5,0.5,-5.177631237792969,-0.15025,-0.001,-0.12575,0.26036263456076325,10,1,100,0.20842919962089757,-10,-1,-100,18961.138203190756,-0.02131497132305574,0.018745647900074384,0.9995970551588793,76.07693621969204,4.719621733892712,472.3715407827558,-108.56462263049161,-53.568359375,4761.76025390625,True
1599387044.1462052,0.0,10,0.5,0.5,-3.9018001281738286,-0.15025,-0.001,-0.12575,0.32514453178866437,10,1,100,0.16428975056241868,-10,-1,-100,18956.78472066333,-0.020667872576711273,0.019871400353137177,0.9995888987434576,75.81865386281348,4.704457576430157,472.47367449576154,-108.92787549388596,-59.470794677734375,4761.76025390625,True
1599387044.183076,0.0,10,0.5,0.5,-4.639775315856934,-0.15025,-0.001,-0.12575,0.21358163167866395,10,1,100,0.2288367322212114,-10,-1,-100,18956.78472066333,-0.020667872576711273,0.019871400353137177,0.9995888987434576,75.81865386281348,4.704457576430157,472.47367449576154,-108.92787549388596,-59.470794677734375,4761.76025390625,True
1599387044.2129922,0.0,10,0.5,0.5,-2.92577032623291,-0.15025,-0.001,-0.12575,0.337012224272464,10,1,100,0.14630453263950816,-10,-1,-100,18952.416706904187,-0.019919166968474386,0.02098471686085731,0.9995813465874359,75.17250568097775,4.664696533441719,470.1414426382006,-109.29115896650079,-65.66616821289062,4761.76025390625,True
1599387044.248896,0.0,10,0.5,0.5,-0.9834892166137699,-0.15025,-0.001,-0.12575,0.3907127942465506,10,1,100,0.0751895914901155,-10,-1,-100,18945.83743620559,-0.018594476685098636,0.02247611707066193,0.9995744442502685,73.38086801126828,4.553484668093635,461.4248100280822,-109.83620276721412,-75.51043701171875,4761.76025390625,True
1599387044.2847996,0.0,10,0.5,0.5,-0.30369414672851547,-0.15025,-0.001,-0.12575,0.3358194546434116,10,1,100,0.09926566569227117,-10,-1,-100,18941.433083736454,-0.01761281974523571,0.023323620264537902,0.9995728074124354,71.58305478172949,4.441999764906368,451.74405227778954,-110.19968359441083,-82.44085693359375,4761.76025390625,True
1599387044.3187087,0.0,10,0.5,0.5,0.8232787536621093,-0.15025,-0.001,-0.12575,0.33096597305341124,10,1,100,0.08476478315149233,-10,-1,-100,18937.014188205474,-0.01659321749447235,0.02404092147518185,0.9995732585597742,69.2690595233857,4.298978349417578,438.7164256537898,-110.56328685668986,-89.66293334960938,4761.76025390625,True
1599387044.3506613,0.0,10,0.5,0.5,0.939024366760254,-0.15025,-0.001,-0.12575,0.29593826204946205,10,1,100,0.12746386546373517,-10,-1,-100,18934.79928529309,-0.016060006013497233,0.02436541797738194,0.9995741106159333,67.91296855896117,4.215397262973497,430.90094927928925,-110.7451405723321,-93.35222625732422,4761.76025390625,True
1599387044.385529,0.0,10,0.5,0.5,0.48066872291564944,-0.15025,-0.001,-0.12575,0.2644107249144055,10,1,100,0.18014010343908307,-10,-1,-100,18934.79928529309,-0.016060006013497233,0.02436541797738194,0.9995741106159333,67.91296855896117,4.215397262973497,430.90094927928925,-110.7451405723321,-93.35222625732422,4761.76025390625,True
1599387044.419439,0.0,10,0.5,0.5,2.5324039272308347,-0.15025,-0.001,-0.12575,0.32429438223415696,10,1,100,0.06099317631316645,-10,-1,-100,18930.3585666219,-0.01498260117300393,0.024901974432611607,0.9995776174622201,66.85141685729307,4.151422789857119,425.6886856877001,-111.10890600726974,-100.76675415039062,4761.76025390625,True
1599387044.450358,0.0,10,0.5,0.5,3.5989389251708985,-0.15025,-0.001,-0.12575,0.31595518523112864,10,1,100,0.04715255873674708,-10,-1,-100,18925.903300938546,-0.013883321590728767,0.025307799682052663,0.9995832975079472,69.20157358560995,4.300282548722874,442.2294067222295,-111.47254000744327,-107.99105834960938,4761.76025390625,True
1599387044.4842656,0.0,10,0.5,0.5,3.671465927124023,-0.15025,-0.001,-0.12575,0.29297401816809565,10,1,100,0.09469635821065832,-10,-1,-100,18923.670214932878,-0.013322948919998108,0.02546184643389698,0.9995870114243441,70.32037657958051,4.371512796698477,450.1787047910601,-111.6542999169264,-111.52562713623047,4761.76025390625,True
1599387044.5201697,0.0,10,0.5,0.5,5.144519392776489,-0.15025,-0.001,-0.12575,0.30095101725900475,10,1,100,0.031162563186443226,-10,-1,-100,18919.193139761337,-0.012242616467892566,0.02566932488541757,0.9995955202490391,72.18055427868482,4.490838281233633,463.7263975221058,-112.01771634234836,-118.4543228149414,4761.76025390625,True
1599387044.5530818,0.0,10,0.5,0.5,6.116989946365356,-0.15025,-0.001,-0.12575,0.29137328047681865,10,1,100,0.024384129807301244,-10,-1,-100,18914.701531892526,-0.011206533258994254,0.025765600484659795,0.9996051957868065,73.8041419825108,4.595532340575042,475.82994851062534,-112.3810078501236,-125.11322021484375,4761.76025390625,True
1599387044.595966,0.0,10,0.5,0.5,7.890880000305176,-0.15025,-0.001,-0.12575,0.2743351113033389,10,1,100,-0.036069643084708364,-10,-1,-100,18907.936879995512,-0.009722980255258865,0.025693885051826727,0.9996225727372803,75.35862098199317,4.697097894080251,488.4096053730387,-112.92577178364616,-134.55271911621094,4761.76025390625,True
1599387044.651818,0.0,10,0.5,0.5,8.344486907196044,-0.15025,-0.001,-0.12575,0.2640114394800459,10,1,100,0.013764211292717987,-10,-1,-100,18903.408955553663,-0.008835395742957696,0.025531912398147488,0.9996349619893048,75.8508193926596,4.730157047279963,493.31488151962657,-113.28887875781083,-140.47561645507812,4761.76025390625,True
1599387044.6907136,0.0,10,0.5,0.5,9.158297688293457,-0.15025,-0.001,-0.12575,0.25587261840826664,10,1,100,0.014326007155278361,-10,-1,-100,18898.866507427418,-0.008041587443254708,0.02530866771039236,0.9996473399204928,75.97072767065413,4.739328261002258,495.8136525063684,-113.65196482689859,-146.10174560546875,4761.76025390625,True
1599387044.7276149,0.0,10,0.5,0.5,8.456455828857422,-0.15025,-0.001,-0.12575,0.27832386180730045,10,1,100,0.09285167412045542,-10,-1,-100,18898.866507427418,-0.008041587443254708,0.02530866771039236,0.9996473399204928,75.97072767065413,4.739328261002258,495.8136525063684,-113.65196482689859,-146.10174560546875,4761.76025390625,True
1599387044.7665129,0.0,10,0.5,0.5,10.63753443069458,-0.15025,-0.001,-0.12575,0.2257227758300484,10,1,100,-0.021087090560600583,-10,-1,-100,18892.0256036825,-0.007013069963036238,0.024829618519932786,0.9996670980350649,75.5740154663173,4.716014603217949,495.79384664845907,-114.19660663268684,-153.98509216308594,4761.76025390625,True
1599387044.8044095,0.0,10,0.5,0.5,10.336581462860108,-0.15025,-0.001,-0.12575,0.25348184566345255,10,1,100,0.04882555605009073,-10,-1,-100,18889.73804025806,-0.0067218480738897865,0.024646052435689073,0.9996736411738627,75.31431117398145,4.700067394232712,494.9451747346554,-114.37816684974902,-156.46449279785156,4761.76025390625,True
1599387044.8413115,0.0,10,0.5,0.5,12.563042266082764,-0.15025,-0.001,-0.12575,0.17653794556845934,10,1,100,-0.023960919689530527,-10,-1,-100,18880.551470366423,-0.00580291544348656,0.023779916832782962,0.9997003759766131,73.8043772534127,4.606353621734312,488.3832920829619,-115.10451648523309,-165.64085388183594,4761.76025390625,True
1599387044.875253,0.0,10,0.5,0.5,11.414879839324952,-0.15025,-0.001,-0.12575,0.26299871757414345,10,1,100,0.06712430273606794,-10,-1,-100,18880.551470366423,-0.00580291544348656,0.023779916832782962,0.9997003759766131,73.8043772534127,4.606353621734312,488.3832920829619,-115.10451648523309,-165.64085388183594,4761.76025390625,True
1599387044.9121206,0.0,10,0.5,0.5,13.104950114440918,-0.15025,-0.001,-0.12575,0.18044353662902007,10,1,100,0.018882843783212235,-10,-1,-100,18873.623403440695,-0.005371193119802882,0.0230309442147374,0.9997203238371457,72.34021684673364,4.515390524092771,481.17476128445065,-115.64941952207813,-171.74468994140625,4761.76025390625,True
1599387044.948025,0.0,10,0.5,0.5,12.863388758850098,-0.15025,-0.001,-0.12575,0.2251617950584915,10,1,100,0.05201962289997343,-10,-1,-100,18871.30678164342,-0.005286208475104722,0.0227589881664827,0.9997270049656535,71.816839406602,4.482958044411349,478.5158630043509,-115.83108304520394,-173.63116455078125,4761.76025390625,True
1599387044.9849267,0.0,10,0.5,0.5,13.131224256896973,-0.15025,-0.001,-0.12575,0.221600439413398,10,1,100,0.053474299521789864,-10,-1,-100,18868.986526208,-0.005227556153562807,0.02248211271885774,0.9997335781418757,71.28360309638569,4.449976122751751,475.7798878641061,-116.01276123613192,-175.44351196289062,4761.76025390625,True
1599387045.0218287,0.0,10,0.5,0.5,13.846348027038575,-0.15025,-0.001,-0.12575,0.18955507462127535,10,1,100,0.05011334729634313,-10,-1,-100,18864.33511362481,-0.005147768499294911,0.021942006061391177,0.9997459921647496,70.20395772374398,4.38341799919592,470.1849245846238,-116.37616100086476,-178.845458984375,4761.76025390625,True
1599387045.0567348,0.0,10,0.5,0.5,-84.6824617553711,-0.15025,-0.001,-0.12575,0.14795072049960445,10,1,100,0.06846443541633729,-10,-1,-100,18857.330736303935,-0.005245414730363736,0.02107604215925798,0.9997641152147878,68.6071578726516,4.28562850983693,461.85587182699254,-116.92136373305513,176.60690307617188,4761.76025390625,True
1599387045.0898387,0.0,10,0.5,0.5,-39.28203699493408,-0.15025,-0.001,-0.12575,0.1693505722071197,10,1,100,0.07771273587962778,-10,-1,-100,18852.642976141535,-0.005420801465286119,0.020487194196069883,0.999775419674562,68.17311398244082,4.260265232053107,460.502703333807,-117.28487874735241,173.94544982910156,4761.76025390625,True
1599387045.1316729,0.0,10,0.5,0.5,-38.9714169090271,-0.15025,-0.001,-0.12575,0.16136670898755365,10,1,100,0.08841489659621332,-10,-1,-100,18847.940676862374,-0.005679918854437216,0.01988368044891585,0.9997861660243217,69.25109447114008,4.329764572459689,469.3790255056077,-117.64833509323378,171.491455078125,4761.76025390625,True
1599387045.1695714,0.0,10,0.5,0.5,-39.31255440368652,-0.15025,-0.001,-0.12575,0.22122348989585527,10,1,100,0.06236984257024369,-10,-1,-100,18847.940676862374,-0.005679918854437216,0.01988368044891585,0.9997861660243217,69.25109447114008,4.329764572459689,469.3790255056077,-117.64833509323378,171.491455078125,4761.76025390625,True
1599387045.2069883,0.0,10,0.5,0.5,-37.81578963470459,-0.15025,-0.001,-0.12575,0.08350606887241512,10,1,100,0.14915130898640572,-10,-1,-100,18838.492472757585,-0.006469788484783646,0.018636033323236188,0.9998054011151057,71.36532374723195,4.46728312463581,486.99818624731944,-118.37503217394183,165.94956970214844,4761.76025390625,True
1599387045.2459126,0.0,10,0.5,0.5,-37.662641605377196,-0.15025,-0.001,-0.12575,0.13962997298429203,10,1,100,0.13004987170023047,-10,-1,-100,18833.746574326186,-0.007013596107004901,0.018016702231371327,0.9998130864868463,72.45442382479779,4.538587596722221,496.1003745577005,-118.73826669391394,162.74957275390625,4761.76025390625,True
1599387045.2817874,0.0,10,0.5,0.5,-37.133404800415036,-0.15025,-0.001,-0.12575,0.12610521305186162,10,1,100,0.14020078730293936,-10,-1,-100,18828.986148853903,-0.007599147104809288,0.017335960889018825,0.9998208426629912,73.69420970401825,4.619652488060825,506.2878245484107,-119.10141507099831,159.25509643554688,4761.76025390625,True
1599387045.3137023,0.0,10,0.5,0.5,-37.605935176086426,-0.15025,-0.001,-0.12575,0.19360984895454,10,1,100,0.08186848292100134,-10,-1,-100,18828.986148853903,-0.007599147104809288,0.017335960889018825,0.9998208426629912,73.69420970401825,4.619652488060825,506.2878245484107,-119.10141507099831,159.25509643554688,4761.76025390625,True
1599387045.3516052,0.0,10,0.5,0.5,-36.04056236419678,-0.15025,-0.001,-0.12575,0.08217325245972032,10,1,100,0.20061488325328364,-10,-1,-100,18821.81828087906,-0.008676557163621213,0.016327830945681795,0.9998290450333975,75.65377507559556,4.747949400108678,522.3646521393536,-119.6459634402309,153.4628448486328,4761.76025390625,True
1599387045.3875043,0.0,10,0.5,0.5,-36.80182863693237,-0.15025,-0.001,-0.12575,0.1823708186161057,10,1,100,0.0932187774730969,-10,-1,-100,18821.81828087906,-0.008676557163621213,0.016327830945681795,0.9998290450333975,75.65377507559556,4.747949400108678,522.3646521393536,-119.6459634402309,153.4628448486328,4761.76025390625,True
1599387045.4214137,0.0,10,0.5,0.5,-34.4198067817688,-0.15025,-0.001,-0.12575,0.0288802869567073,10,1,100,0.2842593636433565,-10,-1,-100,18812.210314560914,-0.010410081775474186,0.014937566271610636,0.9998342359167889,78.11577792657295,4.909643118713138,542.9598141093037,-120.37169678587126,144.71192932128906,4761.76025390625,True
1599387045.4533293,0.0,10,0.5,0.5,-35.51704491195679,-0.15025,-0.001,-0.12575,0.16729290677505845,10,1,100,0.1114233691625703,-10,-1,-100,18812.210314560914,-0.010410081775474186,0.014937566271610636,0.9998342359167889,78.11577792657295,4.909643118713138,542.9598141093037,-120.37169678587126,144.71192932128906,4761.76025390625,True
1599387045.4882355,0.0,10,0.5,0.5,-34.85981339340209,-0.15025,-0.001,-0.12575,0.13074395309084483,10,1,100,0.16611058120421143,-10,-1,-100,18809.79925301904,-0.010902702539207117,0.014610348172594566,0.9998338205940112,78.64781822794694,4.944688672229461,547.5623987897026,-120.55307657210743,142.34124755859375,4761.76025390625,True
1599387045.5241697,0.0,10,0.5,0.5,-33.78546436309814,-0.15025,-0.001,-0.12575,0.08369625405592176,10,1,100,0.23284508298735412,-10,-1,-100,18804.966248549987,-0.011952468900915832,0.01388996475705913,0.9998320895861565,79.56722202208547,5.005345024794928,555.7934527922407,-120.91578274659162,137.37911987304688,4761.76025390625,True
1599387045.555057,0.0,10,0.5,0.5,-32.95591623535156,-0.15025,-0.001,-0.12575,0.08218432992646564,10,1,100,0.25380882458194703,-10,-1,-100,18800.118737519602,-0.013091679107832347,0.013226774810569912,0.9998268151866343,80.24825631657983,5.050404380253612,562.3967515226499,-121.27843259507493,132.1250457763672,4761.76025390625,True
1599387045.5889654,0.0,10,0.5,0.5,-31.28643770217895,-0.15025,-0.001,-0.12575,0.033238241899907456,10,1,100,0.3494424423933673,-10,-1,-100,18792.82027438213,-0.014990701375475682,0.01218382793034979,0.9998133991946871,80.69348095289872,5.080325797543534,568.3054769260929,-121.82235194615917,123.69462585449219,4761.76025390625,True
1599387045.6378355,0.0,10,0.5,0.5,-30.690624675750733,-0.15025,-0.001,-0.12575,0.060999293213093636,10,1,100,0.3149267589956556,-10,-1,-100,18787.936501491815,-0.016396054401291816,0.011493370209634118,0.9997995158236945,80.51849690352122,5.06963250106591,568.9331436594665,-122.18496860099958,117.70899963378906,4761.76025390625,True
1599387045.6737387,0.0,10,0.5,0.5,-31.439162563323972,-0.15025,-0.001,-0.12575,0.1294608062167223,10,1,100,0.17527114714369044,-10,-1,-100,18787.936501491815,-0.016396054401291816,0.011493370209634118,0.9997995158236945,80.51849690352122,5.06963250106591,568.9331436594665,-122.18496860099958,117.70899963378906,4761.76025390625,True
1599387045.7041678,0.0,10,0.5,0.5,-28.80573903274536,-0.15025,-0.001,-0.12575,0.012192322744591089,10,1,100,0.43552213578206944,-10,-1,-100,18780.583643441554,-0.018753975291371187,0.010432604533232366,0.9997696980672219,79.39704815133517,4.998518940253483,563.7721182424818,-122.7289807546221,108.18266296386719,4761.76025390625,True
1599387045.7370803,0.0,10,0.5,0.5,-29.99914785079956,-0.15025,-0.001,-0.12575,0.11767936774352136,10,1,100,0.20073778858690738,-10,-1,-100,18780.583643441554,-0.018753975291371187,0.010432604533232366,0.9997696980672219,79.39704815133517,4.998518940253483,563.7721182424818,-122.7289807546221,108.18266296386719,4761.76025390625,True
1599387045.77099,0.0,10,0.5,0.5,-27.184314351654052,-0.15025,-0.001,-0.12575,0.004143471954028782,10,1,100,0.4925903573425161,-10,-1,-100,18773.198136743857,-0.021398019172669674,0.009405819322793751,0.9997267903474193,77.0686480367373,4.851334302080157,549.9379392655196,-123.27320183630108,98.00039672851562,4761.76025390625,True
