Timestamp,Input Throttle,horizon,dT,dt,Input Roll,Roll P,Roll I,Roll D,Input Pitch,Pitch P,Pitch I,Pitch D,Input Yaw,Yaw P,Yaw I,Yaw D,Altitude,Direction X,Direction Y,Direction Z,Drag X,Drag Y,Drag Z,Vertical Velocity,Roll,Mass,Has Fuel
1599388020.285022,0.0,10,0.5,0.5,-11.214401245117188,-0.2,-0.001,-0.5,-0.00016000111884821458,10,1,100,0.49805922733842783,-10,-1,-100,19351.094166298513,-0.04884242485815592,-0.000174342539837429,0.9988064813259144,60.98657423379039,3.680684393061628,232.75424151939632,-68.48187397838873,-33.922576904296875,4761.76025390625,True
1599388020.3207278,0.0,10,0.5,0.5,-11.22028059387207,-0.2,-0.001,-0.5,-0.0008199269336117873,10,1,100,0.49889181862363036,-10,-1,-100,19349.72087954206,-0.048893182381394604,-0.00016578860603064496,0.9988039994066694,61.076307050406086,3.6867706737458015,233.74120628758953,-68.66433396157241,-33.923736572265625,4761.76025390625,True
1599388020.3616176,0.0,10,0.5,0.5,-11.225634924316408,-0.2,-0.001,-0.5,-0.0007501825009040693,10,1,100,0.5044879939708646,-10,-1,-100,19348.343943646876,-0.04894575155805791,-0.00015722754535801598,0.9988014260522038,61.1661830794893,3.692869304762316,234.73078955085091,-68.84679063304583,-33.9249267578125,4761.76025390625,True
1599388020.4005504,0.0,10,0.5,0.5,-11.002534545898438,-0.2,-0.001,-0.5,0.035117784629989726,10,1,100,0.5073501394629566,-10,-1,-100,19342.799709998886,-0.04897506508535442,0.0001767705996664612,0.998799985859051,61.53712716954,3.717984936231679,238.75423294015485,-69.57658237547675,-34.25250244140625,4761.76025390625,True
1599388020.4404445,0.0,10,0.5,0.5,-10.775028240966797,-0.2,-0.001,-0.5,0.03669362003019606,10,1,100,0.5008112421429527,-10,-1,-100,19340.00570004061,-0.0488977464390009,0.0004945703527818013,0.9988036672907011,61.74107949651574,3.731653091249306,240.8507871323434,-69.94145542770326,-34.8194580078125,4761.76025390625,True
1599388020.4793398,0.0,10,0.5,0.5,-11.06402407836914,-0.2,-0.001,-0.5,0.004963101753940231,10,1,100,0.5134328814222053,-10,-1,-100,19340.00570004061,-0.0488977464390009,0.0004945703527818013,0.9988036672907011,61.74107949651574,3.731653091249306,240.8507871323434,-69.94145542770326,-34.8194580078125,4761.76025390625,True
1599388020.5182357,0.0,10,0.5,0.5,-10.468107806396485,-0.2,-0.001,-0.5,0.05522899740468191,10,1,100,0.4977769008885723,-10,-1,-100,19337.197095816256,-0.04871096684647787,0.0009510834311041967,0.9988124634530692,61.955457769164035,3.7459193552740024,242.99744089085917,-70.30631126750883,-35.67864990234375,4761.76025390625,True
1599388020.558132,0.0,10,0.5,0.5,-10.096345727539063,-0.2,-0.001,-0.5,0.0757003967200843,10,1,100,0.48939450813544294,-10,-1,-100,19334.37389791163,-0.048420680949295324,0.0015513343293272106,0.9988258261670074,62.17303792599401,3.7603222133869854,245.16632541680858,-70.6711491312588,-36.831207275390625,4761.76025390625,True
1599388020.598023,0.0,10,0.5,0.5,-9.082689828491212,-0.2,-0.001,-0.5,0.14496083757562636,10,1,100,0.45219698603660274,-10,-1,-100,19330.111739497283,-0.04777460658645874,0.0027252470315536717,0.9988544238246763,62.48491501097923,3.780881933758848,248.38022550376246,-71.21837094577742,-39.110137939453125,4761.76025390625,True
1599388020.6379158,0.0,10,0.5,0.5,-8.169520147705077,-0.2,-0.001,-0.5,0.1875984968119058,10,1,100,0.4189634288283243,-10,-1,-100,19325.816749267746,-0.04684171154872617,0.004177577983878855,0.9988935888779018,62.74059554522657,3.7977469836336426,251.389822117711,-71.76555212129374,-42.04974365234375,4761.76025390625,True
1599388020.6768112,0.0,10,0.5,0.5,-9.644118029785156,-0.2,-0.001,-0.5,0.04278315937777534,10,1,100,0.516937103756454,-10,-1,-100,19325.816749267746,-0.04684171154872617,0.004177577983878855,0.9988935888779018,62.74059554522657,3.7977469836336426,251.389822117711,-71.76555212129374,-42.04974365234375,4761.76025390625,True
1599388020.7167053,0.0,10,0.5,0.5,-8.014280044555665,-0.2,-0.001,-0.5,0.16230700964243674,10,1,100,0.4288251099813351,-10,-1,-100,19322.93518386176,-0.046042512253779116,0.005260202149445126,0.998925631535555,62.852407350125084,3.805223176463824,253.16965141504946,-72.1303199571806,-44.376922607421875,4761.76025390625,True
1599388020.7561018,0.0,10,0.5,0.5,-7.341973129272461,-0.2,-0.001,-0.5,0.1816475138283545,10,1,100,0.40447216769732475,-10,-1,-100,19320.039028361323,-0.045097168574088624,0.006415295982781464,0.9989620059662195,62.89381414681686,3.808226191179199,254.66969432620374,-72.495075723523,-46.998138427734375,4761.76025390625,True
1599388020.795993,0.0,10,0.5,0.5,-5.513834753417969,-0.2,-0.001,-0.5,0.2800777674967089,10,1,100,0.3118974260636529,-10,-1,-100,19315.667438547243,-0.04339967538041295,0.008354226752319413,0.9990228601349648,62.77497459852025,3.8013251648057738,256.18587227893926,-73.04219748652565,-51.480194091796875,4761.76025390625,True
1599388020.8355591,0.0,10,0.5,0.5,-4.15205339050293,-0.2,-0.001,-0.5,0.307705025498552,10,1,100,0.25511147567016745,-10,-1,-100,19311.263021379826,-0.04134533237322605,0.010360613928140982,0.9990911976241106,62.365045777481896,3.7762358529382967,256.4992782097428,-73.58932484790142,-56.624603271484375,4761.76025390625,True
1599388020.8744588,0.0,10,0.5,0.5,-6.722077465820313,-0.2,-0.001,-0.5,0.10805291227393099,10,1,100,0.45979053498227973,-10,-1,-100,19311.263021379826,-0.04134533237322605,0.010360613928140982,0.9990911976241106,62.365045777481896,3.7762358529382967,256.4992782097428,-73.58932484790142,-56.624603271484375,4761.76025390625,True
1599388020.913863,0.0,10,0.5,0.5,-4.061208596801758,-0.2,-0.001,-0.5,0.25388943222552307,10,1,100,0.2877442942499536,-10,-1,-100,19308.308505174587,-0.0397881414702647,0.011677431342632402,0.999139900812484,61.88484938235368,3.7466960904498916,255.83975450308216,-73.95409362963936,-60.4227294921875,4761.76025390625,True
1599388020.9517598,0.0,10,0.5,0.5,-1.5831818206787114,-0.2,-0.001,-0.5,0.3403316962266272,10,1,100,0.15414085422096446,-10,-1,-100,19303.849371404736,-0.03716604830856013,0.013650625621351432,0.9992158652029458,60.78200768897738,3.6789277413221515,253.22116860909495,-74.50129774252213,-66.67218017578125,4761.76025390625,True
1599388020.9926858,0.0,10,0.5,0.5,-1.5304845886230471,-0.2,-0.001,-0.5,0.2836950575668152,10,1,100,0.20194084787067268,-10,-1,-100,19300.858373783994,-0.03522710413349944,0.014918560713014055,0.9992679759106762,59.74975976778484,3.6157027608186323,250.1946355270757,-74.86615021393872,-71.20709228515625,4761.76025390625,True
1599388021.0325453,0.0,10,0.5,0.5,-0.4130353912353515,-0.2,-0.001,-0.5,0.2828165288832239,10,1,100,0.17309247168510936,-10,-1,-100,19297.852780749206,-0.03321357646580548,0.0160521575231461,0.9993193616543222,58.448521271519986,3.536290901723661,245.9937226475711,-75.23105479417052,-76.0380859375,4761.76025390625,True
1599388021.0734613,0.0,10,0.5,0.5,0.7628579498291015,-0.2,-0.001,-0.5,0.291136142301056,10,1,100,0.13616023132930938,-10,-1,-100,19294.83258966566,-0.03105973834201544,0.01714753785475619,0.9993704291200762,56.85298761044133,3.4393086742524726,240.49403187906216,-75.59602084798196,-81.16378784179688,4761.76025390625,True
1599388021.1123579,0.0,10,0.5,0.5,1.9371306823730468,-0.2,-0.001,-0.5,0.28979527637390595,10,1,100,0.10505653779125446,-10,-1,-100,19291.79779787513,-0.02883329008204828,0.0181193575933632,0.9994199969299435,54.95116919217066,3.3241794202898336,233.62538654786457,-75.96105551940914,-86.4969482421875,4761.76025390625,True
1599388021.151226,0.0,10,0.5,0.5,-0.7252375152587891,-0.2,-0.001,-0.5,0.19389921805759663,10,1,100,0.32598044157079753,-10,-1,-100,19291.79779787513,-0.02883329008204828,0.0181193575933632,0.9994199969299435,54.95116919217066,3.3241794202898336,233.62538654786457,-75.96105551940914,-86.4969482421875,4761.76025390625,True
1599388021.1921508,0.0,10,0.5,0.5,4.778512475585938,-0.2,-0.001,-0.5,0.3302450752741125,10,1,100,-0.05412639176218553,-10,-1,-100,19287.21822782536,-0.02539255875946847,0.019348225330231,0.9994903021721709,52.45496101272528,3.1739982082980744,224.6985732564526,-76.50872478495901,-94.35380554199219,4761.76025390625,True
1599388021.5801215,0.0,10,0.5,0.5,2.6017649856567386,-0.2,-0.001,-0.5,0.24676336982913818,10,1,100,0.15970393427201562,-10,-1,-100,19285.68440239213,-0.02422490335436224,0.019696458679176583,0.9995124829500487,53.30002933674354,3.2256867456886926,228.88968656080402,-76.69126833497525,-96.85008239746094,4761.76025390625,True
1599388021.6149886,0.0,10,0.5,0.5,4.882910031127929,-0.2,-0.001,-0.5,0.28139432915391055,10,1,100,0.0035339113936282973,-10,-1,-100,19282.60580050596,-0.021759234986297477,0.02031937422230592,0.9995567311183616,54.78067913500771,3.3167653534873622,236.42195186562077,-77.05629618262881,-101.88616943359375,4761.76025390625,True
1599388021.6519208,0.0,10,0.5,0.5,5.836654937744141,-0.2,-0.001,-0.5,0.27232563914283925,10,1,100,-0.006577112525520873,-10,-1,-100,19279.51259989722,-0.019443605431870816,0.020794165024782704,0.999594692317207,56.13629140570126,3.400684961273647,243.47474210884047,-77.42124429547218,-106.83940124511719,4761.76025390625,True
1599388021.696768,0.0,10,0.5,0.5,6.649236515808106,-0.2,-0.001,-0.5,0.26620062043055837,10,1,100,-0.047805374055074124,-10,-1,-100,19276.404803629848,-0.01698218031034009,0.021161823099029815,0.9996318236205931,57.31573873128278,3.474196337616177,249.81688769675353,-77.78611387387997,-111.53162384033203,4761.76025390625,True
1599388021.7586362,0.0,10,0.5,0.5,10.266236193084715,-0.2,-0.001,-0.5,0.2742420239559735,10,1,100,-0.3203658460058615,-10,-1,-100,19270.145435918006,-0.012285047607576108,0.021562333019051257,0.9996920242755042,59.199821801752265,3.592643629410856,260.56006512773416,-78.51564526312603,-120.0439453125,4761.76025390625,True
1599388021.8094687,0.0,10,0.5,0.5,6.014959142303467,-0.2,-0.001,-0.5,0.23485540918443315,10,1,100,0.14705321861794435,-10,-1,-100,19270.145435918006,-0.012285047607576108,0.021562333019051257,0.9996920242755042,59.199821801752265,3.592643629410856,260.56006512773416,-78.51564526312603,-120.0439453125,4761.76025390625,True
1599388021.8473978,0.0,10,0.5,0.5,11.15287108078003,-0.2,-0.001,-0.5,0.24557175529390393,10,1,100,-0.3362658162067121,-10,-1,-100,19263.827716567204,-0.007910264135404894,0.02165474509686835,0.9997342145470954,60.20742343346146,3.6574552810912073,267.5665664118575,-79.244971735838,-127.37753295898438,4761.76025390625,True
1599388021.8833106,0.0,10,0.5,0.5,9.748704918670654,-0.2,-0.001,-0.5,0.22066373232651204,10,1,100,-0.14126812852209247,-10,-1,-100,19260.646978879697,-0.005726939479842706,0.021508222043142042,0.9997522685889426,60.462400938643306,3.674429088061641,269.99059704096993,-79.60958510750993,-130.60325622558594,4761.76025390625,True
1599388021.9211667,0.0,10,0.5,0.5,8.140253916168213,-0.2,-0.001,-0.5,0.23565492414412062,10,1,100,0.07475370197390578,-10,-1,-100,19260.646978879697,-0.005726939479842706,0.021508222043142042,0.9997522685889426,60.462400938643306,3.674429088061641,269.99059704096993,-79.60958510750993,-130.60325622558594,4761.76025390625,True
1599388021.9540782,0.0,10,0.5,0.5,10.194505855560303,-0.2,-0.001,-0.5,0.23060767698590529,10,1,100,-0.1356872936681303,-10,-1,-100,19257.451657593367,-0.003834845292735292,0.021459257192203922,0.999762368886897,60.587457188542075,3.6832714825349164,271.8426261312937,-79.9741769632499,-133.53160095214844,4761.76025390625,True
1599388021.9930103,0.0,10,0.5,0.5,9.682075368499756,-0.2,-0.001,-0.5,0.22697672109050032,10,1,100,-0.05450937740165791,-10,-1,-100,19255.848527967464,-0.0028723386463935133,0.021379815881518337,0.9997672994970245,60.61377952787597,3.685405179485997,272.6078832022717,-80.1564669452107,-134.88563537597656,4761.76025390625,True
1599388022.0319061,0.0,10,0.5,0.5,12.283500078582765,-0.2,-0.001,-0.5,0.19161129478476657,10,1,100,-0.3519685123136403,-10,-1,-100,19249.399553667638,0.0006874299270188815,0.020984562307931734,0.9997795634962939,60.54176417607155,3.682643979484956,274.8704737537507,-80.88560107148633,-139.56369018554688,4761.76025390625,True
1599388022.0734875,0.0,10,0.5,0.5,9.948240425872804,-0.2,-0.001,-0.5,0.23120317095198947,10,1,100,0.0017636785362675203,-10,-1,-100,19249.399553667638,0.0006874299270188815,0.020984562307931734,0.9997795634962939,60.54176417607155,3.682643979484956,274.8704737537507,-80.88560107148633,-139.56369018554688,4761.76025390625,True
1599388022.1103895,0.0,10,0.5,0.5,12.398607581329346,-0.2,-0.001,-0.5,0.18458807820492745,10,1,100,-0.3430511270433542,-10,-1,-100,19242.89224908664,0.0038038090365073614,0.02056061564906467,0.9997813721614068,60.31263392420878,3.6696662614502285,276.408913116668,-81.61471265160984,-143.05953979492188,4761.76025390625,True
1599388022.1483204,0.0,10,0.5,0.5,10.653835568237305,-0.2,-0.001,-0.5,0.22692262334663724,10,1,100,-0.03349181502919099,-10,-1,-100,19242.89224908664,0.0038038090365073614,0.02056061564906467,0.9997813721614068,60.31263392420878,3.6696662614502285,276.408913116668,-81.61471265160984,-143.05953979492188,4761.76025390625,True
1599388022.1861863,0.0,10,0.5,0.5,11.570550579833984,-0.2,-0.001,-0.5,0.19170038490205565,10,1,100,-0.1950463796324827,-10,-1,-100,19239.61672388634,0.005257860663224483,0.02024132413354119,0.9997812979339866,60.188549311532235,3.6624235201363398,277.1278386082862,-81.97926320869543,-144.3658447265625,4761.76025390625,True
1599388022.2235966,0.0,10,0.5,0.5,11.625619488525391,-0.2,-0.001,-0.5,0.20632282269005522,10,1,100,-0.1899994579021017,-10,-1,-100,19236.326616712264,0.006517896573354038,0.020085191289215758,0.9997770261989093,60.072685866557656,3.655600568503994,277.8800871504425,-82.34381017221038,-145.37411499023438,4761.76025390625,True
1599388022.2684765,0.0,10,0.5,0.5,11.796068438720704,-0.2,-0.001,-0.5,0.17861830875908336,10,1,100,-0.2611897281652946,-10,-1,-100,19231.364115150413,0.008297451529765607,0.019692819989372577,0.9997716464968275,59.943222169065244,3.647963627832903,279.2067443075712,-82.89062189291099,-146.33523559570312,4761.76025390625,True
1599388022.3064206,0.0,10,0.5,0.5,11.31708133392334,-0.2,-0.001,-0.5,0.21767389853802446,10,1,100,-0.08463667162509858,-10,-1,-100,19231.364115150413,0.008297451529765607,0.019692819989372577,0.9997716464968275,59.943222169065244,3.647963627832903,279.2067443075712,-82.89062189291099,-146.33523559570312,4761.76025390625,True
1599388022.3443193,0.0,10,0.5,0.5,11.490749258422852,-0.2,-0.001,-0.5,0.17547828411012695,10,1,100,-0.30123184326540914,-10,-1,-100,19224.696411830722,0.01025374909830515,0.019310873860076936,0.9997609468168824,59.87670841259104,3.6441525732354254,281.4633417570199,-83.61967980510485,-146.58108520507812,4761.76025390625,True
1599388022.3842125,0.0,10,0.5,0.5,11.369129402160645,-0.2,-0.001,-0.5,0.21345805870647838,10,1,100,-0.10701094585055888,-10,-1,-100,19224.696411830722,0.01025374909830515,0.019310873860076936,0.9997609468168824,59.87670841259104,3.6441525732354254,281.4633417570199,-83.61967980510485,-146.58108520507812,4761.76025390625,True
1599388022.4221106,0.0,10,0.5,0.5,10.715651119995119,-0.2,-0.001,-0.5,0.17602995164495722,10,1,100,-0.27771285206790614,-10,-1,-100,19217.97038604063,0.011793651802331308,0.018972499197718963,0.9997504458870513,59.95187592603988,3.6489937675389177,284.3882349982555,-84.34869643741166,-145.6458740234375,4761.76025390625,True
1599388022.4610069,0.0,10,0.5,0.5,11.18386492919922,-0.2,-0.001,-0.5,0.20966621156973322,10,1,100,-0.12483320385282157,-10,-1,-100,19217.97038604063,0.011793651802331308,0.018972499197718963,0.9997504458870513,59.95187592603988,3.6489937675389177,284.3882349982555,-84.34869643741166,-145.6458740234375,4761.76025390625,True
1599388022.5009005,0.0,10,0.5,0.5,10.547662844848634,-0.2,-0.001,-0.5,0.18880889850077176,10,1,100,-0.19519958559167894,-10,-1,-100,19214.58550319716,0.012423249616434272,0.018784716409010416,0.9997463664842202,60.03867113728485,3.654463072611111,286.08823941528095,-84.71318479491131,-144.73614501953125,4761.76025390625,True
1599388022.5407987,0.0,10,0.5,0.5,9.659112854003908,-0.2,-0.001,-0.5,0.18989089330346387,10,1,100,-0.21057241293830029,-10,-1,-100,19209.480843463098,0.013127528386424501,0.01862545555315444,0.9997403464919784,60.212029962619674,3.6654138918331394,288.85305797427196,-85.2598883978892,-142.81674194335938,4761.76025390625,True
1599388022.579694,0.0,10,0.5,0.5,10.067952404785157,-0.2,-0.001,-0.5,0.19819528688049876,10,1,100,-0.16213814678984256,-10,-1,-100,19207.772001097095,0.013318994194747896,0.01855792668043652,0.9997390698332059,60.27764737146593,3.6695832523928966,289.8149967755569,-85.44211489011127,-142.0298309326172,4761.76025390625,True
1599388022.6186187,0.0,10,0.5,0.5,7.741122734069826,-0.2,-0.001,-0.5,0.18554800436018232,10,1,100,-0.19519089184895475,-10,-1,-100,19200.900187731488,0.013786205217823344,0.01838309186182926,0.9997359663827703,60.536142862497115,3.6863064186014562,293.6586398693612,-86.17098071885151,-138.14404296875,4761.76025390625,True
1599388022.6584833,0.0,10,0.5,0.5,8.01418207550049,-0.2,-0.001,-0.5,0.19197547029549528,10,1,100,-0.15856897054990074,-10,-1,-100,19197.44241574104,0.013871408400951015,0.018284129989259497,0.9997366026206652,60.6390126986685,3.6932763687178682,295.4610098579029,-86.53539154526604,-135.7595977783203,4761.76025390625,True
1599388022.697407,0.0,10,0.5,0.5,9.205347106933594,-0.2,-0.001,-0.5,0.2017307885524604,10,1,100,-0.1506060479242521,-10,-1,-100,19197.44241574104,0.013871408400951015,0.018284129989259497,0.9997366026206652,60.6390126986685,3.6932763687178682,295.4610098579029,-86.53539154526604,-135.7595977783203,4761.76025390625,True
1599388022.7372718,0.0,10,0.5,0.5,7.328924858093263,-0.2,-0.001,-0.5,0.19268112006868954,10,1,100,-0.14798212934146884,-10,-1,-100,19193.970067927963,0.013842487362133726,0.0182031409030435,0.999738481406459,60.70065817779547,3.697908775740323,297.0666741035507,-86.89979076542475,-133.08050537109375,4761.76025390625,True
1599388022.77617,0.0,10,0.5,0.5,6.586015962219239,-0.2,-0.001,-0.5,0.18934122131306066,10,1,100,-0.13783752927608323,-10,-1,-100,19190.4831444124,0.013720709382374659,0.018100158775029636,0.9997420299189004,60.7012342174483,3.6990114637938976,298.37556840602423,-87.26418223009387,-130.1074981689453,4761.76025390625,True
1599388022.8145754,0.0,10,0.5,0.5,5.784026806640625,-0.2,-0.001,-0.5,0.1865060036307678,10,1,100,-0.12573594885483189,-10,-1,-100,19186.98164516792,0.013496835978505886,0.01798186460252805,0.9997472120311143,60.61778373684127,3.695193280897475,299.2705931740829,-87.62857121443211,-126.840576171875,4761.76025390625,True
1599388022.860458,0.0,10,0.5,0.5,4.923149694824219,-0.2,-0.001,-0.5,0.18303411247596374,10,1,100,-0.11346234132532905,-10,-1,-100,19183.46557018056,0.013180188102742272,0.017843662375751287,0.9997539128978673,60.426217897021324,3.6849792141775533,299.62708927153045,-87.99296441890999,-123.27992248535156,4761.76025390625,True
1599388022.8983512,0.0,10,0.5,0.5,4.003383802795411,-0.2,-0.001,-0.5,0.1779058060355712,10,1,100,-0.10070017739897558,-10,-1,-100,19179.934919281863,0.012775046237899036,0.01767242923542518,0.999762213448047,60.10034707587259,3.666746379787967,299.3078672757398,-88.35736979994275,-119.42584228515625,4761.76025390625,True
1599388022.9362488,0.0,10,0.5,0.5,-0.08351307220458981,-0.2,-0.001,-0.5,0.14395240361600598,10,1,100,-0.02580781175251398,-10,-1,-100,19172.829885638203,0.011725575948872384,0.01720910661965411,0.9997831552481872,58.93484621431668,3.5992315494597524,296.0515427263385,-89.08625613612601,-110.83811950683594,4761.76025390625,True
1599388022.9761431,0.0,10,0.5,0.5,0.8938890411376952,-0.2,-0.001,-0.5,0.15671988372619444,10,1,100,-0.0614561446901488,-10,-1,-100,19169.25550017727,0.0110968623059517,0.016905259832621672,0.9997955150114219,58.11568304823685,3.5510160744599335,293.19576429374274,-89.45075693280717,-106.10488891601562,4761.76025390625,True
1599388023.015039,0.0,10,0.5,0.5,3.2569118423461916,-0.2,-0.001,-0.5,0.1869392957446569,10,1,100,-0.12410529579333751,-10,-1,-100,19169.25550017727,0.0110968623059517,0.016905259832621672,0.9997955150114219,58.11568304823685,3.5510160744599335,293.19576429374274,-89.45075693280717,-106.10488891601562,4761.76025390625,True
1599388023.053934,0.0,10,0.5,0.5,-0.15029521636962873,-0.2,-0.001,-0.5,0.1480061390343524,10,1,100,-0.051756776133565066,-10,-1,-100,19165.666533591808,0.01044159334805547,0.016552665528009092,0.9998084728548121,57.16918702466754,3.494857408255217,289.66130758315364,-89.81530411075262,-101.24202728271484,4761.76025390625,True
1599388023.0926778,0.0,10,0.5,0.5,-3.0461976875305172,-0.2,-0.001,-0.5,0.11168650371692927,10,1,100,0.0046675756306634175,-10,-1,-100,19160.255738781532,0.009336063656704908,0.015903520806804038,0.9998299435110679,55.56228522133832,3.398623404371716,283.3314658624314,-90.3622202282229,-93.63648223876953,4761.76025390625,True
1599388023.1316967,0.0,10,0.5,0.5,0.7523625228881837,-0.2,-0.001,-0.5,0.1763629149191892,10,1,100,-0.10543185902996824,-10,-1,-100,19160.255738781532,0.009336063656704908,0.015903520806804038,0.9998299435110679,55.56228522133832,3.398623404371716,283.3314658624314,-90.3622202282229,-93.63648223876953,4761.76025390625,True
1599388023.1705933,0.0,10,0.5,0.5,-6.674667664337158,-0.2,-0.001,-0.5,0.05931484921618768,10,1,100,0.0652284692788021,-10,-1,-100,19152.99029438966,0.007788702875448294,0.01484153804595515,0.9998595225610188,56.29715378434289,3.4448719478552734,289.53076064709813,-91.09152139296482,-83.03207397460938,4761.76025390625,True
1599388023.2114832,0.0,10,0.5,0.5,-5.046467339324951,-0.2,-0.001,-0.5,0.0933771825950942,10,1,100,0.0034070910705823743,-10,-1,-100,19149.335697347648,0.006949416518477849,0.014188719131109017,0.9998751851403609,58.16990809159184,3.559534256111644,300.42946490592783,-91.45604829869771,-77.79022216796875,4761.76025390625,True
1599388023.2494154,0.0,10,0.5,0.5,-2.430446471405029,-0.2,-0.001,-0.5,0.1582797595325657,10,1,100,-0.07986680268045934,-10,-1,-100,19149.335697347648,0.006949416518477849,0.014188719131109017,0.9998751851403609,58.16990809159184,3.559534256111644,300.42946490592783,-91.45604829869771,-77.79022216796875,4761.76025390625,True
1599388023.2882795,0.0,10,0.5,0.5,-6.048856525421142,-0.2,-0.001,-0.5,0.08757385247546913,10,1,100,0.006519468828976277,-10,-1,-100,19145.666521887062,0.006169751115286857,0.013549260833539632,0.9998891697093435,59.86935739699708,3.6633366702779875,310.5106871294242,-91.82048205471067,-72.6275634765625,4761.76025390625,True
1599388023.3301659,0.0,10,0.5,0.5,-8.539473853302002,-0.2,-0.001,-0.5,0.02855804228403687,10,1,100,0.06370059944765519,-10,-1,-100,19140.135432377807,0.004947140738691248,0.012435176078010703,0.9999104420869003,61.946559877451925,3.7899438225960176,323.30716815612124,-92.3669745247149,-65.38861083984375,4761.76025390625,True
1599388023.3690617,0.0,10,0.5,0.5,-9.527713262176515,-0.2,-0.001,-0.5,0.008048267249672017,10,1,100,0.07274149711446898,-10,-1,-100,19134.571559595526,0.0037596489950061885,0.011240259191346217,0.9999297583394275,63.491826905415884,3.884093669862542,333.44485048109283,-92.91330990829778,-58.812652587890625,4761.76025390625,True
1599388023.407993,0.0,10,0.5,0.5,-6.244463359832764,-0.2,-0.001,-0.5,0.12697345585199304,10,1,100,-0.045273955922942415,-10,-1,-100,19134.571559595526,0.0037596489950061885,0.011240259191346217,0.9999297583394275,63.491826905415884,3.884093669862542,333.44485048109283,-92.91330990829778,-58.812652587890625,4761.76025390625,True
1599388023.447851,0.0,10,0.5,0.5,-9.058100664520264,-0.2,-0.001,-0.5,0.037368409732893404,10,1,100,0.04043357143145779,-10,-1,-100,19130.84410223551,0.0029871598493397735,0.010430817863573744,0.9999411357248643,64.27245769851154,3.9317882095599366,338.943247060394,-93.27746464564049,-54.7999267578125,4761.76025390625,True
1599388023.4857864,0.0,10,0.5,0.5,-9.657263917541504,-0.2,-0.001,-0.5,0.027002509817255896,10,1,100,0.04758307687680292,-10,-1,-100,19127.10207997379,0.0022266782433205457,0.009606291973333368,0.9999513793472778,64.88666744725914,3.969520442608751,343.5946231893786,-93.64157643583987,-51.084381103515625,4761.76025390625,True
1599388023.5246801,0.0,10,0.5,0.5,-10.195961266326904,-0.2,-0.001,-0.5,0.009647039378002473,10,1,100,0.05435182127326993,-10,-1,-100,19123.345494428766,0.0014802603664382608,0.008704670731697514,0.9999610180085523,65.36238440920071,3.9990238708523487,347.5369078658233,-94.0056542345309,-47.66693115234375,4761.76025390625,True
1599388023.565536,0.0,10,0.5,0.5,-10.676855218505859,-0.2,-0.001,-0.5,0.005603580438301031,10,1,100,0.060394849025871944,-10,-1,-100,19119.574346304405,0.0007539036836036803,0.00785480074900864,0.9999688663825634,65.72643958547577,4.02194194379851,350.9045853409632,-94.36970582707839,-44.54547119140625,4761.76025390625,True
1599388023.6044312,0.0,10,0.5,0.5,-11.097076559448242,-0.2,-0.001,-0.5,-0.006083246455826863,10,1,100,0.0671077226975878,-10,-1,-100,19115.788637142745,3.8948574185594416e-05,0.0069822993723420886,0.999975622692115,66.00443759229593,4.039826440184869,353.8278537211846,-94.73373714356298,-41.721038818359375,4761.76025390625,True
1599388023.643361,0.0,10,0.5,0.5,-13.019982794189454,-0.2,-0.001,-0.5,-0.10962775343662974,10,1,100,0.15002793363077255,-10,-1,-100,19108.173536594026,-0.001358548472001352,0.005254353893509531,0.9999852729471626,66.39286709505224,4.065937906653,358.8089882361012,-95.4617558061984,-36.96173095703125,4761.76025390625,True
1599388023.6833248,0.0,10,0.5,0.5,-11.999123626708986,-0.2,-0.001,-0.5,-0.030253467802006065,10,1,100,0.08675894474380075,-10,-1,-100,19104.344146164018,-0.002046275010480215,0.00441320093237433,0.9999881681380596,66.5428300366794,4.076524524670864,361.07425722474557,-95.82574814488058,-35.02642822265625,4761.76025390625,True
1599388023.721222,0.0,10,0.5,0.5,-12.183349438476563,-0.2,-0.001,-0.5,-0.03125246126489007,10,1,100,0.09579258650332675,-10,-1,-100,19100.50019638613,-0.0027461358558878114,0.0036477401724989878,0.9999895763104208,66.68581732293772,4.0868046542917655,363.30953515570025,-96.18973022445513,-33.386260986328125,4761.76025390625,True
1599388023.7601519,0.0,10,0.5,0.5,-11.366466055297852,-0.2,-0.001,-0.5,0.04441487113209294,10,1,100,0.02657582962202503,-10,-1,-100,19100.50019638613,-0.0027461358558878114,0.0036477401724989878,0.9999895763104208,66.68581732293772,4.0868046542917655,363.30953515570025,-96.18973022445513,-33.386260986328125,4761.76025390625,True
1599388023.80052,0.0,10,0.5,0.5,-12.30961233215332,-0.2,-0.001,-0.5,-0.0418910275356884,10,1,100,0.10268215082483957,-10,-1,-100,19096.64168791566,-0.0034320971533216764,0.0028700433837181094,0.9999899917299703,66.83560258714444,4.09759667239162,365.58971668976085,-96.55370211460401,-32.04254150390625,4761.76025390625,True
1599388023.8384538,0.0,10,0.5,0.5,-12.374352941894532,-0.2,-0.001,-0.5,-0.04419459779423697,10,1,100,0.11097219860700872,-10,-1,-100,19092.76862081699,-0.004124524452510066,0.0021497140423010768,0.9999891834552896,67.00291594028039,4.109536485795377,367.97415421803936,-96.91766257614725,-30.99407958984375,4761.76025390625,True
1599388023.877314,0.0,10,0.5,0.5,-12.379104742431641,-0.2,-0.001,-0.5,-0.053164597170327156,10,1,100,0.11740685449298721,-10,-1,-100,19088.88099555939,-0.004806035519552179,0.0014208520137950205,0.999987441522212,67.19625017214362,4.12312549456726,370.51078517913646,-97.281609926041,-30.241790771484375,4761.76025390625,True
1599388023.9162102,0.0,10,0.5,0.5,-12.325329626464844,-0.2,-0.001,-0.5,-0.05279358127218246,10,1,100,0.12671743750321984,-10,-1,-100,19084.978813025868,-0.005503839322626331,0.0007690643505540469,0.9999845580271404,67.42202641216926,4.138739951782369,373.2368067449897,-97.64554205165108,-29.78424072265625,4761.76025390625,True
1599388023.9551058,0.0,10,0.5,0.5,-12.190991186523439,-0.2,-0.001,-0.5,-0.09084124342063661,10,1,100,0.17237331999860783,-10,-1,-100,19079.09824554529,-0.006546910712025392,-0.00016214353884992736,0.9999785556048697,67.8300569394031,4.166450059109584,377.73300692061025,-98.19140607921985,-29.651885986328125,4761.76025390625,True
1599388023.9900126,0.0,10,0.5,0.5,-11.929919509887696,-0.2,-0.001,-0.5,-0.06067130693011506,10,1,100,0.14591625885325932,-10,-1,-100,19075.159672453883,-0.007248001587979889,-0.0007271358844962002,0.9999734685212334,68.14954657488852,4.187837140115238,381.0122172913047,-98.55528891455734,-29.93243408203125,4761.76025390625,True
1599388024.0309112,0.0,10,0.5,0.5,-12.071372418212892,-0.2,-0.001,-0.5,-0.0049430158911716055,10,1,100,0.07653586627402617,-10,-1,-100,19075.159672453883,-0.007248001587979889,-0.0007271358844962002,0.9999734685212334,68.14954657488852,4.187837140115238,381.0122172913047,-98.55528891455734,-29.93243408203125,4761.76025390625,True
1599388024.069807,0.0,10,0.5,0.5,-11.669481353759767,-0.2,-0.001,-0.5,-0.060848741369184056,10,1,100,0.1550608890239498,-10,-1,-100,19071.206544993445,-0.00795651138287376,-0.0012299320344981263,0.9999675900717007,68.50475801107973,4.2113986612197705,384.5070079927253,-98.91914755862678,-30.507568359375,4761.76025390625,True
1599388024.1097007,0.0,10,0.5,0.5,-11.34858924560547,-0.2,-0.001,-0.5,-0.06120007411526805,10,1,100,0.1628664364010199,-10,-1,-100,19067.23886380566,-0.00866619777586665,-0.0016850832567671206,0.9999610279958552,68.8908293373197,4.236817662718708,388.1922653348901,-99.28297959952131,-31.37744140625,4761.76025390625,True
1599388024.1545796,0.0,10,0.5,0.5,-10.968263394165039,-0.2,-0.001,-0.5,-0.06407134815251381,10,1,100,0.17057941897855802,-10,-1,-100,19063.256630323944,-0.00937610337300146,-0.002120111565141835,0.9999537958388327,69.30042234155484,4.263620526996621,392.0284473692597,-99.64678293917234,-32.542388916015625,4761.76025390625,True
1599388024.1924782,0.0,10,0.5,0.5,-9.302524417114258,-0.2,-0.001,-0.5,-0.09093379105507095,10,1,100,0.2567007528566391,-10,-1,-100,19055.248510601465,-0.010798366071545558,-0.002754552370289694,0.9999379019376274,70.14893666755273,4.318719547926215,399.9245301272172,-100.37429960294718,-35.754241943359375,4761.76025390625,True
1599388024.2314115,0.0,10,0.5,0.5,-10.908079760742188,-0.2,-0.001,-0.5,-0.028052170115685834,10,1,100,0.1152111098940517,-10,-1,-100,19055.248510601465,-0.010798366071545558,-0.002754552370289694,0.9999379019376274,70.14893666755273,4.318719547926215,399.9245301272172,-100.37429960294718,-35.754241943359375,4761.76025390625,True
1599388024.2712681,0.0,10,0.5,0.5,-9.474556259155275,-0.2,-0.001,-0.5,-0.05416201858008636,10,1,100,0.19331609766597715,-10,-1,-100,19051.22262718226,-0.01150234428618212,-0.002987456205045525,0.9999293830972991,70.55906901998631,4.345169177755967,403.82093725465523,-100.73801262906365,-37.80145263671875,4761.76025390625,True
1599388024.3163922,0.0,10,0.5,0.5,-8.859023681640625,-0.2,-0.001,-0.5,-0.045609472245793814,10,1,100,0.1984656898161224,-10,-1,-100,19047.18219582038,-0.01218305140197429,-0.003117428989767403,0.999920924321034,70.93604122025842,4.3693665435700915,407.5457306604262,-101.10169719122862,-40.141998291015625,4761.76025390625,True
1599388024.3565254,0.0,10,0.5,0.5,-6.133869863891601,-0.2,-0.001,-0.5,-0.04826229042348654,10,1,100,0.2782309775209166,-10,-1,-100,19039.05769414082,-0.01352094302084771,-0.0032561694199114786,0.9999032860534741,71.50313219065255,4.4054463403056685,413.9663758678639,-101.82899465267371,-45.705413818359375,4761.76025390625,True
1599388024.3994105,0.0,10,0.5,0.5,-6.658646957397462,-0.2,-0.001,-0.5,-0.03065715466364422,10,1,100,0.21409695023258257,-10,-1,-100,19034.973625506973,-0.014147831487830671,-0.003219437644152016,0.9998947315019953,71.64403912112073,4.414219926088307,416.3684328059785,-102.19261894556303,-48.92730712890625,4761.76025390625,True
1599388024.4403017,0.0,10,0.5,0.5,-5.807183871459961,-0.2,-0.001,-0.5,-0.021078386656501746,10,1,100,0.2147277003387652,-10,-1,-100,19030.875011972035,-0.014717191613416978,-0.0030966996827060675,0.9998869009653488,71.65090587294834,4.414388358142427,417.9964624039937,-102.55623777617652,-52.44232177734375,4761.76025390625,True
1599388024.4791994,0.0,10,0.5,0.5,-7.56244020690918,-0.2,-0.001,-0.5,-0.03358913918091757,10,1,100,0.15853860678267825,-10,-1,-100,19030.875011972035,-0.014717191613416978,-0.0030966996827060675,0.9998869009653488,71.65090587294834,4.414388358142427,417.9964624039937,-102.55623777617652,-52.44232177734375,4761.76025390625,True
1599388024.5205972,0.0,10,0.5,0.5,-3.484254910278321,-0.2,-0.001,-0.5,-0.004392728149847883,10,1,100,0.24662630197995794,-10,-1,-100,19024.69981987239,-0.0155118427695463,-0.0028295807027434268,0.9998756803757853,71.33869055238641,4.394152954669105,418.55096397343544,-103.10167922817739,-58.265167236328125,4761.76025390625,True
1599388024.5604908,0.0,10,0.5,0.5,-4.93172177734375,-0.2,-0.001,-0.5,-0.018025013274239738,10,1,100,0.19377785821271284,-10,-1,-100,19022.634149749647,-0.015747589199967382,-0.0027096346789573372,0.9998723275070152,71.13282932282988,4.380997599294437,418.1341673614793,-103.28350301194959,-60.352691650390625,4761.76025390625,True
1599388024.6003847,0.0,10,0.5,0.5,-2.8961892822265636,-0.2,-0.001,-0.5,-0.0003965700989553081,10,1,100,0.22111508346466086,-10,-1,-100,19018.491899382207,-0.01620463210643429,-0.002439798334727565,0.9998657196255809,70.54347110270726,4.343605889030729,416.2410395236711,-103.64717604762426,-64.74771118164062,4761.76025390625,True
1599388024.642271,0.0,10,0.5,0.5,-1.8091010925292972,-0.2,-0.001,-0.5,0.007328904405178947,10,1,100,0.21566967435519852,-10,-1,-100,19014.335100796772,-0.016565707151286465,-0.0021245471208770628,0.9998605220960116,69.69048719236507,4.2899095959325395,412.7636793272704,-104.01089586180177,-69.43585205078125,4761.76025390625,True
1599388024.6811674,0.0,10,0.5,0.5,-0.6628770965576174,-0.2,-0.001,-0.5,0.013718587689825663,10,1,100,0.21691248345956213,-10,-1,-100,19010.163751379587,-0.016900012419301075,-0.0017804398104701929,0.999855599381385,68.5379766453677,4.2178801251679285,407.471131523388,-104.37467836863506,-74.41717529296875,4761.76025390625,True
1599388024.7350233,0.0,10,0.5,0.5,0.5422767852783204,-0.2,-0.001,-0.5,0.01979320493998147,10,1,100,0.2117489713512815,-10,-1,-100,19005.97784867906,-0.017152078309118062,-0.0014134884772757815,0.9998518931621835,67.05614682431842,4.125898534878719,400.1653166600849,-104.7385392295338,-79.69168090820312,4761.76025390625,True
1599388024.7759147,0.0,10,0.5,0.5,1.8063391754150389,-0.2,-0.001,-0.5,0.024995969817358552,10,1,100,0.20800169309198133,-10,-1,-100,19001.7773884536,-0.017342645654860645,-0.0010341475304978809,0.9998490702003853,65.21627160436474,4.012420928325729,390.6514031625305,-105.10249284433617,-85.25933837890625,4761.76025390625,True
1599388024.8161669,0.0,10,0.5,0.5,3.0934748046875002,-0.2,-0.001,-0.5,0.029419066178834406,10,1,100,0.20263859686267388,-10,-1,-100,18997.56236776756,-0.01746365900105655,-0.0006511021773131122,0.9998472866794456,64.26052323398703,3.9540706325410935,386.37285453227497,-105.46652003366292,-91.06935119628906,4761.76025390625,True
1599388024.8540645,0.0,10,0.5,0.5,8.213474989318847,-0.2,-0.001,-0.5,0.07224408920985868,10,1,100,0.1957072044381717,-10,-1,-100,18989.08865562675,-0.017507644086908965,8.410441180340832e-05,0.9998467259160146,68.3162360888719,4.206807444489424,413.8352913539486,-106.19426280789153,-102.52762603759766,4761.76025390625,True
1599388024.8949559,0.0,10,0.5,0.5,6.231936431121826,-0.2,-0.001,-0.5,0.03581674509116325,10,1,100,0.18378579858992833,-10,-1,-100,18984.82997363934,-0.017436717336814865,0.00041842472438073257,0.9998478813345888,70.00512901240603,4.313109095572495,425.64111949330504,-106.55795823657283,-107.87418365478516,4761.76025390625,True
1599388024.9328866,0.0,10,0.5,0.5,3.56420080871582,-0.2,-0.001,-0.5,0.0027362262741395032,10,1,100,0.19115042617167813,-10,-1,-100,18984.82997363934,-0.017436717336814865,0.00041842472438073257,0.9998478813345888,70.00512901240603,4.313109095572495,425.64111949330504,-106.55795823657283,-107.87418365478516,4761.76025390625,True
1599388024.9717495,0.0,10,0.5,0.5,8.796432218170168,-0.2,-0.001,-0.5,0.0494933693392392,10,1,100,0.16936621040492453,-10,-1,-100,18978.4146810855,-0.017236929125692316,0.0008405369291297079,0.99985107979738,72.20779085480794,4.4525300500247464,441.46753351936394,-107.10330332337296,-115.34171295166016,4761.76025390625,True
1599388025.0116432,0.0,10,0.5,0.5,9.828718687438965,-0.2,-0.001,-0.5,0.04552018770089737,10,1,100,0.1544385236041385,-10,-1,-100,18971.966675772448,-0.01691824329018674,0.0011849280352728623,0.9998561741518253,73.74931938128015,4.550949822600854,453.37481745033733,-107.64845545712049,-122.14250183105469,4761.76025390625,True
1599388025.049575,0.0,10,0.5,0.5,9.348683172607423,-0.2,-0.001,-0.5,0.029087439827226395,10,1,100,0.15916940596467588,-10,-1,-100,18967.64983640518,-0.016670888178292233,0.0013453270362150844,0.9998601260088895,74.44559233756472,4.595723509838817,459.3248377828392,-108.01181250520152,-126.30624389648438,4761.76025390625,True
1599388025.0884378,0.0,10,0.5,0.5,7.2724991790771485,-0.2,-0.001,-0.5,0.013394527148713399,10,1,100,0.18391543525682696,-10,-1,-100,18967.64983640518,-0.016670888178292233,0.0013453270362150844,0.9998601260088895,74.44559233756472,4.595723509838817,459.3248377828392,-108.01181250520152,-126.30624389648438,4761.76025390625,True
1599388025.1296713,0.0,10,0.5,0.5,12.485091650390626,-0.2,-0.001,-0.5,0.03477737792450574,10,1,100,0.1184447080172084,-10,-1,-100,18958.97256068501,-0.01607590804360571,0.0015368749824980282,0.9998695930949504,75.21171309990564,4.64534045795111,467.4256969232148,-108.73840912626532,-133.74539184570312,4761.76025390625,True
1599388025.1695633,0.0,10,0.5,0.5,11.064048962402344,-0.2,-0.001,-0.5,0.017519649773536688,10,1,100,0.13974602306522493,-10,-1,-100,18954.612126135966,-0.01572964366729585,0.0015514388927830094,0.9998750778709617,75.35124086332773,4.6544664267126805,469.98416480240627,-109.10167352804685,-137.0212860107422,4761.76025390625,True
1599388025.2104535,0.0,10,0.5,0.5,11.517296446228029,-0.2,-0.001,-0.5,0.013819433242652977,10,1,100,0.13674035660661396,-10,-1,-100,18950.237161499914,-0.015388999995560934,0.0015286899460128852,0.9998804137426565,75.37102396254134,4.655810486912231,471.80074315344507,-109.46492804262907,-140.00131225585938,4761.76025390625,True
1599388025.250347,0.0,10,0.5,0.5,11.911375738525392,-0.2,-0.001,-0.5,0.00773211420997797,10,1,100,0.12951297817429447,-10,-1,-100,18945.84766673972,-0.015015506543694922,0.0014506881921763394,0.9998862085592567,75.30324351627912,4.651414404294358,473.0698332995421,-109.82817928030008,-142.68588256835938,4761.76025390625,True
1599388025.2902405,0.0,10,0.5,0.5,10.573106407928467,-0.2,-0.001,-0.5,0.01566894797166984,10,1,100,0.1666131096065743,-10,-1,-100,18945.84766673972,-0.015015506543694922,0.0014506881921763394,0.9998862085592567,75.30324351627912,4.651414404294358,473.0698332995421,-109.82817928030008,-142.68588256835938,4761.76025390625,True
1599388025.3281395,0.0,10,0.5,0.5,12.24895696258545,-0.2,-0.001,-0.5,0.0021664239742532187,10,1,100,0.12433351482362864,-10,-1,-100,18941.44364193047,-0.014633347691843707,0.0013269995526836468,0.9998920462767552,75.17434626097071,4.642971745796211,473.9524556737724,-110.19143164485492,-145.07498168945312,4761.76025390625,True
1599388025.3690293,0.0,10,0.5,0.5,11.816745645904543,-0.2,-0.001,-0.5,0.006120201205516625,10,1,100,0.14081696912479713,-10,-1,-100,18939.23618068802,-0.01443832865621229,0.0012496727872215,0.9998949809772725,75.09463598528762,4.637724506790964,474.2959446120976,-110.37305917030316,-146.15872192382812,4761.76025390625,True
1599388025.4119158,0.0,10,0.5,0.5,13.795974807739258,-0.2,-0.001,-0.5,-0.03379699576484944,10,1,100,0.07108971810993434,-10,-1,-100,18930.370009610546,-0.013629698705929958,0.0008161201771997736,0.9999067782853769,74.73671708869064,4.6139194849952725,475.4083491269567,-111.09958114021369,-149.75588989257812,4761.76025390625,True
1599388025.4567947,0.0,10,0.5,0.5,12.00015216217041,-0.2,-0.001,-0.5,0.009521384451515905,10,1,100,0.15162385867974185,-10,-1,-100,18930.370009610546,-0.013629698705929958,0.0008161201771997736,0.9999067782853769,74.73671708869064,4.6139194849952725,475.4083491269567,-111.09958114021369,-149.75588989257812,4761.76025390625,True
1599388025.4994547,0.0,10,0.5,0.5,13.694263484191895,-0.2,-0.001,-0.5,-0.055521810442736755,10,1,100,0.05800491268215133,-10,-1,-100,18921.44571594172,-0.012781382096381282,0.00022529950257839965,0.9999182894176106,74.42026950123467,4.592270841969745,476.761668048251,-111.82611782653451,-152.17269897460938,4761.76025390625,True
1599388025.5383506,0.0,10,0.5,0.5,13.02503463897705,-0.2,-0.001,-0.5,-0.03872104489827536,10,1,100,0.09436039011165678,-10,-1,-100,18916.96177306294,-0.01234422543349791,-0.00015805776255171242,0.9999237946544681,74.31223072866277,4.584461688001117,477.75274780896837,-112.18938629731645,-152.9392547607422,4761.76025390625,True
1599388025.5762482,0.0,10,0.5,0.5,12.643676132202149,-0.2,-0.001,-0.5,-0.0005548116597691285,10,1,100,0.13770288813898326,-10,-1,-100,18916.96177306294,-0.01234422543349791,-0.00015805776255171242,0.9999237946544681,74.31223072866277,4.584461688001117,477.75274780896837,-112.18938629731645,-152.9392547607422,4761.76025390625,True
1599388025.6161416,0.0,10,0.5,0.5,12.974984420776368,-0.2,-0.001,-0.5,-0.0406495390202775,10,1,100,0.08756853746456622,-10,-1,-100,18912.463299220195,-0.011891536262124844,-0.0005210011961423932,0.9999291574522067,74.24969481166491,4.579426116333717,479.03397171006674,-112.55265083832,-153.4102783203125,4761.76025390625,True
1599388025.6550372,0.0,10,0.5,0.5,12.864586730957033,-0.2,-0.001,-0.5,-0.050850366926218554,10,1,100,0.08151710842438299,-10,-1,-100,18907.950295413495,-0.011428167172996242,-0.0009418212156950624,0.9999342528225863,74.23959677808493,4.57759962144661,480.65315414518693,-112.91590761350389,-153.58709716796875,4761.76025390625,True
1599388025.6929362,0.0,10,0.5,0.5,12.406545993041993,-0.2,-0.001,-0.5,-0.11195739910435021,10,1,100,0.02193488418744441,-10,-1,-100,18898.880698050372,-0.010468527180153252,-0.0018777283356278937,0.999943440437996,74.38638794495361,4.584185389409843,484.9820160098713,-113.64238158233098,-153.0574951171875,4761.76025390625,True
1599388025.7348306,0.0,10,0.5,0.5,12.672384179687501,-0.2,-0.001,-0.5,-0.018699528763847503,10,1,100,0.11744418553538925,-10,-1,-100,18898.880698050372,-0.010468527180153252,-0.0018777283356278937,0.999943440437996,74.38638794495361,4.584185389409843,484.9820160098713,-113.64238158233098,-153.0574951171875,4761.76025390625,True
1599388025.7767193,0.0,10,0.5,0.5,12.178794613647462,-0.2,-0.001,-0.5,-0.0742764775490442,10,1,100,0.061522664365243285,-10,-1,-100,18894.324106323416,-0.00996393591543528,-0.0023800599355948532,0.9999475262711419,74.54333654992338,4.592605324774297,487.6993070819723,-114.00559067254568,-152.35122680664062,4761.76025390625,True
1599388025.8156142,0.0,10,0.5,0.5,10.9259852142334,-0.2,-0.001,-0.5,-0.13969913355417296,10,1,100,-0.005776328695107441,-10,-1,-100,18885.167340892134,-0.00889747518581646,-0.0034281766876816085,0.9999545402366629,75.004753053423,4.618521646544719,494.12866221434507,-114.73193365288967,-150.05613708496094,4761.76025390625,True
1599388025.8555071,0.0,10,0.5,0.5,12.07356009979248,-0.2,-0.001,-0.5,-0.03531188803198558,10,1,100,0.10039652191476324,-10,-1,-100,18885.167340892134,-0.00889747518581646,-0.0034281766876816085,0.9999545402366629,75.004753053423,4.618521646544719,494.12866221434507,-114.73193365288967,-150.05613708496094,4761.76025390625,True
1599388025.8944373,0.0,10,0.5,0.5,10.961457861328126,-0.2,-0.001,-0.5,-0.09381225611310612,10,1,100,0.03740496464198196,-10,-1,-100,18880.56716942566,-0.008329126686536733,-0.003956139763996449,0.9999574863997005,75.29354565134746,4.635080689912324,497.7434712516085,-115.0950610042926,-148.46737670898438,4761.76025390625,True
1599388025.9333427,0.0,10,0.5,0.5,8.914280993652346,-0.2,-0.001,-0.5,-0.1599434981828656,10,1,100,-0.038527574070338355,-10,-1,-100,18871.323255464784,-0.007126197931088474,-0.005033497998310867,0.9999619398761873,75.93054764064664,4.672031693588938,505.4081136801018,-115.82121598336089,-144.40853881835938,4761.76025390625,True
1599388025.9732544,0.0,10,0.5,0.5,10.103938481140137,-0.2,-0.001,-0.5,-0.08108746981051371,10,1,100,0.04634849586959777,-10,-1,-100,18869.00320090435,-0.006808970632409848,-0.005291609371360994,0.9999628177033323,76.0909321274645,4.681404207837974,507.34084654469183,-116.00273317544404,-143.21009826660156,4761.76025390625,True
1599388026.013126,0.0,10,0.5,0.5,8.8701225479126,-0.2,-0.001,-0.5,-0.11072550587596208,10,1,100,0.005856998070823266,-10,-1,-100,18864.3522009484,-0.006157509703441409,-0.005791025900538996,0.9999642739084588,76.39752855572223,4.699396217651311,511.12236513791686,-116.3657421385265,-140.59286499023438,4761.76025390625,True
1599388026.0510612,0.0,10,0.5,0.5,9.184291856384279,-0.2,-0.001,-0.5,-0.08752649517193443,10,1,100,0.03370259989306264,-10,-1,-100,18862.021256101318,-0.005823627081452898,-0.006029349898205658,0.9999648655364952,76.53859427124245,4.7077130326927765,512.9363532921752,-116.54723438743244,-139.17405700683594,4761.76025390625,True
1599388026.0909183,0.0,10,0.5,0.5,7.752349758911134,-0.2,-0.001,-0.5,-0.12043043630480768,10,1,100,-0.00879520343069512,-10,-1,-100,18857.348477753694,-0.005138848794966948,-0.006540509789399189,0.9999654063840195,76.7818389691761,4.722139488600105,516.3124970573266,-116.91019638709506,-136.11705017089844,4761.76025390625,True
1599388026.1313193,0.0,10,0.5,0.5,6.933471266174317,-0.2,-0.001,-0.5,-0.11936975506420278,10,1,100,-0.018443826333465446,-10,-1,-100,18852.66118163534,-0.004433453488486523,-0.0069913191506116535,0.9999657323862151,76.95199702824891,4.732366007402569,519.2068041412085,-117.27313250035645,-132.7660675048828,4761.76025390625,True
1599388026.1712153,0.0,10,0.5,0.5,6.056156784057618,-0.2,-0.001,-0.5,-0.12381914120322327,10,1,100,-0.028598107815202625,-10,-1,-100,18847.95936862612,-0.0037053598088445873,-0.007436946088600458,0.9999654804749822,77.02235954606631,4.736802229861303,521.4338076471424,-117.63604958579441,-129.12210083007812,4761.76025390625,True
1599388026.2141335,0.0,10,0.5,0.5,5.119583230590821,-0.2,-0.001,-0.5,-0.12301132029173123,10,1,100,-0.037846048067828535,-10,-1,-100,18843.243039369583,-0.0029650738942431287,-0.007830120491073985,0.9999649481606326,76.96360596482374,4.733681575369293,522.7879828858964,-117.99895662005561,-125.18462371826172,4761.76025390625,True
1599388026.2539904,0.0,10,0.5,0.5,4.124511850738526,-0.2,-0.001,-0.5,-0.12400176330878349,10,1,100,-0.04698465915794427,-10,-1,-100,18838.512193502276,-0.0022144015085967263,-0.008192554026383672,0.9999639885938312,76.7450155354394,4.721125403953539,523.051704357386,-118.36186510740879,-120.95416259765625,4761.76025390625,True
1599388026.2948837,0.0,10,0.5,0.5,3.070351195526124,-0.2,-0.001,-0.5,-0.12300008906570802,10,1,100,-0.05581212694806405,-10,-1,-100,18833.76683111908,-0.0014577978814418351,-0.008508601676874792,0.9999627385672134,76.33441931619456,4.697128256164364,521.9946803221027,-118.72478861548008,-116.43061828613281,4761.76025390625,True
1599388026.3397608,0.0,10,0.5,0.5,-1.61908981552124,-0.2,-0.001,-0.5,-0.14495191915394962,10,1,100,-0.1457665484667427,-10,-1,-100,18824.232550906832,4.1544403591421846e-05,-0.008991341212748116,0.9999595762115879,74.80586961657055,4.606375531763843,514.9639618287063,-119.45074520484758,-106.50489044189453,4761.76025390625,True
1599388026.3816493,0.0,10,0.5,0.5,-0.44133644866943333,-0.2,-0.001,-0.5,-0.1149740455576305,10,1,100,-0.07667790511745325,-10,-1,-100,18819.44362926588,0.0007699881392329515,-0.009154071173380567,0.9999578041593646,73.62401847716093,4.535374904037018,508.51725789898086,-119.81381393488427,-101.1030044555664,4761.76025390625,True
1599388026.4225395,0.0,10,0.5,0.5,2.2553958351135255,-0.2,-0.001,-0.5,-0.09908729567458738,10,1,100,-0.004591427430464548,-10,-1,-100,18819.44362926588,0.0007699881392329515,-0.009154071173380567,0.9999578041593646,73.62401847716093,4.535374904037018,508.51725789898086,-119.81381393488427,-101.1030044555664,4761.76025390625,True
1599388026.4644282,0.0,10,0.5,0.5,-3.3655468643188478,-0.2,-0.001,-0.5,-0.1140574270559657,10,1,100,-0.11571122816582158,-10,-1,-100,18812.233010915923,0.0017738704206064933,-0.00928710596296324,0.9999553005242603,71.6224827921388,4.414334405553868,497.1639654533545,-120.35856284034737,-93.07872772216797,4761.76025390625,True
1599388026.5048296,0.0,10,0.5,0.5,-1.1743373054504394,-0.2,-0.001,-0.5,-0.10358647709788103,10,1,100,-0.05175156042234073,-10,-1,-100,18809.822207190562,0.002098132335548924,-0.009309894630178759,0.9999544608144301,70.88533765989295,4.369469189325662,492.8637355330331,-120.54018702343441,-90.4839859008789,4761.76025390625,True
1599388026.5437543,0.0,10,0.5,0.5,-3.594346321105957,-0.2,-0.001,-0.5,-0.10270505732681148,10,1,100,-0.09055284134623305,-10,-1,-100,18804.989700691658,0.0027390757383224133,-0.009320081070782435,0.999952815663286,69.4696265920627,4.28294442255484,484.6223131495932,-120.90349323764579,-85.17996215820312,4761.76025390625,True
1599388026.5836196,0.0,10,0.5,0.5,-4.629762127685547,-0.2,-0.001,-0.5,-0.09822151549944161,10,1,100,-0.08754411291678083,-10,-1,-100,18800.14265920315,0.0032878790012789206,-0.009286464943882258,0.9999514745328991,68.01582732098971,4.193447331497569,476.04985529944827,-121.26687840954924,-79.91900634765625,4761.76025390625,True
1599388026.6215181,0.0,10,0.5,0.5,-5.5066184722900395,-0.2,-0.001,-0.5,-0.09421146960799154,10,1,100,-0.09315814608314732,-10,-1,-100,18795.28108452214,0.0038314702338335103,-0.009217768485091387,0.9999501750487383,70.00419776905527,4.315571567161973,491.58153202127386,-121.6301792515465,-74.91555786132812,4761.76025390625,True
1599388027.0263326,0.0,10,0.5,0.5,-7.87924486618042,-0.2,-0.001,-0.5,-0.08419520707959041,10,1,100,-0.11552567367061319,-10,-1,-100,18787.96148355631,0.004522806565016394,-0.009062998728665114,0.9999487018216582,72.44884935205182,4.464804906917837,511.2530617674085,-122.17490358393447,-67.95938110351562,4761.76025390625,True
1599388027.062236,0.0,10,0.5,0.5,-5.925508089447022,-0.2,-0.001,-0.5,-0.09273582413438217,10,1,100,-0.06971093685574273,-10,-1,-100,18785.51435488346,0.004728671796798726,-0.008999149609955443,0.9999483261495744,73.13112031009678,4.506249499030883,516.9097470187112,-122.356424829962,-65.789306640625,4761.76025390625,True
1599388027.0971437,0.0,10,0.5,0.5,-7.727117630767823,-0.2,-0.001,-0.5,-0.08369104236255873,10,1,100,-0.09007988984353828,-10,-1,-100,18780.609208418406,0.005095370244055133,-0.00885843371508182,0.9999477813137001,74.31748497595831,4.5780897169442945,527.0056982825444,-122.7193976894255,-61.672760009765625,4761.76025390625,True
1599388027.1529934,0.0,10,0.5,0.5,-9.604504286193848,-0.2,-0.001,-0.5,-0.07220278552170628,10,1,100,-0.10212593511990395,-10,-1,-100,18773.224270983017,0.0055336475842184055,-0.008626192300732293,0.9999474823963528,75.70651908590727,4.661862695027099,539.467169410986,-123.26370855208981,-56.056793212890625,4761.76025390625,True
1599388027.1918895,0.0,10,0.5,0.5,-9.161132930755617,-0.2,-0.001,-0.5,-0.07681386623368872,10,1,100,-0.08312142765068536,-10,-1,-100,18768.28283864737,0.00575498268060577,-0.008457462547680424,0.9999476743818151,76.41411281931403,4.70444766921123,546.2657073187753,-123.6265014380347,-52.685211181640625,4761.76025390625,True
1599388027.228826,0.0,10,0.5,0.5,-9.63168821105957,-0.2,-0.001,-0.5,-0.07576499956907184,10,1,100,-0.07910454061296757,-10,-1,-100,18763.326895937556,0.00591514743648651,-0.008295169992160118,0.9999480992459588,76.97927992326966,4.7384864453876885,552.0751690445696,-123.98924229095601,-49.61163330078125,4761.76025390625,True
1599388027.265737,0.0,10,0.5,0.5,-8.099245980072022,-0.2,-0.001,-0.5,-0.09189506152402219,10,1,100,-0.06350219272648157,-10,-1,-100,18763.326895937556,0.00591514743648651,-0.008295169992160118,0.9999480992459588,76.97927992326966,4.7384864453876885,552.0751690445696,-123.98924229095601,-49.61163330078125,4761.76025390625,True
1599388027.3066285,0.0,10,0.5,0.5,-10.046512536621094,-0.2,-0.001,-0.5,-0.07286890283627845,10,1,100,-0.07586431400505425,-10,-1,-100,18758.356445134734,0.006024060343472682,-0.008123127390124283,0.999948861441615,77.4287040284177,4.765653038366907,557.0781476784765,-124.35194005800554,-46.835662841796875,4761.76025390625,True
1599388027.344526,0.0,10,0.5,0.5,-10.397194500732422,-0.2,-0.001,-0.5,-0.07140351891200822,10,1,100,-0.07112603677123719,-10,-1,-100,18753.371487423545,0.006077010479875274,-0.007954491492308029,0.9999498967491954,77.78683843506583,4.787461130615376,561.4435588977811,-124.7146023453386,-44.357330322265625,4761.76025390625,True
1599388027.381466,0.0,10,0.5,0.5,-11.3735869720459,-0.2,-0.001,-0.5,-0.059837106563053306,10,1,100,-0.06375207425264266,-10,-1,-100,18745.866852993262,0.006055575370546229,-0.007697247812440548,0.999952040041444,78.20094184933201,4.813063513852998,567.1317819753181,-125.25854129088022,-41.19732666015625,4761.76025390625,True
1599388027.4213216,0.0,10,0.5,0.5,-11.54080462036133,-0.2,-0.001,-0.5,-0.05816194817766771,10,1,100,-0.051146894423206926,-10,-1,-100,18738.329584642313,0.005919474449855215,-0.007449543500578106,0.9999547310372958,78.5252529970469,4.833633982027271,572.1973441206266,-125.80242612152051,-38.70611572265625,4761.76025390625,True
1599388027.4582298,0.0,10,0.5,0.5,-11.200831387329101,-0.2,-0.001,-0.5,-0.06515650732893016,10,1,100,-0.048639571125156954,-10,-1,-100,18733.286610601703,0.0057716827938948945,-0.007289411441376533,0.9999567751450885,78.7181605844242,4.846140946730656,575.4184619326273,-126.1649895848037,-37.416534423828125,4761.76025390625,True
1599388027.49516,0.0,10,0.5,0.5,-10.558878015136719,-0.2,-0.001,-0.5,-0.08099873943222956,10,1,100,-0.0635230378208986,-10,-1,-100,18733.286610601703,0.0057716827938948945,-0.007289411441376533,0.9999567751450885,78.7181605844242,4.846140946730656,575.4184619326273,-126.1649895848037,-37.416534423828125,4761.76025390625,True
1599388027.5330555,0.0,10,0.5,0.5,-11.256304858398439,-0.2,-0.001,-0.5,-0.0633881203423774,10,1,100,-0.04242050735466822,-10,-1,-100,18728.22913459898,0.005579226778247491,-0.007130741288081246,0.9999590115385927,78.90683745569171,4.858533751869586,578.6190988831202,-126.52753270461282,-36.423675537109375,4761.76025390625,True
1599388027.5734572,0.0,10,0.5,0.5,-11.031473736572266,-0.2,-0.001,-0.5,-0.07046590731314138,10,1,100,-0.049122995717140884,-10,-1,-100,18725.694958547712,0.005465157040777759,-0.007052198713013067,0.9999601984838355,79.0026555533197,4.864866580131277,580.2341761683118,-126.70879663635023,-36.038482666015625,4761.76025390625,True
1599388027.6123533,0.0,10,0.5,0.5,-11.400426617431641,-0.2,-0.001,-0.5,-0.04428218620209928,10,1,100,0.001628333079899548,-10,-1,-100,18715.5220038126,0.004900345040959296,-0.006744040056336765,0.9999652516673758,79.42003292724081,4.892514785128923,586.9728417601212,-127.433799153933,-35.2386474609375,4761.76025390625,True
1599388027.6522458,0.0,10,0.5,0.5,-11.001946313476562,-0.2,-0.001,-0.5,-0.07494293887614717,10,1,100,-0.054751386662393986,-10,-1,-100,18715.5220038126,0.004900345040959296,-0.006744040056336765,0.9999652516673758,79.42003292724081,4.892514785128923,586.9728417601212,-127.433799153933,-35.2386474609375,4761.76025390625,True
1599388027.6911416,0.0,10,0.5,0.5,-10.972365545654299,-0.2,-0.001,-0.5,-0.05802325997886966,10,1,100,-0.016144092982339563,-10,-1,-100,18710.41377771122,0.00455029219150019,-0.006591634911757718,0.9999679220805845,79.65789201085073,4.908215778699446,590.5753612730562,-127.79626615215409,-35.282958984375,4761.76025390625,True
1599388027.7301662,0.0,10,0.5,0.5,-10.312616885375977,-0.2,-0.001,-0.5,-0.03787736576417772,10,1,100,0.037504504921576726,-10,-1,-100,18700.153832561336,0.0037456875911853747,-0.006271332553350809,0.9999733197503193,80.19594490537547,4.943476691339271,598.2831512161248,-128.52112376078458,-36.258758544921875,4761.76025390625,True
1599388027.7700603,0.0,10,0.5,0.5,-10.80132652282715,-0.2,-0.001,-0.5,-0.06973928571097289,10,1,100,-0.04272282282103581,-10,-1,-100,18700.153832561336,0.0037456875911853747,-0.006271332553350809,0.9999733197503193,80.19594490537547,4.943476691339271,598.2831512161248,-128.52112376078458,-36.258758544921875,4761.76025390625,True
1599388027.8099537,0.0,10,0.5,0.5,-10.150099188232423,-0.2,-0.001,-0.5,-0.05069030431356708,10,1,100,0.0071802881416092035,-10,-1,-100,18695.002115680487,0.003294122844051657,-0.006099456281791747,0.9999759724052147,80.49214107694881,4.96273092048895,602.3613307326908,-128.88351159226943,-37.189788818359375,4761.76025390625,True
1599388027.8508444,0.0,10,0.5,0.5,-9.757556729125977,-0.2,-0.001,-0.5,-0.04684806390548084,10,1,100,0.014013180494658273,-10,-1,-100,18689.835904150386,0.0028238789176349257,-0.005909503019590712,0.9999785515109412,80.79776808006032,4.982489315336175,606.5255302136658,-129.2458707926375,-38.415802001953125,4761.76025390625,True
1599388027.890835,0.0,10,0.5,0.5,-9.305573867797852,-0.2,-0.001,-0.5,-0.04575624727137615,10,1,100,0.026123126356046453,-10,-1,-100,18684.655199122615,0.002288973843858241,-0.005728147092208625,0.9999809742838272,81.10191677641639,5.002044159110694,610.6942731433119,-129.60820098471893,-39.93707275390625,4761.76025390625,True
1599388027.9297316,0.0,10,0.5,0.5,-8.794985510253907,-0.2,-0.001,-0.5,-0.04068645869120566,10,1,100,0.032099429008312974,-10,-1,-100,18679.46000189241,0.0017515325789952286,-0.005518608411449875,0.9999832384069374,81.3967027656418,5.020871749275501,614.8079899249652,-129.97050307509332,-41.75274658203125,4761.76025390625,True
1599388027.9696248,0.0,10,0.5,0.5,-6.542121060180664,-0.2,-0.001,-0.5,-0.010888606269680877,10,1,100,0.10601866507651854,-10,-1,-100,18669.026134173502,0.0005944362777717597,-0.005058694709543179,0.9999870280425378,81.8921578189579,5.0521195011785265,622.3665436426342,-130.69503090692587,-46.26727294921875,4761.76025390625,True
1599388028.0105157,0.0,10,0.5,0.5,-8.798361364746093,-0.2,-0.001,-0.5,-0.05668062606000349,10,1,100,-0.009203892969527732,-10,-1,-100,18669.026134173502,0.0005944362777717597,-0.005058694709543179,0.9999870280425378,81.8921578189579,5.0521195011785265,622.3665436426342,-130.69503090692587,-46.26727294921875,4761.76025390625,True
1599388028.0534003,0.0,10,0.5,0.5,-6.908467608642578,-0.2,-0.001,-0.5,-0.028164132849852596,10,1,100,0.05772424044149465,-10,-1,-100,18663.78746578272,-1.0086836180091414e-05,-0.00480098599431162,0.9999884751494581,82.05503646212203,5.062140057460969,625.5194255343456,-131.0572644366527,-48.965545654296875,4761.76025390625,True
1599388028.0952883,0.0,10,0.5,0.5,-3.8620906463623053,-0.2,-0.001,-0.5,0.010653707457670643,10,1,100,0.13309957197318445,-10,-1,-100,18653.26666229125,-0.001240419561081555,-0.00421558229954365,0.9999903450659854,82.09311562544441,5.063601911967255,629.6496423489955,-131.78170277856324,-55.242889404296875,4761.76025390625,True
1599388028.1361785,0.0,10,0.5,0.5,-6.998766528320313,-0.2,-0.001,-0.5,-0.04764905675790492,10,1,100,0.010645370658296282,-10,-1,-100,18653.26666229125,-0.001240419561081555,-0.00421558229954365,0.9999903450659854,82.09311562544441,5.063601911967255,629.6496423489955,-131.78170277856324,-55.242889404296875,4761.76025390625,True
1599388028.1760726,0.0,10,0.5,0.5,-1.7817100341796879,-0.2,-0.001,-0.5,0.026914918468293296,10,1,100,0.14237372223715763,-10,-1,-100,18642.687902805395,-0.0024334172052964155,-0.003539596843172582,0.9999907748248944,81.57691477907572,5.029878760505003,629.5204194891468,-132.50616847547752,-62.693115234375,4761.76025390625,True
1599388028.2149677,0.0,10,0.5,0.5,-5.504179513549805,-0.2,-0.001,-0.5,-0.0404104535977957,10,1,100,0.02369186829531976,-10,-1,-100,18642.687902805395,-0.0024334172052964155,-0.003539596843172582,0.9999907748248944,81.57691477907572,5.029878760505003,629.5204194891468,-132.50616847547752,-62.693115234375,4761.76025390625,True
