Timestamp,Input Throttle,horizon,dT,dt,Input Roll,Roll P,Roll I,Roll D,Input Pitch,Pitch P,Pitch I,Pitch D,Input Yaw,Yaw P,Yaw I,Yaw D,Altitude,Direction X,Direction Y,Direction Z,Drag X,Drag Y,Drag Z,Vertical Velocity,Roll,Mass,Has Fuel
1599387916.9987054,0.0,10,0.5,0.5,-11.214812240600587,-0.2,-0.001,-0.12575,0.0007724283329237501,10,1,100,0.503694242758572,-10,-1,-100,19349.720879919478,-0.048895153043836126,-0.00016648918909455932,0.998803902820854,61.07652724474885,3.6867838987670174,233.74204892909376,-68.66433376618306,-33.923828125,4761.76025390625,True
1599387917.0326211,0.0,10,0.5,0.5,-11.220046704101565,-0.2,-0.001,-0.12575,0.00027071935039307067,10,1,100,0.5056288373747594,-10,-1,-100,19346.96335893462,-0.04900231478594535,-0.00014874136945594005,0.9987986538945796,61.256690799219,3.699009731904978,235.72487749671177,-69.02924365709936,-33.92626953125,4761.76025390625,True
1599387917.07158,0.0,10,0.5,0.5,-11.211089196777346,-0.2,-0.001,-0.12575,0.0113243033314257,10,1,100,0.5051723308938669,-10,-1,-100,19344.191241960274,-0.04905103693368567,-3.1984641439211395e-05,0.9987962728968871,61.43796878680036,3.711317891175554,237.7203332676107,-69.39413978509259,-33.971923828125,4761.76025390625,True
1599387917.1074846,0.0,10,0.5,0.5,-11.222433032226563,-0.2,-0.001,-0.12575,-0.00035456793439108504,10,1,100,0.5052052198132034,-10,-1,-100,19344.191241960274,-0.04905103693368567,-3.1984641439211395e-05,0.9987962728968871,61.43796878680036,3.711317891175554,237.7203332676107,-69.39413978509259,-33.971923828125,4761.76025390625,True
1599387917.1409404,0.0,10,0.5,0.5,-11.055627323913573,-0.2,-0.001,-0.12575,0.039470276235973274,10,1,100,0.5053968594916696,-10,-1,-100,19340.005700614885,-0.04900818726082292,0.00033008847341995474,0.9987983222968528,61.72911049087526,3.7309509343967378,240.80415857060433,-69.94145672408848,-34.501190185546875,4761.76025390625,True
1599387917.1797967,0.0,10,0.5,0.5,-10.89552821044922,-0.2,-0.001,-0.12575,0.04634679965520068,10,1,100,0.5008173377275229,-10,-1,-100,19337.197096293326,-0.04888304809921834,0.0007214596193999732,0.9988042486416179,61.93905480337161,3.744976090172697,242.93324612094295,-70.30631437834768,-35.214019775390625,4761.76025390625,True
1599387917.2177331,0.0,10,0.5,0.5,-10.990645129394531,-0.2,-0.001,-0.12575,0.007281831019138832,10,1,100,0.5182195586979028,-10,-1,-100,19337.197096293326,-0.04888304809921834,0.0007214596193999732,0.9988042486416179,61.93905480337161,3.744976090172697,242.93324612094295,-70.30631437834768,-35.214019775390625,4761.76025390625,True
1599387917.2535982,0.0,10,0.5,0.5,-10.66845509490967,-0.2,-0.001,-0.12575,0.06573458020296385,10,1,100,0.4968271159616999,-10,-1,-100,19334.373898366932,-0.04864413221243539,0.0012521923759625643,0.9988153885556393,62.15628900335816,3.7593978785079076,245.1005242775199,-70.67115451724214,-36.21990966796875,4761.76025390625,True
1599387917.29153,0.0,10,0.5,0.5,-9.858245373535157,-0.2,-0.001,-0.12575,0.17779011180962362,10,1,100,0.43705077159423467,-10,-1,-100,19328.68372360908,-0.04783929270091717,0.002752224994374588,0.9988512538568776,62.57673077571379,3.7871521342098124,249.4082723813429,-71.4007790201539,-39.1119384765625,4761.76025390625,True
1599387917.3293955,0.0,10,0.5,0.5,-10.227006802368164,-0.2,-0.001,-0.12575,0.028062072467858693,10,1,100,0.5223186520161482,-10,-1,-100,19328.68372360908,-0.04783929270091717,0.002752224994374588,0.9988512538568776,62.57673077571379,3.7871521342098124,249.4082723813429,-71.4007790201539,-39.1119384765625,4761.76025390625,True
1599387917.3673246,0.0,10,0.5,0.5,-9.617586445617675,-0.2,-0.001,-0.12575,0.13140019765419805,10,1,100,0.46172552334987216,-10,-1,-100,19325.81674874318,-0.047244955810586554,0.0036891604733464236,0.9988765210202198,62.756526570435675,3.7990072871046565,251.45430017908308,-71.76556361548204,-40.998382568359375,4761.76025390625,True
1599387917.402234,0.0,10,0.5,0.5,-9.143757957458496,-0.2,-0.001,-0.12575,0.1495464560493683,10,1,100,0.4395800981987949,-10,-1,-100,19322.93518303195,-0.04650482767912461,0.00470238084903833,0.9989069969806426,62.895239933526256,3.8082119110268784,253.34294795858142,-72.13033171315156,-43.17901611328125,4761.76025390625,True
1599387917.4410987,0.0,10,0.5,0.5,-9.026173197937013,-0.2,-0.001,-0.12575,0.11323401436572762,10,1,100,0.46827406778008196,-10,-1,-100,19321.488928540028,-0.04609510863499529,0.00528896706416288,0.998923053987304,62.94315424735175,3.811444252427415,254.20307079466338,-72.31271026943632,-44.378936767578125,4761.76025390625,True
1599387917.4799964,0.0,10,0.5,0.5,-7.859532444763184,-0.2,-0.001,-0.12575,0.25538799369702514,10,1,100,0.3468475143502031,-10,-1,-100,19317.12828068284,-0.044621446225786725,0.007109698933919174,0.998978667799162,62.971514719954,3.8138229442620384,256.3207614811845,-72.85983007449497,-48.42034912109375,4761.76025390625,True
1599387917.519888,0.0,10,0.5,0.5,-7.879578897094727,-0.2,-0.001,-0.12575,0.14466525153780774,10,1,100,0.4314026453787664,-10,-1,-100,19315.667436567368,-0.04405446303650033,0.007751846901727139,0.9989990556332763,62.933120890345904,3.81159847556012,256.83213369035695,-73.04220009998657,-49.91448974609375,4761.76025390625,True
1599387917.5588202,0.0,10,0.5,0.5,-7.020778030395508,-0.2,-0.001,-0.12575,0.23042504241843412,10,1,100,0.3498221202393996,-10,-1,-100,19312.734806215158,-0.04280188602154057,0.009108505190987068,0.9990420580166707,62.765790578947396,3.80147681518437,257.48162856428104,-73.406940023084,-53.1229248046875,4761.76025390625,True
1599387917.597714,0.0,10,0.5,0.5,-5.0442978851318365,-0.2,-0.001,-0.12575,0.3964534372554641,10,1,100,0.14665482884821196,-10,-1,-100,19306.825775390025,-0.03982173259718243,0.011843555365585833,0.9991366071810505,61.97623962988909,3.7529628481256325,256.87705034111224,-74.13644776851731,-60.4234619140625,4761.76025390625,True
1599387917.6366007,0.0,10,0.5,0.5,-5.959819482421875,-0.2,-0.001,-0.12575,0.12406062937020618,10,1,100,0.4437640397338229,-10,-1,-100,19306.825775390025,-0.03982173259718243,0.011843555365585833,0.9991366071810505,61.97623962988909,3.7529628481256325,256.87705034111224,-74.13644776851731,-60.4234619140625,4761.76025390625,True
1599387917.6765008,0.0,10,0.5,0.5,-4.624337237548829,-0.2,-0.001,-0.12575,0.2737438871822431,10,1,100,0.2534532417987262,-10,-1,-100,19303.849373672507,-0.03809965479742269,0.01319468374297742,0.9991868276880155,61.29799097129651,3.711255375990747,255.37062441485662,-74.50123474866231,-64.5157470703125,4761.76025390625,True
1599387917.7163823,0.0,10,0.5,0.5,-3.7069210861206052,-0.2,-0.001,-0.12575,0.2754600369135814,10,1,100,0.2241840669613931,-10,-1,-100,19300.858379548066,-0.03627690033357762,0.014429090484755935,0.9992376033006216,60.39259033021184,3.6557060568100037,252.88575497259262,-74.86605764465328,-68.90402221679688,4761.76025390625,True
1599387917.758284,0.0,10,0.5,0.5,-1.1092499298095704,-0.2,-0.001,-0.12575,0.42544265991412367,10,1,100,-0.05167869534364078,-10,-1,-100,19294.83260606404,-0.032122518793097556,0.01690414149047735,0.9993409797395768,57.78804729764662,3.4967701283757835,244.44781334782886,-75.59585437141216,-78.56332397460938,4761.76025390625,True
1599387917.7991767,0.0,10,0.5,0.5,-0.6024476593017578,-0.2,-0.001,-0.12575,0.2980744288648017,10,1,100,0.11674925351742216,-10,-1,-100,19291.797822050168,-0.02989071914323215,0.017984281230669228,0.9993913700536524,56.039041925928935,3.3906593077147336,238.24857280844506,-75.96084668815418,-83.83639526367188,4761.76025390625,True
1599387917.8430579,0.0,10,0.5,0.5,-1.2614706359863281,-0.2,-0.001,-0.12575,0.19138864488377705,10,1,100,0.3382678076503733,-10,-1,-100,19291.797822050168,-0.02989071914323215,0.017984281230669228,0.9993913700536524,56.039041925928935,3.3906593077147336,238.24857280844506,-75.96084668815418,-83.83639526367188,4761.76025390625,True
1599387917.8839495,0.0,10,0.5,0.5,0.5567757614135742,-0.2,-0.001,-0.12575,0.2917703481045994,10,1,100,0.09343544854177549,-10,-1,-100,19288.748436237453,-0.02767970168723741,0.018885300974343516,0.9994384320815435,53.96595155501995,3.2653890600275264,230.59093506011826,-76.32591038492843,-89.406005859375,4761.76025390625,True
1599387917.924839,0.0,10,0.5,0.5,2.7257497695922854,-0.2,-0.001,-0.12575,0.33489253777029626,10,1,100,-0.07947319338284675,-10,-1,-100,19284.14697482169,-0.024113190659326125,0.020085724645517,0.9995074375419581,53.638022697451724,3.2468949267818044,230.914344807897,-76.87356286783636,-98.20187377929688,4761.76025390625,True
1599387917.9647322,0.0,10,0.5,0.5,2.6216899658203126,-0.2,-0.001,-0.12575,0.25212163252406117,10,1,100,0.14026334705257854,-10,-1,-100,19282.60585302452,-0.022886641249162617,0.020413343500941858,0.9995296379094741,54.544922147452986,3.3025363788275715,235.40311008423222,-77.05607456493536,-101.26309204101562,4761.76025390625,True
1599387918.0056138,0.0,10,0.5,0.5,6.155971200942993,-0.2,-0.001,-0.12575,0.3270081715905046,10,1,100,-0.256472079290887,-10,-1,-100,19276.404873803956,-0.01818301540477554,0.02138168841710489,0.9996060230666998,57.76957831411498,3.5017841616716074,251.79378844645223,-77.7858808265069,-113.27971649169922,4761.76025390625,True
1599387918.0465114,0.0,10,0.5,0.5,4.650166301727295,-0.2,-0.001,-0.12575,0.23112749327935314,10,1,100,0.21172663342858003,-10,-1,-100,19276.404873803956,-0.01818301540477554,0.02138168841710489,0.9996060230666998,57.76957831411498,3.5017841616716074,251.79378844645223,-77.7858808265069,-113.27971649169922,4761.76025390625,True
1599387918.0864043,0.0,10,0.5,0.5,6.4899205875396735,-0.2,-0.001,-0.12575,0.26465238460799256,10,1,100,-0.057231122488652114,-10,-1,-100,19273.282495215302,-0.01575761645752107,0.021677789126409323,0.9996408209863024,59.08491368150927,3.583673841366227,258.78997242639286,-78.1506486700718,-118.91123962402344,4761.76025390625,True
1599387918.127297,0.0,10,0.5,0.5,9.169660713958741,-0.2,-0.001,-0.12575,0.267653984252581,10,1,100,-0.314681417305522,-10,-1,-100,19266.99397455051,-0.01123256204199083,0.021966546944924673,0.9996956038541379,60.67660951541205,3.683959436612002,268.3529846280225,-78.87998540654125,-129.29486083984375,4761.76025390625,True
1599387918.1661987,0.0,10,0.5,0.5,7.869959429931641,-0.2,-0.001,-0.12575,0.23953194804706293,10,1,100,0.1353195904183434,-10,-1,-100,19266.99397455051,-0.01123256204199083,0.021966546944924673,0.9996956038541379,60.67660951541205,3.683959436612002,268.3529846280225,-78.87998540654125,-129.29486083984375,4761.76025390625,True
1599387918.2030616,0.0,10,0.5,0.5,9.422106497192384,-0.2,-0.001,-0.12575,0.2432168294417893,10,1,100,-0.1004587081186106,-10,-1,-100,19263.82783671422,-0.009108113834155891,0.021995443679918143,0.9997165811967447,61.01259526621989,3.705710899497974,271.1411495229277,-79.2445911159253,-134.04412841796875,4761.76025390625,True
1599387918.2470193,0.0,10,0.5,0.5,10.28052228240967,-0.2,-0.001,-0.12575,0.24275555449910596,10,1,100,-0.1100944083934558,-10,-1,-100,19260.64711535885,-0.007108093283906514,0.022013873519115768,0.9997323963854285,61.10534711893377,3.7123119683603862,272.8576501215507,-79.60917687185488,-138.49728393554688,4761.76025390625,True
1599387918.284882,0.0,10,0.5,0.5,11.081125257873538,-0.2,-0.001,-0.12575,0.22124041864784005,10,1,100,-0.13697754123497027,-10,-1,-100,19257.45181055111,-0.005066212144992699,0.02183137250856715,0.9997488307914613,61.00361682064626,3.706739156275544,273.7060343648974,-79.973755870379,-142.65728759765625,4761.76025390625,True
1599387918.324775,0.0,10,0.5,0.5,12.414835147857668,-0.2,-0.001,-0.12575,0.21655992382783093,10,1,100,-0.23707032304888506,-10,-1,-100,19252.631510064588,-0.002320579901801137,0.021620234299219027,0.9997635622374754,60.56271737002367,3.6802994095599737,273.6692698139662,-80.5206335338192,-148.3411102294922,4761.76025390625,True
1599387918.3656998,0.0,10,0.5,0.5,13.340046710968018,-0.2,-0.001,-0.12575,0.20523813611079994,10,1,100,-0.2451021483075754,-10,-1,-100,19247.77839554532,0.00022865453912699097,0.021323970120880723,0.9997725921505277,59.89697775283005,3.639719878125253,272.58344054975754,-81.06754227698636,-153.360107421875,4761.76025390625,True
1599387918.4055922,0.0,10,0.5,0.5,12.714117515563967,-0.2,-0.001,-0.12575,0.23495561660662415,10,1,100,0.007509766206408398,-10,-1,-100,19247.77839554532,0.00022865453912699097,0.021323970120880723,0.9997725921505277,59.89697775283005,3.639719878125253,272.58344054975754,-81.06754227698636,-153.360107421875,4761.76025390625,True
1599387918.443971,0.0,10,0.5,0.5,13.687412732696535,-0.2,-0.001,-0.12575,0.21677371987590446,10,1,100,-0.1650567874282104,-10,-1,-100,19244.524754929123,0.001780703508583614,0.02115873262177984,0.9997745431490315,59.385189908549556,3.6083838837436097,271.5265418241357,-81.43217117036994,-156.33566284179688,4761.76025390625,True
1599387918.4858606,0.0,10,0.5,0.5,14.190336113739015,-0.2,-0.001,-0.12575,0.21717005184648433,10,1,100,-0.1713101611878822,-10,-1,-100,19241.256528289057,0.003230357134165416,0.02101232241850733,0.9997739980112338,58.855753962703375,3.575920199362452,270.3678137196994,-81.79681966963054,-159.01499938964844,4761.76025390625,True
1599387918.527103,0.0,10,0.5,0.5,15.314134194183351,-0.2,-0.001,-0.12575,0.19550471681044962,10,1,100,-0.31442789647589714,-10,-1,-100,19234.676315289224,0.005832032593138384,0.020682869612211916,0.999769076487384,57.8337307818006,3.513231031419611,268.1563596729037,-82.52617168653282,-163.48687744140625,4761.76025390625,True
1599387918.5670297,0.0,10,0.5,0.5,15.338812039947511,-0.2,-0.001,-0.12575,0.21590703034041556,10,1,100,-0.18181662880656804,-10,-1,-100,19231.364327282412,0.0069761218546334275,0.020570009617972788,0.9997640763841167,57.37892679639964,3.4853516107273474,267.28102467875004,-82.8908709613148,-165.27842712402344,4761.76025390625,True
1599387918.6038992,0.0,10,0.5,0.5,15.372579498291017,-0.2,-0.001,-0.12575,0.22564342078890118,10,1,100,-0.1276503780493222,-10,-1,-100,19229.70286253933,0.007507229191020664,0.02055719184303886,0.9997604930049006,57.173060194044695,3.472738674212588,266.93690481838445,-83.07322502423776,-166.06263732910156,4761.76025390625,True
1599387918.6433856,0.0,10,0.5,0.5,15.277166915893556,-0.2,-0.001,-0.12575,0.22678137309860602,10,1,100,-0.07620117871311616,-10,-1,-100,19229.70286253933,0.007507229191020664,0.02055719184303886,0.9997604930049006,57.173060194044695,3.472738674212588,266.93690481838445,-83.07322502423776,-166.06263732910156,4761.76025390625,True
1599387918.6842406,0.0,10,0.5,0.5,16.061000733184816,-0.2,-0.001,-0.12575,0.2225830583728683,10,1,100,-0.28424432956202755,-10,-1,-100,19223.02053245704,0.009385243905579016,0.020520349601601314,0.9997453838098282,56.53619881788427,3.433753093678521,266.397420536936,-83.80266030338326,-168.46041870117188,4761.76025390625,True
1599387919.034509,0.0,10,0.5,0.5,15.762060038757324,-0.2,-0.001,-0.12575,0.2261361802259263,10,1,100,-0.09788800371124956,-10,-1,-100,19223.02053245704,0.009385243905579016,0.020520349601601314,0.9997453838098282,56.53619881788427,3.433753093678521,266.397420536936,-83.80266030338326,-168.46041870117188,4761.76025390625,True
1599387919.0684485,0.0,10,0.5,0.5,15.899096974945069,-0.2,-0.001,-0.12575,0.22683206702831116,10,1,100,-0.14393547014634717,-10,-1,-100,19221.340831988142,0.009793215578800467,0.02052767574043901,0.9997413202710601,56.42804558252868,3.427138843637362,266.49559013531047,-83.98502139878684,-168.8749237060547,4761.76025390625,True
1599387919.1033247,0.0,10,0.5,0.5,15.959447257995606,-0.2,-0.001,-0.12575,0.22784918537966342,10,1,100,-0.14620101476853029,-10,-1,-100,19219.657484178897,0.010175999722803747,0.020544306301104157,0.9997371557105638,56.34145013487195,3.421844278293958,266.693640949148,-84.16738224777617,-169.21543884277344,4761.76025390625,True
1599387919.1392565,0.0,10,0.5,0.5,16.067533321380616,-0.2,-0.001,-0.12575,0.23747606180204764,10,1,100,-0.18415257503316956,-10,-1,-100,19216.279847301892,0.010859956451409199,0.020647650836293944,0.9997278308923964,56.236123823624276,3.4154022815148455,267.4073208725159,-84.53210149013272,-169.673828125,4761.76025390625,True
1599387919.1920862,0.0,10,0.5,0.5,16.02102661132813,-0.2,-0.001,-0.12575,0.2565770627557364,10,1,100,-0.234592361844378,-10,-1,-100,19209.480807984713,0.011932024945749844,0.020915710496759544,0.9997100378785388,56.30892457126326,3.4197920034652713,270.182865164449,-85.26151500751897,-169.70391845703125,4761.76025390625,True
1599387919.2340095,0.0,10,0.5,0.5,15.878624262237551,-0.2,-0.001,-0.12575,0.25258081048542697,10,1,100,-0.1697401477881654,-10,-1,-100,19206.059406493092,0.012309156478447058,0.021123159360108865,0.9997011037332293,56.487182139658806,3.4306058952312437,272.257501594798,-85.626200488588,-169.2751007080078,4761.76025390625,True
1599387919.2719116,0.0,10,0.5,0.5,15.933126916503907,-0.2,-0.001,-0.12575,0.2318799531252845,10,1,100,-0.1326747069069749,-10,-1,-100,19206.059406493092,0.012309156478447058,0.021123159360108865,0.9997011037332293,56.487182139658806,3.4306058952312437,272.257501594798,-85.626200488588,-169.2751007080078,4761.76025390625,True
1599387919.3118026,0.0,10,0.5,0.5,15.697410521697998,-0.2,-0.001,-0.12575,0.2615241127505701,10,1,100,-0.1618527222061659,-10,-1,-100,19202.623418187606,0.012569562949690782,0.021392148856936792,0.9996921436394989,56.75874917054059,3.4470733863035377,274.79204904832505,-85.99086591488445,-168.55026245117188,4761.76025390625,True
1599387919.347921,0.0,10,0.5,0.5,15.456506509399416,-0.2,-0.001,-0.12575,0.26668770659766605,10,1,100,-0.15360906567849275,-10,-1,-100,19199.172843985958,0.012726751651698348,0.02168286747355951,0.9996838915629881,57.12045218465098,3.468992579275975,277.77707720143854,-86.35550712531622,-167.5301513671875,4761.76025390625,True
1599387919.388234,0.0,10,0.5,0.5,15.156391244506835,-0.2,-0.001,-0.12575,0.27415566254217716,10,1,100,-0.14428703409078206,-10,-1,-100,19195.70768500911,0.012780159709579967,0.02201402429213888,0.9996759726292629,57.563499191264995,3.495824008561424,281.17543460175335,-86.72011982779702,-166.214599609375,4761.76025390625,True
1599387919.4271362,0.0,10,0.5,0.5,14.175915220642091,-0.2,-0.001,-0.12575,0.32675132237596816,10,1,100,-0.11043197305889316,-10,-1,-100,19188.73361801321,0.012517852920269721,0.022791860421435918,0.9996618600590884,58.651805698090065,3.5616861363431913,289.0269186365007,-87.4492446285367,-162.69754028320312,4761.76025390625,True
1599387919.4650333,0.0,10,0.5,0.5,14.617609143066407,-0.2,-0.001,-0.12575,0.2491948605282477,10,1,100,-0.13697591289138683,-10,-1,-100,19188.73361801321,0.012517852920269721,0.022791860421435918,0.9996618600590884,58.651805698090065,3.5616861363431913,289.0269186365007,-87.4492446285367,-162.69754028320312,4761.76025390625,True
1599387919.5009418,0.0,10,0.5,0.5,13.900069018554687,-0.2,-0.001,-0.12575,0.2955365299293973,10,1,100,-0.10345388935821556,-10,-1,-100,19185.22471259383,0.012210630308748647,0.023211089975372735,0.9996560137415361,59.272891783284926,3.599267479605501,293.36900913712185,-87.81374995936311,-160.4967041015625,4761.76025390625,True
1599387919.5408351,0.0,10,0.5,0.5,13.78154905090332,-0.2,-0.001,-0.12575,0.2765039333550724,10,1,100,-0.11152751914227678,-10,-1,-100,19183.464792754035,0.012002883995779185,0.023416759797663007,0.9996537331178043,59.595966195218764,3.6188220952749943,295.61232598029636,-87.9959871134073,-159.28594970703125,4761.76025390625,True
1599387919.5786943,0.0,10,0.5,0.5,12.115375264739992,-0.2,-0.001,-0.12575,0.34917932785515793,10,1,100,-0.009554577076739262,-10,-1,-100,19176.38867010153,0.010885957940170816,0.024261900396144606,0.9996463655257755,60.915882012633546,3.6988336844077834,304.7937589405896,-88.7248287062532,-153.7068634033203,4761.76025390625,True
1599387919.6166272,0.0,10,0.5,0.5,12.815345661926271,-0.2,-0.001,-0.12575,0.26499988699693655,10,1,100,-0.1211425759370183,-10,-1,-100,19176.38867010153,0.010885957940170816,0.024261900396144606,0.9996463655257755,60.915882012633546,3.6988336844077834,304.7937589405896,-88.7248287062532,-153.7068634033203,4761.76025390625,True
1599387919.6564915,0.0,10,0.5,0.5,11.761423878479004,-0.2,-0.001,-0.12575,0.3105279948547362,10,1,100,-0.03942344167344204,-10,-1,-100,19172.82874608878,0.010144350536445829,0.024672938884819116,0.9996441057891453,61.552170522639194,3.737551103520488,309.3083846750452,-89.08918508498795,-150.4762725830078,4761.76025390625,True
1599387919.6954181,0.0,10,0.5,0.5,11.018075760650635,-0.2,-0.001,-0.12575,0.30625435511072463,10,1,100,-0.0179049620526298,-10,-1,-100,19169.254248783924,0.009276507450999366,0.025004531895464283,0.9996442966346581,62.13765008692975,3.773356754323158,313.5941789033959,-89.45350067378669,-146.95297241210938,4761.76025390625,True
1599387919.735312,0.0,10,0.5,0.5,10.215388989257812,-0.2,-0.001,-0.12575,0.3127408443655439,10,1,100,0.003540906771376723,-10,-1,-100,19165.665180009557,0.00829559043446497,0.02536166418651413,0.999643921188457,62.64250126394818,3.804501909305633,317.4968361406319,-89.81777977328008,-143.1353759765625,4761.76025390625,True
1599387919.7751722,0.0,10,0.5,0.5,9.354278975677492,-0.2,-0.001,-0.12575,0.3051470333270656,10,1,100,0.026034554323409204,-10,-1,-100,19162.061540945317,0.007203388315521799,0.025613950899197865,0.9996459556843659,63.034902576640334,3.8291138309218664,320.8493671224812,-90.18202870426084,-139.0256805419922,4761.76025390625,True
1599387919.8150706,0.0,10,0.5,0.5,8.434256014251709,-0.2,-0.001,-0.12575,0.3018281234620211,10,1,100,0.04835405790208083,-10,-1,-100,19158.44333288807,0.006012642512489227,0.025809857887767167,0.9996487880079834,63.278729359298076,3.8450465706279133,323.46013967695546,-90.54625644374106,-134.62322998046875,4761.76025390625,True
1599387919.8550017,0.0,10,0.5,0.5,7.455777398681641,-0.2,-0.001,-0.12575,0.29473959418394013,10,1,100,0.0711439693172545,-10,-1,-100,19154.810555804055,0.004728879142692383,0.025920770340787314,0.999652815414929,63.3361922802066,3.850026784771591,325.1259401268506,-90.91047474776549,-129.9285888671875,4761.76025390625,True
1599387919.9018734,0.0,10,0.5,0.5,6.418460796356202,-0.2,-0.001,-0.12575,0.28567470770705455,10,1,100,0.09298491388904336,-10,-1,-100,19151.16320972168,0.0033703483774767877,0.025936347321089077,0.999657914808588,63.1680342271353,3.8416518022965747,325.6327789200007,-91.274697819684,-124.94197082519531,4761.76025390625,True
1599387919.9417322,0.0,10,0.5,0.5,5.322574611663819,-0.2,-0.001,-0.12575,0.2742998907039074,10,1,100,0.11415282625377612,-10,-1,-100,19147.501294295536,0.0019509214620843775,0.025844623278293236,0.9996640682514562,62.73391926077178,3.817400287523338,324.75767267448157,-91.6389419391939,-119.6636962890625,4761.76025390625,True
1599387919.9806287,0.0,10,0.5,0.5,4.168022449111938,-0.2,-0.001,-0.12575,0.2610005852041777,10,1,100,0.13397979470422286,-10,-1,-100,19143.824808016303,0.0004894263372087568,0.025638127858953447,0.9996711693660812,61.99383826802945,3.774707264183153,322.27574243844924,-92.00322514092598,-114.09398651123047,4761.76025390625,True
1599387920.0215194,0.0,10,0.5,0.5,2.955209028625488,-0.2,-0.001,-0.12575,0.2461348711977593,10,1,100,0.15219683620030952,-10,-1,-100,19140.13374876359,-0.0009953636702762659,0.025314010779983645,0.999679053551386,61.012695664995064,3.7173346750296825,318.5060909715163,-92.3675638458774,-108.23291778564453,4761.76025390625,True
1599387920.0614476,0.0,10,0.5,0.5,1.6835874172210699,-0.2,-0.001,-0.12575,0.22982964570759196,10,1,100,0.16854653782330015,-10,-1,-100,19136.428114017006,-0.002483005217643977,0.024870173103387905,0.9996876057923778,59.7916687660437,3.6451303821746373,313.4390824497975,-92.73196803002307,-102.08064270019531,4761.76025390625,True
1599387920.1055024,0.0,10,0.5,0.5,0.3534423065185547,-0.2,-0.001,-0.12575,0.21256287792927908,10,1,100,0.18278544985943224,-10,-1,-100,19132.707900931593,-0.0039533718648939245,0.024309534386481143,0.9996966626876427,58.343517511322354,3.5586307944019038,307.125730560983,-93.09644769146182,-95.63719177246094,4761.76025390625,True
1599387920.1453943,0.0,10,0.5,0.5,-1.0352125907897949,-0.2,-0.001,-0.12575,0.19478059572544007,10,1,100,0.19472831849716513,-10,-1,-100,19128.97310659592,-0.005386613186995182,0.02363883753063008,0.9997060516764786,57.314783777044894,3.4970638735079222,302.9679009890751,-93.46099235531543,-88.90261840820312,4761.76025390625,True
1599387920.1832933,0.0,10,0.5,0.5,-2.4823936141967775,-0.2,-0.001,-0.12575,0.176969899745826,10,1,100,0.20434100620225545,-10,-1,-100,19125.223732806393,-0.006764509546568546,0.022868763904274336,0.999715590079541,60.131833616353035,3.669505958848252,319.1791171745111,-93.82544184251894,-81.87689208984375,4761.76025390625,True
1599387920.2211916,0.0,10,0.5,0.5,-3.9564195129394535,-0.2,-0.001,-0.12575,0.15963240903207784,10,1,100,0.21178808982520347,-10,-1,-100,19121.459785144776,-0.008072145271969231,0.022013579043821334,0.9997250836146853,62.68085822046098,3.8251242032717245,334.08512719415285,-94.18975645236792,-74.65725708007812,4761.76025390625,True
1599387920.2620826,0.0,10,0.5,0.5,-7.614301425170899,-0.2,-0.001,-0.12575,0.03631636487246595,10,1,100,0.3421642593572565,-10,-1,-100,19113.888188489713,-0.01043333857463901,0.020118534477271174,0.9997431620254642,66.49726862779032,4.057741252301591,357.3417065701609,-94.91801996454936,-60.6595458984375,4761.76025390625,True
1599387920.3010225,0.0,10,0.5,0.5,-8.002289555358887,-0.2,-0.001,-0.12575,0.11500337896748035,10,1,100,0.22209039053210966,-10,-1,-100,19110.08054739528,-0.01147451348073081,0.019116377941147084,0.9997514189211196,67.67803859588614,4.130027392728939,365.1688474478055,-95.28201288928899,-54.086181640625,4761.76025390625,True
1599387920.3399186,0.0,10,0.5,0.5,-9.227609364318846,-0.2,-0.001,-0.12575,0.11138618429262305,10,1,100,0.22225288632055828,-10,-1,-100,19106.258348584874,-0.01240901802811088,0.018178642928880974,0.9997577472632269,68.4138110855927,4.175676016942224,370.63681345605494,-95.64594876448325,-47.808868408203125,4761.76025390625,True
1599387920.3808093,0.0,10,0.5,0.5,-8.445422708129882,-0.2,-0.001,-0.12575,0.20439308748429283,10,1,100,0.13023842553157072,-10,-1,-100,19106.258348584874,-0.01240901802811088,0.018178642928880974,0.9997577472632269,68.4138110855927,4.175676016942224,370.63681345605494,-95.64594876448325,-47.808868408203125,4761.76025390625,True
1599387920.4206789,0.0,10,0.5,0.5,-11.33724704360962,-0.2,-0.001,-0.12575,0.04336298078708303,10,1,100,0.2690062408843626,-10,-1,-100,19100.497756945202,-0.013658817763713244,0.016721514217933678,0.9997668866588635,68.7806654594694,4.20028346106579,374.88532208932986,-96.19180417823847,-38.9517822265625,4761.76025390625,True
1599387920.4647093,0.0,10,0.5,0.5,-11.14376505432129,-0.2,-0.001,-0.12575,0.1376595478052861,10,1,100,0.18617653930330424,-10,-1,-100,19098.570281898137,-0.01403048982343901,0.01626190463229439,0.999769321300191,68.73123148139128,4.198275712977113,375.3700369611619,-96.37375512678412,-36.14788818359375,4761.76025390625,True
1599387920.507051,0.0,10,0.5,0.5,-14.209226486206056,-0.2,-0.001,-0.12575,-0.012386341628816966,10,1,100,0.2929339568427799,-10,-1,-100,19090.82398861565,-0.015328397778452399,0.014487849894558733,0.9997775464707027,67.84319131885825,4.148988827564951,373.5049600838398,-97.10161931172549,-25.675262451171875,4761.76025390625,True
1599387920.5469441,0.0,10,0.5,0.5,-14.459844039916993,-0.2,-0.001,-0.12575,0.07065162820151735,10,1,100,0.22315671765461864,-10,-1,-100,19086.92900393426,-0.01586363463046896,0.013638892299158377,0.9997811389064922,67.07312134181564,4.104646124523624,370.74581356131483,-97.46561197694736,-20.884613037109375,4761.76025390625,True
1599387920.5868373,0.0,10,0.5,0.5,-13.864221676635744,-0.2,-0.001,-0.12575,0.15454739321840585,10,1,100,0.1706807345973099,-10,-1,-100,19086.92900393426,-0.01586363463046896,0.013638892299158377,0.9997811389064922,67.07312134181564,4.104646124523624,370.74581356131483,-97.46561197694736,-20.884613037109375,4761.76025390625,True
1599387920.6277282,0.0,10,0.5,0.5,-15.334655033874512,-0.2,-0.001,-0.12575,0.07520069301137661,10,1,100,0.22979994693873304,-10,-1,-100,19083.0194578059,-0.016392810083496533,0.012925949453280943,0.9997820740582909,66.17496473581409,4.052379093068332,367.2451588543498,-97.82965646024373,-16.38934326171875,4761.76025390625,True
1599387920.6680984,0.0,10,0.5,0.5,-16.1428188079834,-0.2,-0.001,-0.12575,0.06954506657297979,10,1,100,0.22799690980941154,-10,-1,-100,19079.095348596456,-0.016849923189790016,0.012234666289034706,0.9997831730076748,65.30869968213844,4.001833886999955,363.88553077014177,-98.1937512918747,-12.19097900390625,4761.76025390625,True
1599387920.711019,0.0,10,0.5,0.5,-18.065619926452637,-0.2,-0.001,-0.12575,0.010559525122133567,10,1,100,0.2705897605218244,-10,-1,-100,19071.203432722716,-0.01764685503415589,0.011077162006701557,0.9997829189325455,63.60961017767416,3.9017144044354914,357.2464301011042,-98.92208013263439,-4.682464599609375,4761.76025390625,True
1599387920.750877,0.0,10,0.5,0.5,-17.126364611816406,-0.2,-0.001,-0.12575,0.12550603176200384,10,1,100,0.19151381024057956,-10,-1,-100,19071.203432722716,-0.01764685503415589,0.011077162006701557,0.9997829189325455,63.60961017767416,3.9017144044354914,357.2464301011042,-98.92208013263439,-4.682464599609375,4761.76025390625,True
1599387920.7888517,0.0,10,0.5,0.5,-19.19112950744629,-0.2,-0.001,-0.12575,0.03315184099688878,10,1,100,0.27237553700375616,-10,-1,-100,19063.253242364386,-0.018377199971088363,0.010244034346038856,0.9997786446416725,61.891299454905486,3.7986724536775798,350.35451940643094,-99.65056851084245,1.642791748046875,4761.76025390625,True
1599387920.8247204,0.0,10,0.5,0.5,-18.855528767395022,-0.2,-0.001,-0.12575,0.09690675219293213,10,1,100,0.21682515502805963,-10,-1,-100,19061.256588506047,-0.018530720821299754,0.010073448945930288,0.999777544262811,62.49456011051294,3.8360338186349714,354.4665562010439,-99.832688422556,3.03912353515625,4761.76025390625,True
1599387920.8636184,0.0,10,0.5,0.5,-18.68413913574219,-0.2,-0.001,-0.12575,0.11330048567658867,10,1,100,0.2019602603126791,-10,-1,-100,19061.256588506047,-0.018530720821299754,0.010073448945930288,0.999777544262811,62.49456011051294,3.8360338186349714,354.4665562010439,-99.832688422556,3.03912353515625,4761.76025390625,True
1599387920.9020267,0.0,10,0.5,0.5,-19.52567513122559,-0.2,-0.001,-0.12575,0.08485939561442057,10,1,100,0.23907271720369086,-10,-1,-100,19057.252355096396,-0.01886401567394726,0.009820519450534545,0.9997738275782052,63.76256127637471,3.9142771189996286,363.0817212945687,-100.1968757411064,5.6104736328125,4761.76025390625,True
1599387920.9409568,0.0,10,0.5,0.5,-19.946784219360353,-0.2,-0.001,-0.12575,0.09007199124883818,10,1,100,0.2407216100968752,-10,-1,-100,19053.233556026244,-0.019178786731841674,0.00964221380634587,0.9997695743782201,64.87394300561878,3.9826129289859185,370.8588453360418,-100.560997708028,7.88623046875,4761.76025390625,True
1599387920.9828115,0.0,10,0.5,0.5,-20.85757017822266,-0.2,-0.001,-0.12575,0.09647807678535453,10,1,100,0.27653853874376055,-10,-1,-100,19045.152271013125,-0.019787536906625214,0.00954198825149978,0.9997586728022804,66.68090490811048,4.093088615296427,384.168177576991,-101.28906783532491,11.5518798828125,4761.76025390625,True
1599387921.0217078,0.0,10,0.5,0.5,-20.39985841369629,-0.2,-0.001,-0.12575,0.10609094186519764,10,1,100,0.21605591149302217,-10,-1,-100,19045.152271013125,-0.019787536906625214,0.00954198825149978,0.9997586728022804,66.68090490811048,4.093088615296427,384.168177576991,-101.28906783532491,11.5518798828125,4761.76025390625,True
1599387921.062598,0.0,10,0.5,0.5,-20.85547963104248,-0.2,-0.001,-0.12575,0.11465285319871757,10,1,100,0.24920503482439652,-10,-1,-100,19041.08978917112,-0.020085806457980318,0.00962290013744249,0.9997519493213691,67.40395005939997,4.137011056192628,389.84067783696935,-101.6530270642151,12.941986083984375,4761.76025390625,True
1599387921.1024907,0.0,10,0.5,0.5,-21.300688507080082,-0.2,-0.001,-0.12575,0.1548864187694094,10,1,100,0.2846754625741404,-10,-1,-100,19032.921155950637,-0.020676477317602457,0.01006459041726178,0.9997355586881301,68.54878318404924,4.206085027768839,399.5288803104493,-102.3808208822538,14.837615966796875,4761.76025390625,True
1599387921.1433823,0.0,10,0.5,0.5,-21.06426505737305,-0.2,-0.001,-0.12575,0.11061613362853633,10,1,100,0.22591133884027115,-10,-1,-100,19032.921155950637,-0.020676477317602457,0.01006459041726178,0.9997355586881301,68.54878318404924,4.206085027768839,399.5288803104493,-102.3808208822538,14.837615966796875,4761.76025390625,True
1599387921.1822774,0.0,10,0.5,0.5,-21.299907498931887,-0.2,-0.001,-0.12575,0.2038844043004578,10,1,100,0.289025813020723,-10,-1,-100,19024.694306297577,-0.021247491062621613,0.010913404306633285,0.9997146801612867,69.34199626257748,4.253405188442242,407.25795850019506,-103.10848209409616,15.555007934570312,4761.76025390625,True
1599387921.2241662,0.0,10,0.5,0.5,-21.211086680603028,-0.2,-0.001,-0.12575,0.11906995235936683,10,1,100,0.2322114676279607,-10,-1,-100,19024.694306297577,-0.021247491062621613,0.010913404306633285,0.9997146801612867,69.34199626257748,4.253405188442242,407.25795850019506,-103.10848209409616,15.555007934570312,4761.76025390625,True
1599387921.263061,0.0,10,0.5,0.5,-21.185213974761965,-0.2,-0.001,-0.12575,0.1794855761669443,10,1,100,0.26372041664962387,-10,-1,-100,19020.559052889817,-0.021531466262599167,0.011461873654556077,0.9997024664433461,69.61905706183566,4.269723194894738,410.4460351930227,-103.47227519206541,15.47174072265625,4761.76025390625,True
1599387921.303953,0.0,10,0.5,0.5,-20.976762522888183,-0.2,-0.001,-0.12575,0.24120888359306447,10,1,100,0.27644170711303734,-10,-1,-100,19014.328889618046,-0.021902545680026794,0.01252034092498823,0.999681709123387,69.88813781668091,4.285260222840553,414.3852806210961,-104.0179310125476,14.795867919921875,4761.76025390625,True
1599387921.3488326,0.0,10,0.5,0.5,-20.626973489379886,-0.2,-0.001,-0.12575,0.2764628875614894,10,1,100,0.27643973705531744,-10,-1,-100,19008.065988102113,-0.022237110395339838,0.013800620460117274,0.9996574682340853,69.9758943853683,4.289797220027721,417.26491824985635,-104.56356126859582,13.458343505859375,4761.76025390625,True
1599387921.4036858,0.0,10,0.5,0.5,-20.60266821289063,-0.2,-0.001,-0.12575,0.2023277414662118,10,1,100,0.25261173875135834,-10,-1,-100,19005.971079138573,-0.022321861675894342,0.014286774703319544,0.9996487495915246,69.96251281712898,4.288736225556108,417.97227336548707,-104.74543523223358,12.865692138671875,4761.76025390625,True
1599387921.4415839,0.0,10,0.5,0.5,-20.46035103149414,-0.2,-0.001,-0.12575,0.21047015497177607,10,1,100,0.2530358977590516,-10,-1,-100,19003.872532905196,-0.02240046035395086,0.014798441604961446,0.9996395477880993,69.9260772960848,4.286288328882235,418.54179855749476,-104.92730890293265,12.199615478515625,4761.76025390625,True
1599387921.4820528,0.0,10,0.5,0.5,-19.43718363494873,-0.2,-0.001,-0.12575,0.4141959288048548,10,1,100,0.2667334622313652,-10,-1,-100,18995.441972639645,-0.022594061626071155,0.017110867229160744,0.9995982826125219,69.5265775216306,4.2612983888396805,419.28625292443826,-105.65481478552607,8.80133056640625,4761.76025390625,True
1599387921.5199523,0.0,10,0.5,0.5,-19.16724265289307,-0.2,-0.001,-0.12575,0.3284698140853496,10,1,100,0.2490721991734267,-10,-1,-100,18991.204866914777,-0.02260722561368281,0.01842693678362668,0.9995745901886584,69.15783416339276,4.238735803684922,418.62503908583443,-106.01858472405792,6.662078857421875,4761.76025390625,True
1599387921.8978894,0.0,10,0.5,0.5,-19.051222386169435,-0.2,-0.001,-0.12575,0.27516267832914487,10,1,100,0.2411505370515909,-10,-1,-100,18989.080857095774,-0.022545422539225736,0.019131151193206245,0.9995627558970724,68.92649535645528,4.224671058682006,418.00412007460017,-106.20047678231904,5.48260498046875,4761.76025390625,True
1599387921.933504,0.0,10,0.5,0.5,-18.790493702697756,-0.2,-0.001,-0.12575,0.28555660002516076,10,1,100,0.2391272259474616,-10,-1,-100,18986.95320943417,-0.022469145147662108,0.019857593980264227,0.9995503056263093,68.66021975970877,4.2085379504882905,417.1662004067778,-106.38237454792007,4.229766845703125,4761.76025390625,True
1599387921.969371,0.0,10,0.5,0.5,-18.0590161315918,-0.2,-0.001,-0.12575,0.38051171986452237,10,1,100,0.2269480700004296,-10,-1,-100,18982.687000074075,-0.02228797187028121,0.021373093794607834,0.9995231048712964,68.01504862880795,4.169618964636448,414.7869012605512,-106.7461906167099,1.50408935546875,4761.76025390625,True
1599387922.0232275,0.0,10,0.5,0.5,-17.417011148071285,-0.2,-0.001,-0.12575,0.40701601676128474,10,1,100,0.21416533360095763,-10,-1,-100,18978.406236683833,-0.022006116304660046,0.022982260243538066,0.9994936450819905,67.20972128439601,4.121268271369114,411.39974093587335,-107.11003958295504,-1.5146484375,4761.76025390625,True
1599387922.0820706,0.0,10,0.5,0.5,-17.26743402252197,-0.2,-0.001,-0.12575,0.3393349718742067,10,1,100,0.2218531916310152,-10,-1,-100,18976.260396919097,-0.021819342090694003,0.02381938352851122,0.9994781404708413,66.74322080473537,4.093342986108967,409.3015275022854,-107.29197855350559,-3.133941650390625,4761.76025390625,True
1599387922.118971,0.0,10,0.5,0.5,-16.342691883850097,-0.2,-0.001,-0.12575,0.4468136819202039,10,1,100,0.18833651897171635,-10,-1,-100,18971.95780063304,-0.021344925966176095,0.025547212021992678,0.9994457134299,66.17251242982998,4.060086841924297,407.3041212233339,-107.65587657331459,-6.59234619140625,4761.76025390625,True
1599387922.1558733,0.0,10,0.5,0.5,-15.553481866455082,-0.2,-0.001,-0.12575,0.47132394243588477,10,1,100,0.16782589339188148,-10,-1,-100,18967.64065000671,-0.020727989424460556,0.02733010702842576,0.9994115347064163,67.36540216157296,4.135617655277184,416.17675641923677,-108.01971609408488,-10.343994140625,4761.76025390625,True
1599387922.1947691,0.0,10,0.5,0.5,-13.292239396667481,-0.2,-0.001,-0.12575,0.7012722518167234,10,1,100,0.04820080048350073,-10,-1,-100,18958.962698109215,-0.019081086153053362,0.03102950227198609,0.9993363208349693,69.66825977224089,4.2834369866723385,433.5679623507131,-108.74715557902276,-18.726776123046875,4761.76025390625,True
1599387922.2306728,0.0,10,0.5,0.5,-14.343281591796876,-0.2,-0.001,-0.12575,0.3329558335273929,10,1,100,0.21255919020413033,-10,-1,-100,18958.962698109215,-0.019081086153053362,0.03102950227198609,0.9993363208349693,69.66825977224089,4.2834369866723385,433.5679623507131,-108.74715557902276,-18.726776123046875,4761.76025390625,True
1599387922.2675743,0.0,10,0.5,0.5,-12.04131116027832,-0.2,-0.001,-0.12575,0.6357706933629703,10,1,100,0.02292769931668512,-10,-1,-100,18952.416053578258,-0.017360357122688422,0.03376971132954332,0.999278852271623,71.4398669166126,4.3984246996450524,447.02371399452915,-109.29251010803404,-25.785003662109375,4761.76025390625,True
1599387922.3114564,0.0,10,0.5,0.5,-12.111253623962403,-0.2,-0.001,-0.12575,0.45913394021780995,10,1,100,0.11946622989640363,-10,-1,-100,18950.226568504353,-0.016678450889891366,0.03464107383096123,0.9992606393127628,71.99041340931946,4.434479823091595,451.2840708723284,-109.47425043892719,-28.2850341796875,4761.76025390625,True
1599387922.350353,0.0,10,0.5,0.5,-8.925841215515138,-0.2,-0.001,-0.12575,0.7524100031551226,10,1,100,-0.15106248112230208,-10,-1,-100,18941.43228894996,-0.013604517825041568,0.03808526765655513,0.9991818800810375,74.1104060764865,4.57394840008649,467.9250560647455,-110.2009884008313,-39.018463134765625,4761.76025390625,True
1599387922.390117,0.0,10,0.5,0.5,-10.271245083618165,-0.2,-0.001,-0.12575,0.40981338796336203,10,1,100,0.15544436263041567,-10,-1,-100,18941.43228894996,-0.013604517825041568,0.03808526765655513,0.9991818800810375,74.1104060764865,4.57394840008649,467.9250560647455,-110.2009884008313,-39.018463134765625,4761.76025390625,True
1599387922.4300103,0.0,10,0.5,0.5,-8.375321765136718,-0.2,-0.001,-0.12575,0.5883451701027901,10,1,100,-0.042212986166124844,-10,-1,-100,18937.013351395843,-0.011815526885114145,0.039693090972493614,0.9991420578944099,74.84143319954528,4.623184525689528,474.22942377557075,-110.56424461907017,-44.826202392578125,4761.76025390625,True
1599387922.4689064,0.0,10,0.5,0.5,-7.112526963806153,-0.2,-0.001,-0.12575,0.5702703904033413,10,1,100,-0.07892717038445515,-10,-1,-100,18932.57988519629,-0.009864670346303981,0.04097524068905274,0.9991114642167975,75.28701576399658,4.654360332649912,478.7500414628826,-110.9274492420056,-50.93145751953125,4761.76025390625,True
1599387922.5078027,0.0,10,0.5,0.5,-5.791649319458007,-0.2,-0.001,-0.12575,0.5899676446023177,10,1,100,-0.1156861716604677,-10,-1,-100,18928.13189162733,-0.007767859546462254,0.04230430105395124,0.9990745750295136,75.39398160855104,4.664012404450017,481.1293139967165,-111.29062583168968,-57.3284912109375,4761.76025390625,True
1599387922.5437062,0.0,10,0.5,0.5,-4.410263113403321,-0.2,-0.001,-0.12575,0.5673791317844983,10,1,100,-0.14737641514805683,-10,-1,-100,18923.669371088734,-0.005585917575282341,0.043291953915486105,0.9990468478760252,75.11243132046967,4.648973734198599,481.0260919434695,-111.65380198910269,-64.02301025390625,4761.76025390625,True
1599387922.5816054,0.0,10,0.5,0.5,-4.12038434753418,-0.2,-0.001,-0.12575,0.5181673631993085,10,1,100,-0.05339939103918393,-10,-1,-100,18921.43266324408,-0.0044704360677896085,0.043727929668936925,0.9990334745984404,74.81141567307505,4.631304065169482,479.94243666866237,-111.83539932697113,-67.480712890625,4761.76025390625,True
1599387922.6195033,0.0,10,0.5,0.5,-2.225429516601563,-0.2,-0.001,-0.12575,0.5538886309725919,10,1,100,-0.19319745286680864,-10,-1,-100,18916.948350320337,-0.0021987529080771395,0.04443746603601575,0.9990097482497092,73.86311374888038,4.574154683408323,475.5276729941817,-112.19863207686348,-74.61773681640625,4761.76025390625,True
1599387922.6593974,0.0,10,0.5,0.5,1.8210599548339845,-0.2,-0.001,-0.12575,0.5670819802609744,10,1,100,-0.4699570418742831,-10,-1,-100,18907.93612583878,0.00236706228877944,0.04519024957801449,0.9989755944762605,70.46199285087687,4.366127340151448,456.82615439393595,-112.9253549027905,-89.77777099609375,4761.76025390625,True
1599387922.6982932,0.0,10,0.5,0.5,-0.07891506652832031,-0.2,-0.001,-0.12575,0.4929456798859471,10,1,100,-0.015348264129771949,-10,-1,-100,18907.93612583878,0.00236706228877944,0.04519024957801449,0.9989755944762605,70.46199285087687,4.366127340151448,456.82615439393595,-112.9253549027905,-89.77777099609375,4761.76025390625,True
1599387922.7361917,0.0,10,0.5,0.5,2.5407571353912353,-0.2,-0.001,-0.12575,0.4973155125727653,10,1,100,-0.2564610877482233,-10,-1,-100,18903.408205336193,0.004541682946057479,0.04522038516994279,0.9989667110975717,67.96364273161431,4.213043611729803,442.17388932336166,-113.28889808590573,-97.80086517333984,4761.76025390625,True
1599387922.7770822,0.0,10,0.5,0.5,4.149074624633789,-0.2,-0.001,-0.12575,0.4790293052290264,10,1,100,-0.25757247493298163,-10,-1,-100,18898.865739242523,0.0065122177900161365,0.04507505644355872,0.998962376822103,64.96221251238241,4.029348459965275,424.1244321711395,-113.6525880969502,-105.81726837158203,4761.76025390625,True
1599387922.8159795,0.0,10,0.5,0.5,8.262500143051149,-0.2,-0.001,-0.12575,0.40040497778115625,10,1,100,-0.47421988860572173,-10,-1,-100,18889.73717006331,0.010254847103717046,0.04422181845296801,0.9989691030675534,68.54347566901114,4.2585839410262745,450.6187066927408,-114.3797482245801,-121.51890563964844,4761.76025390625,True
1599387922.8549263,0.0,10,0.5,0.5,8.737978474426269,-0.2,-0.001,-0.12575,0.4183709779110695,10,1,100,-0.27552009850168924,-10,-1,-100,18885.15107815899,0.011830811684327732,0.04360535780135706,0.9989787808887162,70.11106898109823,4.35989395212928,462.5115622013326,-114.74312554922514,-129.01634216308594,4761.76025390625,True
1599387922.8997703,0.0,10,0.5,0.5,7.80298432006836,-0.2,-0.001,-0.12575,0.48028005478339514,10,1,100,-0.1200931886436839,-10,-1,-100,18885.15107815899,0.011830811684327732,0.04360535780135706,0.9989787808887162,70.11106898109823,4.35989395212928,462.5115622013326,-114.74312554922514,-129.01634216308594,4761.76025390625,True
1599387922.9386663,0.0,10,0.5,0.5,10.156387163543702,-0.2,-0.001,-0.12575,0.4123928603144932,10,1,100,-0.26871991414930396,-10,-1,-100,18880.55045470351,0.01316414676053265,0.04298701870914213,0.998988899569243,71.42279471475983,4.44515098962517,472.77890586341783,-115.10639749508137,-136.21890258789062,4761.76025390625,True
1599387922.978559,0.0,10,0.5,0.5,13.66082329788208,-0.2,-0.001,-0.12575,0.3055810112345505,10,1,100,-0.37226429963859126,-10,-1,-100,18871.305623565917,0.015300536639407175,0.0414541526656803,0.99902324637884,72.60202906706976,4.524364102025078,483.8634265345978,-115.83275577697404,-149.73521423339844,4761.76025390625,True
1599387923.026431,0.0,10,0.5,0.5,11.96937255859375,-0.2,-0.001,-0.12575,0.4586402378804081,10,1,100,-0.16060240902185852,-10,-1,-100,18871.305623565917,0.015300536639407175,0.0414541526656803,0.99902324637884,72.60202906706976,4.524364102025078,483.8634265345978,-115.83275577697404,-149.73521423339844,4761.76025390625,True
1599387923.0673213,0.0,10,0.5,0.5,14.032480333709717,-0.2,-0.001,-0.12575,0.37818684463537083,10,1,100,-0.24474657064660352,-10,-1,-100,18866.661418713047,0.016049575118225325,0.040725470284698445,0.9990414642088759,72.5722947829722,4.524538118713969,485.3054887705428,-116.1959064434778,-156.04556274414062,4761.76025390625,True
1599387923.1072147,0.0,10,0.5,0.5,15.203813671112062,-0.2,-0.001,-0.12575,0.37602321552855333,10,1,100,-0.23624055721360027,-10,-1,-100,18862.002687210334,0.016640753147005936,0.040047421291283254,0.9990592021410036,72.20828091576318,4.503406894482239,484.50590340732793,-116.55907372145641,-162.05702209472656,4761.76025390625,True
1599387923.149104,0.0,10,0.5,0.5,16.316646317291262,-0.2,-0.001,-0.12575,0.36174355642266337,10,1,100,-0.21886355856389123,-10,-1,-100,18857.329428359866,0.01700723892102893,0.03930587333111293,0.9990824801516447,71.56941392180826,4.464834443072067,481.8426879107758,-116.92227683193528,-167.77166748046875,4761.76025390625,True
1599387923.1889982,0.0,10,0.5,0.5,17.368876303863527,-0.2,-0.001,-0.12575,0.367802828412024,10,1,100,-0.20778101299313534,-10,-1,-100,18852.641639551613,0.01722832506861117,0.038692199941623935,0.9991026466179578,70.7109990643028,4.4124477735226035,477.6708917542466,-117.28552994997852,-173.1864013671875,4761.76025390625,True
1599387923.2298868,0.0,10,0.5,0.5,18.361326084899904,-0.2,-0.001,-0.12575,0.36655181046213137,10,1,100,-0.1919985496589116,-10,-1,-100,18847.93931895122,0.01727609362039427,0.03812874474845486,0.9991234835660339,69.68649772392935,4.349745603795277,472.337650345741,-117.64884218052505,-178.30264282226562,4761.76025390625,True
1599387923.2717752,0.0,10,0.5,0.5,-96.5051414993286,-0.2,-0.001,-0.12575,0.32500922594654386,10,1,100,-0.14829799708998992,-10,-1,-100,18838.49107186997,0.016915858874555365,0.03724439205334537,0.999163004208579,67.3287334667846,4.205711053174393,459.43211518978484,-118.3756611489328,172.36129760742188,4761.76025390625,True
1599387923.312664,0.0,10,0.5,0.5,-51.06468300323486,-0.2,-0.001,-0.12575,0.3794518986653609,10,1,100,-0.14164573699664668,-10,-1,-100,18833.745140141807,0.01652327488004394,0.03694115114227873,0.9991808308507133,66.07909050046572,4.1297398286262474,452.41674912188614,-118.73916875906542,168.1414794921875,4761.76025390625,True
1599387923.351561,0.0,10,0.5,0.5,-50.249565316009516,-0.2,-0.001,-0.12575,0.3849219503211796,10,1,100,-0.12536657986138489,-10,-1,-100,18828.984667343786,0.016014122126353253,0.036721263698779295,0.9991972261194919,66.39591408843401,4.152064860567825,456.10591351280505,-119.10268739314088,163.9189910888672,4761.76025390625,True
1599387923.394447,0.0,10,0.5,0.5,-50.09412672042847,-0.2,-0.001,-0.12575,0.398937307789516,10,1,100,-0.142111745680903,-10,-1,-100,18826.598978974624,0.015700893880115682,0.03665447450441047,0.9992046494238158,67.11853758884756,4.198683641558224,461.83841546902056,-119.28441086227615,161.71966552734375,4761.76025390625,True
1599387923.4343388,0.0,10,0.5,0.5,-48.11492686004639,-0.2,-0.001,-0.12575,0.40006457052238603,10,1,100,-0.0514151035825299,-10,-1,-100,18819.420112145133,0.014591262039695673,0.03660836824179333,0.9992231594827865,69.25088230243183,4.337028833906477,478.889468161081,-119.82943572592364,154.69921875,4761.76025390625,True
1599387923.4737434,0.0,10,0.5,0.5,-47.38581720657349,-0.2,-0.001,-0.12575,0.4174401388489516,10,1,100,-0.0650906755157365,-10,-1,-100,18814.616037730826,0.013707473997433644,0.03672881842822279,0.9992312540415638,70.74946384139672,4.434580545763472,490.87194475347434,-120.19265730485067,149.6573944091797,4761.76025390625,True
1599387923.5156305,0.0,10,0.5,0.5,-46.313154706573485,-0.2,-0.001,-0.12575,0.42828586627276377,10,1,100,-0.041736366852167056,-10,-1,-100,18809.797437260393,0.012693847608545524,0.03694054943960829,0.9992368398132601,72.20269024530742,4.529552631359775,502.60640988855926,-120.55577548610812,144.3243408203125,4761.76025390625,True
1599387923.5555613,0.0,10,0.5,0.5,-45.18261243057252,-0.2,-0.001,-0.12575,0.44609040465582106,10,1,100,-0.0195877847470992,-10,-1,-100,18804.964315352845,0.011574606422727035,0.03729771604603352,0.9992371634721702,73.64735325861756,4.624089363468884,514.3466147630874,-120.91878941429934,138.7009735107422,4761.76025390625,True
1599387923.5964148,0.0,10,0.5,0.5,-43.993976773834234,-0.2,-0.001,-0.12575,0.4634948081543371,10,1,100,0.004398238670536722,-10,-1,-100,18800.11667589564,0.010343998434093811,0.037782460408483945,0.9992324491237646,74.91162585770262,4.707212013586172,524.8883112982251,-121.28170965508963,132.78717041015625,4761.76025390625,True
1599387923.637307,0.0,10,0.5,0.5,-42.747348197937015,-0.2,-0.001,-0.12575,0.48420039627522476,10,1,100,0.02894131887442089,-10,-1,-100,18795.254521808587,0.00900840346678695,0.03841219675684071,0.9992213727734678,75.9439270872199,4.775477813744625,533.8572799679563,-121.6445525230312,126.5833740234375,4761.76025390625,True
1599387923.6777074,0.0,10,0.5,0.5,-43.557964195251465,-0.2,-0.001,-0.12575,0.42125510664038673,10,1,100,-0.10379140884090458,-10,-1,-100,18795.254521808587,0.00900840346678695,0.03841219675684071,0.9992213727734678,75.9439270872199,4.775477813744625,533.8572799679563,-121.6445525230312,126.5833740234375,4761.76025390625,True
1599387923.7335753,0.0,10,0.5,0.5,-39.22871417312623,-0.2,-0.001,-0.12575,0.6126664453124349,10,1,100,0.2222782088535325,-10,-1,-100,18785.486679426627,0.006051322810844584,0.04015123819503797,0.9991752897082896,77.09220220861869,4.8530030802225,545.4591333192216,-122.37009647791326,113.30732727050781,4761.76025390625,True
1599387923.7804506,0.0,10,0.5,0.5,-40.89269363708497,-0.2,-0.001,-0.12575,0.4390833101979848,10,1,100,-0.07238266153378414,-10,-1,-100,18785.486679426627,0.006051322810844584,0.04015123819503797,0.9991752897082896,77.09220220861869,4.8530030802225,545.4591333192216,-122.37009647791326,113.30732727050781,4761.76025390625,True
1599387923.820343,0.0,10,0.5,0.5,-36.1866895652771,-0.2,-0.001,-0.12575,0.7122639490761624,10,1,100,0.2860060106451714,-10,-1,-100,18775.66079464846,0.002802301063140905,0.04263158038984299,0.9990869308835022,76.62631380127105,4.827185359821017,545.6894889736278,-123.09564377070281,98.87619018554688,4761.76025390625,True
1599387923.8602376,0.0,10,0.5,0.5,-37.995120706176756,-0.2,-0.001,-0.12575,0.4648274401842041,10,1,100,-0.037606304843499014,-10,-1,-100,18775.66079464846,0.002802301063140905,0.04263158038984299,0.9990869308835022,76.62631380127105,4.827185359821017,545.6894889736278,-123.09564377070281,98.87619018554688,4761.76025390625,True
1599387923.9031222,0.0,10,0.5,0.5,-32.91339846115112,-0.2,-0.001,-0.12575,0.8326346793744976,10,1,100,0.3362150795640617,-10,-1,-100,18765.776855095057,-0.0005853579214945972,0.04596980691689288,0.9989426581181361,74.12235597282802,4.67309763092917,531.2950733574457,-123.82145194108804,83.29325866699219,4761.76025390625,True
1599387923.9440124,0.0,10,0.5,0.5,-32.187362915802005,-0.2,-0.001,-0.12575,0.7119850064849611,10,1,100,0.17859453280297963,-10,-1,-100,18760.813104858855,-0.002219140362499827,0.0478993421984073,0.9988497026244797,72.00274983750568,4.542317791156871,517.7797708857813,-124.18452885417067,75.06930541992188,4761.76025390625,True
1599387923.983905,0.0,10,0.5,0.5,-33.214599533081056,-0.2,-0.001,-0.12575,0.5201273576093991,10,1,100,0.016707587499561142,-10,-1,-100,18760.813104858855,-0.002219140362499827,0.0478993421984073,0.9988497026244797,72.00274983750568,4.542317791156871,517.7797708857813,-124.18452885417067,75.06930541992188,4761.76025390625,True
1599387924.0247972,0.0,10,0.5,0.5,-27.571701644897466,-0.2,-0.001,-0.12575,1.0649210505576483,10,1,100,0.38338276972213137,-10,-1,-100,18750.842035406386,-0.005540011340172986,0.05284237429234377,0.9985874982962178,75.70170101099131,4.785284433316986,547.9098467724888,-124.91055529800542,57.76605224609375,4761.76025390625,True
1599387924.0641985,0.0,10,0.5,0.5,-29.740083619689944,-0.2,-0.001,-0.12575,0.5721238325523872,10,1,100,0.05288407293224209,-10,-1,-100,18750.842035406386,-0.005540011340172986,0.05284237429234377,0.9985874982962178,75.70170101099131,4.785284433316986,547.9098467724888,-124.91055529800542,57.76605224609375,4761.76025390625,True
1599387924.103094,0.0,10,0.5,0.5,-26.774322622680664,-0.2,-0.001,-0.12575,0.8743234215169728,10,1,100,0.21915238727160702,-10,-1,-100,18745.83473192656,-0.007038315638888158,0.05557652493971682,0.9984296229522602,78.62791380648837,4.976399716516463,570.9188896770708,-125.27324684711927,48.682769775390625,4761.76025390625,True
1599387924.1434615,0.0,10,0.5,0.5,-24.857915912628176,-0.2,-0.001,-0.12575,0.9599824288100669,10,1,100,0.21482670232195306,-10,-1,-100,18740.81292660255,-0.008346498120809029,0.058825230750736014,0.9982334036668187,81.29492754381141,5.151508647242903,592.1728248990879,-125.63574393740208,39.31718444824219,4761.76025390625,True
1599387924.181358,0.0,10,0.5,0.5,-19.644919078063964,-0.2,-0.001,-0.12575,1.3851968307412834,10,1,100,0.3047811906670908,-10,-1,-100,18730.725835248013,-0.010340434070300478,0.06562720878507752,0.9977906317912177,84.67280805894576,5.376491441729232,620.7132998307268,-126.36032825430229,19.721420288085938,4761.76025390625,True
1599387924.2212522,0.0,10,0.5,0.5,-22.099727830505373,-0.2,-0.001,-0.12575,0.7075466243661365,10,1,100,0.10702677140606039,-10,-1,-100,18730.725835248013,-0.010340434070300478,0.06562720878507752,0.9977906317912177,84.67280805894576,5.376491441729232,620.7132998307268,-126.36032825430229,19.721420288085938,4761.76025390625,True
1599387924.263647,0.0,10,0.5,0.5,-18.76036547317505,-0.2,-0.001,-0.12575,1.118921615929501,10,1,100,0.16455542637436307,-10,-1,-100,18725.660555274226,-0.010851473901709192,0.06934607631893062,0.997533642146133,85.0500185509353,5.404583753234102,625.4642713593331,-126.72254907776255,9.494415283203125,4761.76025390625,True
1599387924.3045368,0.0,10,0.5,0.5,-16.612714149475096,-0.2,-0.001,-0.12575,1.176289247995311,10,1,100,0.13129258622626702,-10,-1,-100,18720.580785215483,-0.011001253588039104,0.07322410300855073,0.9972548336097874,84.40290335008481,5.367251799074904,622.6875212872618,-127.0848200549456,-1.01904296875,4761.76025390625,True
1599387924.3444307,0.0,10,0.5,0.5,-12.613139944458009,-0.2,-0.001,-0.12575,1.4329600848076292,10,1,100,0.07658864273228849,-10,-1,-100,18712.933951490675,-0.010630639365969634,0.07905817642823403,0.9968133196574538,81.36250556268769,5.180747893882795,603.1442265145001,-127.62846569762506,-17.329742431640625,4761.76025390625,True
1599387924.385355,0.0,10,0.5,0.5,-12.836922050476076,-0.2,-0.001,-0.12575,1.065480806441333,10,1,100,0.07597944578679236,-10,-1,-100,18710.3777561076,-0.010280532374580632,0.08099283261167994,0.9966616636149057,79.7772403064761,5.082865305837299,592.3397779443364,-127.80977108424665,-22.910858154296875,4761.76025390625,True
1599387924.4307787,0.0,10,0.5,0.5,-9.82209168548584,-0.2,-0.001,-0.12575,1.2904634876725183,10,1,100,0.008223500624976357,-10,-1,-100,18705.25448368152,-0.00933896161547223,0.08476682307108403,0.9963570492059464,77.94863903811645,4.974013140480134,580.6122033459874,-128.17247643100742,-34.290313720703125,4761.76025390625,True
1599387924.7858286,0.0,10,0.5,0.5,-7.442405358886719,-0.2,-0.001,-0.12575,1.3109079307817662,10,1,100,-0.03821474844623257,-10,-1,-100,18700.116709624417,-0.008057368706294239,0.08835455983628206,0.9960564996854685,81.99635172130063,5.242174008038789,612.6992814723817,-128.53493739996543,-45.96014404296875,4761.76025390625,True
1599387924.8187447,0.0,10,0.5,0.5,-5.0032683349609375,-0.2,-0.001,-0.12575,1.3233633480207807,10,1,100,-0.08550021163741656,-10,-1,-100,18694.964446008904,-0.0064601278895161,0.09169708597450409,0.995765992174585,85.19577818330342,5.457393043462339,638.6075768268594,-128.8971229121868,-57.920989990234375,4761.76025390625,True
1599387924.8546474,0.0,10,0.5,0.5,-6.496684336853027,-0.2,-0.001,-0.12575,0.9927227903020566,10,1,100,0.07416605126546011,-10,-1,-100,18694.964446008904,-0.0064601278895161,0.09169708597450409,0.995765992174585,85.19577818330342,5.457393043462339,638.6075768268594,-128.8971229121868,-57.920989990234375,4761.76025390625,True
1599387924.8895543,0.0,10,0.5,0.5,-2.4956283203125005,-0.2,-0.001,-0.12575,1.3278343592164943,10,1,100,-0.12495277305198425,-10,-1,-100,18689.797701287782,-0.004651671641385963,0.09471367127806828,0.9954936877871055,87.65319037016037,5.6248444092457595,659.0788806109783,-129.25909864620226,-70.17373657226562,4761.76025390625,True
1599387924.94341,0.0,10,0.5,0.5,0.05905679016113252,-0.2,-0.001,-0.12575,1.3223131114846134,10,1,100,-0.15863016763513052,-10,-1,-100,18684.616480617202,-0.0027066339763562493,0.09737938615420681,0.9952436532250523,88.6615458171996,5.698035816597654,668.7363119108671,-129.6209753874839,-82.71856689453125,4761.76025390625,True
1599387924.9823053,0.0,10,0.5,0.5,0.5706913146972655,-0.2,-0.001,-0.12575,1.1906219653545418,10,1,100,-0.07930708558070867,-10,-1,-100,18682.02044214774,-0.001666476663273021,0.09857670546099653,0.9951280600987928,88.56694450646056,5.695624069662277,669.0626801853906,-129.8019173915943,-89.1004638671875,4761.76025390625,True
1599387925.0212033,0.0,10,0.5,0.5,4.007267403030395,-0.2,-0.001,-0.12575,1.3052914046364026,10,1,100,-0.1942591509783111,-10,-1,-100,18676.817506599706,0.0003157896729277211,0.10068105370687495,0.9949187030613889,87.09706331105322,5.6078411858449275,660.014375123475,-130.16388772175407,-102.08354949951172,4761.76025390625,True
1599387925.0600975,0.0,10,0.5,0.5,6.657075712203979,-0.2,-0.001,-0.12575,1.2911008218475528,10,1,100,-0.20646409552601086,-10,-1,-100,18671.600086335442,0.002218515798761151,0.10244013140441277,0.9947366976569717,83.88804462504893,5.408341745774891,637.6892300759282,-130.52606093108483,-115.19889831542969,4761.76025390625,True
1599387925.0979965,0.0,10,0.5,0.5,9.266071263122559,-0.2,-0.001,-0.12575,1.2738279176963792,10,1,100,-0.2113391133188468,-10,-1,-100,18666.368170893635,0.003980904115667568,0.10386101022354904,0.9945838541610083,79.07914869456908,5.1068361116710586,603.0152500923323,-130.88850873273825,-128.24099731445312,4761.76025390625,True
1599387925.1348975,0.0,10,0.5,0.5,11.812717478179932,-0.2,-0.001,-0.12575,1.265348207582436,10,1,100,-0.19907442510999526,-10,-1,-100,18661.12175690697,0.005458613205056344,0.10505484071480811,0.9944514487818215,81.17335834111599,5.252858099656513,620.9060653495932,-131.2509275205013,-141.06112670898438,4761.76025390625,True
1599387925.1717987,0.0,10,0.5,0.5,18.278581132507323,-0.2,-0.001,-0.12575,1.359424143008797,10,1,100,-0.2777610846601215,-10,-1,-100,18650.585480490583,0.007503866032392261,0.10697693328560716,0.9942331857966593,88.05308036488981,5.721085983290635,677.6630611961368,-131.97484234786845,-165.8264923095703,4761.76025390625,True
