Timestamp,Input Throttle,horizon,dT,dt,Input Roll,Roll P,Roll I,Roll D,Input Pitch,Pitch P,Pitch I,Pitch D,Input Yaw,Yaw P,Yaw I,Yaw D,Altitude,Direction X,Direction Y,Direction Z,Drag X,Drag Y,Drag Z,Vertical Velocity,Roll,Mass,Has Fuel
1599386530.7782815,0.0,10,0.5,0.5,-5.635523887634278,-0.1005,-0.0155,-0.12575,-0.00019346197397493914,10,1,100,0.498050331226376,-10,-1,-100,19351.0941658566,-0.04884179122950748,-0.00017612339455054098,0.9988065119982164,60.986583069714825,3.6806845727750233,232.75426675698637,-68.48187324008546,-33.92242431640625,4761.76025390625,True
1599386530.8112774,0.0,10,0.5,0.5,-5.721908760070801,-0.1005,-0.0155,-0.12575,0.0010991865689154968,10,1,100,0.5106619600829507,-10,-1,-100,19346.96335798432,-0.048999608217370434,-0.00014995945951530498,0.9987987864964117,61.256394745675884,3.6989914805243753,235.72372736659182,-69.02924303820453,-33.925994873046875,4761.76025390625,True
1599386530.8451443,0.0,10,0.5,0.5,-5.809272465515137,-0.1005,-0.0155,-0.12575,-0.0015322028805596344,10,1,100,0.4997802221183921,-10,-1,-100,19346.96335798432,-0.048999608217370434,-0.00014995945951530498,0.9987987864964117,61.256394745675884,3.6989914805243753,235.72372736659182,-69.02924303820453,-33.925994873046875,4761.76025390625,True
1599386530.8801682,0.0,10,0.5,0.5,-5.862071534729005,-0.1005,-0.0155,-0.12575,0.021689175892898743,10,1,100,0.5030270906945495,-10,-1,-100,19344.191241287393,-0.048984580106046983,6.128031066114874e-05,0.9987995330177912,61.440355570971555,3.71145983670074,237.72955230665,-69.39413901377903,-34.0767822265625,4761.76025390625,True
1599386530.9110699,0.0,10,0.5,0.5,-5.799731968688966,-0.1005,-0.0155,-0.12575,0.04820497646928271,10,1,100,0.49953828505358144,-10,-1,-100,19340.005699809524,-0.04889467033528409,0.000494313488506269,0.9988038180078102,61.74089753114863,3.7316415025235417,240.85006351664595,-69.94145438892807,-34.819244384765625,4761.76025390625,True
1599386530.9449718,0.0,10,0.5,0.5,-5.978626756286622,-0.1005,-0.0155,-0.12575,0.004951090033621317,10,1,100,0.5134187291633989,-10,-1,-100,19340.005699809524,-0.04889467033528409,0.000494313488506269,0.9988038180078102,61.74089753114863,3.7316415025235417,240.85006351664595,-69.94145438892807,-34.819244384765625,4761.76025390625,True
1599386530.9783657,0.0,10,0.5,0.5,-5.86977857055664,-0.1005,-0.0155,-0.12575,0.05555540104706762,10,1,100,0.4982380784301831,-10,-1,-100,19337.197095531505,-0.04871221471922278,0.0009539033036389569,0.9988123999058259,61.95512876063909,3.745898790481491,242.99613609933,-70.30631038645296,-35.678375244140625,4761.76025390625,True
1599386531.0152984,0.0,10,0.5,0.5,-5.645996711730957,-0.1005,-0.0155,-0.12575,0.11531569549811008,10,1,100,0.46889867062553126,-10,-1,-100,19332.956826237263,-0.048235340256652735,0.001914120445765751,0.9988341644603692,62.28009818515256,3.767388766025778,246.24755309295617,-70.85356015168003,-37.517120361328125,4761.76025390625,True
1599386531.0746174,0.0,10,0.5,0.5,-5.598181669616699,-0.1005,-0.0155,-0.12575,0.10797834875587832,10,1,100,0.4698402210931743,-10,-1,-100,19330.11173924571,-0.04776652725833431,0.0027186018587282154,0.9988548283297292,62.4845763534153,3.780861203018489,248.37886410965606,-71.21836998617742,-39.1099853515625,4761.76025390625,True
1599386531.1234868,0.0,10,0.5,0.5,-5.4505007522583,-0.1005,-0.0155,-0.12575,0.12791585262355185,10,1,100,0.4552266857152416,-10,-1,-100,19327.25206048845,-0.04716405918619241,0.0036287271767104622,0.9988805653631261,62.66388432327049,3.792679817549065,250.41871417010384,-71.5831616768041,-40.996673583984375,4761.76025390625,True
1599386531.1629038,0.0,10,0.5,0.5,-5.525366995239258,-0.1005,-0.0155,-0.12575,0.0924842126348919,10,1,100,0.4818188266929777,-10,-1,-100,19325.816749258665,-0.04681523125750993,0.00413070916845495,0.9988950251973786,62.73906322441493,3.797653642914378,251.38366602918387,-71.76555122296385,-42.05010986328125,4761.76025390625,True
1599386531.2416828,0.0,10,0.5,0.5,-4.830488748168945,-0.1005,-0.0155,-0.12575,0.22338164693502852,10,1,100,0.37767616113577035,-10,-1,-100,19321.48892977601,-0.04555320578088942,0.0057731178068029946,0.9989452320091792,62.87928261981999,3.807123151973998,253.94428389923615,-72.31269811084694,-45.651214599609375,4761.76025390625,True
1599386531.291549,0.0,10,0.5,0.5,-5.265153578186036,-0.1005,-0.0155,-0.12575,0.05973309082685591,10,1,100,0.5035340685541729,-10,-1,-100,19321.48892977601,-0.04555320578088942,0.0057731178068029946,0.9989452320091792,62.87928261981999,3.807123151973998,253.94428389923615,-72.31269811084694,-45.651214599609375,4761.76025390625,True
1599386531.6795177,0.0,10,0.5,0.5,-4.282593005371095,-0.1005,-0.0155,-0.12575,0.26039104092513177,10,1,100,0.32752100698741377,-10,-1,-100,19317.128282277146,-0.0439562201324975,0.00759189637381794,0.9990046115114348,62.83660834103832,3.8050140002095056,255.77073017806134,-72.85982308741707,-49.9136962890625,4761.76025390625,True
1599386531.7204077,0.0,10,0.5,0.5,-3.6800850799560547,-0.1005,-0.0155,-0.12575,0.29801864400661665,10,1,100,0.27245178646037294,-10,-1,-100,19312.734807803994,-0.0420083569564168,0.009580554539060338,0.9990713242409404,62.53047853688895,3.7863902307618176,256.51551435803486,-73.406945820258,-54.837310791015625,4761.76025390625,True
1599386531.7583091,0.0,10,0.5,0.5,-3.4420797744750975,-0.1005,-0.0155,-0.12575,0.2405488070064697,10,1,100,0.3030210388147267,-10,-1,-100,19309.787587002967,-0.04052173482990925,0.010857712315597042,0.9991196620473677,62.13676653382409,3.7621892009063984,256.2205986266277,-73.77170604767817,-58.488677978515625,4761.76025390625,True
1599386531.8091722,0.0,10,0.5,0.5,-3.8645515762329103,-0.1005,-0.0155,-0.12575,0.11386936923550837,10,1,100,0.450845957914944,-10,-1,-100,19309.787587002967,-0.04052173482990925,0.010857712315597042,0.9991196620473677,62.13676653382409,3.7621892009063984,256.2205986266277,-73.77170604767817,-58.488677978515625,4761.76025390625,True
1599386531.869046,0.0,10,0.5,0.5,-1.9770361068725588,-0.1005,-0.0155,-0.12575,0.3964208011857483,10,1,100,0.07506527782682298,-10,-1,-100,19303.849371419637,-0.03711299271991662,0.013417358234224715,0.9992209967116313,60.76551211990406,3.6779020261689412,253.15239859135858,-74.50129791701785,-66.67501831054688,4761.76025390625,True
1599386531.907909,0.0,10,0.5,0.5,-2.456643916320801,-0.1005,-0.0155,-0.12575,0.21346723840095014,10,1,100,0.30885633976507026,-10,-1,-100,19302.355696901446,-0.03614962077166805,0.014070637373307654,0.9992473277832539,60.28012714771833,3.6481451368779254,251.77262607556133,-74.68371862387552,-68.90542602539062,4761.76025390625,True
1599386531.9408605,0.0,10,0.5,0.5,-2.1696096801757814,-0.1005,-0.0155,-0.12575,0.21919938957882856,10,1,100,0.294096036279853,-10,-1,-100,19300.85837383126,-0.03515020433838253,0.014706317932714149,0.9992738300124906,59.73048900301663,3.6145051283830556,250.11389232402166,-74.86615104593602,-71.20962524414062,4761.76025390625,True
1599386531.9767258,0.0,10,0.5,0.5,-1.8742360717773439,-0.1005,-0.0155,-0.12575,0.21519934002032276,10,1,100,0.28592027691917354,-10,-1,-100,19299.357401720947,-0.034178240545614795,0.015237774726409997,0.999299583755839,59.113420814299666,3.5768072640153963,248.16080368871047,-75.0485965678211,-73.58883666992188,4761.76025390625,True
1599386532.0116293,0.0,10,0.5,0.5,-0.9981408172607421,-0.1005,-0.0155,-0.12575,0.28449734016309164,10,1,100,0.15191328222307637,-10,-1,-100,19296.344509870163,-0.03208787986469042,0.0163408017532878,0.9993514627816626,57.66479451587012,3.4885738475494983,243.3113922875001,-75.4135315451907,-78.5673828125,4761.76025390625,True
1599386532.0455744,0.0,10,0.5,0.5,0.8800045562744141,-0.1005,-0.0155,-0.12575,0.3916609550105111,10,1,100,-0.1413310557346169,-10,-1,-100,19290.274925296428,-0.027533935560522145,0.018308161290929173,0.9994531973147588,53.82811774834039,3.256349451893164,229.42718676739813,-76.14360446535704,-89.41015625,4761.76025390625,True
1599386532.0784843,0.0,10,0.5,0.5,0.23946425094604495,-0.1005,-0.0155,-0.12575,0.2413191654052051,10,1,100,0.1835924025976397,-10,-1,-100,19288.748401613208,-0.02636421696904456,0.018718530925569344,0.9994771356382286,52.66049682072434,3.185999855368723,225.01470379512065,-76.3261681773075,-92.30567932128906,4761.76025390625,True
1599386532.1163547,0.0,10,0.5,0.5,-0.05894020156860352,-0.1005,-0.0155,-0.12575,0.20139486539636314,10,1,100,0.298805061429053,-10,-1,-100,19288.748401613208,-0.02636421696904456,0.018718530925569344,0.9994771356382286,52.66049682072434,3.185999855368723,225.01470379512065,-76.3261681773075,-92.30567932128906,4761.76025390625,True
1599386532.1502867,0.0,10,0.5,0.5,1.3406429851531982,-0.1005,-0.0155,-0.12575,0.2824920693947053,10,1,100,0.04023720722149704,-10,-1,-100,19285.68440169096,-0.024027822058055297,0.01944747098338472,0.9995221156330144,53.615323960537665,3.244823044522271,230.24355775727085,-76.6912650258139,-98.23499298095703,4761.76025390625,True
1599386532.1891854,0.0,10,0.5,0.5,1.9857623924255372,-0.1005,-0.0155,-0.12575,0.2807288753438473,10,1,100,-0.0002319610414142914,-10,-1,-100,19282.605800536578,-0.021550919620922097,0.020086305854874725,0.9995659548927208,55.31046596846462,3.349020666401394,238.7079768452476,-77.05627004991253,-104.10957336425781,4761.76025390625,True
1599386532.224092,0.0,10,0.5,0.5,3.932382727813721,-0.1005,-0.0155,-0.12575,0.3127706960602144,10,1,100,-0.29922373832053417,-10,-1,-100,19276.404809351312,-0.016598329262089904,0.020949964477705998,0.999642733407336,58.27400967364616,3.5326196359516935,253.9915452842317,-77.78600291795813,-115.66597747802734,4761.76025390625,True
1599386532.2560096,0.0,10,0.5,0.5,3.177799337768555,-0.1005,-0.0155,-0.12575,0.2432892739447538,10,1,100,0.05942534568213212,-10,-1,-100,19274.84544162755,-0.0153750703026829,0.02109661156446344,0.9996592120286221,58.88734835415719,3.5708565301028146,257.29399883150023,-77.9683825307581,-118.4182357788086,4761.76025390625,True
1599386532.2899165,0.0,10,0.5,0.5,2.9084477115631104,-0.1005,-0.0155,-0.12575,0.22932716268812525,10,1,100,0.1796737865759339,-10,-1,-100,19274.84544162755,-0.0153750703026829,0.02109661156446344,0.9996592120286221,58.88734835415719,3.5708565301028146,257.29399883150023,-77.9683825307581,-118.4182357788086,4761.76025390625,True
1599386532.3238301,0.0,10,0.5,0.5,5.308021423721314,-0.1005,-0.0155,-0.12575,0.2663943870066735,10,1,100,-0.34678274342829196,-10,-1,-100,19268.571501044673,-0.010607079242676938,0.02142777697314865,0.9997141292609246,60.46521349597795,3.670270119947327,266.76983149982493,-78.69774295995869,-128.70066833496094,4761.76025390625,True
1599386532.3557487,0.0,10,0.5,0.5,4.100428868865967,-0.1005,-0.0155,-0.12575,0.23389684636282618,10,1,100,0.12765924644201054,-10,-1,-100,19268.571501044673,-0.010607079242676938,0.02142777697314865,0.9997141292609246,60.46521349597795,3.670270119947327,266.76983149982493,-78.69774295995869,-128.70066833496094,4761.76025390625,True
1599386532.3893027,0.0,10,0.5,0.5,4.718216886138916,-0.1005,-0.0155,-0.12575,0.23449061282355765,10,1,100,-0.004662180271079397,-10,-1,-100,19266.993899872876,-0.009423685182214314,0.021428550327137245,0.9997259681475039,60.667324189245164,3.6832669080474667,268.30877222981195,-78.88005484581454,-131.0877685546875,4761.76025390625,True
1599386532.4232192,0.0,10,0.5,0.5,6.475921994018555,-0.1005,-0.0155,-0.12575,0.21877920302164006,10,1,100,-0.3798784579481673,-10,-1,-100,19260.647034835303,-0.004953279194164137,0.02128358566071289,0.9997612084926318,60.863086424248344,3.697139169362867,271.7719997412735,-79.6092501518466,-139.89785766601562,4761.76025390625,True
1599386532.4551334,0.0,10,0.5,0.5,5.898412141418457,-0.1005,-0.0155,-0.12575,0.224869794834335,10,1,100,-0.0526514608354217,-10,-1,-100,19259.0512037765,-0.0038835291222115544,0.02120483674886512,0.9997676095473442,60.78670383567236,3.6927755579158594,272.07973945360646,-79.79154403009238,-141.9159393310547,4761.76025390625,True
1599386532.4906468,0.0,10,0.5,0.5,6.161436828613282,-0.1005,-0.0155,-0.12575,0.22231773940494637,10,1,100,-0.06375916091752656,-10,-1,-100,19257.45172691485,-0.0028304869540962834,0.0211077860470788,0.9997731991365808,60.670304159825925,3.6859031647879834,272.2064883432431,-79.97383864957288,-143.86026000976562,4761.76025390625,True
1599386532.524519,0.0,10,0.5,0.5,6.410626684188843,-0.1005,-0.0155,-0.12575,0.22725638558558875,10,1,100,-0.06957432258399182,-10,-1,-100,19255.84860410029,-0.0018395810907544975,0.021062945542493716,0.999776459147986,60.51925717235466,3.6768554318563633,272.1751406611712,-80.15613506113357,-145.729736328125,4761.76025390625,True
1599386532.5574303,0.0,10,0.5,0.5,7.036355591964722,-0.1005,-0.0155,-0.12575,0.20322798287316246,10,1,100,-0.19343705533073954,-10,-1,-100,19252.631420423742,0.00016934786586286207,0.020802853568496475,0.9997835828841698,60.13668142966447,3.653692194444464,271.7398070758491,-80.52073638045043,-149.2493133544922,4761.76025390625,True
1599386532.5951638,0.0,10,0.5,0.5,7.018861338806152,-0.1005,-0.0155,-0.12575,0.21494635642153737,10,1,100,-0.09979746133663106,-10,-1,-100,19251.017359618447,0.0011291345381795185,0.020673070725219855,0.9997856516283801,59.91252879796078,3.6400418757499313,271.3675395137755,-80.70304244884771,-150.89810180664062,4761.76025390625,True
1599386532.6320677,0.0,10,0.5,0.5,8.186593837356568,-0.1005,-0.0155,-0.12575,0.17191147546976424,10,1,100,-0.3989497309985669,-10,-1,-100,19244.524652703898,0.004706230141902384,0.02016424516889703,0.9997856043245571,58.88821996526175,3.57738462539023,269.2493823042453,-81.43231159579868,-156.75323486328125,4761.76025390625,True
1599386532.6670063,0.0,10,0.5,0.5,7.509730104064943,-0.1005,-0.0155,-0.12575,0.22270079446249014,10,1,100,-0.04324830067073886,-10,-1,-100,19244.524652703898,0.004706230141902384,0.02016424516889703,0.9997856043245571,58.88821996526175,3.57738462539023,269.2493823042453,-81.43231159579868,-156.75323486328125,4761.76025390625,True
1599386532.7018802,0.0,10,0.5,0.5,8.115280712127687,-0.1005,-0.0155,-0.12575,0.19117595231158274,10,1,100,-0.2262227108862866,-10,-1,-100,19241.256420360995,0.006355712680785019,0.019878804360074463,0.9997821953073246,58.35051529158374,3.544417678228905,268.04164946053413,-81.79697436247056,-159.23751831054688,4761.76025390625,True
1599386532.7348228,0.0,10,0.5,0.5,8.567270918273927,-0.1005,-0.0155,-0.12575,0.19005994562813783,10,1,100,-0.3114028504010632,-10,-1,-100,19236.32672060968,0.008614186446336781,0.019610575357307244,0.9997705842472178,57.5804380302971,3.4971847344174294,266.3574304384424,-82.34400095903554,-162.40682983398438,4761.76025390625,True
1599386532.770721,0.0,10,0.5,0.5,8.21727453918457,-0.1005,-0.0155,-0.12575,0.2167010484078767,10,1,100,-0.08735926100874206,-10,-1,-100,19236.32672060968,0.008614186446336781,0.019610575357307244,0.9997705842472178,57.5804380302971,3.4971847344174294,266.3574304384424,-82.34400095903554,-162.40682983398438,4761.76025390625,True
1599386532.8046021,0.0,10,0.5,0.5,8.973632218933107,-0.1005,-0.0155,-0.12575,0.19162326061440357,10,1,100,-0.38139135079853337,-10,-1,-100,19229.702729508746,0.01127487138475261,0.019384116386733312,0.9997485350362675,56.7168505046206,3.4442319482336776,264.7995895189477,-83.07341697415237,-165.59564208984375,4761.76025390625,True
1599386532.8345218,0.0,10,0.5,0.5,8.609342617034914,-0.1005,-0.0155,-0.12575,0.21408708563558365,10,1,100,-0.11683869700764686,-10,-1,-100,19229.702729508746,0.01127487138475261,0.019384116386733312,0.9997485350362675,56.7168505046206,3.4442319482336776,264.7995895189477,-83.07341697415237,-165.59564208984375,4761.76025390625,True
1599386532.8694541,0.0,10,0.5,0.5,8.781649250030517,-0.1005,-0.0155,-0.12575,0.2065872472876817,10,1,100,-0.18515478942661484,-10,-1,-100,19228.037613702123,0.011883103717344275,0.019317503010534517,0.9997427798806454,56.542535873946036,3.4335466710682327,264.5935980939844,-83.25577660437727,-166.20831298828125,4761.76025390625,True
1599386532.905791,0.0,10,0.5,0.5,9.122780993652345,-0.1005,-0.0155,-0.12575,0.21053673798660377,10,1,100,-0.3640133809766608,-10,-1,-100,19221.340679161833,0.014049554229420662,0.019294436622645777,0.9997151267943128,56.041611363216816,3.402834429843343,264.6609955347886,-83.98522368732891,-167.9163055419922,4761.76025390625,True
1599386532.9367068,0.0,10,0.5,0.5,8.991643382263184,-0.1005,-0.0155,-0.12575,0.21604535345533082,10,1,100,-0.20153765305009275,-10,-1,-100,19219.657327216468,0.014529384253463524,0.019324916789686123,0.9997076795665255,55.969597205660946,3.3984101361024255,264.9233749916593,-84.16758508531535,-168.15811157226562,4761.76025390625,True
1599386532.9746358,0.0,10,0.5,0.5,9.047027088928223,-0.1005,-0.0155,-0.12575,0.22749120355109376,10,1,100,-0.25149318358575357,-10,-1,-100,19216.27968202508,0.015407552507721875,0.019457904809625677,0.9996919511860349,55.892604688597174,3.393650373616037,265.76263046155054,-84.53230371955826,-168.41905212402344,4761.76025390625,True
1599386533.0095773,0.0,10,0.5,0.5,9.032295831298828,-0.1005,-0.0155,-0.12575,0.21412176752121123,10,1,100,-0.1647464903965004,-10,-1,-100,19216.27968202508,0.015407552507721875,0.019457904809625677,0.9996919511860349,55.892604688597174,3.393650373616037,265.76263046155054,-84.53230371955826,-168.41905212402344,4761.76025390625,True
1599386533.045446,0.0,10,0.5,0.5,8.967646906280518,-0.1005,-0.0155,-0.12575,0.2564841418165475,10,1,100,-0.32590367947438903,-10,-1,-100,19209.480626819888,0.01686288938809739,0.01984365943081898,0.9996608785692668,56.01901331946964,3.401192093331886,268.7779456206161,-85.26170957150671,-168.0533905029297,4761.76025390625,True
1599386533.079354,0.0,10,0.5,0.5,8.964779190063478,-0.1005,-0.0155,-0.12575,0.231672854373155,10,1,100,-0.2148049177133357,-10,-1,-100,19207.771745609934,0.017166382193604363,0.01996882024144501,0.9996532206423125,56.108178986554265,3.4065726441964768,269.81055180302445,-85.44405134074898,-167.77708435058594,4761.76025390625,True
1599386533.1132643,0.0,10,0.5,0.5,8.832440620422362,-0.1005,-0.0155,-0.12575,0.25609397207320056,10,1,100,-0.24124978616768045,-10,-1,-100,19204.343043237575,0.017674917915698137,0.020304287280301692,0.9996376009308134,56.35110162170167,3.4212479503981124,272.19380800289247,-85.80871981179155,-167.00180053710938,4761.76025390625,True
1599386533.1471736,0.0,10,0.5,0.5,8.937054764556885,-0.1005,-0.0155,-0.12575,0.22261663937983192,10,1,100,-0.1913022871052391,-10,-1,-100,19204.343043237575,0.017674917915698137,0.020304287280301692,0.9996376009308134,56.35110162170167,3.4212479503981124,272.19380800289247,-85.80871981179155,-167.00180053710938,4761.76025390625,True
1599386533.4454103,0.0,10,0.5,0.5,8.696951824188233,-0.1005,-0.0155,-0.12575,0.2639833639892203,10,1,100,-0.23680811314201825,-10,-1,-100,19200.89975480712,0.01808278901918618,0.02067951189412016,0.9996226140544783,56.67772053531352,3.44098985668454,274.9939551628577,-86.17336435602546,-165.93093872070312,4761.76025390625,True
1599386533.4752958,0.0,10,0.5,0.5,8.522875281524657,-0.1005,-0.0155,-0.12575,0.27599532371577984,10,1,100,-0.22743487952884664,-10,-1,-100,19197.441881443723,0.018362180700751535,0.02112864718100805,0.9996081285124754,57.07999957067707,3.4653081351363006,278.17719752283836,-86.53798128775952,-164.56405639648438,4761.76025390625,True
1599386533.509415,0.0,10,0.5,0.5,8.316128819274901,-0.1005,-0.0155,-0.12575,0.2849326797608167,10,1,100,-0.2203227242624874,-10,-1,-100,19193.96942448616,0.018545627111586405,0.021616554183887852,0.9995943098578809,57.54852767744571,3.4936342063482293,281.7023097000503,-86.90256701429915,-162.9018096923828,4761.76025390625,True
1599386533.5473063,0.0,10,0.5,0.5,8.304238808441161,-0.1005,-0.0155,-0.12575,0.2663268605894835,10,1,100,-0.2061272942842589,-10,-1,-100,19192.22772747872,0.018579259873559514,0.021888851178074424,0.9995877596772856,57.803207714269426,3.5090339817936154,283.57266712799236,-87.08484710363066,-161.95973205566406,4761.76025390625,True
1599386533.578218,0.0,10,0.5,0.5,7.673500777435304,-0.1005,-0.0155,-0.12575,0.33523427756585283,10,1,100,-0.19444699376269212,-10,-1,-100,19186.980764685548,0.018499968856411645,0.022760494114039766,0.9995697629780509,58.63029076500942,3.5590736305119006,289.52819193832494,-87.63163216913028,-158.6907958984375,4761.76025390625,True
1599386533.6041539,0.0,10,0.5,0.5,7.492990953826905,-0.1005,-0.0155,-0.12575,0.3173703373393045,10,1,100,-0.17939579221413726,-10,-1,-100,19183.464564804686,0.018288245720973366,0.02338749497258108,0.9995591854149292,59.21389478355446,3.5944314853762567,293.6881420948795,-87.99610732526746,-156.14273071289062,4761.76025390625,True
1599386533.6357656,0.0,10,0.5,0.5,7.794381852722169,-0.1005,-0.0155,-0.12575,0.2550632105014687,10,1,100,-0.20085617507929035,-10,-1,-100,19183.464564804686,0.018288245720973366,0.02338749497258108,0.9995591854149292,59.21389478355446,3.5944314853762567,293.6881420948795,-87.99610732526746,-156.14273071289062,4761.76025390625,True
1599386533.6646872,0.0,10,0.5,0.5,6.786211219787598,-0.1005,-0.0155,-0.12575,0.36264858162502944,10,1,100,-0.13633041924711753,-10,-1,-100,19178.16293208138,0.017700352162196453,0.024362322132302758,0.9995464845587004,60.08692579137441,3.647476848236016,299.96347213685596,-88.54274530963013,-151.76832580566406,4761.76025390625,True
1599386533.6956043,0.0,10,0.5,0.5,7.311479061126709,-0.1005,-0.0155,-0.12575,0.2656052158419474,10,1,100,-0.19517317212166801,-10,-1,-100,19178.16293208138,0.017700352162196453,0.024362322132302758,0.9995464845587004,60.08692579137441,3.647476848236016,299.96347213685596,-88.54274530963013,-151.76832580566406,4761.76025390625,True
1599386533.7225325,0.0,10,0.5,0.5,6.544793902587891,-0.1005,-0.0155,-0.12575,0.3399750491490803,10,1,100,-0.13404005427670349,-10,-1,-100,19174.6102907256,0.017144573423381777,0.025034722403411237,0.999539557134341,60.63377081417211,3.680875257838268,304.0021104096574,-88.9071221297972,-148.48402404785156,4761.76025390625,True
1599386533.749496,0.0,10,0.5,0.5,6.53269218673706,-0.1005,-0.0155,-0.12575,0.30784281051403595,10,1,100,-0.15195720227200304,-10,-1,-100,19172.828504613834,0.01680268531940963,0.02534958372126117,0.9995374271988098,60.886612984787476,3.696396112352103,305.9269115356505,-89.08929679668485,-146.7319793701172,4761.76025390625,True
1599386533.7823732,0.0,10,0.5,0.5,5.88051566696167,-0.1005,-0.0155,-0.12575,0.34794911845264187,10,1,100,-0.10064879265617278,-10,-1,-100,19169.25400263793,0.016026601595381742,0.025996178562541945,0.9995335645897278,61.33291472091278,3.7240096805883405,309.4933997876027,-89.45362171777788,-143.00717163085938,4761.76025390625,True
1599386533.8133333,0.0,10,0.5,0.5,5.869273352050781,-0.1005,-0.0155,-0.12575,0.3171757433754658,10,1,100,-0.1294045956465315,-10,-1,-100,19167.461287086364,0.01558461058172817,0.026299809070839654,0.9995326107515718,61.51872297160613,3.7356511254254743,311.0951637268839,-89.63577347436771,-141.034912109375,4761.76025390625,True
1599386533.8472416,0.0,10,0.5,0.5,5.62055510635376,-0.1005,-0.0155,-0.12575,0.320490228699332,10,1,100,-0.12116990977972958,-10,-1,-100,19165.66492847225,0.015110631621917503,0.02660171098597549,0.9995318993331855,61.67401745058074,3.7455157415214777,312.54643413418205,-89.81791931759672,-138.98922729492188,4761.76025390625,True
1599386533.880204,0.0,10,0.5,0.5,4.354333350372315,-0.1005,-0.0155,-0.12575,0.3815807751394735,10,1,100,0.010096762914988011,-10,-1,-100,19160.253996303305,0.013489561568730048,0.027427251458456717,0.9995327796556339,61.91294766374605,3.761823909839322,315.76408934021106,-90.36433369213057,-132.4130401611328,4761.76025390625,True
1599386533.9161327,0.0,10,0.5,0.5,4.611486324310303,-0.1005,-0.0155,-0.12575,0.327011932488066,10,1,100,-0.08502324765683475,-10,-1,-100,19158.443066934473,0.012885143804928643,0.027677419902659203,0.9995338581041957,61.90173919909125,3.761912367042567,316.3763126134719,-90.54646891751756,-130.07460021972656,4761.76025390625,True
1599386533.9480476,0.0,10,0.5,0.5,3.178880370330811,-0.1005,-0.0155,-0.12575,0.369018655085843,10,1,100,0.0724098169164634,-10,-1,-100,19152.988421793096,0.010909375343457423,0.02828282512561391,0.9995404280630822,61.529321573521614,3.7420601636118818,316.471475317388,-91.09289000493406,-122.62152099609375,4761.76025390625,True
1599386533.9839573,0.0,10,0.5,0.5,4.064147207641602,-0.1005,-0.0155,-0.12575,0.3089676658056756,10,1,100,-0.12442914219290702,-10,-1,-100,19152.988421793096,0.010909375343457423,0.02828282512561391,0.9995404280630822,61.529321573521614,3.7420601636118818,316.471475317388,-91.09289000493406,-122.62152099609375,4761.76025390625,True
1599386534.015863,0.0,10,0.5,0.5,2.812186766052246,-0.1005,-0.0155,-0.12575,0.3431837081580693,10,1,100,0.03637036572382585,-10,-1,-100,19149.333776473533,0.00945373525041325,0.028590315962459933,0.9995465075337824,60.949752480054045,3.708977272912648,314.8129737133811,-91.45720378404377,-117.28767395019531,4761.76025390625,True
1599386534.049832,0.0,10,0.5,0.5,1.495849574279785,-0.1005,-0.0155,-0.12575,0.33553070055150785,10,1,100,0.14422780814174602,-10,-1,-100,19143.824482164462,0.007157400795584532,0.028796436659687435,0.9995596714801752,59.61353945700406,3.631043774624843,309.8563093553485,-92.00376452316807,-108.74127197265625,4761.76025390625,True
1599386534.0906835,0.0,10,0.5,0.5,1.1375214179992676,-0.1005,-0.0155,-0.12575,0.3141444206405613,10,1,100,0.09360864257797587,-10,-1,-100,19140.13339806674,0.005539077498708877,0.028785978645016308,0.9995702506847189,58.42990830656916,3.561048547538931,304.97841618648255,-92.36821440996516,-102.67967224121094,4761.76025390625,True
1599386534.122633,0.0,10,0.5,0.5,1.1211168830871583,-0.1005,-0.0155,-0.12575,0.30846823986392086,10,1,100,0.019357949826670877,-10,-1,-100,19138.282388778054,0.0047531204427616915,0.02872174572014241,0.9995761447577888,57.76561927205867,3.5214939152407245,302.14199598315156,-92.55046602598141,-99.5399169921875,4761.76025390625,True
1599386534.1515574,0.0,10,0.5,0.5,0.7217332122802733,-0.1005,-0.0155,-0.12575,0.30510093669704824,10,1,100,0.029851598182014633,-10,-1,-100,19136.427733846358,0.003953465844263507,0.02863026251677857,0.9995822518312532,57.0495785662565,3.4786562474078617,299.02037179093384,-92.73273603405008,-96.327392578125,4761.76025390625,True
1599386534.1864595,0.0,10,0.5,0.5,-1.2227907302856444,-0.1005,-0.0155,-0.12575,0.2636320071842218,10,1,100,0.21951186934607453,-10,-1,-100,19130.841895761085,0.0015128966029895805,0.028167987105925805,0.9996020586444733,57.94527861231328,3.534884879426595,305.6176591065918,-93.27956016126264,-86.25357055664062,4761.76025390625,True
1599386534.2183797,0.0,10,0.5,0.5,-1.629907684326172,-0.1005,-0.0155,-0.12575,0.25747521381969696,10,1,100,0.1527255270324452,-10,-1,-100,19127.09978054429,-8.629256348196955e-05,0.02769034199627311,0.9996165452380843,60.54122684417708,3.693676574697771,320.635141769158,-93.64396611692683,-79.21640014648438,4761.76025390625,True
1599386534.2481723,0.0,10,0.5,0.5,-1.6246919822692871,-0.1005,-0.0155,-0.12575,0.2758785585240908,10,1,100,0.07617606739283345,-10,-1,-100,19125.223258082755,-0.0008318550325212609,0.027423183129776225,0.9996235676714689,61.72985794738697,3.7662771895520706,327.6060294278255,-93.82612113194203,-75.692626953125,4761.76025390625,True
1599386534.2920568,0.0,10,0.5,0.5,-2.8208342758178713,-0.1005,-0.0155,-0.12575,0.23464959052386306,10,1,100,0.1660271557041566,-10,-1,-100,19121.459286482306,-0.0023139971718986,0.02680573375729779,0.9996379834994372,63.78028659360916,3.891435487311321,339.8834178504879,-94.1903422740607,-68.81985473632812,4761.76025390625,True
1599386534.325947,0.0,10,0.5,0.5,-2.793716635131836,-0.1005,-0.0155,-0.12575,0.2568681260178232,10,1,100,0.09996909608576106,-10,-1,-100,19119.571837967378,-0.0030488500543331704,0.026447745642597317,0.9996455478137092,64.63230348636112,3.943462337123862,345.1304880296109,-94.3724129662679,-65.4884033203125,4761.76025390625,True
1599386534.3548687,0.0,10,0.5,0.5,-3.920849208068848,-0.1005,-0.0155,-0.12575,0.2091603911242848,10,1,100,0.17953673704779055,-10,-1,-100,19115.78601873957,-0.00442755102402142,0.025690263475185646,0.999660145826823,66.00085171036794,4.027228785624286,353.8810661327575,-94.73648829819713,-59.04638671875,4761.76025390625,True
1599386534.387782,0.0,10,0.5,0.5,-3.2010396156311036,-0.1005,-0.0155,-0.12575,0.28461860261672456,10,1,100,0.04305476870640902,-10,-1,-100,19115.78601873957,-0.00442755102402142,0.025690263475185646,0.999660145826823,66.00085171036794,4.027228785624286,353.8810661327575,-94.73648829819713,-59.04638671875,4761.76025390625,True
1599386534.4246833,0.0,10,0.5,0.5,-4.668197837066651,-0.1005,-0.0155,-0.12575,0.19340033279022972,10,1,100,0.1866856009260933,-10,-1,-100,19111.98563871917,-0.0057227540880007265,0.02486383027056706,0.9996744670291049,66.9491850790074,4.085753555276851,360.4288184207326,-95.10049571746757,-52.90216064453125,4761.76025390625,True
1599386534.4583414,0.0,10,0.5,0.5,-5.931365728759766,-0.1005,-0.0155,-0.12575,0.12897608085356327,10,1,100,0.25337250044178483,-10,-1,-100,19106.257770963595,-0.0074962179312275555,0.023530417929102692,0.9996950165669575,67.67260511867894,4.131844741345597,366.542717578626,-95.64643196120056,-44.245147705078125,4761.76025390625,True
1599386534.4952438,0.0,10,0.5,0.5,-4.928453244018556,-0.1005,-0.0155,-0.12575,0.2617981822208959,10,1,100,0.07725104995650087,-10,-1,-100,19106.257770963595,-0.0074962179312275555,0.023530417929102692,0.9996950165669575,67.67260511867894,4.131844741345597,366.542717578626,-95.64643196120056,-44.245147705078125,4761.76025390625,True
1599386534.5311482,0.0,10,0.5,0.5,-6.2306255401611335,-0.1005,-0.0155,-0.12575,0.15836414992062392,10,1,100,0.19571085670096453,-10,-1,-100,19102.420995284454,-0.00856271646183587,0.022594744766907197,0.9997080360763898,67.75500079616967,4.138807797548427,368.47223774294025,-96.01037188866019,-38.84649658203125,4761.76025390625,True
1599386534.5671475,0.0,10,0.5,0.5,-6.77950987854004,-0.1005,-0.0155,-0.12575,0.15330564478833528,10,1,100,0.1980364853906943,-10,-1,-100,19098.56966195593,-0.009544243011327494,0.02170321297492596,0.999718899477201,67.572338124758,4.130005597565734,368.9604303122618,-96.37431961333019,-33.74468994140625,4761.76025390625,True
1599386534.5980644,0.0,10,0.5,0.5,-7.813344544982911,-0.1005,-0.0155,-0.12575,0.08303563872972386,10,1,100,0.24380618626221845,-10,-1,-100,19092.76536399324,-0.010844029927472057,0.02025935413533868,0.999735947930728,66.89921259690466,4.0929131134541334,367.4905542389359,-96.92028755065921,-26.65118408203125,4761.76025390625,True
1599386534.630976,0.0,10,0.5,0.5,-6.9973504196167,-0.1005,-0.0155,-0.12575,0.2267051397890079,10,1,100,0.11482871213725715,-10,-1,-100,19092.76536399324,-0.010844029927472057,0.02025935413533868,0.999735947930728,66.89921259690466,4.0929131134541334,367.4905542389359,-96.92028755065921,-26.65118408203125,4761.76025390625,True
1599386534.6658823,0.0,10,0.5,0.5,-8.048785696411132,-0.1005,-0.0155,-0.12575,0.12718291485501812,10,1,100,0.20037327361787152,-10,-1,-100,19088.877631646348,-0.011613953183881667,0.019360557890140555,0.9997451099603465,66.24974085516621,4.056023373569303,365.38280073150753,-97.28431188125289,-22.2928466796875,4761.76025390625,True
1599386534.6948051,0.0,10,0.5,0.5,-8.486701127624512,-0.1005,-0.0155,-0.12575,0.12338741830044359,10,1,100,0.20282985203749057,-10,-1,-100,19084.975337098353,-0.012328429490678259,0.01851540877833018,0.999752564119775,65.50120214425054,4.012994014940013,362.700902067929,-97.64837970703664,-18.230865478515625,4761.76025390625,True
1599386534.727717,0.0,10,0.5,0.5,-8.473401472473144,-0.1005,-0.0155,-0.12575,0.15831618991929378,10,1,100,0.16621590541775255,-10,-1,-100,19083.01872829313,-0.012637916728980582,0.01807114828658016,0.9997568287640528,65.16334621247037,3.9936462097343575,361.55067869620103,-97.83042907686101,-16.311614990234375,4761.76025390625,True
1599386534.75664,0.0,10,0.5,0.5,-9.116614245605469,-0.1005,-0.0155,-0.12575,0.11281894133220416,10,1,100,0.20122141506345287,-10,-1,-100,19079.094587170635,-0.013230036700848187,0.017260590229823517,0.9997634911086783,64.44020733638814,3.9518614669843837,358.9656263554915,-98.19455815240978,-12.694732666015625,4761.76025390625,True
1599386534.7905495,0.0,10,0.5,0.5,-9.108181295776367,-0.1005,-0.0155,-0.12575,0.15173733368619935,10,1,100,0.1737700560981762,-10,-1,-100,19077.127054304117,-0.013511944973213634,0.016884434872390837,0.9997661442567861,64.11376870827844,3.9330151244246143,357.85809669648944,-98.37663663318477,-10.9971923828125,4761.76025390625,True
1599386534.8224654,0.0,10,0.5,0.5,-9.664052365112303,-0.1005,-0.0155,-0.12575,0.1080076171157209,10,1,100,0.20206102108816693,-10,-1,-100,19073.18106338277,-0.014019946968871242,0.016150974381408334,0.9997712673974589,63.488892641110475,3.89679797560238,355.7798572535205,-98.74081768385234,-7.8245849609375,4761.76025390625,True
1599386534.8514152,0.0,10,0.5,0.5,-9.972431880187989,-0.1005,-0.0155,-0.12575,0.10765834016451249,10,1,100,0.20362190834894184,-10,-1,-100,19069.220504173893,-0.014490026186350981,0.015487725456911159,0.99977505945152,62.85707967785522,3.8598115864474387,353.6367364178591,-99.10502915298778,-4.94775390625,4761.76025390625,True
1599386534.8843014,0.0,10,0.5,0.5,-10.247114907836917,-0.1005,-0.0155,-0.12575,0.10550461678483096,10,1,100,0.20210889885845185,-10,-1,-100,19065.24537568225,-0.01489822783439673,0.014871653512380255,0.9997784138143823,62.24157634326536,3.8234757009211964,351.55921997459797,-99.46926809956817,-2.366973876953125,4761.76025390625,True
1599386534.9182076,0.0,10,0.5,0.5,-10.48826840362549,-0.1005,-0.0155,-0.12575,0.10746740549538175,10,1,100,0.2046349789188619,-10,-1,-100,19061.25567684474,-0.015287417346966531,0.014335642150595846,0.9997803679983868,61.66247439975478,3.7890348977883566,349.66202624407924,-99.83353091651736,-0.0816650390625,4761.76025390625,True
1599386535.1984582,0.0,10,0.5,0.5,-10.242073571777345,-0.1005,-0.0155,-0.12575,0.1604761704753484,10,1,100,0.1661603664038313,-10,-1,-100,19061.25567684474,-0.015287417346966531,0.014335642150595846,0.9997803679983868,61.66247439975478,3.7890348977883566,349.66202624407924,-99.83353091651736,-0.0816650390625,4761.76025390625,True
1599386535.2284188,0.0,10,0.5,0.5,-10.733429475402833,-0.1005,-0.0155,-0.12575,0.10803608438464066,10,1,100,0.20525002038034734,-10,-1,-100,19057.25140819617,-0.0156387383945535,0.013864299287939178,0.9997815816800594,62.46216232352975,3.8390260379243517,355.5894060762779,-100.19776841145948,1.908050537109375,4761.76025390625,True
1599386535.2621279,0.0,10,0.5,0.5,-10.90408454284668,-0.1005,-0.0155,-0.12575,0.1108176767766097,10,1,100,0.20616058700598433,-10,-1,-100,19053.232571650296,-0.015962740147855925,0.013466089578725745,0.9997819038962596,63.35166669484781,3.894311730727464,362.06674845863614,-100.56195413794026,3.6024169921875,4761.76025390625,True
1599386535.2940688,0.0,10,0.5,0.5,-10.891453787231447,-0.1005,-0.0155,-0.12575,0.13043541793793476,10,1,100,0.18955637574094344,-10,-1,-100,19051.217690871563,-0.016103035902396687,0.013287014143816129,0.9997820499938315,63.747817163555766,3.9188955509993177,365.04234149950565,-100.74402930282346,4.3387451171875,4761.76025390625,True
1599386535.3708363,0.0,10,0.5,0.5,-11.114005599975586,-0.1005,-0.0155,-0.12575,0.11556151096071854,10,1,100,0.20637426419803284,-10,-1,-100,19047.177005866077,-0.016380317284158723,0.012993350170598843,0.9997814051366501,64.44662847882694,3.9621965780479798,370.4832909343566,-101.1081472416773,5.590179443359375,4761.76025390625,True
1599386535.4007556,0.0,10,0.5,0.5,-11.201362670898437,-0.1005,-0.0155,-0.12575,0.12072141979852648,10,1,100,0.20724641087736478,-10,-1,-100,19043.12175740453,-0.016637455982315127,0.012777170493526132,0.9997799452742668,65.02898504437105,3.9982094750365915,375.2842998549122,-101.47222670217293,6.54656982421875,4761.76025390625,True
1599386535.4268565,0.0,10,0.5,0.5,-11.25790523376465,-0.1005,-0.0155,-0.12575,0.1255053220170593,10,1,100,0.20629361955643008,-10,-1,-100,19039.05194667226,-0.016859715322258724,0.012627867411245662,0.9997781188663296,65.50289465071981,4.027461228140576,379.4840125931775,-101.83627296672668,7.207855224609375,4761.76025390625,True
1599386535.4595985,0.0,10,0.5,0.5,-11.297440623474122,-0.1005,-0.0155,-0.12575,0.13242298878761066,10,1,100,0.21785442556686568,-10,-1,-100,19032.91992890206,-0.01716428589652651,0.012558228040695849,0.9997738135189079,66.02008869365781,4.059327387732429,384.69674371420075,-102.38229150813076,7.64715576171875,4761.76025390625,True
1599386535.4865615,0.0,10,0.5,0.5,-11.26172069091797,-0.1005,-0.0155,-0.12575,0.13909397610097043,10,1,100,0.1876647941111046,-10,-1,-100,19032.91992890206,-0.01716428589652651,0.012558228040695849,0.9997738135189079,66.02008869365781,4.059327387732429,384.69674371420075,-102.38229150813076,7.64715576171875,4761.76025390625,True
1599386535.5174437,0.0,10,0.5,0.5,-11.226645668029786,-0.1005,-0.0155,-0.12575,0.1506090683395202,10,1,100,0.21538073489712506,-10,-1,-100,19026.755151951336,-0.017414188941797488,0.012665013811475105,0.9997681448459211,66.31369778976477,4.0774161792939685,388.6364378017881,-102.92826497663154,7.42352294921875,4761.76025390625,True
1599386535.5487034,0.0,10,0.5,0.5,-11.216204078674316,-0.1005,-0.0155,-0.12575,0.1475265211158602,10,1,100,0.19825192111170564,-10,-1,-100,19024.69294694648,-0.017483723610726535,0.01273558738136763,0.9997660347415065,66.36203802673027,4.080412066446458,389.66385134824503,-103.11024915296169,7.20166015625,4761.76025390625,True
1599386535.5851622,0.0,10,0.5,0.5,-11.25539247894287,-0.1005,-0.0155,-0.12575,0.1403091586496849,10,1,100,0.1915180848451769,-10,-1,-100,19024.69294694648,-0.017483723610726535,0.01273558738136763,0.9997660347415065,66.36203802673027,4.080412066446458,389.66385134824503,-103.11024915296169,7.20166015625,4761.76025390625,True
1599386535.6160762,0.0,10,0.5,0.5,-10.896383218383791,-0.1005,-0.0155,-0.12575,0.19417622154368763,10,1,100,0.21461445814845792,-10,-1,-100,19016.407730190782,-0.017692013381468932,0.013226314054864538,0.9997559988712406,66.29664765685274,4.0766555369133695,392.25678844691726,-103.83817007543935,5.57861328125,4761.76025390625,True
1599386535.6492205,0.0,10,0.5,0.5,-10.97012684173584,-0.1005,-0.0155,-0.12575,0.16364767037542036,10,1,100,0.1977150987063867,-10,-1,-100,19014.32732727914,-0.017726165111548998,0.01339511490699008,0.999753146515212,66.2126385190179,4.071621164348592,392.50389596029277,-104.02014976537164,4.988922119140625,4761.76025390625,True
1599386535.6822221,0.0,10,0.5,0.5,-10.728574183654784,-0.1005,-0.0155,-0.12575,0.19094969730842065,10,1,100,0.19776331693060506,-10,-1,-100,19010.155602185987,-0.017756174914379086,0.0137966721985286,0.9997471530785453,65.95768029643577,4.056319710995353,392.47621280201287,-104.38411376725884,3.589080810546875,4761.76025390625,True
1599386535.7184255,0.0,10,0.5,0.5,-10.90150252532959,-0.1005,-0.0155,-0.12575,0.15087430035736168,10,1,100,0.1948999224106183,-10,-1,-100,19010.155602185987,-0.017756174914379086,0.0137966721985286,0.9997471530785453,65.95768029643577,4.056319710995353,392.47621280201287,-104.38411376725884,3.589080810546875,4761.76025390625,True
1599386535.765301,0.0,10,0.5,0.5,-10.713608137512207,-0.1005,-0.0155,-0.12575,0.17588418481570195,10,1,100,0.1952867861734846,-10,-1,-100,19008.064280081773,-0.017758674840466903,0.01402310796478169,0.9997439581767518,65.78446837354343,4.04592418334146,392.1859710722611,-104.56609946334312,2.77886962890625,4761.76025390625,True
1599386535.7962203,0.0,10,0.5,0.5,-9.909157852172852,-0.1005,-0.0155,-0.12575,0.2733326320784818,10,1,100,0.18390263219323194,-10,-1,-100,18999.662592964014,-0.017656637955709705,0.015113585235988375,0.9997298748549108,64.75747912216087,3.984378723529261,388.9823478866065,-105.29408504076214,-1.196685791015625,4761.76025390625,True
1599386535.8271346,0.0,10,0.5,0.5,-10.39537599182129,-0.1005,-0.0155,-0.12575,0.16454044067734255,10,1,100,0.19415555587487004,-10,-1,-100,18999.662592964014,-0.017656637955709705,0.015113585235988375,0.9997298748549108,64.75747912216087,3.984378723529261,388.9823478866065,-105.29408504076214,-1.196685791015625,4761.76025390625,True
1599386535.8550603,0.0,10,0.5,0.5,-9.832234329223633,-0.1005,-0.0155,-0.12575,0.236409316005853,10,1,100,0.17958347039441724,-10,-1,-100,18995.439908991684,-0.017523716858560877,0.015764615596070022,0.9997221595236194,64.78907247701606,3.9875975600382065,390.6341342604793,-105.65809506791166,-3.6251220703125,4761.76025390625,True
1599386535.8849804,0.0,10,0.5,0.5,-9.171737232971193,-0.1005,-0.0155,-0.12575,0.2913950204662933,10,1,100,0.15511641340118174,-10,-1,-100,18989.078586275806,-0.01718035213583547,0.01685351359870771,0.9997103553429196,66.23469201425745,4.079226994150216,401.5938373969211,-106.20400208695585,-7.8184814453125,4761.76025390625,True
1599386535.9168975,0.0,10,0.5,0.5,-9.326301426696778,-0.1005,-0.0155,-0.12575,0.2258242448228903,10,1,100,0.17269894154863652,-10,-1,-100,18986.950867381063,-0.017028319345130046,0.017243579344149815,0.9997063045273259,66.72911607957761,4.1107591418107825,405.3453439309776,-106.38593933340498,-9.36309814453125,4761.76025390625,True
1599386535.951804,0.0,10,0.5,0.5,-8.746071318054199,-0.1005,-0.0155,-0.12575,0.2763548552923476,10,1,100,0.14614277091327296,-10,-1,-100,18982.684514658293,-0.01664910198804508,0.018053455578853357,0.9996983945894152,67.7205731398103,4.174310631560586,412.89787237953044,-106.74976355877855,-12.67266845703125,4761.76025390625,True
1599386535.9827192,0.0,10,0.5,0.5,-9.133960298156738,-0.1005,-0.0155,-0.12575,0.19584994597439223,10,1,100,0.18396021548242728,-10,-1,-100,18982.684514658293,-0.01664910198804508,0.018053455578853357,0.9996983945894152,67.7205731398103,4.174310631560586,412.89787237953044,-106.74976355877855,-12.67266845703125,4761.76025390625,True
1599386536.0176327,0.0,10,0.5,0.5,-8.707298600769043,-0.1005,-0.0155,-0.12575,0.2430617322423963,10,1,100,0.16059566401894038,-10,-1,-100,18980.54588158813,-0.016437676123034747,0.018478418780678973,0.9996941286428765,68.21102610031873,4.205919755528108,416.6586462988121,-106.93164980087167,-14.437469482421875,4761.76025390625,True
1599386536.050545,0.0,10,0.5,0.5,-8.052857485961914,-0.1005,-0.0155,-0.12575,0.296575384308864,10,1,100,0.1261029916812911,-10,-1,-100,18976.257703742478,-0.015933099677947947,0.019346980576959102,0.9996858659985182,69.24327078595152,4.272597592533072,424.52775735747315,-107.29536770285128,-18.187408447265625,4761.76025390625,True
1599386536.0854676,0.0,10,0.5,0.5,-7.093560859680176,-0.1005,-0.0155,-0.12575,0.361179033031959,10,1,100,0.07571337676137535,-10,-1,-100,18969.79816341668,-0.015017963751539286,0.020718842372534237,0.9996725415532326,70.85635958590862,4.377210923768879,436.81588213115566,-107.84079601955249,-24.3624267578125,4761.76025390625,True
1599386536.1173818,0.0,10,0.5,0.5,-7.3290738586425785,-0.1005,-0.0155,-0.12575,0.27540882584093246,10,1,100,0.12766476508079536,-10,-1,-100,18967.637712230673,-0.014660798904152438,0.02118017327185889,0.9996681755641049,71.41422750107108,4.413437995397954,441.0600543670187,-108.02256415159415,-26.567626953125,4761.76025390625,True
1599386536.1492975,0.0,10,0.5,0.5,-7.051493093872071,-0.1005,-0.0155,-0.12575,0.2797453050483361,10,1,100,0.12057099990016895,-10,-1,-100,18965.473625904182,-0.014274338304023752,0.02163347245673418,0.9996640616404323,71.94481217219234,4.4480055535181835,445.1475761240861,-108.20431181555917,-28.846343994140625,4761.76025390625,True
1599386536.182255,0.0,10,0.5,0.5,-6.2141450576782225,-0.1005,-0.0155,-0.12575,0.33102819573062675,10,1,100,0.06456105755088831,-10,-1,-100,18961.134549946873,-0.013416904009505745,0.02250584355171368,0.9996566779113845,72.90307484543212,4.510772541301831,452.718140424575,-108.56774905658399,-33.624420166015625,4761.76025390625,True
1599386536.2191567,0.0,10,0.5,0.5,-6.203112789916992,-0.1005,-0.0155,-0.12575,0.2940153607752547,10,1,100,0.09960856055624691,-10,-1,-100,18958.959561010124,-0.012959765417128141,0.02295629947668653,0.9996524660073968,73.31955646461738,4.538231590884736,456.12921268128844,-108.74944101836303,-36.123321533203125,4761.76025390625,True
1599386536.2510712,0.0,10,0.5,0.5,-5.292831611633301,-0.1005,-0.0155,-0.12575,0.3440488722292635,10,1,100,0.0346410402712926,-10,-1,-100,18954.598682976328,-0.01195740795484774,0.02381510697999104,0.9996448674777123,73.99923716703219,4.583446986258151,462.0213170328778,-109.11277943748263,-41.341644287109375,4761.76025390625,True
1599386536.2830133,0.0,10,0.5,0.5,-4.652187113952637,-0.1005,-0.0155,-0.12575,0.3436785133469854,10,1,100,0.012867985488085737,-10,-1,-100,18950.223272730364,-0.010852846956009389,0.024586500058941845,0.9996387946292407,74.43542242942296,4.613154596651559,466.41720824284994,-109.47607068028931,-46.8544921875,4761.76025390625,True
1599386536.3159597,0.0,10,0.5,0.5,-4.643924258422851,-0.1005,-0.0155,-0.12575,0.30870869851508953,10,1,100,0.05811522090325589,-10,-1,-100,18948.03011859546,-0.01026530841995974,0.024963919955443444,0.9996356466950852,74.54717885989669,4.621215858231558,467.95487375651805,-109.65770468896615,-49.72088623046875,4761.76025390625,True
1599386536.352863,0.0,10,0.5,0.5,-3.5999228530883793,-0.1005,-0.0155,-0.12575,0.34581363160929646,10,1,100,-0.019978304996374305,-10,-1,-100,18943.63291222928,-0.009027044782252589,0.025638064285504424,0.9996305328080929,74.52752848666844,4.621807801739821,469.5062634928221,-110.02096375056782,-55.674591064453125,4761.76025390625,True
1599386536.3827808,0.0,10,0.5,0.5,-2.13932717590332,-0.1005,-0.0155,-0.12575,0.36958592959241254,10,1,100,-0.11525400729737305,-10,-1,-100,18937.009857971687,-0.0070419447555468105,0.026460525798583802,0.9996250555025732,73.80249595114701,4.578448074285914,467.4295634580837,-110.56587890189516,-65.15682983398438,4761.76025390625,True
1599386536.418718,0.0,10,0.5,0.5,-3.258916098022461,-0.1005,-0.0155,-0.12575,0.2880511328066372,10,1,100,0.08236687988096468,-10,-1,-100,18937.009857971687,-0.0070419447555468105,0.026460525798583802,0.9996250555025732,73.80249595114701,4.578448074285914,467.4295634580837,-110.56587890189516,-65.15682983398438,4761.76025390625,True
1599386536.4566157,0.0,10,0.5,0.5,-1.6822305267333983,-0.1005,-0.0155,-0.12575,0.33312459997640714,10,1,100,-0.07127287886215088,-10,-1,-100,18932.57632279035,-0.005652470602423935,0.026865064878830756,0.9996230879012074,72.79098410228228,4.516218307136754,462.6646336207868,-110.92921405463895,-71.84613037109375,4761.76025390625,True
1599386536.4905255,0.0,10,0.5,0.5,0.7734233367919923,-0.1005,-0.0155,-0.12575,0.3391113828789426,10,1,100,-0.24510215259598442,-10,-1,-100,18923.665641338797,-0.0028172355459153147,0.027282084894890153,0.9996238047524013,69.34141565896022,4.30306963837624,443.87750702734985,-111.6561499723579,-86.10757446289062,4761.76025390625,True
1599386536.519448,0.0,10,0.5,0.5,-0.9311983505249024,-0.1005,-0.0155,-0.12575,0.2979742425168185,10,1,100,0.03727564277906677,-10,-1,-100,18923.665641338797,-0.0028172355459153147,0.027282084894890153,0.9996238047524013,69.34141565896022,4.30306963837624,443.87750702734985,-111.6561499723579,-86.10757446289062,4761.76025390625,True
1599386536.5523598,0.0,10,0.5,0.5,1.727080937576294,-0.1005,-0.0155,-0.12575,0.2932745093164457,10,1,100,-0.18556591923349006,-10,-1,-100,18916.944452396012,-0.0008010392262226073,0.02723501801002933,0.9996287371470227,65.41455179852144,4.0611482888656045,420.9684900442717,-112.20167812703356,-97.49732208251953,4761.76025390625,True
1599386536.5842738,0.0,10,0.5,0.5,0.38994987525939945,-0.1005,-0.0155,-0.12575,0.2984090696558622,10,1,100,0.014837840116690098,-10,-1,-100,18916.944452396012,-0.0008010392262226073,0.02723501801002933,0.9996287371470227,65.41455179852144,4.0611482888656045,420.9684900442717,-112.20167812703356,-97.49732208251953,4761.76025390625,True
1599386536.6212723,0.0,10,0.5,0.5,3.115312117767334,-0.1005,-0.0155,-0.12575,0.2651478229520748,10,1,100,-0.2051505706782473,-10,-1,-100,18910.19052796706,0.0011887132639780737,0.026929534029967592,0.9996366275590869,67.29808742536923,4.181765136041816,435.3822729287584,-112.74722399316394,-109.15840911865234,4761.76025390625,True
1599386536.6551826,0.0,10,0.5,0.5,3.4734195850372314,-0.1005,-0.0155,-0.12575,0.25832333074249975,10,1,100,-0.14107299178794944,-10,-1,-100,18905.66973332886,0.002404108846775996,0.026587650451668943,0.9996435950398087,69.40709096587352,4.315990552800035,450.59962057326607,-113.11073253853182,-116.79561614990234,4761.76025390625,True
1599386536.6880946,0.0,10,0.5,0.5,2.617006632232666,-0.1005,-0.0155,-0.12575,0.2926740616219873,10,1,100,-0.020800375234830765,-10,-1,-100,18905.66973332886,0.002404108846775996,0.026587650451668943,0.9996435950398087,69.40709096587352,4.315990552800035,450.59962057326607,-113.11073253853182,-116.79561614990234,4761.76025390625,True
1599386536.7180147,0.0,10,0.5,0.5,4.388000353240967,-0.1005,-0.0155,-0.12575,0.2495364318215048,10,1,100,-0.14028803275435478,-10,-1,-100,18901.134401886142,0.0034799683209270973,0.026194626920604407,0.9996508047018098,71.07240204772722,4.42282273253304,463.0188579914277,-113.4741126234896,-124.20448303222656,4761.76025390625,True
1599386536.9783242,0.0,10,0.5,0.5,4.3619463100433356,-0.1005,-0.0155,-0.12575,0.26334818676700356,10,1,100,-0.09033322222368381,-10,-1,-100,18898.86128665635,0.003994322371625204,0.02596313593630298,0.9996549209407938,71.78827295051823,4.468918530768958,468.49354010713455,-113.65576060270452,-127.80265808105469,4761.76025390625,True
1599386537.010239,0.0,10,0.5,0.5,4.8040445590972904,-0.1005,-0.0155,-0.12575,0.25937360987316227,10,1,100,-0.09318198361803053,-10,-1,-100,18896.584538873052,0.004477781823911025,0.025717009242323383,0.9996592343921841,72.3678112041236,4.506435215394292,473.0926237709266,-113.83738630200688,-131.32737731933594,4761.76025390625,True
1599386537.0401587,0.0,10,0.5,0.5,5.233810518264771,-0.1005,-0.0155,-0.12575,0.2529689034874194,10,1,100,-0.09702095493599165,-10,-1,-100,18894.30415885034,0.004942980835764749,0.025436076785777455,0.9996642300983891,72.81655412300455,4.535682377905839,476.84791855591243,-114.0189943560201,-134.7784423828125,4761.76025390625,True
1599386537.0740685,0.0,10,0.5,0.5,6.386309663009643,-0.1005,-0.0155,-0.12575,0.22062612937156653,10,1,100,-0.14106438694965143,-10,-1,-100,18889.732503453037,0.005759229122681696,0.024888336613418053,0.9996736477373652,73.34641416691471,4.570822902595271,481.9729035602949,-114.38217539841968,-141.45703125,4761.76025390625,True
1599386537.103988,0.0,10,0.5,0.5,7.7726850498199465,-0.1005,-0.0155,-0.12575,0.17568678267743296,10,1,100,-0.17230062673801066,-10,-1,-100,18882.84778293327,0.006777442050074371,0.023984027621582357,0.9996893681030649,73.33070745711527,4.571846226421289,484.35407928303624,-114.9269202927939,-150.9174346923828,4761.76025390625,True
1599386537.1886961,0.0,10,0.5,0.5,6.6658404914855955,-0.1005,-0.0155,-0.12575,0.2657925828221579,10,1,100,-0.07123718212637287,-10,-1,-100,18882.84778293327,0.006777442050074371,0.023984027621582357,0.9996893681030649,73.33070745711527,4.571846226421289,484.35407928303624,-114.9269202927939,-150.9174346923828,4761.76025390625,True
1599386537.218578,0.0,10,0.5,0.5,7.428399737930298,-0.1005,-0.0155,-0.12575,0.23250997912212706,10,1,100,-0.10318544977342846,-10,-1,-100,18880.54561261437,0.007060991318432788,0.0236844139428443,0.9996945488186805,73.13910955166992,4.5602987592090205,483.91576148941976,-115.10850888161346,-153.92189025878906,4761.76025390625,True
1599386537.2475414,0.0,10,0.5,0.5,8.428936946105958,-0.1005,-0.0155,-0.12575,0.196269889691436,10,1,100,-0.12918884524970323,-10,-1,-100,18875.930375895812,0.007549819450311615,0.023085532621973534,0.9997049856881915,72.5223268981255,4.522361351884597,481.47783612586284,-115.47171359716423,-159.70736694335938,4761.76025390625,True
1599386537.2824683,0.0,10,0.5,0.5,9.009660456466676,-0.1005,-0.0155,-0.12575,0.18578098020466136,10,1,100,-0.12034843964324618,-10,-1,-100,18871.300609581405,0.007909163418684998,0.022448925078420064,0.9997167053204823,71.64402982009325,4.467917773781599,477.27346746734025,-115.83496887468928,-165.19569396972656,4761.76025390625,True
1599386537.3163805,0.0,10,0.5,0.5,10.130585522460938,-0.1005,-0.0155,-0.12575,0.15239986018370327,10,1,100,-0.12423970552845942,-10,-1,-100,18864.328711590148,0.00826621030291555,0.021570488698065698,0.9997331562894944,69.95946095560319,4.363417939375763,468.4405939215572,-116.37997195681929,-172.868896484375,4761.76025390625,True
1599386537.346333,0.0,10,0.5,0.5,9.241110147094728,-0.1005,-0.0155,-0.12575,0.239781084396886,10,1,100,-0.08901364130360313,-10,-1,-100,18864.328711590148,0.00826621030291555,0.021570488698065698,0.9997331562894944,69.95946095560319,4.363417939375763,468.4405939215572,-116.37997195681929,-172.868896484375,4761.76025390625,True
1599386537.378255,0.0,10,0.5,0.5,10.895392919921875,-0.1005,-0.0155,-0.12575,0.14916987697012446,10,1,100,-0.10582406068928078,-10,-1,-100,18857.324107159977,0.00841514876284781,0.020750743764402627,0.9997492645181206,67.9889240703659,4.241618507011413,457.5746432782964,-116.92513651030352,-179.8719024658203,4761.76025390625,True
1599386537.4081686,0.0,10,0.5,0.5,10.090008931732177,-0.1005,-0.0155,-0.12575,0.23064774378863948,10,1,100,-0.09132395138994845,-10,-1,-100,18857.324107159977,0.00841514876284781,0.020750743764402627,0.9997492645181206,67.9889240703659,4.241618507011413,457.5746432782964,-116.92513651030352,-179.8719024658203,4761.76025390625,True
1599386537.437095,0.0,10,0.5,0.5,-69.85728425827027,-0.1005,-0.0155,-0.12575,0.14947985123774768,10,1,100,-0.08580072491872107,-10,-1,-100,18850.28678613552,0.008361781096812031,0.020017113225777587,0.999764670207442,65.8933034963332,4.11285453665077,445.7318330413991,-117.47046608750856,173.79522705078125,4761.76025390625,True
1599386537.4679759,0.0,10,0.5,0.5,-25.87228372192383,-0.1005,-0.0155,-0.12575,0.22235578276148757,10,1,100,-0.091397746719712,-10,-1,-100,18850.28678613552,0.008361781096812031,0.020017113225777587,0.999764670207442,65.8933034963332,4.11285453665077,445.7318330413991,-117.47046608750856,173.79522705078125,4761.76025390625,True
1599386537.4968996,0.0,10,0.5,0.5,-25.07430906982422,-0.1005,-0.0155,-0.12575,0.15259738127768482,10,1,100,-0.06691579606111014,-10,-1,-100,18843.216746991617,0.008137777600782253,0.019386552225375567,0.9997789446515329,67.90014304448356,4.241148851405178,461.6388866334497,-118.01571596047447,168.04371643066406,4761.76025390625,True
1599386537.5311403,0.0,10,0.5,0.5,-25.394511853790288,-0.1005,-0.0155,-0.12575,0.1759656056944769,10,1,100,-0.06252046827564955,-10,-1,-100,18838.485216234578,0.007892943864932169,0.0190299328791593,0.9997877590227637,69.1041398612815,4.318843027647976,471.4070679742304,-118.37911000740723,164.07713317871094,4761.76025390625,True
1599386537.5650916,0.0,10,0.5,0.5,-25.426672184753418,-0.1005,-0.0155,-0.12575,0.17621299221854983,10,1,100,-0.05403982871673432,-10,-1,-100,18833.739151993883,0.007592514697672409,0.018712213788330344,0.9997960825966989,70.36601932112676,4.400509161667018,481.62628124022467,-118.74241675295485,159.83609008789062,4761.76025390625,True
1599386537.597963,0.0,10,0.5,0.5,-26.45527571182251,-0.1005,-0.0155,-0.12575,0.20754756941808117,10,1,100,-0.08408701496744635,-10,-1,-100,18833.739151993883,0.007592514697672409,0.018712213788330344,0.9997960825966989,70.36601932112676,4.400509161667018,481.62628124022467,-118.74241675295485,159.83609008789062,4761.76025390625,True
1599386537.6318738,0.0,10,0.5,0.5,-25.396732695770265,-0.1005,-0.0155,-0.12575,0.1661800822424765,10,1,100,-0.01912182828020656,-10,-1,-100,18826.592814375064,0.007002209953898423,0.018339542733361292,0.999807296546736,72.26995117050208,4.524177561872426,497.1384113871581,-119.28720452582287,152.9307098388672,4761.76025390625,True
1599386537.6667767,0.0,10,0.5,0.5,-25.646000985717773,-0.1005,-0.0155,-0.12575,0.1852812110001042,10,1,100,-0.02596643649855973,-10,-1,-100,18821.810433487175,0.00652894208004257,0.01817733471388123,0.9998134613106662,73.52293896694727,4.60573186263896,507.4385607167777,-119.65027952764734,147.96243286132812,4761.76025390625,True
1599386537.6996887,0.0,10,0.5,0.5,-26.768050376129153,-0.1005,-0.0155,-0.12575,0.20116269754969213,10,1,100,-0.07311949706185769,-10,-1,-100,18821.810433487175,0.00652894208004257,0.01817733471388123,0.9998134613106662,73.52293896694727,4.60573186263896,507.4385607167777,-119.65027952764734,147.96243286132812,4761.76025390625,True
1599386537.7465644,0.0,10,0.5,0.5,-25.466090026855472,-0.1005,-0.0155,-0.12575,0.18209878552417683,10,1,100,0.01747985115796767,-10,-1,-100,18814.609637402813,0.005707026375028526,0.01800636588551338,0.9998215844027133,75.09480004526488,4.708565327262527,520.8605663116881,-120.19473536546292,139.96197509765625,4761.76025390625,True
1599386537.788451,0.0,10,0.5,0.5,-25.678773279571534,-0.1005,-0.0155,-0.12575,0.1981378676459764,10,1,100,0.002571111038661901,-10,-1,-100,18809.790961026214,0.005097826210089283,0.01799924440435796,0.9998250043726672,75.86872377376707,4.7595325125585815,527.9611836843916,-120.55762230586107,134.26422119140625,4761.76025390625,True
1599386537.8348424,0.0,10,0.5,0.5,-24.978819625091553,-0.1005,-0.0155,-0.12575,0.2013244405848284,10,1,100,0.016955524742060926,-10,-1,-100,18804.957770727575,0.0044162077127379105,0.018023573601680252,0.9998278091271832,76.3637511914653,4.792503465129083,533.1505319261748,-120.92046480398696,128.27450561523438,4761.76025390625,True
1599386537.877731,0.0,10,0.5,0.5,-24.959212522888187,-0.1005,-0.0155,-0.12575,0.20387948754333465,10,1,100,-0.011581925393989674,-10,-1,-100,18802.535733058,0.0040595727830953715,0.01807073106216339,0.9998284695625033,76.49111603139757,4.801234788147215,534.9140708082864,-121.10187696206727,125.17060852050781,4761.76025390625,True
1599386537.926596,0.0,10,0.5,0.5,-23.07752687530518,-0.1005,-0.0155,-0.12575,0.2253413369558607,10,1,100,0.0792096320622512,-10,-1,-100,18795.247850634158,0.002913688874561498,0.018309905403773943,0.9998281141182453,76.31436903384683,4.791507824167443,536.2994781210266,-121.64611790127887,115.42233276367188,4761.76025390625,True
1599386537.9764638,0.0,10,0.5,0.5,-22.675395698547366,-0.1005,-0.0155,-0.12575,0.22946589944082652,10,1,100,0.053991846895106034,-10,-1,-100,18790.371120039606,0.002105755418314179,0.018565487216442668,0.9998254290017504,75.66751796156275,4.751272574252419,533.4920317510062,-122.00898710310675,108.5601806640625,4761.76025390625,True
1599386538.0393002,0.0,10,0.5,0.5,-21.840567559814456,-0.1005,-0.0155,-0.12575,0.24041742794840232,10,1,100,0.07105088445823099,-10,-1,-100,18785.479872288066,0.0012211762614058057,0.018897527056730277,0.999820680022012,74.54273520149991,4.6808906669962465,527.279764238059,-122.37192634315755,101.40762329101562,4761.76025390625,True
1599386538.0771995,0.0,10,0.5,0.5,-21.815699923706056,-0.1005,-0.0155,-0.12575,0.229386517822851,10,1,100,0.03229734849742707,-10,-1,-100,18783.02880358463,0.0007751103897111989,0.01909893198924273,0.9998172983104233,73.78987378862267,4.6337956618351885,522.8068626168792,-122.55343184013132,97.72259521484375,4761.76025390625,True
1599386538.1170921,0.0,10,0.5,0.5,-20.476859489440923,-0.1005,-0.0155,-0.12575,0.26107096613775904,10,1,100,0.08986156051213853,-10,-1,-100,18778.115773303085,-0.00014805405781383204,0.01956937746779332,0.9998084904348027,71.88231236065391,4.514719450020647,510.956431277649,-122.91653258036557,90.13514709472656,4761.76025390625,True
1599386538.1539946,0.0,10,0.5,0.5,-20.458443524169923,-0.1005,-0.0155,-0.12575,0.2440456146067856,10,1,100,0.05043602514540723,-10,-1,-100,18775.653810668737,-0.0006228105102864336,0.019841013759145088,0.9998029537264219,70.72175700252947,4.442457281448669,503.52745000049765,-123.09813422950846,86.23280334472656,4761.76025390625,True
