Timestamp,Input Throttle,horizon,dT,dt,Input Roll,Roll P,Roll I,Roll D,Input Pitch,Pitch P,Pitch I,Pitch D,Input Yaw,Yaw P,Yaw I,Yaw D,Altitude,Direction X,Direction Y,Direction Z,Drag X,Drag Y,Drag Z,Vertical Velocity,Roll,Mass,Has Fuel
1599385350.1678772,0.0,10,0.5,0.5,-2.845931671142578,-0.05075,-0.001,-0.001,-0.00017808685162738975,10,1,100,0.49805028215499636,-10,-1,-100,19351.094163357746,-0.048843730602108115,-0.00017566524664092362,0.9988064172413941,60.98677022034015,3.6806960298149516,232.75498755373414,-68.48187406472074,-33.9224853515625,4761.76025390625,True
1599385350.1978493,0.0,10,0.5,0.5,-2.8514215942382815,-0.05075,-0.001,-0.001,0.00014244152455012674,10,1,100,0.5047318045172654,-10,-1,-100,19348.343940597493,-0.04894745901516242,-0.00015824106013525584,0.9988013422176233,61.16640772468904,3.6928826391501306,234.7316486590095,-68.84679064009423,-33.9248046875,4761.76025390625,True
1599385350.2180862,0.0,10,0.5,0.5,-2.856966682434082,-0.05075,-0.001,-0.001,-0.0006232940460402026,10,1,100,0.5052583728161684,-10,-1,-100,19346.963355512824,-0.04900204686700621,-0.000149218267535347,0.998798666967849,61.25661875692695,3.699005226655705,235.7245973228381,-69.02924383731293,-33.926055908203125,4761.76025390625,True
1599385350.2390273,0.0,10,0.5,0.5,-2.862575328063965,-0.05075,-0.001,-0.001,-0.0015404951327846225,10,1,100,0.5046997923184898,-10,-1,-100,19346.963355512824,-0.04900204686700621,-0.000149218267535347,0.998798666967849,61.25661875692695,3.699005226655705,235.7245973228381,-69.02924383731293,-33.926055908203125,4761.76025390625,True
1599385350.2652206,0.0,10,0.5,0.5,-2.8658880218505867,-0.05075,-0.001,-0.001,0.01009494670632135,10,1,100,0.5086405226261164,-10,-1,-100,19345.579121742514,-0.04899332437265099,-4.330587057298783e-05,0.9987991050714443,61.347114820703965,3.705148768762782,236.72072685979649,-69.21169360368738,-33.97039794921875,4761.76025390625,True
1599385350.2981322,0.0,10,0.5,0.5,-2.8441552658081055,-0.05075,-0.001,-0.001,0.03935531744956324,10,1,100,0.5094295965198111,-10,-1,-100,19341.40452629188,-0.048948028845568335,0.00031902086603187674,0.9988012758791512,61.63762318321982,3.7247319089733972,239.79559678528395,-69.75902096389906,-34.499481201171875,4761.76025390625,True
1599385350.331078,0.0,10,0.5,0.5,-2.8502344009399416,-0.05075,-0.001,-0.001,0.003154545875679969,10,1,100,0.5188539521126336,-10,-1,-100,19341.40452629188,-0.048948028845568335,0.00031902086603187674,0.9988012758791512,61.63762318321982,3.7247319089733972,239.79559678528395,-69.75902096389906,-34.499481201171875,4761.76025390625,True
1599385350.3669286,0.0,10,0.5,0.5,-2.839233549499512,-0.05075,-0.001,-0.001,0.022605087592569722,10,1,100,0.5179225684008436,-10,-1,-100,19340.005697083427,-0.04889506351287427,0.0004955539535799364,0.9988037981457375,61.741153013640414,3.7316573161002875,240.85107337984695,-69.9414554180483,-34.819305419921875,4761.76025390625,True
1599385350.3992558,0.0,10,0.5,0.5,-2.8006114212036137,-0.05075,-0.001,-0.001,0.05568532081488855,10,1,100,0.5077510440670726,-10,-1,-100,19337.197092974326,-0.04870999474965187,0.0009563174679596346,0.9988125058630319,61.955305634185066,3.7459099243645566,242.99684522460254,-70.30631137997374,-35.678436279296875,4761.76025390625,True
1599385350.4324348,0.0,10,0.5,0.5,-2.7117587036132815,-0.05075,-0.001,-0.001,0.11754083988936206,10,1,100,0.47932086455438383,-10,-1,-100,19332.956823834218,-0.048239012428652826,0.0019366469112837015,0.9988339436956724,62.280154342325204,3.7673927209460696,246.24779052400064,-70.8535612111275,-37.5169677734375,4761.76025390625,True
1599385350.466412,0.0,10,0.5,0.5,-2.7188455383300782,-0.05075,-0.001,-0.001,0.01970156024808373,10,1,100,0.5312429978971532,-10,-1,-100,19332.956823834218,-0.048239012428652826,0.0019366469112837015,0.9988339436956724,62.280154342325204,3.7673927209460696,246.24779052400064,-70.8535612111275,-37.5169677734375,4761.76025390625,True
1599385350.5032153,0.0,10,0.5,0.5,-2.538447637939453,-0.05075,-0.001,-0.001,0.21315686836858694,10,1,100,0.41373287467517317,-10,-1,-100,19327.252057664446,-0.04717128832497433,0.003693411246781072,0.9988799869209135,62.6643758851835,3.7927122221574665,250.42069788201144,-71.58316282254992,-40.9959716796875,4761.76025390625,True
1599385350.5331335,0.0,10,0.5,0.5,-2.486727886962891,-0.05075,-0.001,-0.001,0.09700267101295493,10,1,100,0.48283489024061355,-10,-1,-100,19325.816746657016,-0.04683044489103442,0.004231020982812103,0.9988938922091529,62.73963237626662,3.7976919342626703,251.38596594232595,-71.76555230205679,-42.0489501953125,4761.76025390625,True
1599385350.5671268,0.0,10,0.5,0.5,-2.486968576049805,-0.05075,-0.001,-0.001,0.04367972133488659,10,1,100,0.5167020734370076,-10,-1,-100,19325.816746657016,-0.04683044489103442,0.004231020982812103,0.9988938922091529,62.73963237626662,3.7976919342626703,251.38596594232595,-71.76555230205679,-42.0489501953125,4761.76025390625,True
1599385350.5999556,0.0,10,0.5,0.5,-2.3657405685424804,-0.05075,-0.001,-0.001,0.16549714411033078,10,1,100,0.42785244408507905,-10,-1,-100,19322.935181193636,-0.04602469517144959,0.005334470063270371,0.9989260587568627,62.85059760221629,3.8051187081516558,253.16236374932623,-72.1303201404218,-44.375823974609375,4761.76025390625,True
1599385350.6352196,0.0,10,0.5,0.5,-2.1579343475341797,-0.05075,-0.001,-0.001,0.26316590071700363,10,1,100,0.34609140807066596,-10,-1,-100,19318.585476349224,-0.04455161203460617,0.00722061449108051,0.9989809891041415,62.87908526438526,3.80750513033274,255.2767643503247,-72.67745040636812,-48.416259765625,4761.76025390625,True
1599385350.6669905,0.0,10,0.5,0.5,-2.16058310546875,-0.05075,-0.001,-0.001,0.0752416172984946,10,1,100,0.4929600800739116,-10,-1,-100,19318.585476349224,-0.04455161203460617,0.00722061449108051,0.9989809891041415,62.87908526438526,3.80750513033274,255.2767643503247,-72.67745040636812,-48.416259765625,4761.76025390625,True
1599385350.7000995,0.0,10,0.5,0.5,-2.000778120422363,-0.05075,-0.001,-0.001,0.22358837856308664,10,1,100,0.3629995562828018,-10,-1,-100,19315.667435788084,-0.04337414946996968,0.008562947235644939,0.999022201501246,62.77395495074395,3.801279746178498,256.1817045441635,-73.04219714948532,-51.477386474609375,4761.76025390625,True
1599385350.7340374,0.0,10,0.5,0.5,-1.7359976425170898,-0.05075,-0.001,-0.001,0.3186394759551378,10,1,100,0.2536511568157799,-10,-1,-100,19311.263018534635,-0.04131467161063895,0.010640016622193008,0.9990895294997263,62.36705094470569,3.7763864945614287,256.507508781798,-73.5893241050431,-56.620880126953125,4761.76025390625,True
1599385350.7699397,0.0,10,0.5,0.5,-1.739046891784668,-0.05075,-0.001,-0.001,0.11190090721575428,10,1,100,0.4588594104349515,-10,-1,-100,19311.263018534635,-0.04131467161063895,0.010640016622193008,0.9990895294997263,62.36705094470569,3.7763864945614287,256.507508781798,-73.5893241050431,-56.620880126953125,4761.76025390625,True
1599385350.8008587,0.0,10,0.5,0.5,-1.5406624328613283,-0.05075,-0.001,-0.001,0.2704656430391257,10,1,100,0.28477606427296337,-10,-1,-100,19308.30850254174,-0.039738390591728165,0.012073602066304649,0.9991371719870719,61.88983341800545,3.747036426222299,255.86033115935044,-73.95409235281339,-60.41748046875,4761.76025390625,True
1599385350.833771,0.0,10,0.5,0.5,-1.2188372940063479,-0.05075,-0.001,-0.001,0.3574180157098661,10,1,100,0.1511825396908893,-10,-1,-100,19303.849368676427,-0.037098649098187615,0.014158122262362852,0.999211307886922,60.79514332929426,3.6797791451754205,253.2758333820622,-74.50129529015133,-66.66543579101562,4761.76025390625,True
1599385350.867681,0.0,10,0.5,0.5,-1.2225183029174806,-0.05075,-0.001,-0.001,0.15001246720560393,10,1,100,0.41414942512226555,-10,-1,-100,19303.849368676427,-0.037098649098187615,0.014158122262362852,0.999211307886922,60.79514332929426,3.6797791451754205,253.2758333820622,-74.50129529015133,-66.66543579101562,4761.76025390625,True
1599385350.9019823,0.0,10,0.5,0.5,-0.9854444412231447,-0.05075,-0.001,-0.001,0.3014601896056776,10,1,100,0.19778768793825766,-10,-1,-100,19300.858371388982,-0.03514057130178104,0.015525895101200294,0.999261770923861,59.77076253566879,3.6170425049644734,250.2824935808298,-74.86614655818464,-71.19900512695312,4761.76025390625,True
1599385350.9338968,0.0,10,0.5,0.5,-0.7371269927978517,-0.05075,-0.001,-0.001,0.3009757621883459,10,1,100,0.1686498744578039,-10,-1,-100,19297.85277844174,-0.033106238522124805,0.01675465300169642,0.9993113921965009,58.47947468953206,3.5382434635280355,246.12387489155023,-75.23104951766396,-76.0286865234375,4761.76025390625,True
1599385350.9678059,0.0,10,0.5,0.5,-0.47366265716552736,-0.05075,-0.001,-0.001,0.3193949705525514,10,1,100,0.12201972011671802,-10,-1,-100,19294.832587628858,-0.030844678643563196,0.018028771002787103,0.9993615808182263,56.895544687339836,3.441971085083481,240.67389398364705,-75.5960135290313,-81.15194702148438,4761.76025390625,True
1599385351.0007331,0.0,10,0.5,0.5,-0.33720807342529296,-0.05075,-0.001,-0.001,0.2530744472894332,10,1,100,0.22306867730493618,-10,-1,-100,19293.317016971414,-0.029719802849664665,0.018574320650012372,0.9993856752680457,55.98692564294684,3.386911004587714,237.4293688895637,-75.77852071853587,-83.82449340820312,4761.76025390625,True
1599385351.0367396,0.0,10,0.5,0.5,-0.05036134948730468,-0.05075,-0.001,-0.001,0.31377245820939703,10,1,100,0.07784372016583097,-10,-1,-100,19290.2749243218,-0.027390445071387718,0.01961175342298144,0.9994324102441682,53.93066077787313,3.2626810717474357,229.86407645613303,-76.14358881514869,-89.35064697265625,4761.76025390625,True
1599385351.0678117,0.0,10,0.5,0.5,0.094654061126709,-0.05075,-0.001,-0.001,0.2635733038157124,10,1,100,0.17799690692319847,-10,-1,-100,19288.748401113902,-0.026197861247474363,0.020088473807385883,0.999454914083746,52.7866450506554,3.1937551513321454,225.55354089335975,-76.32615008101192,-92.18647766113281,4761.76025390625,True
1599385351.0998092,0.0,10,0.5,0.5,0.39445893096923834,-0.05075,-0.001,-0.001,0.31228891021884214,10,1,100,0.025780674199167464,-10,-1,-100,19285.684401606908,-0.023743652755846636,0.020956135617613652,0.9994984138725714,53.42449624884895,3.233385045692006,229.42387762033866,-76.69125317451487,-97.96588134765625,4761.76025390625,True
1599385351.132862,0.0,10,0.5,0.5,0.8468729778289795,-0.05075,-0.001,-0.001,0.3404773824883874,10,1,100,-0.13801140991799676,-10,-1,-100,19281.06102583115,-0.020039508834078838,0.02199179963027529,0.9995572914219129,55.92906152177843,3.3875293220076115,241.97631228589623,-77.23873807317655,-106.7399673461914,4761.76025390625,True
1599385351.1697314,0.0,10,0.5,0.5,1.144211450958252,-0.05075,-0.001,-0.001,0.29556752982646844,10,1,100,-0.04271466584087091,-10,-1,-100,19277.960529387346,-0.017556347380225303,0.022516024437982996,0.9995923185530053,57.402836478464884,3.4788883148083927,249.58082440982744,-77.60361252865309,-112.565673828125,4761.76025390625,True
1599385351.199691,0.0,10,0.5,0.5,1.1429757682800292,-0.05075,-0.001,-0.001,0.24398083927325978,10,1,100,0.20364724937268644,-10,-1,-100,19277.960529387346,-0.017556347380225303,0.022516024437982996,0.9995923185530053,57.402836478464884,3.4788883148083927,249.58082440982744,-77.60361252865309,-112.565673828125,4761.76025390625,True
1599385351.2326233,0.0,10,0.5,0.5,1.4405029621124268,-0.05075,-0.001,-0.001,0.29092929610542906,10,1,100,-0.05966825173167367,-10,-1,-100,19274.845440994482,-0.015180335826292904,0.02293523049811579,0.999621694745667,58.71189016876541,3.560395844793059,256.52742913032756,-77.96840026319201,-118.2262954711914,4761.76025390625,True
1599385351.2666838,0.0,10,0.5,0.5,1.71907885055542,-0.05075,-0.001,-0.001,0.28250270704943137,10,1,100,-0.0859987630218105,-10,-1,-100,19271.715763087384,-0.012799102706876286,0.023232985801912062,0.9996481437689099,59.72159486946172,3.6236786498894262,262.21452819424223,-78.33311307999567,-123.62791442871094,4761.76025390625,True
1599385351.3026211,0.0,10,0.5,0.5,1.8526352897644045,-0.05075,-0.001,-0.001,0.2628523123247327,10,1,100,0.017394168904652674,-10,-1,-100,19270.14545403002,-0.011592742102933798,0.0233191430962294,0.9996608554383795,60.09786829404202,3.647439753564307,264.50801041382425,-78.5154471904967,-126.22111511230469,4761.76025390625,True
1599385351.3346026,0.0,10,0.5,0.5,2.2342824768066407,-0.05075,-0.001,-0.001,0.2763668664235911,10,1,100,-0.23025395743765587,-10,-1,-100,19265.412649079924,-0.008262205802183849,0.0235155180627862,0.9996893299248126,60.76828428738911,3.69041920455337,269.4037134072746,-79.06238781523152,-133.5589599609375,4761.76025390625,True
1599385351.367609,0.0,10,0.5,0.5,2.2319180786132815,-0.05075,-0.001,-0.001,0.25722348950918855,10,1,100,0.10065391293259099,-10,-1,-100,19265.412649079924,-0.008262205802183849,0.0235155180627862,0.9996893299248126,60.76828428738911,3.69041920455337,269.4037134072746,-79.06238781523152,-133.5589599609375,4761.76025390625,True
1599385351.4007497,0.0,10,0.5,0.5,2.6892035263061524,-0.05075,-0.001,-0.001,0.26026350134953136,10,1,100,-0.35601015443891615,-10,-1,-100,19259.051198353758,-0.004128103589051242,0.023539605657116765,0.9997143820743329,60.81449104671163,3.6949764398696434,272.20427263522566,-79.79157121389747,-142.30996704101562,4761.76025390625,True
1599385351.4367387,0.0,10,0.5,0.5,2.789165437316895,-0.05075,-0.001,-0.001,0.2501371107815643,10,1,100,-0.05564203834355452,-10,-1,-100,19257.451721084886,-0.0031205115031234533,0.02346630798148146,0.999719758131086,60.712799818297654,3.6890248228637486,272.39732413857837,-79.97386518121736,-144.3138427734375,4761.76025390625,True
1599385351.4686575,0.0,10,0.5,0.5,2.9876473976135256,-0.05075,-0.001,-0.001,0.24910516488868792,10,1,100,-0.16094435528805348,-10,-1,-100,19254.241828421596,-0.001265973217559767,0.02338801042972879,0.9997256615091719,60.40515944223489,3.670581097791249,272.3076069309497,-80.33845901359598,-148.09840393066406,4761.76025390625,True
1599385351.5021062,0.0,10,0.5,0.5,2.9879986801147465,-0.05075,-0.001,-0.001,0.2570745411439002,10,1,100,0.022632119706663248,-10,-1,-100,19254.241828421596,-0.001265973217559767,0.02338801042972879,0.9997256615091719,60.40515944223489,3.670581097791249,272.3076069309497,-80.33845901359598,-148.09840393066406,4761.76025390625,True
1599385351.5359468,0.0,10,0.5,0.5,3.256684632110596,-0.05075,-0.001,-0.001,0.23302629437078948,10,1,100,-0.2670033615620393,-10,-1,-100,19249.399644191144,0.0013522671810987422,0.023168597289980743,0.9997306574638419,59.759523185377475,3.6313351971495793,271.3142098267878,-80.88537570423078,-153.22174072265625,4761.76025390625,True
1599385351.5709393,0.0,10,0.5,0.5,3.4132616218566896,-0.05075,-0.001,-0.001,0.23548586338282002,10,1,100,-0.18397625623837568,-10,-1,-100,19246.15329002682,0.0029605042091537864,0.022990897269544616,0.9997312909265015,59.25513309104909,3.600514693824779,270.2929767183663,-81.25000929882073,-156.267822265625,4761.76025390625,True
1599385351.603818,0.0,10,0.5,0.5,3.4140196929931643,-0.05075,-0.001,-0.001,0.25326143210357566,10,1,100,-0.024966637436415917,-10,-1,-100,19246.15329002682,0.0029605042091537864,0.022990897269544616,0.9997312909265015,59.25513309104909,3.600514693824779,270.2929767183663,-81.25000929882073,-156.267822265625,4761.76025390625,True
1599385351.6358263,0.0,10,0.5,0.5,3.624937507629395,-0.05075,-0.001,-0.001,0.23543374514030635,10,1,100,-0.2656680725619486,-10,-1,-100,19241.256409759284,0.005134372158553147,0.02282904746854432,0.9997261989235936,58.460708548798536,3.551883067674638,268.54896311842975,-81.79699619834575,-160.28045654296875,4761.76025390625,True
1599385351.6677084,0.0,10,0.5,0.5,3.6243308074951175,-0.05075,-0.001,-0.001,0.2515697156775675,10,1,100,-0.04995398904816123,-10,-1,-100,19241.256409759284,0.005134372158553147,0.02282904746854432,0.9997261989235936,58.460708548798536,3.551883067674638,268.54896311842975,-81.79699619834575,-160.28045654296875,4761.76025390625,True
1599385351.7037902,0.0,10,0.5,0.5,3.850268009948731,-0.05075,-0.001,-0.001,0.23185739618728635,10,1,100,-0.32808354692351793,-10,-1,-100,19234.676180957,0.00765064397745572,0.022650468628263802,0.9997141711097478,57.46180244521549,3.4907233878097235,266.42755731881545,-82.52637494084071,-164.59475708007812,4761.76025390625,True
1599385351.7335827,0.0,10,0.5,0.5,3.8953224334716796,-0.05075,-0.001,-0.001,0.24303296579698067,10,1,100,-0.1403328748703822,-10,-1,-100,19233.02200630703,0.008216873294357153,0.022590506723946482,0.9997110342490074,57.23929558365078,3.477110636251953,266.0109040226566,-82.70872886845179,-165.48876953125,4761.76025390625,True
1599385351.768337,0.0,10,0.5,0.5,3.939176942443848,-0.05075,-0.001,-0.001,0.24369537154546456,10,1,100,-0.1439236824866804,-10,-1,-100,19231.364184419974,0.008753048218158067,0.022542880589492564,0.9997075585798171,57.031100792212946,3.4643799814846328,265.6563573676323,-82.89108576543735,-166.30868530273438,4761.76025390625,True
1599385351.8012054,0.0,10,0.5,0.5,3.9790973739624027,-0.05075,-0.001,-0.001,0.2515939939677356,10,1,100,-0.14620663141261447,-10,-1,-100,19229.702715540654,0.00925043990301168,0.02257222924145691,0.9997024176367045,56.838171726825166,3.4525899135805282,265.36882102605034,-83.07344520296245,-167.05343627929688,4761.76025390625,True
1599385351.8373394,0.0,10,0.5,0.5,4.045886355590821,-0.05075,-0.001,-0.001,0.2515832731100071,10,1,100,-0.19922680386779862,-10,-1,-100,19226.368835816276,0.010175055354179756,0.02259955399107085,0.9996928170232814,56.50908415035184,3.4324980545899266,265.04816981451927,-83.43816955433273,-168.32180786132812,4761.76025390625,True
1599385351.8672595,0.0,10,0.5,0.5,4.07372505645752,-0.05075,-0.001,-0.001,0.2501971964030673,10,1,100,-0.15444916110610937,-10,-1,-100,19224.696425038623,0.010598144440524704,0.022612510753782848,0.9996881282139083,56.37517673190645,3.4243324422423673,265.0268403891816,-83.62053355829818,-168.84518432617188,4761.76025390625,True
1599385351.9013603,0.0,10,0.5,0.5,4.117422872161866,-0.05075,-0.001,-0.001,0.2575556033672399,10,1,100,-0.19663216832526637,-10,-1,-100,19221.340661651804,0.011357847423503879,0.022691689770955505,0.9996779914138567,56.17103035268747,3.4119032756264365,265.276740785765,-83.98526253988774,-169.6695098876953,4761.76025390625,True
1599385351.9353151,0.0,10,0.5,0.5,4.145257971191406,-0.05075,-0.001,-0.001,0.2654537215345844,10,1,100,-0.19259949248585817,-10,-1,-100,19217.9703092071,0.012004191861113645,0.022835743776723406,0.9996671587002972,56.05735096248035,3.4050075091757583,265.9476949926796,-84.34998947553605,-170.19741821289062,4761.76025390625,True
1599385351.9704928,0.0,10,0.5,0.5,4.158400381469727,-0.05075,-0.001,-0.001,0.2814321822463933,10,1,100,-0.2132369567028028,-10,-1,-100,19212.887426441535,0.012771169490320238,0.02311210174615869,0.999651303196632,56.065738657343694,3.405577638967959,267.8006183909219,-84.89706659230278,-170.43466186523438,4761.76025390625,True
1599385352.0013201,0.0,10,0.5,0.5,4.15917855834961,-0.05075,-0.001,-0.001,0.2538246907306264,10,1,100,-0.1373028735153202,-10,-1,-100,19212.887426441535,0.012771169490320238,0.02311210174615869,0.999651303196632,56.065738657343694,3.405577638967959,267.8006183909219,-84.89706659230278,-170.43466186523438,4761.76025390625,True
1599385352.033906,0.0,10,0.5,0.5,4.1492266365051265,-0.05075,-0.001,-0.001,0.2816960472621424,10,1,100,-0.178210422855684,-10,-1,-100,19209.48060244799,0.013136113759476485,0.02336522039255646,0.9996406899437945,56.19221737219097,3.413313682390903,269.61692632364736,-85.26176940683807,-170.2227325439453,4761.76025390625,True
1599385352.0673344,0.0,10,0.5,0.5,4.138773439025879,-0.05075,-0.001,-0.001,0.27281020420331586,10,1,100,-0.15719077825262107,-10,-1,-100,19207.77172009973,0.013271806807970663,0.023513898087143013,0.9996354114079791,56.29178922338316,3.419387946094996,270.70203924131386,-85.44411465154096,-170.00576782226562,4761.76025390625,True
1599385352.1042035,0.0,10,0.5,0.5,4.056279341888428,-0.05075,-0.001,-0.001,0.3343933508356903,10,1,100,-0.17235069475724724,-10,-1,-100,19200.89972346986,0.013528386153449597,0.02420806696854947,0.9996154021731205,56.92352691842733,3.45783037990529,276.1978827105205,-86.17344146979397,-168.3987579345703,4761.76025390625,True
1599385352.1342056,0.0,10,0.5,0.5,4.0580953590393065,-0.05075,-0.001,-0.001,0.2651429813329503,10,1,100,-0.14717029400288303,-10,-1,-100,19200.89972346986,0.013528386153449597,0.02420806696854947,0.9996154021731205,56.92352691842733,3.45783037990529,276.1978827105205,-86.17344146979397,-168.3987579345703,4761.76025390625,True
1599385352.1671164,0.0,10,0.5,0.5,3.993709005737305,-0.05075,-0.001,-0.001,0.310119814730033,10,1,100,-0.14206702184659303,-10,-1,-100,19197.44184664043,0.013478103728164744,0.024615460146952865,0.9996061323549625,57.368456212656774,3.484857151626133,279.5958929821209,-86.5380650387741,-167.1519775390625,4761.76025390625,True
1599385352.2010221,0.0,10,0.5,0.5,3.8694056976318363,-0.05075,-0.001,-0.001,0.34410273180573325,10,1,100,-0.11072482727871881,-10,-1,-100,19192.22768718074,0.013144460619676035,0.025292920549684243,0.9995936631077076,58.17407141394428,3.533744329593996,285.407709493724,-87.0849391299385,-164.7281494140625,4761.76025390625,True
1599385352.235976,0.0,10,0.5,0.5,3.871417822265625,-0.05075,-0.001,-0.001,0.2766247325121856,10,1,100,-0.14434376974550486,-10,-1,-100,19192.22768718074,0.013144460619676035,0.025292920549684243,0.9995936631077076,58.17407141394428,3.533744329593996,285.407709493724,-87.0849391299385,-164.7281494140625,4761.76025390625,True
1599385352.2679248,0.0,10,0.5,0.5,3.8214810211181645,-0.05075,-0.001,-0.001,0.30278600773517483,10,1,100,-0.12522057776157614,-10,-1,-100,19190.48234283412,0.012968989226007435,0.0255283855691853,0.9995899693617812,58.4741969826457,3.551948111512148,287.5120349540313,-87.26721238372915,-163.77273559570312,4761.76025390625,True
1599385352.3018758,0.0,10,0.5,0.5,3.711472246551514,-0.05075,-0.001,-0.001,0.33220664270940703,10,1,100,-0.09244229780717551,-10,-1,-100,19186.980718430597,0.012510608325482436,0.026007457139595225,0.9995834616741408,59.11088556152643,3.590562605040206,291.92024630350613,-87.63172918467214,-161.6409149169922,4761.76025390625,True
1599385352.3337877,0.0,10,0.5,0.5,3.518644030761719,-0.05075,-0.001,-0.001,0.3677026299499593,10,1,100,-0.037935204525325866,-10,-1,-100,19181.700946278754,0.011598616259865474,0.026763035400887963,0.9995745154999637,60.12615152065914,3.652170142258378,298.88385538409955,-88.17842591198452,-157.89056396484375,4761.76025390625,True
1599385352.3696947,0.0,10,0.5,0.5,3.5211399719238283,-0.05075,-0.001,-0.001,0.29250989718615844,10,1,100,-0.1290171557639766,-10,-1,-100,19181.700946278754,0.011598616259865474,0.026763035400887963,0.9995745154999637,60.12615152065914,3.652170142258378,298.88385538409955,-88.17842591198452,-157.89056396484375,4761.76025390625,True
1599385352.4006124,0.0,10,0.5,0.5,3.3714997955322263,-0.05075,-0.001,-0.001,0.346498565222549,10,1,100,-0.04287345924958541,-10,-1,-100,19178.162876592018,0.010816889471097928,0.02725075255121121,0.99957010328819,60.81408568048359,3.6939829159282116,303.6183104087783,-88.5428357961012,-155.02279663085938,4761.76025390625,True
1599385352.4347064,0.0,10,0.5,0.5,3.209279063415527,-0.05075,-0.001,-0.001,0.34658336081158325,10,1,100,-0.02001058596859545,-10,-1,-100,19174.610231804894,0.009900616194515589,0.02769150550734714,0.999567485626511,61.48427295653139,3.7348256244186127,308.29358154772586,-88.90720184585031,-151.86163330078125,4761.76025390625,True
1599385352.467889,0.0,10,0.5,0.5,3.1232704544067387,-0.05075,-0.001,-0.001,0.3289319462556311,10,1,100,-0.05606502462312759,-10,-1,-100,19172.828444348765,0.009398706085353694,0.02792855584556315,0.9995657357534333,61.80459559816738,3.7544075870012765,310.56789038770273,-89.0893689776325,-150.17050170898438,4761.76025390625,True
1599385352.5039217,0.0,10,0.5,0.5,2.936752373504639,-0.05075,-0.001,-0.001,0.35078724688273144,10,1,100,0.015934563100833923,-10,-1,-100,19169.253940306953,0.008291636715959682,0.028339358441572243,0.9995639697006342,62.39853258348897,3.790888300079066,314.9016761730367,-89.45367296096161,-146.56883239746094,4761.76025390625,True
1599385352.5348415,0.0,10,0.5,0.5,2.5200687728881834,-0.05075,-0.001,-0.001,0.3793350172679881,10,1,100,0.18915888270778417,-10,-1,-100,19162.06121995533,0.0057151584446403095,0.02896895517026955,0.9995639732404803,63.28525886001139,3.846392237870729,322.11459826712957,-90.18218056308962,-138.48715209960938,4761.76025390625,True
1599385352.5683355,0.0,10,0.5,0.5,2.411517793273926,-0.05075,-0.001,-0.001,0.32767963933033534,10,1,100,0.010362254333701047,-10,-1,-100,19160.253933872562,0.005005083276091668,0.029068379638178817,0.9995648945649351,63.41900225546849,3.8551390403211028,323.481704004159,-90.36429244438547,-136.28408813476562,4761.76025390625,True
1599385352.601953,0.0,10,0.5,0.5,2.4108764511108403,-0.05075,-0.001,-0.001,0.318114738448258,10,1,100,-0.05983132478680465,-10,-1,-100,19160.253933872562,0.005005083276091668,0.029068379638178817,0.9995648945649351,63.41900225546849,3.8551390403211028,323.481704004159,-90.36429244438547,-136.28408813476562,4761.76025390625,True
1599385352.636923,0.0,10,0.5,0.5,2.1687941017150885,-0.05075,-0.001,-0.001,0.33009841678881385,10,1,100,0.10312873411401247,-10,-1,-100,19156.628435461666,0.0035308681096750723,0.02917410399212115,0.9995681090484275,63.54747555436125,3.864468421672238,325.5133884968036,-90.72850784262624,-131.65928649902344,4761.76025390625,True
1599385352.6678407,0.0,10,0.5,0.5,2.0450697578430175,-0.05075,-0.001,-0.001,0.3240625642074949,10,1,100,0.04270368063396971,-10,-1,-100,19154.810223213746,0.0027481545720383807,0.0292124668841908,0.9995694470245619,63.53155627448633,3.864402138311029,326.12041767872563,-90.91061485049562,-129.23704528808594,4761.76025390625,True
1599385352.7028377,0.0,10,0.5,0.5,1.7826091072082522,-0.05075,-0.001,-0.001,0.31933540302302976,10,1,100,0.14512516083855792,-10,-1,-100,19151.16287167021,0.0011135383193158837,0.029202141292137797,0.9995729062836616,63.31569014976524,3.853337742538763,326.3862382992529,-91.27483731693837,-124.17390441894531,4761.76025390625,True
1599385352.7347515,0.0,10,0.5,0.5,1.3630362674713135,-0.05075,-0.001,-0.001,0.28836396801218434,10,1,100,0.25899540240606195,-10,-1,-100,19145.664525938104,-0.0013981285810995597,0.02890897852118079,0.9995810703476394,62.45681449024564,3.8046559687835058,323.99624981701,-91.82122490652857,-116.03353118896484,4761.76025390625,True
1599385352.7702901,0.0,10,0.5,0.5,1.3672777141571044,-0.05075,-0.001,-0.001,0.31784606770488194,10,1,100,0.009050214169737357,-10,-1,-100,19145.664525938104,-0.0013981285810995597,0.02890897852118079,0.9995810703476394,62.45681449024564,3.8046559687835058,323.99624981701,-91.82122490652857,-116.03353118896484,4761.76025390625,True
1599385352.801945,0.0,10,0.5,0.5,0.9085205837249757,-0.05075,-0.001,-0.001,0.2541533350920391,10,1,100,0.29188919294964316,-10,-1,-100,19140.133392776246,-0.003959120438393598,0.028328846885596917,0.999590817184455,61.009634324394426,3.720233206939897,318.4857517484031,-92.36772826148065,-107.2378921508789,4761.76025390625,True
1599385352.8339639,0.0,10,0.5,0.5,0.5907426826477051,-0.05075,-0.001,-0.001,0.2520137215254213,10,1,100,0.2276304287267826,-10,-1,-100,19136.427750979783,-0.005690980791613313,0.027781639556242292,0.9995978157445106,59.69573945884666,3.642355749572943,312.9332089094723,-92.73214891645442,-101.01025390625,4761.76025390625,True
1599385352.8682406,0.0,10,0.5,0.5,0.5924144630432129,-0.05075,-0.001,-0.001,0.3066786825723507,10,1,100,0.05584265515556844,-10,-1,-100,19136.427750979783,-0.005690980791613313,0.027781639556242292,0.9995978157445106,59.69573945884666,3.642355749572943,312.9332089094723,-92.73214891645442,-101.01025390625,4761.76025390625,True
1599385352.904255,0.0,10,0.5,0.5,-0.09704599533081056,-0.05075,-0.001,-0.001,0.1440464354823413,10,1,100,0.4193003662854852,-10,-1,-100,19128.97272781073,-0.00898477258439778,0.026304243960527687,0.9996136056553411,58.48255290646994,3.5712223599905326,309.1401567683824,-93.46118165460912,-87.759765625,4761.76025390625,True
1599385352.9341748,0.0,10,0.5,0.5,-0.44645383224487306,-0.05075,-0.001,-0.001,0.18787708870044353,10,1,100,0.2702389587284021,-10,-1,-100,19125.223347617197,-0.010611307003809732,0.025362130389749566,0.999622009814592,61.246240878329424,3.7404891288365514,325.09464664650517,-93.82559012006888,-80.84564208984375,4761.76025390625,True
1599385352.96921,0.0,10,0.5,0.5,-0.445083553314209,-0.05075,-0.001,-0.001,0.2817178208534127,10,1,100,0.10914715581519707,-10,-1,-100,19125.223347617197,-0.010611307003809732,0.025362130389749566,0.999622009814592,61.246240878329424,3.7404891288365514,325.09464664650517,-93.82559012006888,-80.84564208984375,4761.76025390625,True
1599385353.0021832,0.0,10,0.5,0.5,-0.6308729866027832,-0.05075,-0.001,-0.001,0.23074649183710622,10,1,100,0.18773831983567668,-10,-1,-100,19123.343192567816,-0.011312915608438197,0.024902220101967118,0.9996258787038427,62.520867611578375,3.818400648309581,332.54701802016024,-94.00774403014692,-77.35369873046875,4761.76025390625,True
1599385353.0372431,0.0,10,0.5,0.5,-0.9929242362976074,-0.05075,-0.001,-0.001,0.16597693040796307,10,1,100,0.2730076309037393,-10,-1,-100,19119.571955977124,-0.012713134376736938,0.023899224051701976,0.9996335345035428,64.78339882886279,3.9565037614255383,346.0036025172389,-94.37195564243873,-70.39031982421875,4761.76025390625,True
1599385353.0691004,0.0,10,0.5,0.5,-1.5204311653137208,-0.05075,-0.001,-0.001,0.07711923580393054,10,1,100,0.3511490522932358,-10,-1,-100,19113.887793096364,-0.014683867385371167,0.022184433070733766,0.9996460548453833,67.35470474091797,4.113450073248471,361.95228783621343,-94.9180622759738,-60.16632080078125,4761.76025390625,True
1599385353.1021435,0.0,10,0.5,0.5,-1.854787341308594,-0.05075,-0.001,-0.001,0.1230932163821152,10,1,100,0.2811463382818655,-10,-1,-100,19110.08015153813,-0.015826976594204126,0.02104959068006475,0.9996531506197979,68.497724847077,4.183617892604295,369.5955860711538,-95.2820257949339,-53.61572265625,4761.76025390625,True
1599385353.1362343,0.0,10,0.5,0.5,-1.8544785240173343,-0.05075,-0.001,-0.001,0.23579151666490508,10,1,100,0.16827830219988005,-10,-1,-100,19110.08015153813,-0.015826976594204126,0.02104959068006475,0.9996531506197979,68.497724847077,4.183617892604295,369.5955860711538,-95.2820257949339,-53.61572265625,4761.76025390625,True
1599385353.1731331,0.0,10,0.5,0.5,-2.184025242614746,-0.05075,-0.001,-0.001,0.11229670437817875,10,1,100,0.28413917869098604,-10,-1,-100,19106.25795299525,-0.01686946832943617,0.01993352807400863,0.9996589796009461,69.19687152849815,4.227233314034638,374.88428158145337,-95.64593489712108,-47.351287841796875,4761.76025390625,True
1599385353.2020552,0.0,10,0.5,0.5,-2.339471148681641,-0.05075,-0.001,-0.001,0.16004058876999333,10,1,100,0.23438479017343644,-10,-1,-100,19104.341395293595,-0.017354713204453195,0.019360095664321595,0.9996619431715201,69.39236106724042,4.239862642070324,376.7040067413413,-95.82787759440113,-44.33013916015625,4761.76025390625,True
1599385353.236014,0.0,10,0.5,0.5,-2.643243377685547,-0.05075,-0.001,-0.001,0.0865739370268471,10,1,100,0.28371304691605714,-10,-1,-100,19100.49736377725,-0.018233680213571732,0.01817857077047925,0.999668481282976,69.50531275803988,4.248589062499519,378.8422491706122,-96.19175525484961,-38.51129150390625,4761.76025390625,True
1599385353.2691278,0.0,10,0.5,0.5,-2.9281651580810553,-0.05075,-0.001,-0.001,0.08685436936899478,10,1,100,0.283218118137721,-10,-1,-100,19096.638776865904,-0.019019833680577188,0.017114393591178508,0.9996726181399437,69.29048748601697,4.237800690989737,379.19419540408484,-96.55564169485703,-32.98828125,4761.76025390625,True
1599385353.3060293,0.0,10,0.5,0.5,-3.327312237548828,-0.05075,-0.001,-0.001,0.021418982596223657,10,1,100,0.3172344224673142,-10,-1,-100,19090.823602844728,-0.02003611366569048,0.015559590581878613,0.9996781748593394,68.46685717053971,4.19156772968392,376.94997609696566,-97.10152759095268,-25.26104736328125,4761.76025390625,True
1599385353.3360088,0.0,10,0.5,0.5,-3.572555778503418,-0.05075,-0.001,-0.001,0.07146958127312893,10,1,100,0.28085005515754624,-10,-1,-100,19086.928622134845,-0.020620669579648417,0.014610050143039548,0.9996806162074489,67.65667974247587,4.144892101340635,373.9847441100854,-97.46550827989407,-20.480133056640625,4761.76025390625,True
1599385353.3689845,0.0,10,0.5,0.5,-3.5734622207641604,-0.05075,-0.001,-0.001,0.16539440816114262,10,1,100,0.22332523915887353,-10,-1,-100,19086.928622134845,-0.020620669579648417,0.014610050143039548,0.9996806162074489,67.65667974247587,4.144892101340635,373.9847441100854,-97.46550827989407,-20.480133056640625,4761.76025390625,True
1599385353.401969,0.0,10,0.5,0.5,-3.69642106628418,-0.05075,-0.001,-0.001,0.11685598929175764,10,1,100,0.2548866798960696,-10,-1,-100,19084.97567165445,-0.0209004030998021,0.014177236493234832,0.9996810386896816,67.19100184395407,4.117808736615666,372.15442696198664,-97.64751887603106,-18.2005615234375,4761.76025390625,True
1599385353.437911,0.0,10,0.5,0.5,-3.9227717941284186,-0.05075,-0.001,-0.001,0.06983404730145694,10,1,100,0.2837796860342743,-10,-1,-100,19081.05884909944,-0.021411718596003278,0.013363576608570992,0.9996814258187418,66.30443544886155,4.066219802393312,368.7144133867816,-98.01157940460118,-13.863677978515625,4761.76025390625,True
1599385353.4689255,0.0,10,0.5,0.5,-4.028869694519043,-0.05075,-0.001,-0.001,0.10717620874616096,10,1,100,0.25721007519252936,-10,-1,-100,19079.094976424705,-0.021629931910350488,0.012970347284802532,0.999681907477006,65.84040819804082,4.039038226029894,366.8652273031723,-98.19362903395555,-11.806488037109375,4761.76025390625,True
1599385353.5029218,0.0,10,0.5,0.5,-4.3274362152099615,-0.05075,-0.001,-0.001,0.03527255720517966,10,1,100,0.30501840848806416,-10,-1,-100,19073.1815101034,-0.022257653448519953,0.011966541288636159,0.9996806483835491,64.53917422911884,3.9624666328770184,361.76898046340773,-98.73984892365033,-6.078125,4761.76025390625,True
1599385353.5352683,0.0,10,0.5,0.5,-4.504327500915529,-0.05075,-0.001,-0.001,0.07322583433194182,10,1,100,0.28365776996298814,-10,-1,-100,19069.220990011585,-0.02262922341924688,0.011406262890351269,0.9996788561404698,63.6572934963516,3.90996690914306,358.24488287694817,-99.10404919419922,-2.628997802734375,4761.76025390625,True
1599385353.5712705,0.0,10,0.5,0.5,-4.588556323242188,-0.05075,-0.001,-0.001,0.10114096853038726,10,1,100,0.2657253280330334,-10,-1,-100,19067.235266678617,-0.022799197093076505,0.0111579235962363,0.9996777967690048,63.20977646978484,3.8831321793522777,356.4316239908007,-99.2861645770333,-1.01531982421875,4761.76025390625,True
1599385353.6023226,0.0,10,0.5,0.5,-4.670384526062012,-0.05075,-0.001,-0.001,0.10191543289471576,10,1,100,0.2691418914319452,-10,-1,-100,19065.245900754468,-0.022980627812112176,0.010945583593238627,0.9996759899813363,62.76245011101936,3.856187739721087,354.60979655202016,-99.46828955959676,0.524627685546875,4761.76025390625,True
1599385353.6362326,0.0,10,0.5,0.5,-4.8201021957397465,-0.05075,-0.001,-0.001,0.08239382702390394,10,1,100,0.2876452618423553,-10,-1,-100,19061.256241839495,-0.023310176565756027,0.010580686091686034,0.9996722886777958,63.32018390985473,3.891202975127777,359.175465075669,-99.83252501747765,3.382720947265625,4761.76025390625,True
1599385353.669144,0.0,10,0.5,0.5,-4.888328839111328,-0.05075,-0.001,-0.001,0.102078245539931,10,1,100,0.27200306292117704,-10,-1,-100,19059.255949424347,-0.023464588112603303,0.010432436626320462,0.9996702343126675,63.980452116068655,3.9320051991382563,363.6356896631305,-100.01461551560055,4.70098876953125,4761.76025390625,True
1599385353.7061572,0.0,10,0.5,0.5,-5.014510113525391,-0.05075,-0.001,-0.001,0.09263949245030281,10,1,100,0.2904257481636394,-10,-1,-100,19055.24444047024,-0.02376985582236598,0.01021565536927943,0.9996652611447294,65.1783337750263,4.005828761813869,371.90108775473897,-100.37874513300038,7.1160888671875,4761.76025390625,True
1599385353.736077,0.0,10,0.5,0.5,-5.124565962219239,-0.05075,-0.001,-0.001,0.10194183107783034,10,1,100,0.2940311226774087,-10,-1,-100,19051.2183682014,-0.0240772851575093,0.010107143118377616,0.9996590068605539,66.22552697555193,4.070114464635881,379.3574660684077,-100.7428111815531,9.236114501953125,4761.76025390625,True
1599385353.770066,0.0,10,0.5,0.5,-5.219626089477539,-0.05075,-0.001,-0.001,0.11099578256648834,10,1,100,0.29570270826918427,-10,-1,-100,19047.177735217032,-0.024369074529330546,0.010094504352340909,0.9996520640645246,67.1374918681778,4.1258681178754095,386.083571488326,-101.10681912050954,11.06097412109375,4761.76025390625,True
1599385353.8020098,0.0,10,0.5,0.5,-5.261790979003908,-0.05075,-0.001,-0.001,0.11601061841964842,10,1,100,0.2832217136940013,-10,-1,-100,19045.151959207025,-0.024518185502181534,0.010131575865751022,0.9996480429381919,67.54674630003358,4.150806564965004,389.192887971118,-101.28880307456306,11.86285400390625,4761.76025390625,True
1599385353.8389137,0.0,10,0.5,0.5,-5.334908683776856,-0.05075,-0.001,-0.001,0.12886262117177427,10,1,100,0.30120447923624094,-10,-1,-100,19041.089488693746,-0.02481459493371022,0.010284694331524133,0.9996391653695763,68.28046826525365,4.1953691590142235,394.94900174844673,-101.65273441221579,13.245513916015625,4761.76025390625,True
1599385353.8698308,0.0,10,0.5,0.5,-5.3655137542724605,-0.05075,-0.001,-0.001,0.12636083219962368,10,1,100,0.28791450341358366,-10,-1,-100,19039.05279507325,-0.02496091559899833,0.01040267835244115,0.9996343016201252,68.60782094984262,4.215181232010169,397.61064470215297,-101.83468312649205,13.8262939453125,4761.76025390625,True
1599385353.9066982,0.0,10,0.5,0.5,-5.415255215454102,-0.05075,-0.001,-0.001,0.14919745923728203,10,1,100,0.3058565237425124,-10,-1,-100,19034.96849141596,-0.02525492394117801,0.010718454603197067,0.9996235809281635,69.18972497534928,4.250272404961281,402.53291181855207,-102.1985499939255,14.76690673828125,4761.76025390625,True
1599385353.9366512,0.0,10,0.5,0.5,-5.4675370132446295,-0.05075,-0.001,-0.001,0.2249096142441711,10,1,100,0.3408403249605917,-10,-1,-100,19026.756224578945,-0.02583800632982562,0.011694215757576929,0.9995977404669918,70.08925371579443,4.304086070637238,410.9089025989552,-102.92617901400713,15.764862060546875,4761.76025390625,True
1599385353.971836,0.0,10,0.5,0.5,-5.468063081359864,-0.05075,-0.001,-0.001,0.12740836202261877,10,1,100,0.2828178239476021,-10,-1,-100,19026.756224578945,-0.02583800632982562,0.011694215757576929,0.9995977404669918,70.08925371579443,4.304086070637238,410.9089025989552,-102.92617901400713,15.764862060546875,4761.76025390625,True
1599385354.0027206,0.0,10,0.5,0.5,-5.472695178222656,-0.05075,-0.001,-0.001,0.16263552670051917,10,1,100,0.2985699188838595,-10,-1,-100,19024.69406314101,-0.02597890916582426,0.012013450409497941,0.9995903027179748,70.26334270197766,4.314410422239231,412.71780385432737,-103.10806808150264,15.8304443359375,4761.76025390625,True
1599385354.036307,0.0,10,0.5,0.5,-5.4691239234924325,-0.05075,-0.001,-0.001,0.21187044058090554,10,1,100,0.31387174192185596,-10,-1,-100,19020.55882725399,-0.026243824388847335,0.01274981657035403,0.9995742613027156,70.55375067382998,4.331519459765791,416.0076151237093,-103.47182848037363,15.741195678710938,4761.76025390625,True
1599385354.0698297,0.0,10,0.5,0.5,-5.43460258026123,-0.05075,-0.001,-0.001,0.2812514625569501,10,1,100,0.3319890695920063,-10,-1,-100,19014.328692877316,-0.02664711032626379,0.014047673133458994,0.9995461942255572,70.8457009655826,4.348420444650067,420.117481930971,-104.0174338200266,15.05572509765625,4761.76025390625,True
1599385354.1058052,0.0,10,0.5,0.5,-5.393229325866699,-0.05075,-0.001,-0.001,0.26586171404217185,10,1,100,0.31616132033249467,-10,-1,-100,19010.15708366211,-0.0268675090714025,0.015084053631588176,0.9995251914195747,70.94305870859576,4.353785829034869,422.29127952094365,-104.38115408961913,14.23175048828125,4761.76025390625,True
1599385354.1377532,0.0,10,0.5,0.5,-5.336543290710449,-0.05075,-0.001,-0.001,0.29150191828871486,10,1,100,0.3131055607948944,-10,-1,-100,19005.970925938687,-0.027037820630693987,0.016254774532783962,0.9995022454003946,70.9569460323804,4.3541118888471955,423.97249523214896,-104.74486695244147,13.11431884765625,4761.76025390625,True
1599385354.177614,0.0,10,0.5,0.5,-5.337785868835449,-0.05075,-0.001,-0.001,0.17504214803583953,10,1,100,0.2963263683785968,-10,-1,-100,19005.970925938687,-0.027037820630693987,0.016254774532783962,0.9995022454003946,70.9569460323804,4.3541118888471955,423.97249523214896,-104.74486695244147,13.11431884765625,4761.76025390625,True
1599385354.2065353,0.0,10,0.5,0.5,-5.222557615661621,-0.05075,-0.001,-0.001,0.39437809764604703,10,1,100,0.3151833573698421,-10,-1,-100,18999.664410949335,-0.027207226689071686,0.018243310365421067,0.9994633302141707,70.80469726795877,4.3442040657030825,425.45909801161645,-105.29043376220142,10.887939453125,4761.76025390625,True
1599385354.2364724,0.0,10,0.5,0.5,-5.224490159606934,-0.05075,-0.001,-0.001,0.19630857758363457,10,1,100,0.2984673826410795,-10,-1,-100,18999.664410949335,-0.027207226689071686,0.018243310365421067,0.9994633302141707,70.80469726795877,4.3442040657030825,425.45909801161645,-105.29043376220142,10.887939453125,4761.76025390625,True
1599385354.2713308,0.0,10,0.5,0.5,-5.128317068481445,-0.05075,-0.001,-0.001,0.3593826084518445,10,1,100,0.3071170529531443,-10,-1,-100,18995.44188185851,-0.0272840852348651,0.01971896077716641,0.9994332100139385,70.57583971877233,4.329989489422876,425.6788509194153,-105.65415146353713,9.037017822265625,4761.76025390625,True
1599385354.305241,0.0,10,0.5,0.5,-5.075924290466308,-0.05075,-0.001,-0.001,0.3003829314487054,10,1,100,0.2954880479573515,-10,-1,-100,18993.325161402812,-0.027246923795710958,0.020516805228706737,0.9994181636566738,70.42046272371095,4.320448384773136,425.5382078180204,-105.8360145909146,8.0018310546875,4761.76025390625,True
1599385354.3401465,0.0,10,0.5,0.5,-4.89270346069336,-0.05075,-0.001,-0.001,0.5023993492419562,10,1,100,0.2825134435957867,-10,-1,-100,18986.953175752307,-0.0270939088864058,0.023070610719617378,0.9993666329342196,69.76527207782104,4.280621172218249,423.9495401364926,-106.38162980536045,4.456329345703125,4761.76025390625,True
1599385354.371064,0.0,10,0.5,0.5,-4.82637318572998,-0.05075,-0.001,-0.001,0.34849656021244657,10,1,100,0.2857452204104681,-10,-1,-100,18984.821905509918,-0.026983170576515867,0.023983083847167765,0.9993481476416607,69.47885441631841,4.263329037433594,422.9970199340335,-106.56351292128022,3.1280517578125,4761.76025390625,True
1599385354.4030085,0.0,10,0.5,0.5,-4.753909921264648,-0.05075,-0.001,-0.001,0.36145904423309355,10,1,100,0.28372058472005657,-10,-1,-100,18982.686997347046,-0.026863421473805216,0.024920233574876896,0.9993284437787678,69.15522610721884,4.243845549833353,421.81153538596936,-106.74540303462378,1.72650146484375,4761.76025390625,True
1599385354.4379132,0.0,10,0.5,0.5,-4.597551982116699,-0.05075,-0.001,-0.001,0.48385194495364725,10,1,100,0.2548827082307026,-10,-1,-100,18978.406267037266,-0.026492199493121822,0.02687496646076167,0.9992876960834401,68.39020102856338,4.197960033596176,418.6989057192273,-107.10920760744418,-1.296234130859375,4761.76025390625,True
1599385354.620399,0.0,10,0.5,0.5,-4.515125579833985,-0.05075,-0.001,-0.001,0.40124405825142384,10,1,100,0.26820622857234366,-10,-1,-100,18976.26044433657,-0.026276189067950276,0.027890296557155636,0.99926557693439,67.94372590321206,4.171262317048709,416.7378470357458,-107.29112383376115,-2.91741943359375,4761.76025390625,True
1599385354.6443355,0.0,10,0.5,0.5,-4.427460127258302,-0.05075,-0.001,-0.001,0.4152949500618369,10,1,100,0.2624610980411346,-10,-1,-100,18974.110983262537,-0.0260282798871131,0.02893048155031357,0.9992424910317741,67.4522458962198,4.141925735644124,414.49041581318346,-107.4730504041755,-4.611785888671875,4761.76025390625,True
1599385354.6692672,0.0,10,0.5,0.5,-4.335908135986328,-0.05075,-0.001,-0.001,0.429348953777767,10,1,100,0.2552079810243401,-10,-1,-100,18971.95788348664,-0.02573788824142079,0.02999234457149512,0.9992187049770319,66.91429055664489,4.109866085949175,411.94595770119975,-107.65498808376275,-6.37939453125,4761.76025390625,True
1599385354.703808,0.0,10,0.5,0.5,-4.141627508544922,-0.05075,-0.001,-0.001,0.5629530092731074,10,1,100,0.20427485395936817,-10,-1,-100,18967.640768029494,-0.02501220317060772,0.032161575973248646,0.9991696666349861,67.54458157566353,4.151007479561261,417.36358366279325,-108.0188361890521,-10.1343994140625,4761.76025390625,True
1599385354.7644913,0.0,10,0.5,0.5,-4.040437261962891,-0.05075,-0.001,-0.001,0.46981108989244913,10,1,100,0.23120414338495238,-10,-1,-100,18965.47675332427,-0.024599296667845206,0.03327420682992057,0.999143484071876,68.15191941415662,4.189786693470055,421.89205449242934,-108.20073022878849,-12.1217041015625,4761.76025390625,True
1599385354.8025806,0.0,10,0.5,0.5,-3.5909990478515628,-0.05075,-0.001,-0.001,0.8573506502483297,10,1,100,0.03637118965037284,-10,-1,-100,18956.784324228764,-0.022455159166444034,0.037796453388264185,0.9990331295498055,70.48362367854409,4.340574860378591,439.53382502075334,-108.92809829254386,-20.80401611328125,4761.76025390625,True
1599385354.8275137,0.0,10,0.5,0.5,-3.3493963562011717,-0.05075,-0.001,-0.001,0.659647562850462,10,1,100,0.1031027717769348,-10,-1,-100,18952.416293136193,-0.02111695015234741,0.040094577057541804,0.9989727220033788,71.6966685483878,4.419761000562313,448.72751964889284,-109.29164969064229,-25.58477783203125,4761.76025390625,True
1599385354.8504517,0.0,10,0.5,0.5,-3.3511730072021484,-0.05075,-0.001,-0.001,0.4315375925564926,10,1,100,0.23632597731319124,-10,-1,-100,18952.416293136193,-0.02111695015234741,0.040094577057541804,0.9989727220033788,71.6966685483878,4.419761000562313,448.72751964889284,-109.29164969064229,-25.58477783203125,4761.76025390625,True
1599385354.8723946,0.0,10,0.5,0.5,-3.2188430221557622,-0.05075,-0.001,-0.001,0.5497875241834959,10,1,100,0.146722577941059,-10,-1,-100,18950.226825300488,-0.02030770672207727,0.041154929623959675,0.9989463793494308,72.27348633312938,4.457693306131275,453.1579739506852,-109.47339075784944,-28.086395263671875,4761.76025390625,True
1599385354.907323,0.0,10,0.5,0.5,-3.0851048889160158,-0.05075,-0.001,-0.001,0.5609549422423004,10,1,100,0.13319292604471675,-10,-1,-100,18948.03372295201,-0.01945499378163924,0.04220564967028407,0.9989195094465146,72.83305321765772,4.494646192944247,457.4925352274332,-109.65510901218904,-30.66143798828125,4761.76025390625,True
1599385354.9382734,0.0,10,0.5,0.5,-2.806904597473145,-0.05075,-0.001,-0.001,0.6960141109519091,10,1,100,0.021758093243372245,-10,-1,-100,18943.63661707798,-0.01767315372460288,0.04437472335229403,0.9988586204087314,73.97386249521453,4.570040294903566,466.3343112834182,-110.01847508199965,-36.030303955078125,4761.76025390625,True
1599385354.9711528,0.0,10,0.5,0.5,-2.3635849472045902,-0.05075,-0.001,-0.001,0.807760190591652,10,1,100,-0.14395427095575214,-10,-1,-100,18937.013711862033,-0.014554644030344469,0.04734749612648699,0.998772435015956,75.29434768765182,4.658916458082599,477.2122939274816,-110.56336968235851,-44.636627197265625,4761.76025390625,True
1599385355.00434,0.0,10,0.5,0.5,-2.212082814025879,-0.05075,-0.001,-0.001,0.6103610480133567,10,1,100,0.041845069333812046,-10,-1,-100,18934.79881252139,-0.013419150707157193,0.04823873642997229,0.9987456887025538,75.60624066218303,4.6804667427861055,480.0426182603184,-110.74496790744485,-47.653167724609375,4761.76025390625,True
1599385355.0392785,0.0,10,0.5,0.5,-2.210971977233887,-0.05075,-0.001,-0.001,0.5230616568506743,10,1,100,0.15416252789911322,-10,-1,-100,18934.79881252139,-0.013419150707157193,0.04823873642997229,0.9987456887025538,75.60624066218303,4.6804667427861055,480.0426182603184,-110.74496790744485,-47.653167724609375,4761.76025390625,True
1599385355.070164,0.0,10,0.5,0.5,-1.883539390563965,-0.05075,-0.001,-0.001,0.7041682570196669,10,1,100,-0.10852449789021484,-10,-1,-100,18930.358118764707,-0.011041625974948257,0.04987054446745702,0.9986946536806676,75.99914265895944,4.708899326323855,484.2521292010829,-111.10813013847486,-53.907867431640625,4761.76025390625,True
1599385355.104115,0.0,10,0.5,0.5,-1.5467167770385746,-0.05075,-0.001,-0.001,0.7090629865242009,10,1,100,-0.15069458471368033,-10,-1,-100,18925.902899107663,-0.008509200584265807,0.051383416280995686,0.9986427479517942,76.04141980753069,4.714985709029254,486.23687266854085,-111.47126779684174,-60.456634521484375,4761.76025390625,True
1599385355.1370652,0.0,10,0.5,0.5,-1.37412918548584,-0.05075,-0.001,-0.001,0.634870912638309,10,1,100,-0.045092324882164636,-10,-1,-100,18923.669842346106,-0.007179694371733885,0.05207192910989297,0.9986175274786152,75.91538401838152,4.708649316792085,486.2874727668838,-111.65283637014106,-63.841583251953125,4761.76025390625,True
1599385355.173967,0.0,10,0.5,0.5,-1.0118190612792968,-0.05075,-0.001,-0.001,0.6918848831782367,10,1,100,-0.21059420317955557,-10,-1,-100,18919.192833963665,-0.004479160062892778,0.05320527018466044,0.9985735507961886,75.33913840732595,4.67538538089893,484.2976835368324,-112.01599213284834,-70.834228515625,4761.76025390625,True
1599385355.204923,0.0,10,0.5,0.5,-0.24463185424804687,-0.05075,-0.001,-0.001,0.7465688292164774,10,1,100,-0.5491643872636445,-10,-1,-100,18910.19523162383,0.001038656627645896,0.05472078822286294,0.9985011549961663,72.75978245551273,4.519015538307058,471.01257487822323,-112.7424870107156,-85.706787109375,4761.76025390625,True
1599385355.2373223,0.0,10,0.5,0.5,-0.25374237365722657,-0.05075,-0.001,-0.001,0.5963736112561173,10,1,100,0.0004826454552506222,-10,-1,-100,18910.19523162383,0.001038656627645896,0.05472078822286294,0.9985011549961663,72.75978245551273,4.519015538307058,471.01257487822323,-112.7424870107156,-85.706787109375,4761.76025390625,True
1599385355.27039,0.0,10,0.5,0.5,-0.04624417114257813,-0.05075,-0.001,-0.001,0.6197867570280102,10,1,100,-0.14999037773901033,-10,-1,-100,18907.93674806913,0.002387962610858009,0.05492225760392326,0.9984877782197724,71.79423172017233,4.459944513478305,465.5772795257092,-112.92417058049038,-89.61004638671875,4761.76025390625,True
1599385355.3076372,0.0,10,0.5,0.5,0.36894403953552246,-0.05075,-0.001,-0.001,0.6239013171219211,10,1,100,-0.30120877394123785,-10,-1,-100,18903.408877424314,0.004971079728038852,0.05513322801096671,0.9984666321592466,69.46247563380305,4.31711403090432,452.03580834459547,-113.28763184877302,-97.60489654541016,4761.76025390625,True
1599385355.3375604,0.0,10,0.5,0.5,0.9971019371032717,-0.05075,-0.001,-0.001,0.5894481318426948,10,1,100,-0.47238453716418927,-10,-1,-100,18896.589802405564,0.008857760660449738,0.05500473057675463,0.9984468036356573,65.056222118298,4.047310771204799,425.58275298480146,-113.83309063126639,-109.79534912109375,4761.76025390625,True
1599385355.371546,0.0,10,0.5,0.5,0.9911257026672364,-0.05075,-0.001,-0.001,0.6029744746785812,10,1,100,-0.08594413505986141,-10,-1,-100,18896.589802405564,0.008857760660449738,0.05500473057675463,0.9984468036356573,65.056222118298,4.047310771204799,425.58275298480146,-113.83309063126639,-109.79534912109375,4761.76025390625,True
1599385355.4039178,0.0,10,0.5,0.5,1.6236538188934329,-0.05075,-0.001,-0.001,0.5419525980142067,10,1,100,-0.45564357350244444,-10,-1,-100,18889.737999476027,0.012198412908684486,0.054443835339672335,0.998442320575413,67.72563228794188,4.219262968549251,445.3532022877976,-114.37848150620415,-121.89803314208984,4761.76025390625,True
1599385355.4403028,0.0,10,0.5,0.5,1.6183501514434817,-0.05075,-0.001,-0.001,0.5984994508096579,10,1,100,-0.12390235256733288,-10,-1,-100,18889.737999476027,0.012198412908684486,0.054443835339672335,0.998442320575413,67.72563228794188,4.219262968549251,445.3532022877976,-114.37848150620415,-121.89803314208984,4761.76025390625,True
1599385355.4711778,0.0,10,0.5,0.5,2.415018260955811,-0.05075,-0.001,-0.001,0.4643889502754812,10,1,100,-0.5363823087065016,-10,-1,-100,18880.551381935948,0.01592940558859243,0.05322186677203557,0.9984556509604691,70.87446569607712,4.424096706512911,469.26694335852693,-115.10519857882758,-137.17385864257812,4761.76025390625,True
1599385355.5041983,0.0,10,0.5,0.5,2.407075662994385,-0.05075,-0.001,-0.001,0.5867008008053722,10,1,100,-0.16559395071173996,-10,-1,-100,18880.551381935948,0.01592940558859243,0.05322186677203557,0.9984556509604691,70.87446569607712,4.424096706512911,469.26694335852693,-115.10519857882758,-137.17385864257812,4761.76025390625,True
1599385355.538296,0.0,10,0.5,0.5,2.601898766326904,-0.05075,-0.001,-0.001,0.541834939683976,10,1,100,-0.25635696527739893,-10,-1,-100,18878.2456455098,0.016735970661324342,0.052813980219488896,0.9984641159197454,71.42771733739534,4.460593453834402,473.7365150258885,-115.28681513509419,-140.81036376953125,4761.76025390625,True
1599385355.5732458,0.0,10,0.5,0.5,2.9685265747070315,-0.05075,-0.001,-0.001,0.5002512152890717,10,1,100,-0.32832607413198733,-10,-1,-100,18873.62327694567,0.018109205977000813,0.05206687386631404,0.9984793925287953,72.15852500047758,4.50975419498211,480.2121525622402,-115.65000217529952,-147.85874938964844,4761.76025390625,True
1599385355.6033363,0.0,10,0.5,0.5,3.3171188041687016,-0.05075,-0.001,-0.001,0.4792924246998913,10,1,100,-0.3190746188006748,-10,-1,-100,18868.98638187605,0.019257978897922624,0.051199564462032124,0.9985027465398708,72.43830819153239,4.530153085833481,483.70942664962337,-116.01315651189377,-154.61093139648438,4761.76025390625,True
1599385355.6372445,0.0,10,0.5,0.5,3.8119914054870607,-0.05075,-0.001,-0.001,0.4331914505384426,10,1,100,-0.3449812595322087,-10,-1,-100,18862.003802845487,0.020522496454240882,0.04999538586861893,0.9985385763860771,72.13723209487276,4.514675798796526,484.1455454718606,-116.55789178235582,-164.17855834960938,4761.76025390625,True
1599385355.671141,0.0,10,0.5,0.5,3.8090811447143555,-0.05075,-0.001,-0.001,0.5530955256655272,10,1,100,-0.22008464557300303,-10,-1,-100,18862.003802845487,0.020522496454240882,0.04999538586861893,0.9985385763860771,72.13723209487276,4.514675798796526,484.1455454718606,-116.55789178235582,-164.17855834960938,4761.76025390625,True
1599385355.7081878,0.0,10,0.5,0.5,4.125282416534424,-0.05075,-0.001,-0.001,0.4694335119814027,10,1,100,-0.28356725579489744,-10,-1,-100,18857.33059142274,0.021089006787354658,0.04923937605758883,0.9985643382567705,71.54596905720476,4.479451439793141,481.79883148785274,-116.92108498539405,-170.1836395263672,4761.76025390625,True
1599385355.7381823,0.0,10,0.5,0.5,4.562438471221924,-0.05075,-0.001,-0.001,0.4348487908365396,10,1,100,-0.2782328364957097,-10,-1,-100,18850.29353097931,0.021544402145531924,0.0482429290867165,0.9986032538147098,70.22203907349048,4.3990046358543635,475.2770672616001,-117.4659689921797,-178.6304473876953,4761.76025390625,True
1599385355.7711267,0.0,10,0.5,0.5,-13.932379051971436,-0.05075,-0.001,-0.001,0.5030856719400847,10,1,100,-0.23975895502719363,-10,-1,-100,18847.940578390844,0.021600139013036704,0.04796304067436748,0.9986155319861025,69.69210332007547,4.366658461426723,472.48387891733114,-117.64762709748027,178.7037353515625,4761.76025390625,True
1599385355.8050876,0.0,10,0.5,0.5,-13.471025357055666,-0.05075,-0.001,-0.001,0.5029573599858803,10,1,100,-0.2363362366644248,-10,-1,-100,18845.58399240987,0.02161114624737556,0.04771332182234406,0.9986272564268172,69.12862008238936,4.332250412012607,469.45152397026806,-117.82930132832703,176.11282348632812,4761.76025390625,True
1599385355.8400724,0.0,10,0.5,0.5,-13.37473765411377,-0.05075,-0.001,-0.001,0.5027520320357722,10,1,100,-0.2326680358730197,-10,-1,-100,18843.223772433936,0.021582640325344668,0.047489445834548775,0.998638544304652,68.53765352277175,4.2961737976283,466.220013721752,-118.01099221945398,173.59674072265625,4761.76025390625,True
1599385355.871141,0.0,10,0.5,0.5,-13.15495668182373,-0.05075,-0.001,-0.001,0.4849907213811277,10,1,100,-0.21337962053085424,-10,-1,-100,18838.49242980301,0.02137623731608167,0.04712966704054492,0.9986600277185694,67.29581066693231,4.22046744395174,459.30921079241267,-118.37442449860093,168.70062255859375,4761.76025390625,True
1599385355.9051335,0.0,10,0.5,0.5,-12.928367848205568,-0.05075,-0.001,-0.001,0.4955797060307473,10,1,100,-0.19283211119505078,-10,-1,-100,18833.74654765753,0.02099758425310368,0.046904026463882455,0.9986786839404399,65.91300841370645,4.136246878232377,451.37782858189934,-118.73792693855643,163.62939453125,4761.76025390625,True
1599385355.938886,0.0,10,0.5,0.5,-12.828172439575196,-0.05075,-0.001,-0.001,0.5112046711855126,10,1,100,-0.203824459157177,-10,-1,-100,18831.36815347057,0.02075065883343747,0.04684563730232574,0.9986865856832748,65.34179702684898,4.101824615682199,448.21314269864484,-118.91970094076677,160.99334716796875,4761.76025390625,True
1599385355.9738529,0.0,10,0.5,0.5,-12.57845459289551,-0.05075,-0.001,-0.001,0.515838178228813,10,1,100,-0.16207149976247745,-10,-1,-100,18826.600461112335,0.02014525183930227,0.04683863715326756,0.9986993095511558,67.06805921008869,4.213478874349319,461.5879760129197,-119.28316315692449,155.507080078125,4761.76025390625,True
1599385356.0049136,0.0,10,0.5,0.5,-12.00320461654663,-0.05075,-0.001,-0.001,0.5683189902525141,10,1,100,-0.04313377972048199,-10,-1,-100,18817.021476168535,0.018513972793902073,0.04731224144408045,0.9987085583997585,70.45773490050232,4.434412739072054,488.1367407485929,-120.00973831620784,143.66737365722656,4761.76025390625,True
1599385356.03893,0.0,10,0.5,0.5,-12.045828916168213,-0.05075,-0.001,-0.001,0.5206902467287712,10,1,100,-0.2060608318944678,-10,-1,-100,18817.021476168535,0.018513972793902073,0.04731224144408045,0.9987085583997585,70.45773490050232,4.434412739072054,488.1367407485929,-120.00973831620784,143.66737365722656,4761.76025390625,True
1599385356.0720806,0.0,10,0.5,0.5,-11.914674039459229,-0.05075,-0.001,-0.001,0.5450802062727076,10,1,100,-0.1522035472176092,-10,-1,-100,18814.617649834603,0.018026702055015588,0.04753572028958306,0.9987068605499667,71.24283142211213,4.485939190155488,494.3890661368143,-120.1913095450422,140.52650451660156,4761.76025390625,True
1599385356.1082284,0.0,10,0.5,0.5,-11.613425881958008,-0.05075,-0.001,-0.001,0.5866537484155566,10,1,100,-0.08219339244740201,-10,-1,-100,18809.799105199752,0.016950470612744642,0.04811746708569964,0.9986978476532643,72.84398675142401,4.591020983530677,507.1620933615138,-120.55436650917403,134.02786254882812,4761.76025390625,True
1599385356.1391435,0.0,10,0.5,0.5,-11.441712723541261,-0.05075,-0.001,-0.001,0.570147786834268,10,1,100,-0.12890432979507097,-10,-1,-100,18807.38438809046,0.01640095024875013,0.048496133225601784,0.9986887072021506,73.56776139881796,4.63870424753056,513.0400552545065,-120.73585563953291,130.6704864501953,4761.76025390625,True
1599385356.1716378,0.0,10,0.5,0.5,-11.081828466796875,-0.05075,-0.001,-0.001,0.6310716032292847,10,1,100,-0.054229910095659806,-10,-1,-100,18802.54406619945,0.015227264462395584,0.04939351640055547,0.9986633121100326,74.7954142354395,4.720023079643432,523.3068898566122,-121.09876836835463,123.7391357421875,4761.76025390625,True
1599385356.205717,0.0,10,0.5,0.5,-10.517768697357178,-0.05075,-0.001,-0.001,0.7338883497983799,10,1,100,0.04017463870374027,-10,-1,-100,18795.256369044073,0.013307831827408679,0.05114228600971786,0.9986027078842484,75.97353637887265,4.79936532578387,534.1507763999393,-121.64302401541244,112.80183410644531,4761.76025390625,True
1599385356.2407753,0.0,10,0.5,0.5,-10.127171292114259,-0.05075,-0.001,-0.001,0.7196222184299298,10,1,100,-0.005322095918301156,-10,-1,-100,18790.37976377597,0.01198383466079248,0.052598736624725785,0.9985438200761675,76.2281524344165,4.818135278713029,537.6851341337233,-122.00583137817317,105.15072631835938,4761.76025390625,True
