Timestamp,Input Throttle,horizon,dT,dt,Input Roll,Roll P,Roll I,Roll D,Input Pitch,Pitch P,Pitch I,Pitch D,Input Yaw,Yaw P,Yaw I,Yaw D,Altitude,Direction X,Direction Y,Direction Z,Drag X,Drag Y,Drag Z,Vertical Velocity,Roll,Mass,Has Fuel
1599385159.0670178,0.0,10,0.5,0.5,-0.05497857666015625,-0.001,-0.02275,-0.5,-0.00015592879825537895,10,1,100,0.49807213638548803,-10,-1,-100,19351.09416316857,-0.048844067799175925,-0.0001754045129130403,0.9988064007975151,60.98684636633528,3.6807006253210344,232.75528694279305,-68.48187453763825,-33.92279052734375,4761.76025390625,True
1599385159.08497,0.0,10,0.5,0.5,-0.18307186737060546,-0.001,-0.02275,-0.5,-0.0008421427237375506,10,1,100,0.4989406494989153,-10,-1,-100,19349.720876564737,-0.048895118387605366,-0.00016695503239772978,0.9988039044396448,61.07651819405286,3.686783202900897,233.74202114378414,-68.66433456553723,-33.9239501953125,4761.76025390625,True
1599385159.1193357,0.0,10,0.5,0.5,-0.3100015701293945,-0.001,-0.02275,-0.5,0.00025279471186356287,10,1,100,0.5104892566846878,-10,-1,-100,19346.9633555942,-0.04900206524387769,-0.00014916793248525762,0.9987986660737802,61.25666878983985,3.699008242012926,235.72480102401397,-69.029244511741,-33.9263916015625,4761.76025390625,True
1599385159.1918814,0.0,10,0.5,0.5,-0.43169549407958985,-0.001,-0.02275,-0.5,0.021793264155280642,10,1,100,0.503088049016968,-10,-1,-100,19344.191238706,-0.04898745862056065,6.296021504122256e-05,0.9987993917368543,61.43626996658526,3.7112150060174027,237.71376833392594,-69.39414068064235,-33.9405517578125,4761.76025390625,True
1599385159.2168174,0.0,10,0.5,0.5,-0.527109034729004,-0.001,-0.02275,-0.5,0.028975506578509953,10,1,100,0.5052162222866297,-10,-1,-100,19341.40452612983,-0.04894899284852339,0.00032103986189916083,0.9988012279890941,61.60890950142803,3.7230164673882817,239.68394409442513,-69.75902307256165,-34.018798828125,4761.76025390625,True
1599385159.2417476,0.0,10,0.5,0.5,-0.6553359573364257,-0.001,-0.02275,-0.5,0.022371197557177265,10,1,100,0.5081531606468317,-10,-1,-100,19340.005696871434,-0.0488962243200836,0.0004953266953379901,0.998803741432072,61.693105571148536,3.728794115373733,240.66374398641793,-69.9414591621782,-34.09515380859375,4761.76025390625,True
1599385159.2636921,0.0,10,0.5,0.5,-0.7675819213867189,-0.001,-0.02275,-0.5,0.02836241791313215,10,1,100,0.5099062669643588,-10,-1,-100,19338.603218784207,-0.048819739147733965,0.0007077846137952993,0.9988073548540218,61.77646078303604,3.7345236322618613,241.64220352790048,-70.12389165005774,-34.201171875,4761.76025390625,True
1599385159.307717,0.0,10,0.5,0.5,-0.8769119812011718,-0.001,-0.02275,-0.5,0.034698887939915705,10,1,100,0.5111325578692345,-10,-1,-100,19337.197092325892,-0.0487169736909625,0.0009578890084419807,0.9988121639843207,61.85901958394233,3.740206953471989,242.61946774279386,-70.30632051913331,-34.342132568359375,4761.76025390625,True
1599385159.3455718,0.0,10,0.5,0.5,-0.9819876396179197,-0.001,-0.02275,-0.5,0.041550083893981085,10,1,100,0.5122822407454926,-10,-1,-100,19335.787317383336,-0.04858971405305355,0.0012466694313318836,0.998818044242079,61.94113034014978,3.7458640657632616,243.5968764710756,-70.48874571819852,-34.52581787109375,4761.76025390625,True
1599385159.3774867,0.0,10,0.5,0.5,-0.7631421180725098,-0.001,-0.02275,-0.5,0.13222814057017088,10,1,100,0.46984272060238214,-10,-1,-100,19331.53610224568,-0.04804403718633254,0.0023324097224414007,0.9988424952692616,62.19029219859113,3.7629963134025277,246.55167049239438,-71.03599838030796,-35.397857666015625,4761.76025390625,True
1599385159.4113965,0.0,10,0.5,0.5,-1.114866325378418,-0.001,-0.02275,-0.5,0.07164813657446384,10,1,100,0.5029496626045206,-10,-1,-100,19330.111734010046,-0.04780526311007258,0.002766598669195951,0.9988528433912477,62.27482630166162,3.7687864659356083,247.54628985712523,-71.2184078582763,-35.814056396484375,4761.76025390625,True
1599385159.4443078,0.0,10,0.5,0.5,-0.8003708549499511,-0.001,-0.02275,-0.5,0.13371472178012261,10,1,100,0.4636232817560717,-10,-1,-100,19327.252053262782,-0.047231627582749534,0.003722883028858705,0.9988770262138568,62.44557560851402,3.780437484960061,249.54801112436763,-71.58321394147274,-36.84857177734375,4761.76025390625,True
1599385159.4782171,0.0,10,0.5,0.5,-1.007176508331299,-0.001,-0.02275,-0.5,0.09574823173555358,10,1,100,0.4838372246182768,-10,-1,-100,19325.816740939394,-0.046895416121025775,0.00424354632081853,0.9988907909583805,62.529325554352454,3.7861433608261312,250.54526126546395,-71.76561052924562,-37.4549560546875,4761.76025390625,True
1599385159.5081375,0.0,10,0.5,0.5,-0.59623511428833,-0.001,-0.02275,-0.5,0.17056201301379303,10,1,100,0.4335556094145896,-10,-1,-100,19322.935172752943,-0.046134578880445976,0.005393008493990271,0.9989206755748465,62.687599788560235,3.796939168783415,252.50827747265083,-72.13039047250564,-38.864349365234375,4761.76025390625,True
1599385159.5410497,0.0,10,0.5,0.5,-0.8909544342041016,-0.001,-0.02275,-0.5,0.12303867494347881,10,1,100,0.46153797525739815,-10,-1,-100,19321.4889173446,-0.04569988733279907,0.006001098261435407,0.9989371887748628,62.760088023697875,3.8018991280510996,253.46561812017362,-72.31277396122091,-39.660308837890625,4761.76025390625,True
1599385159.5745733,0.0,10,0.5,0.5,0.12141933822631845,-0.001,-0.02275,-0.5,0.2815939545205399,10,1,100,0.33860532998525983,-10,-1,-100,19317.128265358857,-0.04419009742838764,0.0079901550839956,0.9989911875041757,62.9343149675507,3.813977968825474,256.17153293755405,-72.85989951404026,-42.44976806640625,4761.76025390625,True
1599385159.6105978,0.0,10,0.5,0.5,-0.16909912185668952,-0.001,-0.02275,-0.5,0.2424114182141397,10,1,100,0.3586381149371047,-10,-1,-100,19314.20292711002,-0.043003955675659206,0.009435370203184265,0.9990303466789058,62.99785811543454,3.818656839418341,257.7669553997838,-73.2246315161,-44.6158447265625,4761.76025390625,True
1599385159.6415167,0.0,10,0.5,0.5,-1.2284440711975098,-0.001,-0.02275,-0.5,0.09876266485421205,10,1,100,0.4766707118627409,-10,-1,-100,19314.20292711002,-0.043003955675659206,0.009435370203184265,0.9990303466789058,62.99785811543454,3.818656839418341,257.7669553997838,-73.2246315161,-44.6158447265625,4761.76025390625,True
1599385159.6753397,0.0,10,0.5,0.5,0.5078660934448245,-0.001,-0.02275,-0.5,0.34014259016650533,10,1,100,0.24812433236865142,-10,-1,-100,19309.78756560525,-0.040931454969363214,0.01162202635948262,0.9990943621587456,62.98043872380578,3.8185108695765333,259.7012571397939,-73.77170853126675,-48.034881591796875,4761.76025390625,True
1599385159.708256,0.0,10,0.5,0.5,0.05603234939575197,-0.001,-0.02275,-0.5,0.29878839482065667,10,1,100,0.28180446996022956,-10,-1,-100,19306.8257559092,-0.03936050854091183,0.013224516219402363,0.9991375593671591,62.88491290912244,3.813102243126079,260.6431272901662,-74.1364175677691,-50.48388671875,4761.76025390625,True
1599385159.743841,0.0,10,0.5,0.5,-1.1341494979858397,-0.001,-0.02275,-0.5,0.13962861947837843,10,1,100,0.43803075994082574,-10,-1,-100,19306.8257559092,-0.03936050854091183,0.013224516219402363,0.9991375593671591,62.88491290912244,3.813102243126079,260.6431272901662,-74.1364175677691,-50.48388671875,4761.76025390625,True
1599385159.7752051,0.0,10,0.5,0.5,-0.46958718795776355,-0.001,-0.02275,-0.5,0.22077913940393834,10,1,100,0.3447697173205484,-10,-1,-100,19305.33938028547,-0.03852035793033582,0.01395274102095272,0.9991603990565884,62.807043188314324,3.8085030315622457,260.9876914761226,-74.3187708781092,-51.743743896484375,4761.76025390625,True
1599385159.808154,0.0,10,0.5,0.5,0.16924216918945323,-0.001,-0.02275,-0.5,0.31495234424237395,10,1,100,0.23079018350515063,-10,-1,-100,19302.35568810266,-0.03672832640390166,0.015461583740900555,0.9992056692532281,62.597303852555605,3.795899965149158,261.44688167910704,-74.68347760225465,-54.20855712890625,4761.76025390625,True
1599385159.8416026,0.0,10,0.5,0.5,0.9605416702270508,-0.001,-0.02275,-0.5,0.42592922696218605,10,1,100,0.0797751209527745,-10,-1,-100,19297.852796536987,-0.03373558543822821,0.017831941477014987,0.9992717008593309,62.14146285789731,3.7681435796992364,261.52610896319845,-75.23054457356395,-58.17181396484375,4761.76025390625,True
1599385159.877334,0.0,10,0.5,0.5,0.4397130699157714,-0.001,-0.02275,-0.5,0.3550416185233741,10,1,100,0.13972732766115276,-10,-1,-100,19294.832632735022,-0.03157120370627598,0.019331071221327066,0.9993145494697717,61.71462697906086,3.742014733835332,261.043908775527,-75.59526760877736,-60.999908447265625,4761.76025390625,True
1599385159.9084086,0.0,10,0.5,0.5,0.42693482284545914,-0.001,-0.02275,-0.5,0.3585390945852099,10,1,100,0.10603229305629508,-10,-1,-100,19291.797879893216,-0.02931010971139027,0.02071359352311847,0.9993557247107084,61.205540990831,3.7107983197676964,260.19489714497047,-75.9600051551832,-63.699951171875,4761.76025390625,True
1599385159.9413984,0.0,10,0.5,0.5,-0.23456381454467778,-0.001,-0.02275,-0.5,0.2975501341344954,10,1,100,0.2004436216413441,-10,-1,-100,19290.275032004225,-0.02812638178291916,0.021404420122068595,0.9993751835257065,60.936494014545474,3.6942873005405255,259.7008281092447,-76.14237993749572,-64.97775268554688,4761.76025390625,True
1599385159.9754531,0.0,10,0.5,0.5,-0.8271412307739257,-0.001,-0.02275,-0.5,0.22966437923137137,10,1,100,0.3173286570991813,-10,-1,-100,19290.275032004225,-0.02812638178291916,0.021404420122068595,0.9993751835257065,60.936494014545474,3.6942873005405255,259.7008281092447,-76.14237993749572,-64.97775268554688,4761.76025390625,True
1599385160.011369,0.0,10,0.5,0.5,0.4465006217956543,-0.001,-0.02275,-0.5,0.3722132940105418,10,1,100,0.04788081699181504,-10,-1,-100,19287.21839367354,-0.0256903810309365,0.02268943839286207,0.9994124242313089,60.373321189020324,3.6597236423638004,258.5888195049416,-76.50714220169408,-67.427490234375,4761.76025390625,True
1599385160.0417948,0.0,10,0.5,0.5,0.4780850234985351,-0.001,-0.02275,-0.5,0.3770324829011113,10,1,100,0.009322368221439392,-10,-1,-100,19284.14716434793,-0.023139159062074695,0.023891386345285513,0.9994467374384691,59.77452866791814,3.6230013825727307,257.3004335579335,-76.8719217105372,-69.84732055664062,4761.76025390625,True
1599385160.076435,0.0,10,0.5,0.5,1.2525417121887208,-0.001,-0.02275,-0.5,0.4358767243137256,10,1,100,-0.17857098482812667,-10,-1,-100,19279.51296051161,-0.019126491653094123,0.02550931679657979,0.9994915967999011,58.7349497556562,3.559415480950322,254.70857128645324,-77.41912865369747,-73.72021484375,4761.76025390625,True
1599385160.1087334,0.0,10,0.5,0.5,-0.6310427848815917,-0.001,-0.02275,-0.5,0.27531215924201574,10,1,100,0.2206723543811488,-10,-1,-100,19279.51296051161,-0.019126491653094123,0.02550931679657979,0.9994915967999011,58.7349497556562,3.559415480950322,254.70857128645324,-77.41912865369747,-73.72021484375,4761.76025390625,True
1599385160.1447394,0.0,10,0.5,0.5,0.6980570800781251,-0.001,-0.02275,-0.5,0.3767357558208906,10,1,100,-0.08202238441665322,-10,-1,-100,19276.40525029821,-0.016392352087911597,0.026420843514773536,0.9995164980234161,57.95040918932997,3.511571379834005,252.54611430438214,-77.78396284771209,-76.2733154296875,4761.76025390625,True
1599385160.1756968,0.0,10,0.5,0.5,0.07641147918701174,-0.001,-0.02275,-0.5,0.3298038195433871,10,1,100,0.040505539414979225,-10,-1,-100,19274.84592227603,-0.015039148131047769,0.026812887238087026,0.9995273348445504,57.54872282953094,3.487116531249138,251.41149362044695,-77.96638905000829,-77.48031616210938,4761.76025390625,True
1599385160.2086976,0.0,10,0.5,0.5,0.6602334632873536,-0.001,-0.02275,-0.5,0.37231713384007226,10,1,100,-0.13588436583774893,-10,-1,-100,19271.716320481617,-0.012222414883698742,0.027547610802195453,0.9995457676932566,56.76477999210537,3.4394695891883242,249.20234125553898,-78.33125797959633,-79.76254272460938,4761.76025390625,True
1599385160.2418735,0.0,10,0.5,0.5,0.6549294425964356,-0.001,-0.02275,-0.5,0.3604013077361784,10,1,100,-0.15978616826791625,-10,-1,-100,19268.57212316536,-0.00946204899021863,0.028099746041730562,0.9995603403003228,55.970237654149784,3.391304164662621,246.91355551568017,-78.69614846869395,-81.94442749023438,4761.76025390625,True
1599385160.2784157,0.0,10,0.5,0.5,0.13112431640625005,-0.001,-0.02275,-0.5,0.3322428230847101,10,1,100,-0.04111974505828489,-10,-1,-100,19266.994551160955,-0.00804945480779806,0.028338986260368574,0.9995659598720995,55.57859751507978,3.367611246235856,245.7815279271813,-78.87860145002738,-82.99359130859375,4761.76025390625,True
1599385160.3085487,0.0,10,0.5,0.5,1.6124795509338379,-0.001,-0.02275,-0.5,0.3717474397467223,10,1,100,-0.5085103969370435,-10,-1,-100,19260.64777002693,-0.0025345241039498477,0.02890930609593206,0.9995788254102916,54.013404660220814,3.2732549869244454,241.17684002789338,-79.60846110380729,-86.9156494140625,4761.76025390625,True
1599385160.341723,0.0,10,0.5,0.5,-0.298640786743164,-0.001,-0.02275,-0.5,0.31546594478776,10,1,100,0.04042348767988089,-10,-1,-100,19260.64777002693,-0.0025345241039498477,0.02890930609593206,0.9995788254102916,54.013404660220814,3.2732549869244454,241.17684002789338,-79.60846110380729,-86.9156494140625,4761.76025390625,True
1599385160.375866,0.0,10,0.5,0.5,0.19309046630859372,-0.001,-0.02275,-0.5,0.3229821494688757,10,1,100,-0.11418730044378221,-10,-1,-100,19259.05195128976,-0.0011500222636683527,0.02897198080421214,0.9995795625046928,53.64098950562074,3.2508906173519105,240.08946643076465,-79.79093682457025,-87.80865478515625,4761.76025390625,True
1599385160.4117846,0.0,10,0.5,0.5,0.6422290824890137,-0.001,-0.02275,-0.5,0.3181102395195343,10,1,100,-0.265925638810066,-10,-1,-100,19255.849364613998,0.0014680650882824893,0.028980048999055538,0.999578912114951,52.903725690988125,3.2067110664236624,237.92502143897485,-80.15589981493234,-89.51480102539062,4761.76025390625,True
1599385160.4417439,0.0,10,0.5,0.5,0.6536123504638672,-0.001,-0.02275,-0.5,0.30569829978135626,10,1,100,-0.3053944928532328,-10,-1,-100,19252.632179111708,0.004188229938865338,0.028871392694745666,0.9995743601222696,52.19716648528137,3.1645055418349752,235.86795059816473,-80.52087673032476,-91.16854095458984,4761.76025390625,True
1599385160.4760854,0.0,10,0.5,0.5,1.0856486848831177,-0.001,-0.02275,-0.5,0.2720241329200611,10,1,100,-0.4536900475455488,-10,-1,-100,19247.779026590637,0.007988053280605383,0.028463429013999314,0.9995629165858202,51.105814776731464,3.0994907306960817,232.58244232088987,-81.06836800003343,-93.60209655761719,4761.76025390625,True
1599385160.5093074,0.0,10,0.5,0.5,0.28174281978607174,-0.001,-0.02275,-0.5,0.2917106006959301,10,1,100,-0.21088760961291111,-10,-1,-100,19246.154008861165,0.00921297924155552,0.028269663933556687,0.9995578758203941,50.75082564488307,3.0784031906541887,231.51184566084007,-81.25087169000409,-94.34750366210938,4761.76025390625,True
1599385160.545024,0.0,10,0.5,0.5,0.6178635046005249,-0.001,-0.02275,-0.5,0.2610432132706314,10,1,100,-0.34810694347527626,-10,-1,-100,19242.89302434819,0.011551949398102052,0.02781339508683752,0.999546380874268,51.040198327518596,3.096925659278265,233.92810541996354,-81.61586032620977,-95.68572998046875,4761.76025390625,True
1599385160.576206,0.0,10,0.5,0.5,0.5353600568771363,-0.001,-0.02275,-0.5,0.2447395808320053,10,1,100,-0.36342403160881853,-10,-1,-100,19239.61744085001,0.013795919101374919,0.02725014876375564,0.9995334421661446,51.32100823233772,3.1150240496670003,236.31747543897225,-81.98082283097816,-96.7843017578125,4761.76025390625,True
1599385160.6092355,0.0,10,0.5,0.5,0.019834882164001463,-0.001,-0.02275,-0.5,0.3009792534123959,10,1,100,-0.14135285809069117,-10,-1,-100,19239.61744085001,0.013795919101374919,0.02725014876375564,0.9995334421661446,51.32100823233772,3.1150240496670003,236.31747543897225,-81.98082283097816,-96.7843017578125,4761.76025390625,True
1599385160.64226,0.0,10,0.5,0.5,0.5161680303573608,-0.001,-0.02275,-0.5,0.2300218103629182,10,1,100,-0.37183525286102426,-10,-1,-100,19236.327259576763,0.015871354168460517,0.026606070951939127,0.9995199933494876,51.54806962875055,3.129931501967231,238.47037970484575,-82.3457620135473,-97.71236419677734,4761.76025390625,True
1599385160.6774738,0.0,10,0.5,0.5,0.277363842010498,-0.001,-0.02275,-0.5,0.2556527020908224,10,1,100,-0.27404743836199774,-10,-1,-100,19234.676694984897,0.0168524005719359,0.026255647625217784,0.999513200294395,51.64496729215021,3.1363960460717935,239.4734129627571,-82.52822348603229,-98.1128921508789,4761.76025390625,True
1599385160.7083917,0.0,10,0.5,0.5,0.45564955043792726,-0.001,-0.02275,-0.5,0.20437712719327403,10,1,100,-0.3872699749943763,-10,-1,-100,19231.36461851932,0.018755932249320706,0.025473351791375862,0.999499536445101,51.8117919763988,3.147717923337358,241.36019761665483,-82.8931314313992,-98.81763458251953,4761.76025390625,True
1599385160.7424474,0.0,10,0.5,0.5,0.42619768028259275,-0.001,-0.02275,-0.5,0.1912280364026598,10,1,100,-0.3861522352530886,-10,-1,-100,19228.03794653772,0.020458157999737922,0.024645817143434747,0.9994868920944336,51.96053765689557,3.1579731884139144,243.16971148210868,-83.25802037302086,-99.41219329833984,4761.76025390625,True
1599385160.775525,0.0,10,0.5,0.5,0.27892477321624753,-0.001,-0.02275,-0.5,0.2236817411628463,10,1,100,-0.30875670783284825,-10,-1,-100,19226.36913730635,0.0212847765300137,0.02419248680844963,0.999480706101969,52.02661192056894,3.16260500816653,244.03800893649014,-83.44045815357758,-99.66666412353516,4761.76025390625,True
1599385160.811499,0.0,10,0.5,0.5,0.38888756580352785,-0.001,-0.02275,-0.5,0.16491656816374836,10,1,100,-0.3952061254869714,-10,-1,-100,19223.020572885755,0.022806609402946303,0.0232503930274589,0.9994694981797143,52.149705447380164,3.1713298715296276,245.7363520724968,-83.8053208460774,-100.10152435302734,4761.76025390625,True
1599385160.8417275,0.0,10,0.5,0.5,0.4503129089355469,-0.001,-0.02275,-0.5,0.032841230712068153,10,1,100,-0.5316169187842053,-10,-1,-100,19216.279662426794,0.025416720539112304,0.02119799837334891,0.9994521675307929,52.35922599744622,3.186568913109149,248.97528943994095,-84.53499853020817,-100.62860870361328,4761.76025390625,True
1599385160.875333,0.0,10,0.5,0.5,0.20106024761199953,-0.001,-0.02275,-0.5,0.23737352956704647,10,1,100,-0.2722261792973609,-10,-1,-100,19216.279662426794,0.025416720539112304,0.02119799837334891,0.9994521675307929,52.35922599744622,3.186568913109149,248.97528943994095,-84.53499853020817,-100.62860870361328,4761.76025390625,True
1599385160.9082139,0.0,10,0.5,0.5,0.24699291114807126,-0.001,-0.02275,-0.5,0.17815210129492642,10,1,100,-0.33385353076806795,-10,-1,-100,19214.58531416254,0.025964364851445085,0.020665635749705535,0.99944923996015,52.40725100193247,3.1901129972842113,249.76726165458336,-84.71740881701714,-100.69784545898438,4761.76025390625,True
1599385160.945113,0.0,10,0.5,0.5,0.24751429557800292,-0.001,-0.02275,-0.5,0.11320314146538825,10,1,100,-0.3863338459225869,-10,-1,-100,19211.18567329878,0.026928254867924994,0.019597210559773984,0.9994452553432048,52.498806531410445,3.1969220765647477,251.33302637785792,-85.08221893892329,-100.75021362304688,4761.76025390625,True
1599385160.9753463,0.0,10,0.5,0.5,0.2255671100616455,-0.001,-0.02275,-0.5,0.1542317033150188,10,1,100,-0.34225852345146546,-10,-1,-100,19209.480380714755,0.0273918952824724,0.01900585907501829,0.9994440761711755,52.541696505457274,3.2001467923614935,252.10366314481095,-85.26461897352219,-100.74066162109375,4761.76025390625,True
1599385161.0093238,0.0,10,0.5,0.5,0.20132172870635984,-0.001,-0.02275,-0.5,0.08299194028193435,10,1,100,-0.3836261608093891,-10,-1,-100,19206.058852012036,0.028178982779756608,0.017827541890282274,0.9994439072202342,52.62921752283638,3.206692286804759,253.656383706311,-85.62940957112559,-100.66898345947266,4761.76025390625,True
1599385161.0422935,0.0,10,0.5,0.5,0.17085243549346923,-0.001,-0.02275,-0.5,0.07168931096118618,10,1,100,-0.37323308335687866,-10,-1,-100,19202.62273208436,0.028789737452985048,0.01666125518827449,0.9994466236837961,52.720847268337586,3.213472757581585,255.23317502839402,-85.99418776433777,-100.5250244140625,4761.76025390625,True
1599385161.0781972,0.0,10,0.5,0.5,0.07514731559753418,-0.001,-0.02275,-0.5,-0.014296942971095572,10,1,100,-0.38678725021705795,-10,-1,-100,19197.441194402403,0.029459067031736473,0.014827312329431307,0.9994560091263173,52.866940020669375,3.2241372142292732,257.6487554291705,-86.54133223421725,-100.18257141113281,4761.76025390625,True
1599385161.1091146,0.0,10,0.5,0.5,0.09745031032562257,-0.001,-0.02275,-0.5,0.03322943948232883,10,1,100,-0.34932899734943007,-10,-1,-100,19193.96859850525,0.029718836250866607,0.013601075484435912,0.9994657580515506,52.97247845893304,3.2317187010703505,259.30487091096006,-86.90608048087455,-99.88182067871094,4761.76025390625,True
1599385161.1420913,0.0,10,0.5,0.5,0.24831515769958493,-0.001,-0.02275,-0.5,0.15479398284946697,10,1,100,-0.3241954814085019,-10,-1,-100,19193.96859850525,0.029718836250866607,0.013601075484435912,0.9994657580515506,52.97247845893304,3.2317187010703505,259.30487091096006,-86.90608048087455,-99.88182067871094,4761.76025390625,True
1599385161.1760979,0.0,10,0.5,0.5,0.07855506267547607,-0.001,-0.02275,-0.5,0.021910679881750605,10,1,100,-0.33745911892656766,-10,-1,-100,19190.481412837515,0.029833130931169096,0.012401817564313966,0.9994779533436169,53.08689807329541,3.2398210828586955,261.00973895713634,-87.2708170468188,-99.54397583007812,4761.76025390625,True
1599385161.212102,0.0,10,0.5,0.5,0.05902699890136717,-0.001,-0.02275,-0.5,0.0036084263505239134,10,1,100,-0.3244713851394773,-10,-1,-100,19186.979638195597,0.02981494996029594,0.011153195496472895,0.999493209076021,53.213063187319854,3.2486196265832383,262.7781205539007,-87.63554197883992,-99.1727523803711,4761.76025390625,True
1599385161.234043,0.0,10,0.5,0.5,0.1367248592376709,-0.001,-0.02275,-0.5,0.058118548256164554,10,1,100,-0.3198443179533559,-10,-1,-100,19185.223280060338,0.029752359167427255,0.010522762727465815,0.9995019102475762,53.2798242765652,3.253235775715106,263.6827847559301,-87.81790000624899,-98.9639663696289,4761.76025390625,True
1599385161.252993,0.0,10,0.5,0.5,0.01372389545440672,-0.001,-0.02275,-0.5,-0.012153246169129855,10,1,100,-0.3018290895224025,-10,-1,-100,19181.699622649234,0.029528240011523436,0.009320028327249647,0.9995204950944234,53.418983273854494,3.2627956841160515,265.5249337505324,-88.18260745977717,-98.51795959472656,4761.76025390625,True
1599385161.2759333,0.0,10,0.5,0.5,-0.0033400934219360023,-0.001,-0.02275,-0.5,-0.026583153897731318,10,1,100,-0.28593831672735115,-10,-1,-100,19178.161377284676,0.029177670130616225,0.008104795331549957,0.9995413827643068,53.56860156537478,3.2729718357367568,267.42597915229464,-88.54730326295315,-98.04891967773438,4761.76025390625,True
1599385161.3088892,0.0,10,0.5,0.5,0.22505615215301514,-0.001,-0.02275,-0.5,0.09385003929789079,10,1,100,-0.32117388230288657,-10,-1,-100,19178.161377284676,0.029177670130616225,0.008104795331549957,0.9995413827643068,53.56860156537478,3.2729718357367568,267.42597915229464,-88.54730326295315,-98.04891967773438,4761.76025390625,True
1599385161.3448312,0.0,10,0.5,0.5,0.09655553665161132,-0.001,-0.02275,-0.5,0.024814205529861966,10,1,100,-0.29655874751259825,-10,-1,-100,19176.38678426016,0.02895298828038555,0.007486035703257634,0.9995527418496161,53.647999433520404,3.278331924929414,268.40214614276283,-88.72964675915888,-97.80432891845703,4761.76025390625,True
1599385161.3763356,0.0,10,0.5,0.5,0.08808788585662841,-0.001,-0.02275,-0.5,0.01975299754206787,10,1,100,-0.29151316991399984,-10,-1,-100,19174.60854444513,0.02870271475580004,0.006885857077180136,0.9995642746406855,53.72995902237905,3.2838429801344446,269.39305335341345,-88.91198718081984,-97.55567932128906,4761.76025390625,True
1599385161.409754,0.0,10,0.5,0.5,-0.049074565315246566,-0.001,-0.02275,-0.5,-0.05473244476521252,10,1,100,-0.25073643724128647,-10,-1,-100,19171.041124462616,0.0281051833930394,0.005670319264545544,0.9995888885666355,53.90334780016747,3.2954265899714317,271.42843098457473,-89.27665917274254,-97.0456771850586,4761.76025390625,True
1599385161.442734,0.0,10,0.5,0.5,-0.07357745094299317,-0.001,-0.02275,-0.5,-0.06622680596664053,10,1,100,-0.2319282787424077,-10,-1,-100,19167.459118123166,0.02739245676131976,0.004468000475064652,0.9996147709414532,54.08622549793426,3.307567218537051,273.52007500663717,-89.64131903168396,-96.50066375732422,4761.76025390625,True
1599385161.4666784,0.0,10,0.5,0.5,0.04935236530303955,-0.001,-0.02275,-0.5,-0.012930788138698301,10,1,100,-0.2589888568883623,-10,-1,-100,19165.662645128323,0.02699264360607381,0.0038677954421627446,0.9996281495384036,54.180901646797544,3.3138263885405475,274.5855794329217,-89.82364450120429,-96.21746063232422,4761.76025390625,True
1599385161.4856195,0.0,10,0.5,0.5,-0.10730183677673341,-0.001,-0.02275,-0.5,-0.08416295802071935,10,1,100,-0.20224576681812406,-10,-1,-100,19162.058759892127,0.026115913089143593,0.0026823475243445928,0.9996553226464004,54.376877032942964,3.326730933030934,276.75708155730786,-90.1882862536102,-95.63724517822266,4761.76025390625,True
1599385161.5095546,0.0,10,0.5,0.5,0.030798500061035156,-0.001,-0.02275,-0.5,-0.030448651197682988,10,1,100,-0.23763237106329815,-10,-1,-100,19160.251347775804,0.025643944509500572,0.0021006802501485383,0.9996689328235024,54.47891840785878,3.3334215106379825,277.86701981227674,-90.37060251009085,-95.34989166259766,4761.76025390625,True
1599385161.5435092,0.0,10,0.5,0.5,0.02457487792968749,-0.001,-0.02275,-0.5,-0.036956704951725934,10,1,100,-0.2294654817914143,-10,-1,-100,19158.440289426595,0.025144372638860633,0.001520384132640205,0.9996826741304898,54.5842693634498,3.340308234022479,278.99631215361785,-90.5529157341533,-95.06710052490234,4761.76025390625,True
1599385161.5763369,0.0,10,0.5,0.5,-0.26253112888336183,-0.001,-0.02275,-0.5,-0.1691411190336828,10,1,100,-0.09787436202163091,-10,-1,-100,19152.985237226007,0.02349791881980144,-0.00020174369839006087,0.9997238654301588,54.920001923015555,3.3621353972751886,282.5005152640525,-91.09983609247192,-94.22747802734375,4761.76025390625,True
1599385161.6113362,0.0,10,0.5,0.5,0.14858634014129637,-0.001,-0.02275,-0.5,0.0022410101663497863,10,1,100,-0.26195176879646853,-10,-1,-100,19152.985237226007,0.02349791881980144,-0.00020174369839006087,0.9997238654301588,54.920001923015555,3.3621353972751886,282.5005152640525,-91.09983609247192,-94.22747802734375,4761.76025390625,True
1599385161.6332781,0.0,10,0.5,0.5,-0.14031074008941652,-0.001,-0.02275,-0.5,-0.12204235495626092,10,1,100,-0.128073695324108,-10,-1,-100,19149.330305728945,0.022286008834880723,-0.0013240410731138492,0.9997507593022615,55.15777007266445,3.377509010960599,284.9220394695528,-91.46443337460812,-93.6681900024414,4761.76025390625,True
1599385161.6532311,0.0,10,0.5,0.5,-0.1323606767654419,-0.001,-0.02275,-0.5,-0.1255264948584931,10,1,100,-0.11251046048456795,-10,-1,-100,19145.660790551337,0.021048849422271074,-0.0023679762521772478,0.999775644145459,55.405799394460374,3.3934853583977804,287.4081292903081,-91.82901732127888,-93.14466857910156,4761.76025390625,True
1599385161.6767948,0.0,10,0.5,0.5,-0.007513325691223149,-0.001,-0.02275,-0.5,-0.0827292686922264,10,1,100,-0.1594248305391477,-10,-1,-100,19143.820564379217,0.020357611379788962,-0.002919529964969406,0.9997884996356445,55.535785929120934,3.401830407142339,288.6866480580199,-92.0113041324927,-92.89141845703125,4761.76025390625,True
1599385161.7092533,0.0,10,0.5,0.5,-0.020607918167114256,-0.001,-0.02275,-0.5,-0.08777453032835014,10,1,100,-0.1503167110493742,-10,-1,-100,19141.976692483993,0.019653455320364784,-0.0034589994921729343,0.9998008686816009,55.66801866597929,3.410306976666267,289.97995642951054,-92.19358741037267,-92.63140106201172,4761.76025390625,True
1599385161.7452571,0.0,10,0.5,0.5,-0.028175978469848637,-0.001,-0.02275,-0.5,-0.08961024611866708,10,1,100,-0.1445504592061556,-10,-1,-100,19140.129175046575,0.01896792843271441,-0.0039589082968451705,0.9998122547438938,55.80167640644574,3.4188646363733066,291.2838494968239,-92.37586719486683,-92.3743667602539,4761.76025390625,True
1599385161.7763026,0.0,10,0.5,0.5,-0.03352190704345703,-0.001,-0.02275,-0.5,-0.0948658561324687,10,1,100,-0.13483967838919014,-10,-1,-100,19138.278012064402,0.01826373754121744,-0.004454033934182666,0.9998232831219419,55.93757162883704,3.427553067483903,292.60263098361577,-92.55814351780202,-92.12462615966797,4761.76025390625,True
1599385161.810312,0.0,10,0.5,0.5,-0.16235726203918457,-0.001,-0.02275,-0.5,-0.15538163106409833,10,1,100,-0.04046062677956627,-10,-1,-100,19134.564749755897,0.01677271096663082,-0.005447803938905633,0.9998444867073444,56.21626170905277,3.445334213823557,295.2861549110445,-92.92268541451719,-91.6341781616211,4761.76025390625,True
1599385161.8433785,0.0,10,0.5,0.5,-0.2862574325561523,-0.001,-0.02275,-0.5,-0.21298511694166783,10,1,100,0.06869287994286649,-10,-1,-100,19128.967516754055,0.01443299241365984,-0.006868037011005277,0.9998722512389284,56.64785521765949,3.4727899166328613,299.40804819931606,-93.46947079900215,-90.91427612304688,4761.76025390625,True
1599385161.8800287,0.0,10,0.5,0.5,0.06424591121673583,-0.001,-0.02275,-0.5,-0.071800651846068,10,1,100,-0.1642078373317115,-10,-1,-100,19128.967516754055,0.01443299241365984,-0.006868037011005277,0.9998722512389284,56.64785521765949,3.4727899166328613,299.40804819931606,-93.46947079900215,-90.91427612304688,4761.76025390625,True
1599385161.9104602,0.0,10,0.5,0.5,-0.17520364856719972,-0.001,-0.02275,-0.5,-0.17055247858565725,10,1,100,0.013984656051415273,-10,-1,-100,19125.217802376836,0.012821301497818816,-0.007759720623808256,0.9998876941755721,56.94360372117324,3.4915528639026387,302.2157340239089,-93.83397596398554,-90.45137786865234,4761.76025390625,True
1599385161.9435277,0.0,10,0.5,0.5,-0.15507371063232422,-0.001,-0.02275,-0.5,-0.17203206225718604,10,1,100,0.029581737694474836,-10,-1,-100,19121.453508442733,0.011224042302410055,-0.008576921962529028,0.9999002236643626,57.247874560799296,3.5108126139434033,305.0829995047144,-94.19846601379118,-90.0467300415039,4761.76025390625,True
1599385161.9763443,0.0,10,0.5,0.5,-0.054975808715820314,-0.001,-0.02275,-0.5,-0.13772604070981032,10,1,100,-0.03379111282444121,-10,-1,-100,19119.565894165542,0.010358161644512665,-0.009001365819217755,0.9999058375170806,57.4045893295928,3.5207147767656983,306.5465473366167,-94.38070517497412,-89.859130859375,4761.76025390625,True
1599385162.0132833,0.0,10,0.5,0.5,-0.24061700248718262,-0.001,-0.02275,-0.5,-0.2205457679182682,10,1,100,0.1580808493566024,-10,-1,-100,19113.8811835167,0.007836425651848966,-0.010134100127587087,0.9999179418570341,57.88328875707474,3.5509125534705936,311.005666115615,-94.92739889377711,-89.3162841796875,4761.76025390625,True
1599385162.0433023,0.0,10,0.5,0.5,-0.21064191246032715,-0.001,-0.02275,-0.5,-0.22070993588661653,10,1,100,0.1909028092923537,-10,-1,-100,19108.163672829047,0.0052569398279459926,-0.011158792325669084,0.9999239200746616,58.37501467520126,3.581861823457826,315.5696585305335,-95.47405635901622,-88.8505859375,4761.76025390625,True
1599385162.0771968,0.0,10,0.5,0.5,-0.05522660427093506,-0.001,-0.02275,-0.5,-0.1514834757714536,10,1,100,0.025056534475700908,-10,-1,-100,19106.250547428266,0.004432733864087786,-0.011453999420302605,0.9999245755394603,58.541312484861514,3.5923150410932045,317.1118005677463,-95.65626717361766,-88.71319580078125,4761.76025390625,True
1599385162.1102257,0.0,10,0.5,0.5,0.005139300155639649,-0.001,-0.02275,-0.5,-0.12271227542044731,10,1,100,-0.05591054245325708,-10,-1,-100,19106.250547428266,0.004432733864087786,-0.011453999420302605,0.9999245755394603,58.541312484861514,3.5923150410932045,317.1118005677463,-95.65626717361766,-88.71319580078125,4761.76025390625,True
1599385162.1461976,0.0,10,0.5,0.5,-0.16572802715301513,-0.001,-0.02275,-0.5,-0.21346321537153692,10,1,100,0.2213477614116959,-10,-1,-100,19100.48930657911,0.0019247774686583312,-0.012272644360325128,0.999922835738889,59.04872628708158,3.6241732499113297,321.808651324654,-96.20287413464747,-88.38763427734375,4761.76025390625,True
1599385162.1775415,0.0,10,0.5,0.5,-0.05633867645263672,-0.001,-0.02275,-0.5,-0.15958649052724075,10,1,100,0.0648888746799322,-10,-1,-100,19098.561605166295,0.0010806687462821083,-0.012520874225014349,0.999921026813469,59.219978344630285,3.6349159373361166,323.39394588189793,-96.38506774144072,-88.29580688476562,4761.76025390625,True
1599385162.2105517,0.0,10,0.5,0.5,-0.10247608337402345,-0.001,-0.02275,-0.5,-0.18312654599464287,10,1,100,0.16198275898200545,-10,-1,-100,19094.695270879427,-0.0005572360189265989,-0.01295539929969547,0.999915920023781,59.563459124047284,3.6564531333199057,326.58225344319595,-96.74944176910765,-88.12396240234375,4761.76025390625,True
1599385162.243653,0.0,10,0.5,0.5,-0.058755229949951165,-0.001,-0.02275,-0.5,-0.1606080420316539,10,1,100,0.08626661235612611,-10,-1,-100,19092.756638347753,-0.0013442842648514416,-0.013140174456752324,0.99991276055217,59.73498292918187,3.6672046469536044,328.1814285554231,-96.9316221886482,-88.05239868164062,4761.76025390625,True
1599385162.280615,0.0,10,0.5,0.5,-0.06087495594024658,-0.001,-0.02275,-0.5,-0.16304981304623664,10,1,100,0.09962521170483987,-10,-1,-100,19090.814362337813,-0.0021683466772599055,-0.013325458468906632,0.9999088610614874,59.9063086742919,3.6779420159209066,329.7836526944793,-97.11379814385617,-87.98764038085938,4761.76025390625,True
1599385162.3105385,0.0,10,0.5,0.5,-0.08985769424438476,-0.001,-0.02275,-0.5,-0.17919817243749273,10,1,100,0.19367906797364243,-10,-1,-100,19086.918880063342,-0.0037603544828206507,-0.013636384895779806,0.9998999493655041,60.24835754905471,3.6993748295959556,332.9971853441075,-97.47813661796512,-87.87451171875,4761.76025390625,True
1599385162.3444445,0.0,10,0.5,0.5,-0.10353710098266601,-0.001,-0.02275,-0.5,-0.1874074472261515,10,1,100,0.2941241305722455,-10,-1,-100,19081.048332282342,-0.006107936224111053,-0.01398946140094635,0.999883487254787,60.758244023012566,3.7313197784857683,337.83082395788693,-98.02461046365022,-87.74331665039062,4761.76025390625,True
1599385162.3783536,0.0,10,0.5,0.5,-0.04151806793212891,-0.001,-0.02275,-0.5,-0.15248533283683294,10,1,100,0.060760392630801296,-10,-1,-100,19081.048332282342,-0.006107936224111053,-0.01398946140094635,0.999883487254787,60.758244023012566,3.7313197784857683,337.83082395788693,-98.02461046365022,-87.74331665039062,4761.76025390625,True
1599385162.4142601,0.0,10,0.5,0.5,-0.07620580673217772,-0.001,-0.02275,-0.5,-0.1696862945623181,10,1,100,0.22781905821456722,-10,-1,-100,19077.1164188392,-0.007616319660279782,-0.014143260444745964,0.9998709716052488,61.09553738138782,3.752451874396111,341.05919967345716,-98.38890368822419,-87.67910766601562,4761.76025390625,True
1599385162.4451747,0.0,10,0.5,0.5,-0.07431098175048828,-0.001,-0.02275,-0.5,-0.16796393189006276,10,1,100,0.3957847899923426,-10,-1,-100,19069.208878937177,-0.010503584842481706,-0.014264975132066524,0.9998430802830703,61.75572196842093,3.7938346013369015,347.48421507256484,-99.11743533085999,-87.62350463867188,4761.76025390625,True
1599385162.4800842,0.0,10,0.5,0.5,-0.048988515472412106,-0.001,-0.02275,-0.5,-0.15607356072918313,10,1,100,0.10855190364280723,-10,-1,-100,19069.208878937177,-0.010503584842481706,-0.014264975132066524,0.9998430802830703,61.75572196842093,3.7938346013369015,347.48421507256484,-99.11743533085999,-87.62350463867188,4761.76025390625,True
1599385162.5149887,0.0,10,0.5,0.5,-0.0505281494140625,-0.001,-0.02275,-0.5,-0.15196511739389928,10,1,100,0.2558144411406905,-10,-1,-100,19065.233254281105,-0.011831036672179608,-0.014225814437407815,0.9998288117347159,62.07926038093522,3.814130195034316,350.6839079259841,-99.48167375249172,-87.6239013671875,4761.76025390625,True
1599385162.5498943,0.0,10,0.5,0.5,-0.04823401107788086,-0.001,-0.02275,-0.5,-0.15130976093612486,10,1,100,0.1919771879022208,-10,-1,-100,19063.23997856595,-0.012445734482993012,-0.0141827060742725,0.9998219614219274,62.2387446340453,3.824140385505898,352.27677620480677,-99.6637861055466,-87.63192749023438,4761.76025390625,True
1599385162.5808117,0.0,10,0.5,0.5,-0.02923992614746094,-0.001,-0.02275,-0.5,-0.13304262649605336,10,1,100,0.3415832444631338,-10,-1,-100,19057.238298248267,-0.0143537980084098,-0.013976336061262857,0.9997992951152929,62.70441263575914,3.8534004572451486,357.0061109435904,-100.21009569414736,-87.68008422851562,4761.76025390625,True
1599385162.6127267,0.0,10,0.5,0.5,-0.04248428039550782,-0.001,-0.02275,-0.5,-0.1427378603846975,10,1,100,0.2157131364163421,-10,-1,-100,19055.230454516015,-0.014932300673141902,-0.013876105301510391,0.9997922184625506,62.85641589480849,3.862961959497091,358.5718474782426,-100.39218971350223,-87.70339965820312,4761.76025390625,True
1599385162.6466384,0.0,10,0.5,0.5,-0.04131876373291016,-0.001,-0.02275,-0.5,-0.1403240946425685,10,1,100,0.22329135047644266,-10,-1,-100,19053.218968781293,-0.015515501447084835,-0.013762542516050065,0.9997849076868182,63.00608949973543,3.872383798665467,360.12802824919584,-100.57427919373426,-87.73028564453125,4761.76025390625,True
1599385162.682542,0.0,10,0.5,0.5,-0.007066159057617191,-0.001,-0.02275,-0.5,-0.10544485732941128,10,1,100,0.3389222255078619,-10,-1,-100,19047.16266197106,-0.0170861872446238,-0.013342104955857184,0.9997649976073321,63.43954708548837,3.8997161685667794,364.72934576531867,-101.12052060857926,-87.82614135742188,4761.76025390625,True
1599385162.7144537,0.0,10,0.5,0.5,-0.05480558929443359,-0.001,-0.02275,-0.5,-0.14742387770419046,10,1,100,0.1829514708560167,-10,-1,-100,19047.16266197106,-0.0170861872446238,-0.013342104955857184,0.9997649976073321,63.43954708548837,3.8997161685667794,364.72934576531867,-101.12052060857926,-87.82614135742188,4761.76025390625,True
1599385162.7533534,0.0,10,0.5,0.5,0.0267219482421875,-0.001,-0.02275,-0.5,-0.06617965878955288,10,1,100,0.383562932960399,-10,-1,-100,19039.036606511916,-0.018899947581008627,-0.012604109653401469,0.9997419309008102,63.97801702070469,3.9337961840329583,370.6860134631816,-101.8487799804087,-87.98849487304688,4761.76025390625,True
1599385162.8211699,0.0,10,0.5,0.5,-0.006644599914550783,-0.001,-0.02275,-0.5,-0.08976314247509198,10,1,100,0.2949326862918279,-10,-1,-100,19034.95173200278,-0.019732833255352616,-0.012148999367211488,0.9997314724995368,64.22843522095086,3.949710246040561,373.57512235558994,-102.2128832164803,-88.08251953125,4761.76025390625,True
1599385162.847102,0.0,10,0.5,0.5,-0.003962096405029293,-0.001,-0.02275,-0.5,-0.08372525102145106,10,1,100,0.2837937987074629,-10,-1,-100,19030.852293820237,-0.020380349209977586,-0.011682296435428273,0.9997240445823408,64.46850225748082,3.965010625090494,376.41642438427283,-102.5769691267874,-88.17962646484375,4761.76025390625,True
1599385162.8795645,0.0,10,0.5,0.5,-0.005841145324707038,-0.001,-0.02275,-0.5,-0.07365315802479655,10,1,100,0.28266023738131735,-10,-1,-100,19026.738292628317,-0.020949716098155786,-0.011168804450834527,0.9997181438798366,64.69049863675194,3.9792229001977963,379.16396226248906,-102.94103813424678,-88.270263671875,4761.76025390625,True
1599385162.9164648,0.0,10,0.5,0.5,-0.005747807312011723,-0.001,-0.02275,-0.5,-0.06406173867335965,10,1,100,0.2809586216403437,-10,-1,-100,19022.609729256597,-0.021443563417558046,-0.010617577934360398,0.9997136793236177,64.89289312568363,3.992252087335095,381.80747776186206,-103.30509066519168,-88.35797119140625,4761.76025390625,True
1599385162.9453883,0.0,10,0.5,0.5,-0.0479498176574707,-0.001,-0.02275,-0.5,-0.11882787750678137,10,1,100,0.23247367259357413,-10,-1,-100,19022.609729256597,-0.021443563417558046,-0.010617577934360398,0.9997136793236177,64.89289312568363,3.992252087335095,381.80747776186206,-103.30509066519168,-88.35797119140625,4761.76025390625,True
1599385162.979856,0.0,10,0.5,0.5,0.020452513122558594,-0.001,-0.02275,-0.5,-0.02265087514418984,10,1,100,0.29183431073371896,-10,-1,-100,19016.389581481344,-0.02197676034118741,-0.009746294965724931,0.9997109741016886,65.16772018525306,4.010068869428793,385.62203621338585,-103.85113947775812,-88.49142456054688,4761.76025390625,True
1599385163.1708605,0.0,10,0.5,0.5,-0.021792083740234378,-0.001,-0.02275,-0.5,-0.07589524753045271,10,1,100,0.253657404291343,-10,-1,-100,19014.308918307768,-0.022108017977130644,-0.009442013661691248,0.9997110001991253,65.25242533927083,4.015594462221609,386.85738036330883,-104.03314790854776,-88.53671264648438,4761.76025390625,True
1599385163.198301,0.0,10,0.5,0.5,0.028432613372802736,-0.001,-0.02275,-0.5,-0.0017027930438103384,10,1,100,0.270305514397895,-10,-1,-100,19008.045088871615,-0.022372696359384017,-0.008494845188922386,0.9997136090215173,65.48751545583143,4.03103585609583,390.4632761930761,-104.57915012985478,-88.67849731445312,4761.76025390625,True
1599385163.232387,0.0,10,0.5,0.5,-0.040520610809326174,-0.001,-0.02275,-0.5,-0.09593491434400309,10,1,100,0.24436632708403383,-10,-1,-100,19008.045088871615,-0.022372696359384017,-0.008494845188922386,0.9997136090215173,65.48751545583143,4.03103585609583,390.4632761930761,-104.57915012985478,-88.67849731445312,4761.76025390625,True
1599385163.3226728,0.0,10,0.5,0.5,0.03327824020385742,-0.001,-0.02275,-0.5,0.01475963651879146,10,1,100,0.2538553415385966,-10,-1,-100,19001.74850087706,-0.022454154209775715,-0.00749293768995783,0.9997197941640937,65.69333732854821,4.044729486889265,393.91225927800184,-105.1251184663866,-88.82192993164062,4761.76025390625,True
1599385163.3964753,0.0,10,0.5,0.5,0.013820972442626957,-0.001,-0.02275,-0.5,-0.0064105578592431045,10,1,100,0.24110069539336698,-10,-1,-100,18997.532577009988,-0.022409024375512655,-0.006779215523393498,0.9997259013666823,65.81497860655584,4.052929768335284,396.1270289585696,-105.48907909876293,-88.92245483398438,4761.76025390625,True
1599385163.4223716,0.0,10,0.5,0.5,0.016046400451660163,-0.001,-0.02275,-0.5,-0.0022162068365216836,10,1,100,0.23139335803999106,-10,-1,-100,18993.302095392137,-0.022277315831042675,-0.0060971283479864715,0.9997332375315288,65.92540554079187,4.060464195916972,398.2806574537709,-105.85302537728808,-89.02340698242188,4761.76025390625,True
1599385163.4443483,0.0,10,0.5,0.5,-0.008322389984130867,-0.001,-0.02275,-0.5,-0.03073228923477704,10,1,100,0.2346292627470879,-10,-1,-100,18991.181395418476,-0.022185273591024422,-0.005741363635861898,0.9997373907078259,65.97594830944395,4.063952808715193,399.3314791867984,-106.0349932125567,-89.07168579101562,4761.76025390625,True
1599385163.4692788,0.0,10,0.5,0.5,-0.007001290893554685,-0.001,-0.02275,-0.5,-0.026470588056114422,10,1,100,0.23170311360544793,-10,-1,-100,18989.057056330843,-0.02207387423745395,-0.005384132469410783,0.9997418442746611,66.02343895707656,4.067259415607204,400.3652007342666,-106.21695761601335,-89.11886596679688,4761.76025390625,True
1599385163.4962034,0.0,10,0.5,0.5,0.01732865219116211,-0.001,-0.02275,-0.5,0.017419187107007912,10,1,100,0.21232852069964808,-10,-1,-100,18984.79746027128,-0.02179589642522816,-0.004665136585213156,0.9997515568378286,66.10916526996805,4.073319761414565,402.38031936027653,-106.58087628045978,-89.2110595703125,4761.76025390625,True
1599385163.5191424,0.0,10,0.5,0.5,-0.00358762741088867,-0.001,-0.02275,-0.5,-0.014063332826292609,10,1,100,0.22183607135212824,-10,-1,-100,18982.66220346163,-0.02162930129912938,-0.004303120000199089,0.9997567986683439,66.14774547870189,4.076094503568975,403.3635977504636,-106.76283058174738,-89.2574462890625,4761.76025390625,True
1599385163.5490944,0.0,10,0.5,0.5,-0.025038287353515626,-0.001,-0.02275,-0.5,-0.04972067383114676,10,1,100,0.23846083805780036,-10,-1,-100,18982.66220346163,-0.02162930129912938,-0.004303120000199089,0.9997567986683439,66.14774547870189,4.076094503568975,403.3635977504636,-106.76283058174738,-89.2574462890625,4761.76025390625,True
1599385163.5801487,0.0,10,0.5,0.5,0.046611116790771484,-0.001,-0.02275,-0.5,0.06981308182173429,10,1,100,0.17212066271801535,-10,-1,-100,18976.234599584015,-0.021026643993020427,-0.003221121215774254,0.9997737267104512,66.24752835424489,4.083468571776016,406.22229120344184,-107.30867363213423,-89.39718627929688,4761.76025390625,True
1599385163.6131594,0.0,10,0.5,0.5,-0.021623860931396486,-0.001,-0.02275,-0.5,-0.037859424223434385,10,1,100,0.23225178809227434,-10,-1,-100,18976.234599584015,-0.021026643993020427,-0.003221121215774254,0.9997737267104512,66.24752835424489,4.083468571776016,406.22229120344184,-107.30867363213423,-89.39718627929688,4761.76025390625,True
1599385163.648067,0.0,10,0.5,0.5,0.0037401603698730447,-0.001,-0.02275,-0.5,0.0037955878530343545,10,1,100,0.2057009889457486,-10,-1,-100,18974.08478732896,-0.020786496775657796,-0.0028472335823274,0.9997798831806545,66.27572967717377,4.08562561162873,407.1460885806479,-107.49061490584691,-89.44454956054688,4761.76025390625,True
1599385163.6849682,0.0,10,0.5,0.5,0.05417563247680664,-0.001,-0.02275,-0.5,0.08755706774167328,10,1,100,0.1408270492101049,-10,-1,-100,18967.61351796775,-0.019979934087216933,-0.0017500911021222977,0.9997988494767359,66.34492066561066,4.091179307549797,409.8274733979373,-108.03641966295986,-89.58966064453125,4761.76025390625,True
1599385163.714888,0.0,10,0.5,0.5,-0.01686201629638672,-0.001,-0.02275,-0.5,-0.021654267836709845,10,1,100,0.22124040902536168,-10,-1,-100,18967.61351796775,-0.019979934087216933,-0.0017500911021222977,0.9997988494767359,66.34492066561066,4.091179307549797,409.8274733979373,-108.03641966295986,-89.58966064453125,4761.76025390625,True
1599385163.7478328,0.0,10,0.5,0.5,0.08027487411499024,-0.001,-0.02275,-0.5,0.13739760734991352,10,1,100,0.080260354495373,-10,-1,-100,18958.93421862775,-0.018700385756711423,-0.00030811681610377987,0.9998250850206639,66.4033094885045,4.096570172061334,413.2022691807411,-108.76411660924688,-89.78097534179688,4761.76025390625,True
1599385163.781286,0.0,10,0.5,0.5,-0.013768840789794921,-0.001,-0.02275,-0.5,-0.006256496569962439,10,1,100,0.20786669876249272,-10,-1,-100,18958.93421862775,-0.018700385756711423,-0.00030811681610377987,0.9998250850206639,66.4033094885045,4.096570172061334,413.2022691807411,-108.76411660924688,-89.78097534179688,4761.76025390625,True
1599385163.8172352,0.0,10,0.5,0.5,0.05279345779418945,-0.001,-0.02275,-0.5,0.1117955651939668,10,1,100,0.08544312753095885,-10,-1,-100,18952.386541676824,-0.01759051100777088,0.0007604691857016614,0.9998449857898488,66.42389535356543,4.099232909040628,415.5937754259987,-109.30985837040721,-89.91082763671875,4761.76025390625,True
1599385163.8482475,0.0,10,0.5,0.5,0.030373467254638672,-0.001,-0.02275,-0.5,0.08410668433935414,10,1,100,0.10554761449734615,-10,-1,-100,18948.00323276536,-0.016768125104262507,0.001475261537963843,0.9998583167548701,66.42767561124091,4.100416345255659,417.1274022681709,-109.6736718007211,-89.99249267578125,4761.76025390625,True
1599385163.8808584,0.0,10,0.5,0.5,-0.00878682174682617,-0.001,-0.02275,-0.5,0.013205287266952265,10,1,100,0.1873000872286969,-10,-1,-100,18948.00323276536,-0.016768125104262507,0.001475261537963843,0.9998583167548701,66.42767561124091,4.100416345255659,417.1274022681709,-109.6736718007211,-89.99249267578125,4761.76025390625,True
1599385163.91446,0.0,10,0.5,0.5,0.04771668472290039,-0.001,-0.02275,-0.5,0.12013853686938918,10,1,100,0.05011889728523483,-10,-1,-100,18941.40098409762,-0.015525442628590003,0.002442128914769485,0.9998764906915003,66.41990314802263,4.101391475562884,419.34465017342853,-110.21937147088263,-90.10193634033203,4761.76025390625,True
1599385163.9503639,0.0,10,0.5,0.5,-0.005401841163635254,-0.001,-0.02275,-0.5,0.024018124201879352,10,1,100,0.17383702471604212,-10,-1,-100,18941.40098409762,-0.015525442628590003,0.002442128914769485,0.9998764906915003,66.41990314802263,4.101391475562884,419.34465017342853,-110.21937147088263,-90.10193634033203,4761.76025390625,True
1599385163.9822795,0.0,10,0.5,0.5,0.0294557071685791,-0.001,-0.02275,-0.5,0.09676874759374832,10,1,100,0.07213714303425964,-10,-1,-100,18936.981295426842,-0.01460589934181419,0.003098349809122345,0.9998885277534076,66.40849650844956,4.101674398006487,420.78394564685317,-110.58315770341301,-90.1683120727539,4761.76025390625,True
1599385164.013363,0.0,10,0.5,0.5,0.028435679054260254,-0.001,-0.02275,-0.5,0.09547386972616975,10,1,100,0.06589147826319161,-10,-1,-100,18932.54705554538,-0.013718790853584508,0.00367773756574564,0.9998991294245201,66.39102313921714,4.101594870771228,422.18480637136935,-110.9469332196775,-90.22923278808594,4761.76025390625,True
1599385164.0474045,0.0,10,0.5,0.5,0.013423885917663574,-0.001,-0.02275,-0.5,0.07178170083600852,10,1,100,0.10013806090618041,-10,-1,-100,18930.324479140225,-0.013229353109433453,0.003984135964885472,0.9999045508831926,66.38154948895253,4.10151377344145,422.8804874776698,-111.1288169850229,-90.25716400146484,4761.76025390625,True
1599385164.0823615,0.0,10,0.5,0.5,0.02862373809814453,-0.001,-0.02275,-0.5,0.10430942045394354,10,1,100,0.04193347617257992,-10,-1,-100,18925.86841360468,-0.012261414008970474,0.004553173572387448,0.9999144595098725,66.35825859664487,4.101090565508705,424.2439063022038,-111.4925768030528,-90.31234741210938,4761.76025390625,True
1599385164.1132774,0.0,10,0.5,0.5,0.015018942260742189,-0.001,-0.02275,-0.5,0.07728036671747052,10,1,100,0.08504086159271657,-10,-1,-100,18923.634924375452,-0.011779208304866954,0.004820342463068134,0.9999190039949482,66.34505662159543,4.100786321288519,424.91547763176345,-111.67445289416413,-90.33785247802734,4761.76025390625,True
1599385164.1482143,0.0,10,0.5,0.5,0.026627802467346192,-0.001,-0.02275,-0.5,0.10872168335259735,10,1,100,0.022743773558866406,-10,-1,-100,18919.157033651252,-0.010780794298512248,0.005344391188297937,0.9999276033579227,66.31746150900624,4.1001101852821735,426.25050899299663,-112.03819730040922,-90.38394927978516,4761.76025390625,True
1599385164.1802998,0.0,10,0.5,0.5,0.02474972457885742,-0.001,-0.02275,-0.5,0.10968073788578762,10,1,100,0.012466436459030478,-10,-1,-100,18914.66459347878,-0.009785905516108787,0.005825350596078945,0.9999351485689773,66.28806377502455,4.099329764960519,427.57324393631103,-112.4019316005941,-90.42405700683594,4761.76025390625,True
1599385164.2172947,0.0,10,0.5,0.5,0.014602802658081055,-0.001,-0.02275,-0.5,0.08783989693951294,10,1,100,0.05480110048068367,-10,-1,-100,18912.41291764297,-0.009272669222837173,0.0060600786954063506,0.9999386446436047,66.27334733030209,4.09894072485629,428.2342083519815,-112.58379497753936,-90.4418716430664,4761.76025390625,True
1599385164.246305,0.0,10,0.5,0.5,0.022901552772521972,-0.001,-0.02275,-0.5,0.11261758308613715,10,1,100,-0.006459500347381519,-10,-1,-100,18907.89865392924,-0.008255990272227318,0.006494551553257446,0.9999448281904091,66.24295497192958,4.098107171085666,429.5493424974366,-112.94751414908788,-90.47417449951172,4761.76025390625,True
1599385164.2802286,0.0,10,0.5,0.5,0.020772526359558105,-0.001,-0.02275,-0.5,0.1128646753047903,10,1,100,-0.016469775350370655,-10,-1,-100,18903.36984179658,-0.007247342773787879,0.006888089150893027,0.9999500138759779,66.21313779907081,4.097313268516651,430.86738476578694,-113.31122325757457,-90.50047302246094,4761.76025390625,True
1599385164.313141,0.0,10,0.5,0.5,0.014125822067260742,-0.001,-0.02275,-0.5,0.09466689557652451,10,1,100,0.026829111275937477,-10,-1,-100,18901.099980363273,-0.006731542289859191,0.007076374460090118,0.9999523044940196,66.19910464668285,4.096971704099429,431.53180999708474,-113.49307400483772,-90.51164245605469,4761.76025390625,True
1599385164.3481688,0.0,10,0.5,0.5,0.019000312995910644,-0.001,-0.02275,-0.5,0.11375856257066658,10,1,100,-0.03375619063043574,-10,-1,-100,18896.54934626771,-0.005719015793549678,0.0074174871459878845,0.9999561359093669,66.17180775046936,4.096338033073243,432.86514304789284,-113.8567677876906,-90.53096008300781,4761.76025390625,True
1599385164.3800912,0.0,10,0.5,0.5,0.01720243625640869,-0.001,-0.02275,-0.5,0.11293757844366012,10,1,100,-0.042633604021256294,-10,-1,-100,18891.98416495812,-0.004725105925224511,0.007716726323303757,0.99995906191646,66.14735418223171,4.095882159448362,434.2164394461298,-114.22045130500987,-90.54528045654297,4761.76025390625,True
1599385164.4130316,0.0,10,0.5,0.5,0.015773764228820798,-0.001,-0.02275,-0.5,0.11290506323789035,10,1,100,-0.054622140001931704,-10,-1,-100,18887.404436400626,-0.0037202959425447725,0.007985073082303536,0.9999611982501972,66.12720305335552,4.095693701920223,435.59550477354156,-114.58412443674138,-90.55541229248047,4761.76025390625,True
1599385164.446153,0.0,10,0.5,0.5,0.01311464729309082,-0.001,-0.02275,-0.5,0.0990241506589217,10,1,100,-0.007981333274886843,-10,-1,-100,18885.109117282555,-0.003238604308596714,0.008099714658394605,0.9999619523084788,66.11825457702794,4.095669431342725,436.2923334411813,-114.76595707409793,-90.55911254882812,4761.76025390625,True
1599385164.483021,0.0,10,0.5,0.5,0.014126261329650879,-0.001,-0.02275,-0.5,0.11956684233842058,10,1,100,-0.11732162715823363,-10,-1,-100,18878.201340310392,-0.001814464336973754,0.008387704768113452,0.9999631763859571,66.1001035914446,4.096135035787043,438.4400872913232,-115.3114389371622,-90.5638198852539,4761.76025390625,True
1599385164.5149322,0.0,10,0.5,0.5,0.01218179874420166,-0.001,-0.02275,-0.5,0.09107216272451743,10,1,100,0.02419573700790852,-10,-1,-100,18878.201340310392,-0.001814464336973754,0.008387704768113452,0.9999631763859571,66.1001035914446,4.096135035787043,438.4400872913232,-115.3114389371622,-90.5638198852539,4761.76025390625,True
1599385164.5469766,0.0,10,0.5,0.5,0.009548923110961914,-0.001,-0.02275,-0.5,0.1178245486764285,10,1,100,-0.17280565045527574,-10,-1,-100,18868.940061243135,-3.0789397471292756e-05,0.008628578863883522,0.9999627726464633,66.10121097817101,4.098322074139339,441.47282982624364,-116.03870945685543,-90.55792999267578,4761.76025390625,True
1599385164.5809112,0.0,10,0.5,0.5,0.012757902145385741,-0.001,-0.02275,-0.5,0.09399398911626929,10,1,100,0.004637655512433815,-10,-1,-100,18868.940061243135,-3.0789397471292756e-05,0.008628578863883522,0.9999627726464633,66.10121097817101,4.098322074139339,441.47282982624364,-116.03870945685543,-90.55792999267578,4761.76025390625,True
1599385164.6178198,0.0,10,0.5,0.5,0.01125133285522461,-0.001,-0.02275,-0.5,0.09856792747442968,10,1,100,-0.04573274239891144,-10,-1,-100,18866.61565084965,0.00041964585547297687,0.008668220096857138,0.9999623422198001,66.10745160297283,4.099237922535765,442.2712944921062,-116.22051997096133,-90.5545425415039,4761.76025390625,True
1599385164.6487052,0.0,10,0.5,0.5,0.0033822908401489257,-0.001,-0.02275,-0.5,0.10038611684174764,10,1,100,-0.18324396140705498,-10,-1,-100,18857.281647938187,0.0020722644503788352,0.008719168274766985,0.9999598401059133,66.14962783658724,4.103965712988269,445.58405173801106,-116.94773168899778,-90.53520965576172,4761.76025390625,True
1599385164.6806479,0.0,10,0.5,0.5,0.01310234909057617,-0.001,-0.02275,-0.5,0.09545557843223064,10,1,100,-0.018862482590492956,-10,-1,-100,18857.281647938187,0.0020722644503788352,0.008719168274766985,0.9999598401059133,66.14962783658724,4.103965712988269,445.58405173801106,-116.94773168899778,-90.53520965576172,4761.76025390625,True
1599385164.7136273,0.0,10,0.5,0.5,0.006464990806579592,-0.001,-0.02275,-0.5,0.09213772664710129,10,1,100,-0.10482402726614494,-10,-1,-100,18852.592830774956,0.0028466500562993728,0.008687822639330555,0.9999582082873486,66.18152779630003,4.106998148813439,447.31588877562183,-117.3113191240079,-90.52194213867188,4761.76025390625,True
1599385164.7491646,0.0,10,0.5,0.5,0.009479423904418945,-0.001,-0.02275,-0.5,0.09219644777567357,10,1,100,-0.06632553432649049,-10,-1,-100,18850.242968480452,0.0031937672567925266,0.008658977620724434,0.9999574100716856,66.20029715860885,4.108688709780465,448.2016829866465,-117.49310813884063,-90.51482391357422,4761.76025390625,True
1599385164.7811675,0.0,10,0.5,0.5,0.005496483230590819,-0.001,-0.02275,-0.5,0.08583721489625523,10,1,100,-0.11054116145246184,-10,-1,-100,18845.532336941687,0.0039050030827502812,0.008574331028052865,0.9999556149141545,66.24821394342614,4.11271288518541,450.0455526857597,-117.85667609924622,-90.49995422363281,4761.76025390625,True
1599385164.8131392,0.0,10,0.5,0.5,0.00040475997924804656,-0.001,-0.02275,-0.5,0.07333349561583438,10,1,100,-0.14628594080608115,-10,-1,-100,18838.439122876385,0.004870039457389009,0.008383277935466105,0.9999530005788974,66.34120025986613,4.120057662031598,452.96091509832536,-118.40200265051017,-90.4752197265625,4761.76025390625,True
1599385164.8470752,0.0,10,0.5,0.5,0.012570443153381348,-0.001,-0.02275,-0.5,0.0924383621912456,10,1,100,-0.05045075372164464,-10,-1,-100,18838.439122876385,0.004870039457389009,0.008383277935466105,0.9999530005788974,66.34120025986613,4.120057662031598,452.96091509832536,-118.40200265051017,-90.4752197265625,4761.76025390625,True
1599385164.8831172,0.0,10,0.5,0.5,-0.0013609195709228528,-0.001,-0.02275,-0.5,0.06347241546364447,10,1,100,-0.14443801561382189,-10,-1,-100,18831.31319045252,0.005718392289323018,0.008119955171426683,0.9999506819426843,66.45810240815305,4.128885718603406,456.0484259171726,-118.94729711665374,-90.44781494140625,4761.76025390625,True
1599385164.9130137,0.0,10,0.5,0.5,0.002882976341247557,-0.001,-0.02275,-0.5,0.06588809525392592,10,1,100,-0.11682575075296396,-10,-1,-100,18826.544392930577,0.006233375018085414,0.00790299395102291,0.9999493425781599,66.55124040117401,4.1357148895777796,458.21687014742344,-119.31080816427578,-90.42943572998047,4761.76025390625,True
1599385164.9470804,0.0,10,0.5,0.5,0.011780257606506347,-0.001,-0.02275,-0.5,0.08751165880301717,10,1,100,-0.06595389431828007,-10,-1,-100,18826.544392930577,0.006233375018085414,0.00790299395102291,0.9999493425781599,66.55124040117401,4.1357148895777796,458.21687014742344,-119.31080816427578,-90.42943572998047,4761.76025390625,True
1599385164.9800591,0.0,10,0.5,0.5,0.0022303197860717786,-0.001,-0.02275,-0.5,0.061356611016833595,10,1,100,-0.11437724305616538,-10,-1,-100,18821.76105555345,0.006668302071009269,0.007665916449462909,0.9999483824040518,66.65611436043851,4.143273222595372,460.47147169096627,-119.67430356809619,-90.41094207763672,4761.76025390625,True
1599385165.0155897,0.0,10,0.5,0.5,0.0066955587387084944,-0.001,-0.02275,-0.5,0.07066794481078051,10,1,100,-0.09384177529847733,-10,-1,-100,18819.36393459735,0.006872826014396855,0.007535997438739974,0.9999479851498173,66.71345768178428,4.1473574323680555,461.63484336543354,-119.85604531732305,-90.40196228027344,4761.76025390625,True
1599385165.04705,0.0,10,0.5,0.5,0.0018042938232421864,-0.001,-0.02275,-0.5,0.05221303918604236,10,1,100,-0.11530703387288,-10,-1,-100,18814.558788270806,0.007249531439458304,0.007251192987708802,0.9999474308653247,66.83753039392997,4.156109935750692,464.0313557381244,-120.21951648298119,-90.38384246826172,4761.76025390625,True
1599385165.0839186,0.0,10,0.5,0.5,-0.0036155195236206063,-0.001,-0.02275,-0.5,0.02931961792260076,10,1,100,-0.12743800734413474,-10,-1,-100,18807.323810033966,0.007698269874359066,0.0067854638658779234,0.9999473456742942,67.04506110961484,4.17057267660817,467.7879864169201,-120.76469118885527,-90.3555679321289,4761.76025390625,True
1599385165.1228151,0.0,10,0.5,0.5,0.0003857519149780275,-0.001,-0.02275,-0.5,0.03814482473249345,10,1,100,-0.10921338283803589,-10,-1,-100,18802.48231924523,0.007936440499106526,0.0064440061022623734,0.9999477424833552,67.19770792831073,4.181105165038127,470.4016049532998,-121.12811914412869,-90.3360595703125,4761.76025390625,True
1599385165.1497753,0.0,10,0.5,0.5,0.009767072486877441,-0.001,-0.02275,-0.5,0.0720775686014694,10,1,100,-0.08579946410492545,-10,-1,-100,18802.48231924523,0.007936440499106526,0.0064440061022623734,0.9999477424833552,67.19770792831073,4.181105165038127,470.4016049532998,-121.12811914412869,-90.3360595703125,4761.76025390625,True
1599385165.180696,0.0,10,0.5,0.5,5.902652740478499e-05,-0.001,-0.02275,-0.5,0.03324071532182978,10,1,100,-0.10562774349107194,-10,-1,-100,18797.626292076893,0.008113909947124479,0.006092706774114017,0.9999485203696912,67.36179128204559,4.192350845146561,473.1035637189637,-121.49152880598632,-90.31731414794922,4761.76025390625,True
