Timestamp,Input Throttle,horizon,dT,dt,Input Roll,Roll P,Roll I,Roll D,Input Pitch,Pitch P,Pitch I,Pitch D,Input Yaw,Yaw P,Yaw I,Yaw D,Altitude,Direction X,Direction Y,Direction Z,Drag X,Drag Y,Drag Z,Vertical Velocity,Roll,Mass,Has Fuel
1599388524.9466724,0.0,10,0.5,0.5,-11.214022758483887,-0.2,-0.02275,-0.37525,0.0008131479343091502,10,1,100,0.5036343440746429,-10,-1,-100,19349.720876845182,-0.04889339684280998,-0.0001655429644541928,0.9988039889491325,61.07631913080774,3.686771421119135,233.7412494880705,-68.66433387422819,-33.92364501953125,4761.76025390625,True
1599388524.9915524,0.0,10,0.5,0.5,-11.342160049438476,-0.2,-0.02275,-0.37525,-0.000730260950238347,10,1,100,0.49960002103178763,-10,-1,-100,19348.34394093766,-0.04894591241480459,-0.00015698184635647462,0.9988014182081353,61.16617983241263,3.692869134558129,234.73077405948504,-68.84679053438273,-33.924835205078125,4761.76025390625,True
1599388525.0322368,0.0,10,0.5,0.5,-11.468720581817628,-0.2,-0.02275,-0.37525,0.00044361512236467337,10,1,100,0.5114348090870613,-10,-1,-100,19345.579121907824,-0.049056746542197806,-0.00013838470029274292,0.9987959834062057,61.34687536362793,3.7051345910257267,236.71980195664426,-69.21169359912886,-33.9273681640625,4761.76025390625,True
1599388525.4315767,0.0,10,0.5,0.5,-11.51044322128296,-0.2,-0.02275,-0.37525,0.02211413414717865,10,1,100,0.5037988786455709,-10,-1,-100,19342.799707451486,-0.04904349024804882,7.56523188092245e-05,0.9987966411342282,61.53134785867622,3.717641531086748,238.7318227390333,-69.5765827325935,-34.0782470703125,4761.76025390625,True
1599388525.472466,0.0,10,0.5,0.5,-11.451107378387452,-0.2,-0.02275,-0.37525,0.028713334524921724,10,1,100,0.5063124862000327,-10,-1,-100,19340.005697685992,-0.04900970505818299,0.00033015538295521447,0.9987982477995908,61.72882262849299,3.7309337086839256,240.80303109089795,-69.94145682189506,-34.5009765625,4761.76025390625,True
1599388525.5103972,0.0,10,0.5,0.5,-10.74735618209839,-0.2,-0.02275,-0.37525,0.1055547208209042,10,1,100,0.4757788317801156,-10,-1,-100,19334.373895247933,-0.048656858295343726,0.0012597797208850868,0.9988147591500047,62.15677211029225,3.759427309869719,245.10242416156848,-70.6711545453032,-36.2196044921875,4761.76025390625,True
1599388525.5432773,0.0,10,0.5,0.5,-11.514621712493897,-0.2,-0.02275,-0.37525,0.01271826500000548,10,1,100,0.515929193893576,-10,-1,-100,19334.373895247933,-0.048656858295343726,0.0012597797208850868,0.9988147591500047,62.15677211029225,3.759427309869719,245.10242416156848,-70.6711545453032,-36.2196044921875,4761.76025390625,True
1599388525.5822089,0.0,10,0.5,0.5,-10.452485173797609,-0.2,-0.02275,-0.37525,0.1294391057452269,10,1,100,0.45928900453585986,-10,-1,-100,19330.111736510415,-0.04809771397545963,0.0023197330188226587,0.9988399415066742,62.47876561582528,3.780685889184274,248.35621761378863,-71.21837989444928,-38.2786865234375,4761.76025390625,True
1599388525.6211095,0.0,10,0.5,0.5,-10.342260971832278,-0.2,-0.02275,-0.37525,0.12260283270297247,10,1,100,0.4640114720076929,-10,-1,-100,19327.252057059086,-0.04758860728533124,0.003219070141091936,0.998861833310328,62.673393873765995,3.7935089211392126,250.4573101789335,-71.58317350643138,-40.018035888671875,4761.76025390625,True
1599388525.659999,0.0,10,0.5,0.5,-9.938832473754882,-0.2,-0.02275,-0.37525,0.13964738345479907,10,1,100,0.44691409270688043,-10,-1,-100,19324.377786505618,-0.046927089930402295,0.004188673377134165,0.9988895350568069,62.83575803726291,3.8042318364307124,252.43749973412258,-71.94794942747862,-42.0516357421875,4761.76025390625,True
1599388525.6988952,0.0,10,0.5,0.5,-9.47233120880127,-0.2,-0.02275,-0.37525,0.163223647448517,10,1,100,0.4306550539531287,-10,-1,-100,19321.488925303798,-0.04613524008276878,0.005280652652227141,0.9989212453091945,62.94771843240705,3.811722719106644,254.2215074139347,-72.31270994421533,-44.3787841796875,4761.76025390625,True
1599388525.738789,0.0,10,0.5,0.5,-10.32180821838379,-0.2,-0.02275,-0.37525,0.054570339500887535,10,1,100,0.5095642230404762,-10,-1,-100,19321.488925303798,-0.04613524008276878,0.005280652652227141,0.9989212453091945,62.94771843240705,3.811722719106644,254.2215074139347,-72.31270994421533,-44.3787841796875,4761.76025390625,True
1599388525.777684,0.0,10,0.5,0.5,-8.790223749542237,-0.2,-0.02275,-0.37525,0.18375080285320172,10,1,100,0.4059925889271075,-10,-1,-100,19318.585474207182,-0.04519623492931273,0.006450077196794921,0.9989573048195652,62.98939115605862,3.814745698415435,255.72546761856304,-72.67745846187464,-46.999908447265625,4761.76025390625,True
1599388525.8165793,0.0,10,0.5,0.5,-8.067079049682617,-0.2,-0.02275,-0.37525,0.20294057828030293,10,1,100,0.37926574482984543,-10,-1,-100,19315.667433607858,-0.04410313212675293,0.007681653412196471,0.9989974504158983,62.93859287207827,3.8119312544639397,256.85447929530807,-73.0421995256444,-49.915130615234375,4761.76025390625,True
1599388525.8574703,0.0,10,0.5,0.5,-5.263923583221436,-0.2,-0.02275,-0.37525,0.3752151356260194,10,1,100,0.19598679632254912,-10,-1,-100,19309.787582868244,-0.041447721281742504,0.010360485946528586,0.9990869565415728,62.46079016169725,3.7827639260555896,257.55735006030073,-73.7716856266412,-56.627105712890625,4761.76025390625,True
1599388525.8973641,0.0,10,0.5,0.5,-5.5477167358398445,-0.2,-0.02275,-0.37525,0.25875155402446404,10,1,100,0.2888582794175966,-10,-1,-100,19306.825772359385,-0.03988487216330295,0.011727909935394938,0.9991354528296272,61.98046479958218,3.7532101875076447,256.8946027977115,-74.13644724347502,-60.424652099609375,4761.76025390625,True
1599388525.9362094,0.0,10,0.5,0.5,-6.91767953414917,-0.2,-0.02275,-0.37525,0.12305596815927969,10,1,100,0.44426599264834804,-10,-1,-100,19306.825772359385,-0.03988487216330295,0.011727909935394938,0.9991354528296272,61.98046479958218,3.7532101875076447,256.8946027977115,-74.13644724347502,-60.424652099609375,4761.76025390625,True
1599388525.9761043,0.0,10,0.5,0.5,-4.507841360473632,-0.2,-0.02275,-0.37525,0.26304562392283065,10,1,100,0.2580934266423336,-10,-1,-100,19303.849370912765,-0.03820036882336831,0.012991026687595848,0.9991856509414858,61.3015396654534,3.7114583117148006,255.38546113886406,-74.50123422578037,-64.51812744140625,4761.76025390625,True
1599388526.016021,0.0,10,0.5,0.5,-3.4602893020629892,-0.2,-0.02275,-0.37525,0.27969588326984773,10,1,100,0.2224802618914,-10,-1,-100,19300.858376746182,-0.03635424369401205,0.0142809794621434,0.9992369201500904,60.39444545933572,3.6558021256487834,252.89359254428453,-74.86605732705559,-68.90567016601562,4761.76025390625,True
1599388526.055888,0.0,10,0.5,0.5,-2.3476884643554685,-0.2,-0.02275,-0.37525,0.29211265461649194,10,1,100,0.1831579064216044,-10,-1,-100,19297.852788196178,-0.034328685220863964,0.015556487260955165,0.9992895161438984,59.230898876048734,3.584644842771634,249.28546066077334,-75.23092752083434,-73.587646484375,4761.76025390625,True
1599388526.098774,0.0,10,0.5,0.5,-1.1690698715209964,-0.2,-0.02275,-0.37525,0.28912326470180827,10,1,100,0.15349665949547703,-10,-1,-100,19294.832603365998,-0.032229073822955034,0.016678529157119808,0.999341339816216,57.78447539302683,3.496529554003748,244.43281906663435,-75.59585488932366,-78.56597900390625,4761.76025390625,True
1599388526.138667,0.0,10,0.5,0.5,3.277576144409179,-0.2,-0.02275,-0.37525,0.3995189305822461,10,1,100,-0.1371609550904926,-10,-1,-100,19288.748433196568,-0.027690636207037933,0.018691802501178106,0.9994417667806895,53.95421203027107,3.26465175731185,230.54092699798184,-76.32591219453778,-89.408203125,4761.76025390625,True
1599388526.178598,0.0,10,0.5,0.5,2.685067718887329,-0.2,-0.02275,-0.37525,0.29111392406842096,10,1,100,0.05331526498697345,-10,-1,-100,19285.684443076374,-0.025313153651340924,0.01952435898215183,0.999488891213184,52.703771822006786,3.189724348631096,226.32762885678906,-76.69102965583328,-95.27277374267578,4761.76025390625,True
1599388526.2204478,0.0,10,0.5,0.5,0.5942083631515503,-0.2,-0.02275,-0.37525,0.2091657041495842,10,1,100,0.2890752124288772,-10,-1,-100,19285.684443076374,-0.025313153651340924,0.01952435898215183,0.999488891213184,52.703771822006786,3.189724348631096,226.32762885678906,-76.69102965583328,-95.27277374267578,4761.76025390625,True
1599388526.2603805,0.0,10,0.5,0.5,4.068151689529419,-0.2,-0.02275,-0.37525,0.2843916666771066,10,1,100,0.03536956065081842,-10,-1,-100,19282.6058500628,-0.023023820433790764,0.020197465272792984,0.9995308730045244,54.56109811503427,3.3034920627506468,235.47307696771827,-77.05607542086689,-101.13240814208984,4761.76025390625,True
1599388526.3032267,0.0,10,0.5,0.5,8.295913987922667,-0.2,-0.02275,-0.37525,0.3271407956086992,10,1,100,-0.26951781690292403,-10,-1,-100,19276.40487058938,-0.01818765398630019,0.021189065818820997,0.9996100403318287,57.545566573009786,3.4881447222428434,250.81783924284812,-77.78589548706664,-112.12821960449219,4761.76025390625,True
1599388526.3451147,0.0,10,0.5,0.5,7.244611215400695,-0.2,-0.02275,-0.37525,0.26229596398010213,10,1,100,-0.04268129961874331,-10,-1,-100,19273.282490933314,-0.01587301393496222,0.02149242134051065,0.999642997901522,58.76885271535096,3.5644545152540106,257.40643312781424,-78.15067952452186,-117.26902770996094,4761.76025390625,True
1599388526.385008,0.0,10,0.5,0.5,8.236802458763123,-0.2,-0.02275,-0.37525,0.2593876858868358,10,1,100,-0.05572301598209456,-10,-1,-100,19270.145521844737,-0.013672063610650275,0.02173288336719417,0.9996703238854168,59.710525655686176,3.6236329020704137,262.80683964523973,-78.51539316092536,-122.12249755859375,4761.76025390625,True
1599388526.4249015,0.0,10,0.5,0.5,9.169928320884704,-0.2,-0.02275,-0.37525,0.2485467807312167,10,1,100,-0.08444404926574037,-10,-1,-100,19266.993966038455,-0.011432397836163288,0.021844984383964833,0.9996960022611775,60.36911939387676,3.6654453152157482,266.9947591961871,-78.88005190417086,-126.68284606933594,4761.76025390625,True
1599388526.4677866,0.0,10,0.5,0.5,7.590100617408753,-0.2,-0.02275,-0.37525,0.23809307954633235,10,1,100,0.13703034359717342,-10,-1,-100,19266.993966038455,-0.011432397836163288,0.021844984383964833,0.9996960022611775,60.36911939387676,3.6654453152157482,266.9947591961871,-78.88005190417086,-126.68284606933594,4761.76025390625,True
1599388526.5126963,0.0,10,0.5,0.5,12.448339626121522,-0.2,-0.02275,-0.37525,0.24191148626090198,10,1,100,-0.3186434363464269,-10,-1,-100,19260.647100387258,-0.007310723734298467,0.02187398035671273,0.9997340057744534,60.98555987764081,3.7056571872398982,272.32497275909054,-79.60926321424199,-134.91830444335938,4761.76025390625,True
1599388526.5545537,0.0,10,0.5,0.5,11.60083657283783,-0.2,-0.02275,-0.37525,0.22310195253064757,10,1,100,-0.1284662333995228,-10,-1,-100,19257.45179209253,-0.005315283986746537,0.021724621433299784,0.9997498630056021,61.02063528163196,3.708695191938329,273.7845109819622,-79.97384017556426,-138.5943603515625,4761.76025390625,True
1599388526.5977354,0.0,10,0.5,0.5,12.276817813682557,-0.2,-0.02275,-0.37525,0.23245297113308958,10,1,100,-0.1263873908699549,-10,-1,-100,19254.241901199333,-0.0035404876503502105,0.02167109274573556,0.9997588852750464,60.91899952736826,3.703130976847477,274.6297500945531,-80.33841080310087,-141.97293090820312,4761.76025390625,True
1599388526.6386259,0.0,10,0.5,0.5,11.115252069854737,-0.2,-0.02275,-0.37525,0.23802051326587043,10,1,100,0.04891497616957872,-10,-1,-100,19254.241901199333,-0.0035404876503502105,0.02167109274573556,0.9997588852750464,60.91899952736826,3.703130976847477,274.6297500945531,-80.33841080310087,-141.97293090820312,4761.76025390625,True
1599388526.6795158,0.0,10,0.5,0.5,12.995864155769347,-0.2,-0.02275,-0.37525,0.21894580907863914,10,1,100,-0.14706175959936585,-10,-1,-100,19251.0174273554,-0.0017786742942697967,0.021495734767884744,0.9997673577910732,60.7230070966545,3.691578264984487,275.04396768848574,-80.70298160642488,-145.0574493408203,4761.76025390625,True
1599388526.7243962,0.0,10,0.5,0.5,14.97709568748474,-0.2,-0.02275,-0.37525,0.18987730291287824,10,1,100,-0.32388901277774435,-10,-1,-100,19244.524730597273,0.0014111809254799103,0.021070879032427003,0.9997769884455215,60.1566514674773,3.6573074275537305,275.05260594833095,-81.43214016999292,-150.3399658203125,4761.76025390625,True
1599388526.764797,0.0,10,0.5,0.5,14.34574015197754,-0.2,-0.02275,-0.37525,0.21128638850406778,10,1,100,-0.16360307850244263,-10,-1,-100,19241.25650703255,0.002836087327375283,0.02087938203900932,0.9997779793605882,59.83301776649256,3.637520423753294,274.85430997674234,-81.79673187789464,-152.5372314453125,4761.76025390625,True
1599388526.8046896,0.0,10,0.5,0.5,14.69491442527771,-0.2,-0.02275,-0.37525,0.21414823561936375,10,1,100,-0.1676443175852898,-10,-1,-100,19237.973699491704,0.004151187046885743,0.020731867963588207,0.9997764536619383,59.51420400536473,3.6179489882662517,274.66532979253265,-82.16133217685206,-154.43807983398438,4761.76025390625,True
1599388526.8465774,0.0,10,0.5,0.5,14.055139017105104,-0.2,-0.02275,-0.37525,0.22879954162111432,10,1,100,-0.037916670699997344,-10,-1,-100,19237.973699491704,0.004151187046885743,0.020731867963588207,0.9997764536619383,59.51420400536473,3.6179489882662517,274.66532979253265,-82.16133217685206,-154.43807983398438,4761.76025390625,True
1599388526.8874688,0.0,10,0.5,0.5,15.440156395721434,-0.2,-0.02275,-0.37525,0.19828337288074505,10,1,100,-0.23759684275604892,-10,-1,-100,19233.02214285184,0.005952294442956168,0.020455460171785192,0.9997730464160477,59.088180281023156,3.5916838512586344,274.6004821804721,-82.70824559094214,-156.73599243164062,4761.76025390625,True
1599388526.9283593,0.0,10,0.5,0.5,15.001623815536501,-0.2,-0.02275,-0.37525,0.21829437613540598,10,1,100,-0.11896380002503473,-10,-1,-100,19231.36433170433,0.006495378330666316,0.02038736177629044,0.9997710565625233,58.966309455485394,3.5841420174113776,274.66699450911256,-82.89055251296043,-157.35379028320312,4761.76025390625,True
1599388526.9752336,0.0,10,0.5,0.5,15.817315031814577,-0.2,-0.02275,-0.37525,0.1979859274678164,10,1,100,-0.2778698239669348,-10,-1,-100,19224.696625471115,0.008421140171633756,0.020142183354844783,0.9997616600209819,58.610600452320305,3.5619719555864955,275.528253251102,-83.61978290780158,-159.08604431152344,4761.76025390625,True
1599388527.0161245,0.0,10,0.5,0.5,15.457264759063722,-0.2,-0.02275,-0.37525,0.2092455378917219,10,1,100,-0.17631628823258655,-10,-1,-100,19221.340895560686,0.00923613113478428,0.020023092555637376,0.9997568552634033,58.52634988138299,3.5565793533590537,276.39049587993225,-83.98439442707729,-159.50909423828125,4761.76025390625,True
1599388527.057131,0.0,10,0.5,0.5,15.410913173675537,-0.2,-0.02275,-0.37525,0.21985203982804735,10,1,100,-0.17252348535972553,-10,-1,-100,19217.970581622678,0.009930936876272263,0.020012749119588235,0.9997504020331455,58.51034254104186,3.5553402102991485,277.57346604136774,-84.34899869072447,-159.6351318359375,4761.76025390625,True
1599388527.1000102,0.0,10,0.5,0.5,15.403799072265626,-0.2,-0.02275,-0.37525,0.22072054907034672,10,1,100,-0.1043900536635896,-10,-1,-100,19217.970581622678,0.009930936876272263,0.020012749119588235,0.9997504020331455,58.51034254104186,3.5553402102991485,277.57346604136774,-84.34899869072447,-159.6351318359375,4761.76025390625,True
1599388527.1399117,0.0,10,0.5,0.5,15.339830174636841,-0.2,-0.02275,-0.37525,0.2178021880711314,10,1,100,-0.1717972868819298,-10,-1,-100,19214.58568351157,0.010533084804465772,0.019987566733821092,0.9997447430722318,58.56721698440498,3.5585370126525726,279.1036103509602,-84.71359229824446,-159.46627807617188,4761.76025390625,True
1599388527.1797967,0.0,10,0.5,0.5,15.15660620689392,-0.2,-0.02275,-0.37525,0.2229821428919296,10,1,100,-0.16638752596158504,-10,-1,-100,19211.186202067533,0.011023019727294022,0.020012748983584225,0.9997389573854825,58.694479407423394,3.5660190203305935,280.97363415943084,-85.07817142561085,-159.00152587890625,4761.76025390625,True
1599388527.2206995,0.0,10,0.5,0.5,14.908620452499392,-0.2,-0.02275,-0.37525,0.22372436289658282,10,1,100,-0.16169568366236747,-10,-1,-100,19207.772138206637,0.011418319334054164,0.020043177240734306,0.9997339111131932,58.888868255853644,3.5775897038498843,283.1723434798747,-85.44273260434579,-158.24169921875,4761.76025390625,True
1599388527.2645717,0.0,10,0.5,0.5,14.595180554580688,-0.2,-0.02275,-0.37525,0.22973293702290748,10,1,100,-0.1537733584497481,-10,-1,-100,19204.343492412358,0.011699054990733055,0.020126088776312653,0.9997289996108405,59.14381382901624,3.5928537802226854,285.67228550298637,-85.80727253155668,-157.18612670898438,4761.76025390625,True
1599388527.3064556,0.0,10,0.5,0.5,13.274068126296996,-0.2,-0.02275,-0.37525,0.24365100339785634,10,1,100,-0.15374799120948512,-10,-1,-100,19197.442459314596,0.011947176914671613,0.020328541484053664,0.9997219690318406,59.80790732435632,3.6328293150819,291.45745847077654,-86.53627698912196,-154.19009399414062,4761.76025390625,True
1599388527.3493729,0.0,10,0.5,0.5,14.392537483596803,-0.2,-0.02275,-0.37525,0.22339304075498215,10,1,100,-0.12953528706280087,-10,-1,-100,19197.442459314596,0.011947176914671613,0.020328541484053664,0.9997219690318406,59.80790732435632,3.6328293150819,291.45745847077654,-86.53627698912196,-154.19009399414062,4761.76025390625,True
1599388527.3912714,0.0,10,0.5,0.5,11.983485239028932,-0.2,-0.02275,-0.37525,0.25185433066052815,10,1,100,-0.10894898131565152,-10,-1,-100,19190.48311151634,0.011755072500075705,0.020587333956187934,0.9997189504811311,60.601112206287155,3.6808703673032395,297.93550339120696,-87.26516615549394,-150.0147705078125,4761.76025390625,True
1599388527.4341278,0.0,10,0.5,0.5,13.529638229370118,-0.2,-0.02275,-0.37525,0.22601959850723546,10,1,100,-0.12849281600808654,-10,-1,-100,19190.48311151634,0.011755072500075705,0.020587333956187934,0.9997189504811311,60.601112206287155,3.6808703673032395,297.93550339120696,-87.26516615549394,-150.0147705078125,4761.76025390625,True
1599388527.4761875,0.0,10,0.5,0.5,10.428850105285647,-0.2,-0.02275,-0.37525,0.25363238091468254,10,1,100,-0.060807996084816254,-10,-1,-100,19183.465458581224,0.011137466008622983,0.020837846304073315,0.9997208315386424,61.39626737147988,3.7294806687353064,304.4924064210621,-87.993933582451,-144.6619873046875,4761.76025390625,True
1599388527.5170832,0.0,10,0.5,0.5,12.403418098449709,-0.2,-0.02275,-0.37525,0.22866365584459286,10,1,100,-0.12268929814332352,-10,-1,-100,19183.465458581224,0.011137466008622983,0.020837846304073315,0.9997208315386424,61.39626737147988,3.7294806687353064,304.4924064210621,-87.993933582451,-144.6619873046875,4761.76025390625,True
1599388527.5589638,0.0,10,0.5,0.5,10.575963867187502,-0.2,-0.02275,-0.37525,0.24163134675700132,10,1,100,-0.07138076836313312,-10,-1,-100,19179.93477062811,0.010669927984137297,0.020954984314927497,0.9997234824035967,61.74266011328942,3.7509409648049945,307.54203439557756,-88.35827463672545,-141.54440307617188,4761.76025390625,True
1599388527.6018553,0.0,10,0.5,0.5,7.611903622436525,-0.2,-0.02275,-0.37525,0.2430986216825558,10,1,100,0.01752033561900186,-10,-1,-100,19172.829677217756,0.009436577159149381,0.021073932808135333,0.9997333846418843,62.20683487234464,3.780702419872476,312.5390568489531,-89.08689098733984,-134.428955078125,4761.76025390625,True
1599388527.647726,0.0,10,0.5,0.5,7.9265475250244135,-0.2,-0.02275,-0.37525,0.23029589930455077,10,1,100,-0.02289904174782166,-10,-1,-100,19169.255272717215,0.00868424024210253,0.021064714704138274,0.9997403971861148,62.267489329556916,3.785590224351765,314.1888166110011,-89.45117966603748,-130.4315185546875,4761.76025390625,True
1599388527.690611,0.0,10,0.5,0.5,6.895437338256837,-0.2,-0.02275,-0.37525,0.22261585610721954,10,1,100,-0.008629200382595417,-10,-1,-100,19165.666296640295,0.00787305728609602,0.020985587364653023,0.9997487784898418,62.17094034286669,3.7812159524159785,315.0458307724399,-89.81546769368951,-126.14141845703125,4761.76025390625,True
1599388527.7334964,0.0,10,0.5,0.5,8.43467068862915,-0.2,-0.02275,-0.37525,0.23061453991457864,10,1,100,-0.08936489621278278,-10,-1,-100,19165.666296640295,0.00787305728609602,0.020985587364653023,0.9997487784898418,62.17094034286669,3.7812159524159785,315.0458307724399,-89.81546769368951,-126.14141845703125,4761.76025390625,True
1599388527.7743573,0.0,10,0.5,0.5,5.734502262878419,-0.2,-0.02275,-0.37525,0.21673091729392885,10,1,100,0.009682897456914738,-10,-1,-100,19162.06274873379,0.006976326543306565,0.0208587752991193,0.9997580919207316,61.88225599806226,3.765423992197018,314.92250161285693,-90.17976693618438,-121.55844116210938,4761.76025390625,True
1599388527.8172395,0.0,10,0.5,0.5,4.575543290710449,-0.2,-0.02275,-0.37525,0.2066680533196451,10,1,100,0.02437938350440108,-10,-1,-100,19158.44462827628,0.006032031313403881,0.020651528990854182,0.9997685376868859,61.367806909350115,3.736097436645812,313.6348409307366,-90.54409081029598,-116.68319702148438,4761.76025390625,True
1599388527.8611503,0.0,10,0.5,0.5,0.21585848655700746,-0.2,-0.02275,-0.37525,0.15699223155738024,10,1,100,0.15729303770856043,-10,-1,-100,19151.164663091884,0.003970477921806058,0.020011466517288336,0.9997918665966933,59.65370663623191,3.6358569490803077,307.4680179553568,-91.27286817503817,-106.0560073852539,4761.76025390625,True
1599388527.9020457,0.0,10,0.5,0.5,4.10370521144867,-0.2,-0.02275,-0.37525,0.2209408921700749,10,1,100,-0.04808384199339495,-10,-1,-100,19151.164663091884,0.003970477921806058,0.020011466517288336,0.9997918665966933,59.65370663623191,3.6358569490803077,307.4680179553568,-91.27286817503817,-106.0560073852539,4761.76025390625,True
1599388527.9429364,0.0,10,0.5,0.5,0.7072542907714845,-0.2,-0.02275,-0.37525,0.17225940753402658,10,1,100,0.07042966291039782,-10,-1,-100,19147.502814159263,0.002899597866395957,0.019569658820403155,0.9998042912419741,58.48587758476749,3.5665467416266554,302.7238317853037,-91.63734186028555,-100.30438232421875,4761.76025390625,True
1599388527.986837,0.0,10,0.5,0.5,-4.165555018234253,-0.2,-0.02275,-0.37525,0.0920778830660404,10,1,100,0.19917942683826886,-10,-1,-100,19140.13537084742,0.0007631071149899713,0.018440245407601908,0.9998296730027763,55.94059659172804,3.4137793080617684,291.9943656359895,-92.36648382838494,-88.25711059570312,4761.76025390625,True
1599388528.0273204,0.0,10,0.5,0.5,0.23395510749816895,-0.2,-0.02275,-0.37525,0.20476775045543255,10,1,100,-0.013478966215414955,-10,-1,-100,19140.13537084742,0.0007631071149899713,0.018440245407601908,0.9998296730027763,55.94059659172804,3.4137793080617684,291.9943656359895,-92.36648382838494,-88.25711059570312,4761.76025390625,True
1599388528.069172,0.0,10,0.5,0.5,-3.5264723590850826,-0.2,-0.02275,-0.37525,0.13039117403725742,10,1,100,0.10011485890220756,-10,-1,-100,19136.42977528402,-0.00026167904967554304,0.017766488974164437,0.9998421292352138,58.44352160688393,3.5669681629808654,306.3376879847973,-92.73100789780906,-81.90267944335938,4761.76025390625,True
1599388528.1130822,0.0,10,0.5,0.5,-4.88086707572937,-0.2,-0.02275,-0.37525,0.12015989894858022,10,1,100,0.10507922117407553,-10,-1,-100,19132.709602138842,-0.0012303007479413759,0.01706396992089692,0.9998536429351089,60.71614771272923,3.705678948818281,319.57823863017893,-93.09541341114006,-75.59500122070312,4761.76025390625,True
1599388528.153945,0.0,10,0.5,0.5,-6.214964812088013,-0.2,-0.02275,-0.37525,0.09805943585905093,10,1,100,0.11976195718773769,-10,-1,-100,19128.974856357207,-0.0022360695664581185,0.016227968042061416,0.9998658175205911,62.64255803617523,3.8230030959707,331.0876181908834,-93.45970718835156,-69.361083984375,4761.76025390625,True
1599388528.1958761,0.0,10,0.5,0.5,-10.857356213760376,-0.2,-0.02275,-0.37525,-0.006562993858989202,10,1,100,0.21564668144013222,-10,-1,-100,19121.461662051384,-0.0040128940520836945,0.014521178445067494,0.9998865095889099,65.47883192790287,3.9956664588091537,348.93902813507043,-94.18801104489178,-57.448883056640625,4761.76025390625,True
1599388528.2387178,0.0,10,0.5,0.5,-8.143757262039184,-0.2,-0.02275,-0.37525,0.11437685545539242,10,1,100,0.08487306714374859,-10,-1,-100,19119.574261177448,-0.0044293477994167395,0.014074766165980173,0.9998911349919275,65.9663159802463,4.025459634645614,352.2569762195486,-94.37004090132088,-54.6490478515625,4761.76025390625,True
1599388528.279608,0.0,10,0.5,0.5,-8.802192766952516,-0.2,-0.02275,-0.37525,0.10869988468864986,10,1,100,0.08864239131049674,-10,-1,-100,19117.683219994302,-0.004832698353860109,0.01362330687149847,0.9998955198101976,66.37251549924548,4.050386997993683,355.15061028995,-94.55205718911586,-51.923370361328125,4761.76025390625,True
1599388528.321533,0.0,10,0.5,0.5,-10.91076430835724,-0.2,-0.02275,-0.37525,0.059856392424550764,10,1,100,0.13322133852118548,-10,-1,-100,19113.890217231587,-0.005596640945018827,0.012774665001064922,0.9999027380421774,66.95995443405931,4.086832474265422,359.75612346120437,-94.91605867545681,-46.693939208984375,4761.76025390625,True
1599388528.3623867,0.0,10,0.5,0.5,-11.92000902786255,-0.2,-0.02275,-0.37525,0.04276615954998614,10,1,100,0.1366290858703837,-10,-1,-100,19110.082655341364,-0.006313416350276896,0.011854385548644038,0.9999098030908848,67.28040147830899,4.107430211263392,362.9479247742395,-95.28003373590329,-41.762969970703125,4761.76025390625,True
1599388528.4082646,0.0,10,0.5,0.5,-12.868677465820314,-0.2,-0.02275,-0.37525,0.03674142228369498,10,1,100,0.13881003275349293,-10,-1,-100,19106.260535000823,-0.006976481677433703,0.010970011410633097,0.9999154902055748,67.37412684629288,4.114611709326587,364.92723636710525,-95.64399790554704,-37.128753662109375,4761.76025390625,True
1599388528.4492507,0.0,10,0.5,0.5,-13.741095506286623,-0.2,-0.02275,-0.37525,0.030659905990980674,10,1,100,0.14181530174379073,-10,-1,-100,19102.423855961533,-0.007599552975858578,0.010117539531595719,0.9999199378892261,67.28148812380101,4.110770934925573,365.8991476142345,-96.0079644791885,-32.791351318359375,4761.76025390625,True
1599388528.4911397,0.0,10,0.5,0.5,-16.717607020568845,-0.2,-0.02275,-0.37525,-0.06594597619555242,10,1,100,0.20565501388678714,-10,-1,-100,19094.7068197818,-0.008738740030189478,0.008471895899753262,0.9999259279579404,66.68915478713596,4.078925035528401,365.6064064298928,-96.7359420460321,-25.00701904296875,4761.76025390625,True
1599388528.533031,0.0,10,0.5,0.5,-13.925973961639404,-0.2,-0.02275,-0.37525,0.09768892768125217,10,1,100,0.09258401455174853,-10,-1,-100,19094.7068197818,-0.008738740030189478,0.008471895899753262,0.9999259279579404,66.68915478713596,4.078925035528401,365.6064064298928,-96.7359420460321,-25.00701904296875,4761.76025390625,True
1599388528.5739202,0.0,10,0.5,0.5,-17.837311361694336,-0.2,-0.02275,-0.37525,-0.06317807656381148,10,1,100,0.2100274424662315,-10,-1,-100,19086.931541152182,-0.009799581702791825,0.007017279564817359,0.9999273603547207,65.78296325440118,4.0281967518577995,363.53731615392894,-97.46401488474515,-18.40771484375,4761.76025390625,True
1599388528.615808,0.0,10,0.5,0.5,-17.119046003723145,-0.2,-0.02275,-0.37525,0.0036426572019545023,10,1,100,0.1560367473210304,-10,-1,-100,19083.022058117087,-0.010266282801895463,0.006310735647725542,0.9999273863901399,65.28727599201372,4.000143693096595,362.24017078751706,-97.828091853615,-15.552947998046875,4761.76025390625,True
1599388528.6577094,0.0,10,0.5,0.5,-17.61576414794922,-0.2,-0.02275,-0.37525,0.010348860884672198,10,1,100,0.1671993340538273,-10,-1,-100,19079.09801131545,-0.010786349690697096,0.005736852522755271,0.9999253688068336,64.85651041648154,3.9759438915368994,361.2850177875586,-98.1921930621889,-12.992919921875,4761.76025390625,True
1599388528.6995938,0.0,10,0.5,0.5,-17.422211763000487,-0.2,-0.02275,-0.37525,0.034998079298627624,10,1,100,0.1423765930858344,-10,-1,-100,19077.130526319263,-0.011027697397270208,0.005446804316221188,0.99992435824559,64.66326561134217,3.9651454623124383,360.924647149423,-98.37425122508583,-11.82415771484375,4761.76025390625,True
1599388528.7415094,0.0,10,0.5,0.5,-17.704671129608155,-0.2,-0.02275,-0.37525,0.03312718674249019,10,1,100,0.14544408892002791,-10,-1,-100,19075.159399848664,-0.011269358911698968,0.005173549198457387,0.9999231150135547,64.4765942640591,3.9547102141056727,360.5972565310313,-98.55631394392633,-10.72930908203125,4761.76025390625,True
1599388528.7833683,0.0,10,0.5,0.5,-18.50783860168457,-0.2,-0.02275,-0.37525,0.005685320000106596,10,1,100,0.17532275960583604,-10,-1,-100,19071.206223131623,-0.011755518460171843,0.004682574044470997,0.9999199374380184,64.20844491209142,3.9401707358073423,360.52211036947597,-98.92044893204398,-8.761138916015625,4761.76025390625,True
1599388528.824898,0.0,10,0.5,0.5,-18.80644155578613,-0.2,-0.02275,-0.37525,0.004987191075945557,10,1,100,0.1799722090676996,-10,-1,-100,19067.238480561762,-0.012234802042882402,0.004236406197449336,0.9999161777276643,63.99435087850485,3.928790420512945,360.7415214175433,-99.28459331622693,-7.08868408203125,4761.76025390625,True
1599388528.8677833,0.0,10,0.5,0.5,-19.039321433258056,-0.2,-0.02275,-0.37525,0.0062102238011089925,10,1,100,0.1850950893129628,-10,-1,-100,19063.25617203454,-0.012712305738153077,0.0038480390023976608,0.9999117910489184,63.83193296308636,3.9204358788490485,361.24547381549945,-99.64874342241792,-5.711669921875,4761.76025390625,True
1599388528.9086733,0.0,10,0.5,0.5,-19.206518734741213,-0.2,-0.02275,-0.37525,0.008918155828712887,10,1,100,0.1912127523396614,-10,-1,-100,19059.259297637735,-0.013197367167948865,0.0035252950258099895,0.9999066965446403,63.73208273057737,3.9157963760766594,362.0991727972649,-100.01289522328312,-4.629852294921875,4761.76025390625,True
1599388528.949653,0.0,10,0.5,0.5,-19.58210293197632,-0.2,-0.02275,-0.37525,-0.010890609055431044,10,1,100,0.2501695096244938,-10,-1,-100,19051.221850865055,-0.014170249327500094,0.0030563086398507464,0.9998949259854728,63.75421858610816,3.9198736477137595,365.0676595500996,-100.74118810213237,-3.351837158203125,4761.76025390625,True
1599388528.9935687,0.0,10,0.5,0.5,-19.264919236755375,-0.2,-0.02275,-0.37525,0.020727193713446522,10,1,100,0.20781748187164162,-10,-1,-100,19047.18127920467,-0.014664731484523182,0.0029223152116593237,0.9998881966121465,63.88765710984226,3.9293626330412907,367.2580691051153,-101.10532017452957,-3.155181884765625,4761.76025390625,True
1599388529.0354614,0.0,10,0.5,0.5,-19.169611989593506,-0.2,-0.02275,-0.37525,0.02940572993703574,10,1,100,0.21485494592199975,-10,-1,-100,19043.12614259275,-0.015173814800654944,0.002883121482929894,0.9998807143629234,64.1065375667693,3.94410639710144,369.94878467957005,-101.4694366075949,-3.252899169921875,4761.76025390625,True
1599388529.0763443,0.0,10,0.5,0.5,-19.00843244552612,-0.2,-0.02275,-0.37525,0.03468002603511468,10,1,100,0.2198135065892875,-10,-1,-100,19039.05644186877,-0.015677234246842107,0.002898554979671854,0.9998729032759112,64.4108135302541,3.964142098680145,373.14524559904845,-101.83353266205894,-3.645477294921875,4761.76025390625,True
1599388529.119196,0.0,10,0.5,0.5,-19.177012818908693,-0.2,-0.02275,-0.37525,0.03285284660661038,10,1,100,0.16996065042618566,-10,-1,-100,19039.05644186877,-0.015677234246842107,0.002898554979671854,0.9998729032759112,64.4108135302541,3.964142098680145,373.14524559904845,-101.83353266205894,-3.645477294921875,4761.76025390625,True
1599388529.1601288,0.0,10,0.5,0.5,-18.236172959136965,-0.2,-0.02275,-0.37525,0.06406645515012803,10,1,100,0.2817514044023389,-10,-1,-100,19030.873352616094,-0.01668928697676207,0.00318463164764615,0.9998556524926366,65.26938266870825,4.019872327358553,381.0422150138288,-102.5616451815792,-5.3133544921875,4761.76025390625,True
1599388529.2030838,0.0,10,0.5,0.5,-18.140608940887454,-0.2,-0.02275,-0.37525,0.06144916697785299,10,1,100,0.23641029494432964,-10,-1,-100,19026.759966244805,-0.017192215801557352,0.003422715923830111,0.9998463445607718,65.81487069650603,4.055103507042693,385.7022240455909,-102.92565218540564,-6.588897705078125,4761.76025390625,True
1599388529.245968,0.0,10,0.5,0.5,-17.721683655548095,-0.2,-0.02275,-0.37525,0.07732185024251317,10,1,100,0.23884981399328326,-10,-1,-100,19022.63202089758,-0.017666658817869562,0.003784598621058478,0.9998367696676744,66.42926858497515,4.094766031535952,390.79306700328306,-103.28962007098517,-8.157806396484375,4761.76025390625,True
1599388529.2877393,0.0,10,0.5,0.5,-17.23618451538086,-0.2,-0.02275,-0.37525,0.08669303357945171,10,1,100,0.24303300833099306,-10,-1,-100,19018.48951806163,-0.018131061638700763,0.00419918620121679,0.9998268007205553,67.09912984994047,4.138060353023211,396.2398481341842,-103.6535446258039,-10.02099609375,4761.76025390625,True
1599388529.3285952,0.0,10,0.5,0.5,-17.92554273223877,-0.2,-0.02275,-0.37525,0.04526939028350242,10,1,100,0.19713460183792772,-10,-1,-100,19018.48951806163,-0.018131061638700763,0.00419918620121679,0.9998268007205553,67.09912984994047,4.138060353023211,396.2398481341842,-103.6535446258039,-10.02099609375,4761.76025390625,True
1599388529.372064,0.0,10,0.5,0.5,-15.262963777923586,-0.2,-0.02275,-0.37525,0.16557656141326155,10,1,100,0.28868826158019156,-10,-1,-100,19010.160847629653,-0.018958882459566114,0.0052922751286005945,0.9998062575318517,68.64704554510946,4.238198566944463,408.46415187254144,-104.38124453288187,-14.62823486328125,4761.76025390625,True
1599388529.4129205,0.0,10,0.5,0.5,-16.966176321411133,-0.2,-0.02275,-0.37525,0.05649126532375613,10,1,100,0.20638504280686304,-10,-1,-100,19010.160847629653,-0.018958882459566114,0.0052922751286005945,0.9998062575318517,68.64704554510946,4.238198566944463,408.46415187254144,-104.38124453288187,-14.62823486328125,4761.76025390625,True
1599388529.4703155,0.0,10,0.5,0.5,-15.361490676116944,-0.2,-0.02275,-0.37525,0.12856039695575594,10,1,100,0.24885128495962155,-10,-1,-100,19005.974684555666,-0.019341035432795698,0.0059452945435124645,0.9997952679529836,69.54269205556618,4.296135769558189,415.35561837903447,-104.7450071767116,-17.372406005859375,4761.76025390625,True
1599388529.8863451,0.0,10,0.5,0.5,-14.611916519927977,-0.2,-0.02275,-0.37525,0.14608909499785555,10,1,100,0.24128722422991952,-10,-1,-100,19001.773973121308,-0.019615894655796082,0.006695516563759995,0.9997851702914967,70.52862922517052,4.359860776057035,422.8284952692252,-105.10870307873122,-20.409698486328125,4761.76025390625,True
1599388529.924251,0.0,10,0.5,0.5,-13.797402931976318,-0.2,-0.02275,-0.37525,0.15952407322456147,10,1,100,0.2458952324993387,-10,-1,-100,18997.558715619263,-0.019904077060601193,0.007496220964605905,0.9997737916086896,71.50224443603561,4.4229811940623724,430.2710984205303,-105.47232986566063,-23.740631103515625,4761.76025390625,True
1599388529.9581528,0.0,10,0.5,0.5,-12.916846773529054,-0.2,-0.02275,-0.37525,0.17639578780484494,10,1,100,0.2372004687329144,-10,-1,-100,18993.328915450373,-0.020083175173625838,0.008373333583391188,0.9997632486542235,72.44010783162993,4.483966190764086,437.54083628782735,-105.83588763647698,-27.36474609375,4761.76025390625,True
1599388530.014004,0.0,10,0.5,0.5,-13.120947527313234,-0.2,-0.02275,-0.37525,0.1394767096056122,10,1,100,0.22692952486596696,-10,-1,-100,18991.208562623942,-0.02014953407013339,0.008830363705988652,0.9997579811902361,72.88495858717764,4.512964611415293,441.0454842910587,-106.01764121127933,-29.286834716796875,4761.76025390625,True
1599388530.0618749,0.0,10,0.5,0.5,-8.946118100738527,-0.2,-0.02275,-0.37525,0.3087809285708592,10,1,100,0.2269683520274972,-10,-1,-100,18982.690806331928,-0.020207524842728187,0.010780058855504811,0.9997376887318006,74.40024308111796,4.612211215902688,453.551843092887,-106.74450238885557,-37.70831298828125,4761.76025390625,True
1599388530.1007323,0.0,10,0.5,0.5,-12.0390504196167,-0.2,-0.02275,-0.37525,0.1145109596426879,10,1,100,0.22142336137050328,-10,-1,-100,18982.690806331928,-0.020207524842728187,0.010780058855504811,0.9997376887318006,74.40024308111796,4.612211215902688,453.551843092887,-106.74450238885557,-37.70831298828125,4761.76025390625,True
1599388530.140658,0.0,10,0.5,0.5,-9.300854345703124,-0.2,-0.02275,-0.37525,0.2291457046306748,10,1,100,0.21123661304203006,-10,-1,-100,18978.410125184804,-0.020113030345920224,0.011816210289346249,0.999727884568947,74.93098279621955,4.6473055561264225,458.4668990228074,-107.10785618171799,-42.35882568359375,4761.76025390625,True
1599388530.1795478,0.0,10,0.5,0.5,-5.1155247894287115,-0.2,-0.02275,-0.37525,0.3545249214539561,10,1,100,0.16195582488837174,-10,-1,-100,18969.805164863705,-0.01957731730314589,0.013891052632969995,0.9997118421345023,75.32378869708717,4.674528709287771,464.2482538191186,-107.83447850948222,-52.540252685546875,4761.76025390625,True
1599388530.2185,0.0,10,0.5,0.5,-5.668126755523682,-0.2,-0.02275,-0.37525,0.25861329372249386,10,1,100,0.16783603026687066,-10,-1,-100,18965.48088654282,-0.01914319964511596,0.014897531986428863,0.9997057574346867,75.09674309922117,4.661028111212318,464.53505151395905,-108.19778465443093,-58.0712890625,4761.76025390625,True
1599388530.2593858,0.0,10,0.5,0.5,-4.293854048919679,-0.2,-0.02275,-0.37525,0.2611033333809285,10,1,100,0.1526817687161814,-10,-1,-100,18961.14207498578,-0.018610613653550167,0.01582641788932467,0.9997015402390009,74.52589235812124,4.625699076196034,462.6800587371283,-108.56111746706964,-63.896514892578125,4761.76025390625,True
1599388530.3002386,0.0,10,0.5,0.5,-2.854383596038818,-0.2,-0.02275,-0.37525,0.2697510342027972,10,1,100,0.13831879700535776,-10,-1,-100,18956.788728919695,-0.017996536120009454,0.01674049224184165,0.9996978946697758,73.56475114576246,4.5658200882543145,458.37129517272774,-108.92450191166856,-70.01480102539062,4761.76025390625,True
1599388530.3411753,0.0,10,0.5,0.5,-1.3486949440002443,-0.2,-0.02275,-0.37525,0.2693244352267492,10,1,100,0.12220335749809698,-10,-1,-100,18952.420844905544,-0.017293251965393514,0.017558458957367486,0.9996962758535733,72.17509853316086,4.479274002716726,451.3438346610687,-109.28796321884984,-76.42718505859375,4761.76025390625,True
1599388530.3820505,0.0,10,0.5,0.5,-3.635080142211914,-0.2,-0.02275,-0.37525,0.18853398747344172,10,1,100,0.1922706904501702,-10,-1,-100,18952.420844905544,-0.017293251965393514,0.017558458957367486,0.9996962758535733,72.17509853316086,4.479274002716726,451.3438346610687,-109.28796321884984,-76.42718505859375,4761.76025390625,True
1599388530.421665,0.0,10,0.5,0.5,4.361120417785645,-0.2,-0.02275,-0.37525,0.33807433476985355,10,1,100,0.01649310219940442,-10,-1,-100,18943.64144855365,-0.015697810184212218,0.018909566546085797,0.9996979579095177,67.98311647714225,4.219572122621255,428.21429692957093,-110.01520925160325,-90.133544921875,4761.76025390625,True
1599388530.463552,0.0,10,0.5,0.5,3.5517260810852047,-0.2,-0.02275,-0.37525,0.2649718435875313,10,1,100,0.07655645687921103,-10,-1,-100,18939.22992596519,-0.014797486083760119,0.019464115158863062,0.9997010466267822,65.86940522293594,4.089755920630342,416.3984715772855,-110.37901230572642,-97.4268798828125,4761.76025390625,True
1599388530.5064385,0.0,10,0.5,0.5,5.142438937759399,-0.2,-0.02275,-0.37525,0.2538801962563163,10,1,100,0.07363762697522032,-10,-1,-100,18934.803853755002,-0.013957393028548266,0.019859522507191932,0.9997053518640545,68.32247695905902,4.244469082885646,433.45937632736917,-110.74271628619857,-104.71358489990234,4761.76025390625,True
1599388530.5483282,0.0,10,0.5,0.5,2.5605398736953737,-0.2,-0.02275,-0.37525,0.21524740778859805,10,1,100,0.15702191931498757,-10,-1,-100,18934.803853755002,-0.013957393028548266,0.019859522507191932,0.9997053518640545,68.32247695905902,4.244469082885646,433.45937632736917,-110.74271628619857,-104.71358489990234,4761.76025390625,True
1599388530.5898333,0.0,10,0.5,0.5,6.749726077270508,-0.2,-0.02275,-0.37525,0.25171989862320265,10,1,100,0.0584758222601378,-10,-1,-100,18930.363237978774,-0.013067115452883606,0.020183778503672114,0.9997108909975202,70.53158168722956,4.3848283482438175,449.07638024497453,-111.10626916421916,-111.74935913085938,4761.76025390625,True
1599388530.6382828,0.0,10,0.5,0.5,8.125302826309206,-0.2,-0.02275,-0.37525,0.24287554171928366,10,1,100,0.05227610333647789,-10,-1,-100,18925.908083962742,-0.012207329486473609,0.020392432777826923,0.9997175250000424,72.32335679257739,4.499640361903337,462.1240973357896,-111.46968686559228,-118.49607849121094,4761.76025390625,True
1599388530.6795735,0.0,10,0.5,0.5,9.442296899795533,-0.2,-0.02275,-0.37525,0.23329381672296107,10,1,100,0.042156780769016744,-10,-1,-100,18921.4383970832,-0.011340017375631822,0.020490016526372546,0.9997257440061595,73.84515842362671,4.597652141894068,473.518939548006,-111.83298596026718,-124.94759368896484,4761.76025390625,True
1599388530.720462,0.0,10,0.5,0.5,10.70097712841034,-0.2,-0.02275,-0.37525,0.22503049879165743,10,1,100,0.041688107107784395,-10,-1,-100,18916.954180839355,-0.010553900783653465,0.020499368317823036,0.9997341602030108,74.89308830215543,4.6658218262269475,481.9311769364676,-112.19619537134004,-131.10269165039062,4761.76025390625,True
1599388530.7633493,0.0,10,0.5,0.5,15.100026841926574,-0.2,-0.02275,-0.37525,0.19849404683153496,10,1,100,-0.039638576613120355,-10,-1,-100,18907.942170846625,-0.009106681880152512,0.020263212313980566,0.9997532048319987,75.76873616696041,4.724364004187533,490.9892942550112,-112.92246553474666,-142.52342224121094,4761.76025390625,True
1599388530.8075428,0.0,10,0.5,0.5,13.993817408561707,-0.2,-0.02275,-0.37525,0.19728181944859707,10,1,100,0.035649324502707684,-10,-1,-100,18903.414378621383,-0.008482906132645756,0.02003504592213651,0.9997632906035521,75.6999268396098,4.72110184374045,492.2554909618609,-113.28557946724322,-147.78904724121094,4761.76025390625,True
1599388530.8475945,0.0,10,0.5,0.5,15.038381637001038,-0.2,-0.02275,-0.37525,0.19257549959592352,10,1,100,0.037879093689818594,-10,-1,-100,18898.87206149916,-0.00794411730555221,0.019782585760922365,0.9997727443278533,75.36343676694648,4.700628546988907,491.7745570565324,-113.6487077318293,-152.757568359375,4761.76025390625,True
1599388530.8954656,0.0,10,0.5,0.5,13.316413740730285,-0.2,-0.02275,-0.37525,0.21790881763882178,10,1,100,0.09098260711130707,-10,-1,-100,18898.87206149916,-0.00794411730555221,0.019782585760922365,0.9997727443278533,75.36343676694648,4.700628546988907,491.7745570565324,-113.6487077318293,-152.757568359375,4761.76025390625,True
1599388530.9369729,0.0,10,0.5,0.5,16.130076812171936,-0.2,-0.02275,-0.37525,0.1815717847917144,10,1,100,0.03820837132316805,-10,-1,-100,18894.315218218602,-0.007470581860912954,0.01945195957994679,0.9997828822675248,74.81170726733589,4.666367101989264,489.87231650398604,-114.01186602237182,-157.42994689941406,4761.76025390625,True
1599388530.9788578,0.0,10,0.5,0.5,17.013775120925903,-0.2,-0.02275,-0.37525,0.17498903889939255,10,1,100,0.04213513264406982,-10,-1,-100,18889.743847420206,-0.007081690024310587,0.019091917691790836,0.9997926526761683,74.09100231559087,4.621371399054449,486.8383653549156,-114.37506571964347,-161.80557250976562,4761.76025390625,True
1599388531.0217433,0.0,10,0.5,0.5,20.024496653938293,-0.2,-0.02275,-0.37525,0.11674466449003877,10,1,100,0.02177047093266911,-10,-1,-100,18880.557515691034,-0.006549269341845009,0.018235810394123482,0.9998122635226863,72.31571995617155,4.510583337353324,478.4737130902685,-115.10161539733485,-169.66787719726562,4761.76025390625,True
1599388531.0666237,0.0,10,0.5,0.5,19.211634810066222,-0.2,-0.02275,-0.37525,0.1498066536719969,10,1,100,0.058036733826213396,-10,-1,-100,18875.942550192936,-0.006400869153282193,0.017759865450725096,0.999821792147608,71.33878864934019,4.449870811703799,473.6425602813346,-115.46497096321843,-173.154541015625,4761.76025390625,True
1599388531.1095104,0.0,10,0.5,0.5,18.027612214469908,-0.2,-0.02275,-0.37525,0.19713789127912532,10,1,100,0.0722961066491758,-10,-1,-100,18875.942550192936,-0.006400869153282193,0.017759865450725096,0.999821792147608,71.33878864934019,4.449870811703799,473.6425602813346,-115.46497096321843,-173.154541015625,4761.76025390625,True
1599388531.1523938,0.0,10,0.5,0.5,21.637375915145878,-0.2,-0.02275,-0.37525,0.08515437037668351,10,1,100,0.06123720154014274,-10,-1,-100,18866.669010148384,-0.006304823787038574,0.016744315398044395,0.9998399257375479,69.3702919211211,4.328383040453296,463.7556400042103,-116.191839329156,-179.239013671875,4761.76025390625,True
1599388531.1932847,0.0,10,0.5,0.5,19.46368768348694,-0.2,-0.02275,-0.37525,0.1863338703527757,10,1,100,0.07041683046484316,-10,-1,-100,18866.669010148384,-0.006304823787038574,0.016744315398044395,0.9998399257375479,69.3702919211211,4.328383040453296,463.7556400042103,-116.191839329156,-179.239013671875,4761.76025390625,True
1599388531.2354512,0.0,10,0.5,0.5,-186.0481578163147,-0.2,-0.02275,-0.37525,0.1260795864028951,10,1,100,0.07950075039828379,-10,-1,-100,18862.010431321338,-0.006389952021063593,0.016199748177514513,0.9998483568382526,68.43263732884125,4.271022905255296,459.05983283296445,-116.55534572683082,178.1627655029297,4761.76025390625,True
1599388531.2793338,0.0,10,0.5,0.5,-51.35029593429566,-0.2,-0.02275,-0.37525,0.11844072701659435,10,1,100,0.08282060067735847,-10,-1,-100,18857.337311108364,-0.006499424467361181,0.01563872952601609,0.9998565835260601,68.15777623688912,4.255355782770352,458.7837322635426,-116.91887735209988,175.86048889160156,4761.76025390625,True
1599388531.3212535,0.0,10,0.5,0.5,-50.65005239753724,-0.2,-0.02275,-0.37525,0.043586442061734815,10,1,100,0.12753578320393522,-10,-1,-100,18847.947454378125,-0.007006759889544406,0.014451986212550531,0.9998710143865369,69.98878562911204,4.373615758001265,474.3317555594184,-117.64576878469092,171.8417510986328,4761.76025390625,True
1599388531.3621793,0.0,10,0.5,0.5,-51.59595870895386,-0.2,-0.02275,-0.37525,0.09314076630601464,10,1,100,0.1151542441018574,-10,-1,-100,18843.230722623994,-0.007356266606433909,0.013828468511210178,0.9998773218751638,70.8934797912398,4.432522953959407,482.09692892784443,-118.00912197724331,169.58084106445312,4761.76025390625,True
1599388531.404624,0.0,10,0.5,0.5,-53.188314741897585,-0.2,-0.02275,-0.37525,0.15493018733317626,10,1,100,0.08019214088745912,-10,-1,-100,18843.230722623994,-0.007356266606433909,0.013828468511210178,0.9998773218751638,70.8934797912398,4.432522953959407,482.09692892784443,-118.00912197724331,169.58084106445312,4761.76025390625,True
1599388531.4465384,0.0,10,0.5,0.5,-52.476058119583136,-0.2,-0.02275,-0.37525,0.0808600439901365,10,1,100,0.12310342967382067,-10,-1,-100,18838.499458822538,-0.007746119616689811,0.013159888525528527,0.9998834006847396,71.84393593445425,4.494598161568977,490.21671623637303,-118.37240896151181,167.0321044921875,4761.76025390625,True
1599388531.488394,0.0,10,0.5,0.5,-52.5635447719574,-0.2,-0.02275,-0.37525,0.07241263865552622,10,1,100,0.13636172622824008,-10,-1,-100,18833.75366549124,-0.008219973367167312,0.0124799084190202,0.9998883357273931,72.83604633421,4.559579435647799,498.66584847554486,-118.7356251780863,164.19000244140625,4761.76025390625,True
1599388531.5341895,0.0,10,0.5,0.5,-52.593403380966194,-0.2,-0.02275,-0.37525,0.064415668943675,10,1,100,0.14956313924256145,-10,-1,-100,18828.99334607739,-0.008769108618446248,0.011793844922115533,0.9998919981457953,73.96770540862408,4.63357040869432,508.11933570171004,-119.09876188325664,161.05380249023438,4761.76025390625,True
1599388531.5770733,0.0,10,0.5,0.5,-50.4140940235138,-0.2,-0.02275,-0.37525,-0.03115323802436222,10,1,100,0.2334204478353024,-10,-1,-100,18819.429141810513,-0.010028508707301868,0.010306766243882414,0.9998965944449962,76.41599690962029,4.793705487862638,528.4605711172923,-119.8247717123692,153.89779663085938,4761.76025390625,True
1599388531.6185882,0.0,10,0.5,0.5,-53.857271465682985,-0.2,-0.02275,-0.37525,0.11691087488353341,10,1,100,0.10785280744176677,-10,-1,-100,18819.429141810513,-0.010028508707301868,0.010306766243882414,0.9998965944449962,76.41599690962029,4.793705487862638,528.4605711172923,-119.8247717123692,153.89779663085938,4761.76025390625,True
1599388531.6614802,0.0,10,0.5,0.5,-49.8217178516388,-0.2,-0.02275,-0.37525,-0.06376749811717958,10,1,100,0.2759182331854607,-10,-1,-100,18809.80687475507,-0.011552991045953392,0.008670087897652444,0.9998956735448649,78.65731902055859,4.940777205978642,547.5831774164377,-120.5504279271972,145.56500244140625,4761.76025390625,True
1599388531.7038336,0.0,10,0.5,0.5,-52.87443896026612,-0.2,-0.02275,-0.37525,0.09914737047783129,10,1,100,0.12398630322279731,-10,-1,-100,18809.80687475507,-0.011552991045953392,0.008670087897652444,0.9998956735448649,78.65731902055859,4.940777205978642,547.5831774164377,-120.5504279271972,145.56500244140625,4761.76025390625,True
1599388531.7457216,0.0,10,0.5,0.5,-47.336235364151,-0.2,-0.02275,-0.37525,-0.0955792393739986,10,1,100,0.3239606601648508,-10,-1,-100,18800.126570502413,-0.013366345593991523,0.0069061811186615935,0.9998868163286374,80.27942905919996,5.047481896796426,562.5708423234196,-121.27579309000878,136.05734252929688,4761.76025390625,True
1599388531.788462,0.0,10,0.5,0.5,-47.8352532333374,-0.2,-0.02275,-0.37525,-0.016216475154302176,10,1,100,0.2554023541287247,-10,-1,-100,18795.26465996669,-0.014385810959420996,0.0060309689989343235,0.9998783305262564,80.72674742766131,5.076986841362975,567.56449853402,-121.63840548224015,130.8642578125,4761.76025390625,True
1599388531.8298266,0.0,10,0.5,0.5,-46.538770590209964,-0.2,-0.02275,-0.37525,-0.04455614863497491,10,1,100,0.27645869101202913,-10,-1,-100,18790.38824590447,-0.015497628404793297,0.004984776858005486,0.9998674789758404,80.85467192997817,5.085621672107763,570.328384786176,-122.00100148830455,125.37602233886719,4761.76025390625,True
1599388531.8876739,0.0,10,0.5,0.5,-48.49766498908997,-0.2,-0.02275,-0.37525,0.0591786962925884,10,1,100,0.16609108265463496,-10,-1,-100,18790.38824590447,-0.015497628404793297,0.004984776858005486,0.9998674789758404,80.85467192997817,5.085621672107763,570.328384786176,-122.00100148830455,125.37602233886719,4761.76025390625,True
1599388531.9305573,0.0,10,0.5,0.5,-41.584136206054694,-0.2,-0.02275,-0.37525,-0.1730586128554235,10,1,100,0.44272817054781155,-10,-1,-100,18780.59190336312,-0.01800546419583299,0.002880960512721308,0.9998337378412556,79.90847256537623,5.025190302627821,567.3536646517027,-122.72626134652494,113.5224609375,4761.76025390625,True
1599388531.9724452,0.0,10,0.5,0.5,-45.91691646499634,-0.2,-0.02275,-0.37525,0.03636312688236443,10,1,100,0.19292314052670878,-10,-1,-100,18780.59190336312,-0.01800546419583299,0.002880960512721308,0.9998337378412556,79.90847256537623,5.025190302627821,567.3536646517027,-122.72626134652494,113.5224609375,4761.76025390625,True
1599388532.0133357,0.0,10,0.5,0.5,-38.31679569015503,-0.2,-0.02275,-0.37525,-0.21475752966918027,10,1,100,0.5209590143111945,-10,-1,-100,18770.737526457408,-0.020979211816076145,0.0006061480753521688,0.9997797283682477,76.96297900640494,4.838085578275229,550.0309372973663,-123.45183474633336,100.49858093261719,4761.76025390625,True
1599388532.0562205,0.0,10,0.5,0.5,-43.082523446273804,-0.2,-0.02275,-0.37525,0.011753652250880584,10,1,100,0.22467932259775644,-10,-1,-100,18770.737526457408,-0.020979211816076145,0.0006061480753521688,0.9997797283682477,76.96297900640494,4.838085578275229,550.0309372973663,-123.45183474633336,100.49858093261719,4761.76025390625,True
1599388532.0981085,0.0,10,0.5,0.5,-38.963774250793456,-0.2,-0.02275,-0.37525,-0.11007345443764577,10,1,100,0.4033209047578925,-10,-1,-100,18765.788563575596,-0.02259327101470577,-0.0004925523325721342,0.9997446181385803,74.61139411559799,4.690062788117835,534.9758663411731,-123.81482307181797,93.54983520507812,4761.76025390625,True
1599388532.1409943,0.0,10,0.5,0.5,-35.141611948394775,-0.2,-0.02275,-0.37525,-0.19986662130936264,10,1,100,0.5558314694858875,-10,-1,-100,18758.337890676106,-0.025437020620106516,-0.0022993427293096316,0.9996737822934966,76.27235595412935,4.796407496104492,549.5786640951652,-124.35935542112986,82.57835388183594,4761.76025390625,True
1599388532.1839077,0.0,10,0.5,0.5,-32.4278913318634,-0.2,-0.02275,-0.37525,-0.21199348303381554,10,1,100,0.6203213720991643,-10,-1,-100,18750.854564685957,-0.028595897530978662,-0.004042151441450599,0.9995828808338616,81.03039102062145,5.099942387289852,586.724381101505,-124.90341354104439,70.95301818847656,4761.76025390625,True
1599388532.225767,0.0,10,0.5,0.5,-34.329511980438234,-0.2,-0.02275,-0.37525,-0.10136525435898736,10,1,100,0.43602234088400077,-10,-1,-100,18748.35287136701,-0.029778313028054594,-0.0046108587985711205,0.9995458929205517,82.52851948528001,5.195856953397088,598.5420586894908,-125.08465857416675,66.93272399902344,4761.76025390625,True
1599388532.2676554,0.0,10,0.5,0.5,-30.94250815925598,-0.2,-0.02275,-0.37525,-0.1639246091976592,10,1,100,0.594921873079892,-10,-1,-100,18743.3386141581,-0.032283784225296604,-0.00568691250557997,0.9994625637322533,85.2387770094121,5.369486110697546,620.1991946090073,-125.4469986004889,58.675140380859375,4761.76025390625,True
1599388532.311538,0.0,10,0.5,0.5,-28.97295494842529,-0.2,-0.02275,-0.37525,-0.16637260240639432,10,1,100,0.6410548446068232,-10,-1,-100,18738.30986817542,-0.03496561582228826,-0.006677696096245984,0.9993662061952137,87.24177384741161,5.497588648181821,636.8185420266342,-125.80918008881207,50.12847900390625,4761.76025390625,True
1599388532.355421,0.0,10,0.5,0.5,-29.488364455032347,-0.2,-0.02275,-0.37525,-0.11922812508395114,10,1,100,0.5295228161964833,-10,-1,-100,18735.790063569555,-0.03637201884544349,-0.007139220045779921,0.9993128177814216,87.92996629594145,5.541309919083078,642.8731235353584,-125.9902314026045,45.74684143066406,4761.76025390625,True
1599388532.397343,0.0,10,0.5,0.5,-25.81333530960083,-0.2,-0.02275,-0.37525,-0.1606442008617784,10,1,100,0.7252904151472043,-10,-1,-100,18730.739591758,-0.03941357562545516,-0.0079261877973742,0.9991915460027758,88.58547845697416,5.58195182197271,649.7475707796748,-126.3523036152855,36.76805114746094,4761.76025390625,True
1599388532.4402292,0.0,10,0.5,0.5,-20.950656706619263,-0.2,-0.02275,-0.37525,-0.1758246046636776,10,1,100,0.9590784963228884,-10,-1,-100,18723.1367265241,-0.04428451151667233,-0.008769792016740725,0.9989804666697507,87.53595710376595,5.512097116357051,645.1575130884241,-126.89549867267249,22.7613525390625,4761.76025390625,True
1599388532.4831092,0.0,10,0.5,0.5,-23.261506538391114,-0.2,-0.02275,-0.37525,-0.11306015411226093,10,1,100,0.6609467708692403,-10,-1,-100,18720.59519365453,-0.04598116000483605,-0.008957595447431875,0.9989021445609223,86.58801556753335,5.450911963666977,639.2040405057918,-127.0766307463139,17.948989868164062,4761.76025390625,True
1599388532.525003,0.0,10,0.5,0.5,-19.220131954193114,-0.2,-0.02275,-0.37525,-0.10740572348867682,10,1,100,0.8826189372314391,-10,-1,-100,18715.501256126096,-0.049516040189924185,-0.009068227611915988,0.998732160797823,83.73251728969366,5.268925376340454,620.1354152015766,-127.43905584900257,8.110809326171875,4761.76025390625,True
1599388532.566854,0.0,10,0.5,0.5,-16.894533587646485,-0.2,-0.02275,-0.37525,-0.06852226238962406,10,1,100,0.9309124508699242,-10,-1,-100,18710.39281510841,-0.0531441243283767,-0.00880752022847439,0.9985480106819076,81.76420760938846,5.1450778666572585,607.5351555004253,-127.80167963327537,-2.011749267578125,4761.76025390625,True
1599388532.608743,0.0,10,0.5,0.5,-14.512735710525513,-0.2,-0.02275,-0.37525,-0.04532719712040023,10,1,100,0.9739612988800497,-10,-1,-100,18705.26987536426,-0.05680854752369079,-0.008353732761535297,0.998350141021274,86.75957699661872,5.4622479694919575,646.7552794083903,-128.1640633824112,-12.420867919921875,4761.76025390625,True
1599388532.6506622,0.0,10,0.5,0.5,-12.07841156768799,-0.2,-0.02275,-0.37525,0.010082322820322481,10,1,100,1.0116261940125257,-10,-1,-100,18700.13245027035,-0.06045660161155092,-0.007433556172747657,0.9981431468302574,91.17184402722519,5.744691338180671,681.8514243132487,-128.52611780705706,-23.113037109375,4761.76025390625,True
1599388532.69252,0.0,10,0.5,0.5,-9.57136837425232,-0.2,-0.02275,-0.37525,0.055184921717594676,10,1,100,1.039486986228666,-10,-1,-100,18694.980551996734,-0.0639984049946764,-0.006184442286261713,0.9979308376995598,94.85657338255741,5.981502809287547,711.6921991425713,-128.88787471009434,-34.089874267578125,4761.76025390625,True
1599388532.734479,0.0,10,0.5,0.5,-0.35967298240661627,-0.2,-0.02275,-0.37525,0.3121103882392985,10,1,100,1.4011964229901621,-10,-1,-100,18684.633367420407,-0.07047766238555919,-0.0027127458485492915,0.9975096691835265,97.4247618057942,6.145706987204135,735.6423693911495,-129.610929743609,-56.8968505859375,4761.76025390625,True
1599388532.7823517,0.0,10,0.5,0.5,-8.674508221054078,-0.2,-0.02275,-0.37525,-0.03466276050717402,10,1,100,0.7568218885582104,-10,-1,-100,18684.633367420407,-0.07047766238555919,-0.0027127458485492915,0.9975096691835265,97.4247618057942,6.145706987204135,735.6423693911495,-129.610929743609,-56.8968505859375,4761.76025390625,True
1599388532.827271,0.0,10,0.5,0.5,-1.6351971679687498,-0.2,-0.02275,-0.37525,0.197837584961238,10,1,100,1.0687785521444728,-10,-1,-100,18679.43808249978,-0.0732826269240342,-0.0006031304117430284,0.9973110311356328,95.87307401194516,6.045012005382688,726.2486521574147,-129.97253114574613,-68.72787475585938,4761.76025390625,True
1599388532.8711207,0.0,10,0.5,0.5,1.0806257961273191,-0.2,-0.02275,-0.37525,0.22541269835455935,10,1,100,1.0591865613788716,-10,-1,-100,18674.228326033917,-0.07571460472359821,0.0015587273276695586,0.9971283112020576,92.26260606170926,5.814416577129712,701.1596336640896,-130.33438898036016,-80.74945068359375,4761.76025390625,True
1599388532.9170282,0.0,10,0.5,0.5,3.839610561752319,-0.2,-0.02275,-0.37525,0.27160493176854156,10,1,100,1.0605950671449094,-10,-1,-100,18669.00408440898,-0.07790972541815955,0.003934592376949557,0.9969526536742327,86.64291892346037,5.460115852255763,660.5962251647478,-130.6966189897698,-92.97821044921875,4761.76025390625,True
1599388532.959886,0.0,10,0.5,0.5,6.696706509017944,-0.2,-0.02275,-0.37525,0.2797181202115528,10,1,100,1.0342118563772662,-10,-1,-100,18663.765354694682,-0.07963641634677007,0.006156505782300221,0.9968049651902804,91.24037837581228,5.754365353230399,697.9123961430962,-131.05874322634054,-105.48334503173828,4761.76025390625,True
1599388533.0017707,0.0,10,0.5,0.5,16.485944046974183,-0.2,-0.02275,-0.37525,0.5046125023040616,10,1,100,1.155015237154213,-10,-1,-100,18653.244495584164,-0.08227696576515475,0.01020708077582889,0.9965572318770836,100.90722268421067,6.378910234778229,776.8168425274444,-131.78174516257974,-130.20887756347656,4761.76025390625,True
1599388533.0446935,0.0,10,0.5,0.5,7.499336431312562,-0.2,-0.02275,-0.37525,0.10145646305162509,10,1,100,0.8938735794594228,-10,-1,-100,18653.244495584164,-0.08227696576515475,0.01020708077582889,0.9965572318770836,100.90722268421067,6.378910234778229,776.8168425274444,-131.78174516257974,-130.20887756347656,4761.76025390625,True
1599388533.0875788,0.0,10,0.5,0.5,14.63726519756317,-0.2,-0.02275,-0.37525,0.28583049904749136,10,1,100,1.0021710088470386,-10,-1,-100,18647.962392049958,-0.08323833474300447,0.011866334908939161,0.9964590155771791,102.81640275028019,6.503316084766293,794.0247290060973,-132.14286360428696,-142.1514434814453,4761.76025390625,True
1599388533.130978,0.0,10,0.5,0.5,17.125251644325257,-0.2,-0.02275,-0.37525,0.26376617982269024,10,1,100,1.007843268186864,-10,-1,-100,18642.665843969095,-0.08414316186856495,0.013156617681466955,0.9963668158474288,102.51681727457425,6.484157164279876,794.2248553158096,-132.50397720416876,-153.79615783691406,4761.76025390625,True
1599388533.1748593,0.0,10,0.5,0.5,22.75261903438568,-0.2,-0.02275,-0.37525,0.2913875563071938,10,1,100,1.040923258182833,-10,-1,-100,18634.69392655918,-0.08524814574915247,0.014563122660926138,0.9962533157308406,98.23741602797982,6.210071659385236,764.7333659513287,-133.0460148357676,-170.70135498046875,4761.76025390625,True
1599388533.217745,0.0,10,0.5,0.5,19.823560868644716,-0.2,-0.02275,-0.37525,0.1823155398993751,10,1,100,0.9775660180588401,-10,-1,-100,18632.02938938723,-0.08566327392731975,0.014834494430809338,0.9962137026135685,95.8941086146178,6.061479024783304,747.697406108727,-133.22685548398692,-176.18716430664062,4761.76025390625,True
