Timestamp,Input Throttle,horizon,dT,dt,Input Roll,Roll P,Roll I,Roll D,Input Pitch,Pitch P,Pitch I,Pitch D,Input Yaw,Yaw P,Yaw I,Yaw D,Altitude,Direction X,Direction Y,Direction Z,Drag X,Drag Y,Drag Z,Vertical Velocity,Roll,Mass,Has Fuel
1599385671.9892287,0.0,10,0.5,0.5,-2.8459301528930667,-0.05075,-0.0155,-0.001,-0.00015903024682481157,10,1,100,0.49814978078396954,-10,-1,-100,19349.72229932656,-0.0488455787762999,-0.00017628997545853002,0.9988063267500126,61.07651198734794,3.6862962824664867,233.73145656507032,-68.6649952014001,-33.922515869140625,4761.76025390625,True
1599385672.020395,0.0,10,0.5,0.5,-2.9327924072265628,-0.05075,-0.0155,-0.001,-0.0008539472215333288,10,1,100,0.49896537229720495,-10,-1,-100,19348.345350270858,-0.04889671538226877,-0.0001678665069985498,0.9988038261068393,61.16625819586414,3.692386058241416,234.7204896726917,-68.8474518266501,-33.923675537109375,4761.76025390625,True
1599385672.052085,0.0,10,0.5,0.5,-3.0196486984252937,-0.05075,-0.0155,-0.001,-0.0007656229366220743,10,1,100,0.5045371300322643,-10,-1,-100,19346.9647519805,-0.04894940398948441,-0.00015925325443846678,0.9988012467390475,61.256276697897256,3.6984960154185784,235.71264268858775,-69.029905068205,-33.924896240234375,4761.76025390625,True
1599385672.0851567,0.0,10,0.5,0.5,-3.106503158569336,-0.05075,-0.0155,-0.001,-0.0006425801694529069,10,1,100,0.5102095958051525,-10,-1,-100,19345.580504853977,-0.04900437113580716,-0.00015015967854190937,0.9987985527931321,61.3465802320993,3.7046269092456336,236.7079720811231,-69.2123549056077,-33.926116943359375,4761.76025390625,True
1599385672.1181805,0.0,10,0.5,0.5,-3.185614073181153,-0.05075,-0.0155,-0.001,0.02169891552750284,10,1,100,0.5079825624336238,-10,-1,-100,19342.80106392491,-0.04898954608259958,6.134822377141497e-05,0.9987992894525988,61.53075539861248,3.7171137370610414,238.71872495747365,-69.57724420427272,-34.076934814453125,4761.76025390625,True
1599385672.1551955,0.0,10,0.5,0.5,-3.2633631759643555,-0.05075,-0.0155,-0.001,0.013088941204460873,10,1,100,0.513235328337076,-10,-1,-100,19341.40586996684,-0.04897928522782171,0.00017529987000699067,0.9987997791792544,61.62761466195427,3.723646392829565,239.74583702874978,-69.75968331147588,-34.25244140625,4761.76025390625,True
1599385672.1781335,0.0,10,0.5,0.5,-3.300270999145508,-0.05075,-0.0155,-0.001,0.060094184575945876,10,1,100,0.5019686289285085,-10,-1,-100,19337.198396765627,-0.048823006015011376,0.000706053306443735,0.9988071963959744,61.93798127199308,3.744414601888559,242.91800640912876,-70.30697629866665,-35.212371826171875,4761.76025390625,True
1599385672.1980808,0.0,10,0.5,0.5,-3.362026600646973,-0.05075,-0.0155,-0.001,0.03450258450430082,10,1,100,0.5111120727095464,-10,-1,-100,19335.788608565228,-0.04871967166863413,0.0009552636540926895,0.9988120349013881,62.046117231929564,3.751602209824767,243.99846765392823,-70.48939863917101,-35.678558349609375,4761.76025390625,True
1599385672.2190256,0.0,10,0.5,0.5,-3.418770848083496,-0.05075,-0.0155,-0.001,0.04143044612976122,10,1,100,0.5121932982475345,-10,-1,-100,19334.375172209577,-0.0485912700662105,0.0012439306543194767,0.998817971959796,62.15512683250025,3.7588284329986785,245.08479419566004,-70.67181639688843,-36.21807861328125,4761.76025390625,True
1599385672.2529702,0.0,10,0.5,0.5,-3.4354406188964846,-0.05075,-0.0155,-0.001,0.08728640840429111,10,1,100,0.491818058331187,-10,-1,-100,19331.537354689906,-0.04824513800107112,0.0019220967382447191,0.9988336759457936,62.37149090427432,3.7731245620177236,247.25818863604698,-71.03663803327004,-37.517242431640625,4761.76025390625,True
1599385672.2879465,0.0,10,0.5,0.5,-3.4356699279785152,-0.05075,-0.0155,-0.001,0.11016077185548481,10,1,100,0.4804610421014075,-10,-1,-100,19328.68494475598,-0.047783367668854534,0.0027448127579710233,0.9988539511746184,62.57615316149952,3.786613708118238,249.39459058838355,-71.40144102649484,-39.10986328125,4761.76025390625,True
1599385672.3189597,0.0,10,0.5,0.5,-3.3316002578735353,-0.05075,-0.0155,-0.001,0.131080885983963,10,1,100,0.4608946430397434,-10,-1,-100,19325.81794312189,-0.04718666574910382,0.00368026372004162,0.9988793091432184,62.75580564990843,3.7984587714729456,251.43992305310903,-71.76622582893556,-40.99627685546875,4761.76025390625,True
1599385672.3519356,0.0,10,0.5,0.5,-3.322524139404297,-0.05075,-0.0155,-0.001,0.037920602799607336,10,1,100,0.5203938300514981,-10,-1,-100,19325.81794312189,-0.04718666574910382,0.00368026372004162,0.9988793091432184,62.75580564990843,3.7984587714729456,251.43992305310903,-71.76622582893556,-40.99627685546875,4761.76025390625,True
1599385672.385756,0.0,10,0.5,0.5,-3.2570544891357422,-0.05075,-0.0155,-0.001,0.09443923238580608,10,1,100,0.48179031855000887,-10,-1,-100,19324.3789707541,-0.04683732722476336,0.004190578973575718,0.9988937400075679,62.83115320722424,3.8034456383839927,252.40745580483562,-71.94861187517193,-42.049591064453125,4761.76025390625,True
1599385672.421892,0.0,10,0.5,0.5,-3.125094383239746,-0.05075,-0.0155,-0.001,0.16457548634027025,10,1,100,0.42808306251221684,-10,-1,-100,19321.490083163837,-0.046033469005847594,0.005288158113963556,0.9989259007128855,62.94176431785157,3.8108534419943703,254.1858132102064,-72.31337260840581,-44.3765869140625,4761.76025390625,True
1599385672.4533617,0.0,10,0.5,0.5,-3.045561265563965,-0.05075,-0.0155,-0.001,0.12218711190857827,10,1,100,0.45852175121260463,-10,-1,-100,19320.040167953004,-0.04558209150145202,0.005895856828673307,0.9989431974875295,62.972012773465124,3.8129629062499473,254.97549704652405,-72.49574817596692,-45.649932861328125,4761.76025390625,True
1599385672.4869425,0.0,10,0.5,0.5,-2.8086419265747073,-0.05075,-0.0155,-0.001,0.2715559016248933,10,1,100,0.3282012946039039,-10,-1,-100,19315.6685381087,-0.04399010524985546,0.007801007787686247,0.9990015089666296,62.93115288957517,3.8109739807284546,256.8122968700475,-73.0428625122143,-49.91131591796875,4761.76025390625,True
1599385672.519854,0.0,10,0.5,0.5,-2.7090015686035156,-0.05075,-0.0155,-0.001,0.1548542938637129,10,1,100,0.42007031021603025,-10,-1,-100,19314.204033452086,-0.0433824114364826,0.008465589539431606,0.9990226725013329,62.863802049348145,3.8069342125823993,257.2045259893378,-73.22523220697374,-51.47882080078125,4761.76025390625,True
1599385672.555758,0.0,10,0.5,0.5,-2.601168426513672,-0.05075,-0.0155,-0.001,0.16563893555417092,10,1,100,0.40918267008880793,-10,-1,-100,19312.735881187138,-0.04273583602337994,0.009160969396490333,0.9990444058995073,62.76423273714599,3.8008804081771963,257.4633829059619,-73.40760252583458,-53.119598388671875,4761.76025390625,True
1599385672.5873537,0.0,10,0.5,0.5,-2.2990115066528323,-0.05075,-0.0155,-0.001,0.32719009772736773,10,1,100,0.2338005696720224,-10,-1,-100,19308.30954005092,-0.04055898058408205,0.011254582523807174,0.9991137590215615,62.23922231243215,3.768652236217277,257.2933238963619,-73.9547270288708,-58.483856201171875,4761.76025390625,True
1599385672.6193295,0.0,10,0.5,0.5,-2.067784976196289,-0.05075,-0.0155,-0.001,0.2768048239407771,10,1,100,0.26861540663030503,-10,-1,-100,19305.34040766058,-0.03890350702744743,0.012691335163502966,0.9991623727666755,61.66563313756268,3.7333688700319843,256.23390312807106,-74.31949993577373,-62.42767333984375,4761.76025390625,True
1599385672.653274,0.0,10,0.5,0.5,-2.0355861877441406,-0.05075,-0.0155,-0.001,0.13412421221175105,10,1,100,0.4332747762296261,-10,-1,-100,19305.34040766058,-0.03890350702744743,0.012691335163502966,0.9991623727666755,61.66563313756268,3.7333688700319843,256.23390312807106,-74.31949993577373,-62.42767333984375,4761.76025390625,True
1599385672.6889346,0.0,10,0.5,0.5,-1.782995407104492,-0.05075,-0.0155,-0.001,0.2865278438458482,10,1,100,0.23490363270970996,-10,-1,-100,19302.356683323276,-0.03710766313974061,0.01406863084068252,0.9992122371961705,60.88038777206974,3.6851375882372954,254.26759712723344,-74.6843032773648,-66.666748046875,4761.76025390625,True
1599385672.7199688,0.0,10,0.5,0.5,-1.5128172454833986,-0.05075,-0.0155,-0.001,0.29764839772975826,10,1,100,0.20063787801668004,-10,-1,-100,19299.3583657837,-0.03517273365607901,0.01541236979422617,0.9992623968030042,59.855114493570866,3.622341684715802,251.2619142335536,-75.04914781028755,-71.20062255859375,4761.76025390625,True
1599385672.7529101,0.0,10,0.5,0.5,-1.091635221862793,-0.05075,-0.0155,-0.001,0.3799662197724068,10,1,100,0.04032112788871067,-10,-1,-100,19294.833522605128,-0.031966886027558455,0.01737209286981661,0.9993379451351898,57.807687644731814,3.4975258605731514,244.519455153469,-75.59651473181901,-78.55389404296875,4761.76025390625,True
1599385672.775848,0.0,10,0.5,0.5,-1.0460136672973632,-0.05075,-0.0155,-0.001,0.1852023056889481,10,1,100,0.3594992324429371,-10,-1,-100,19294.833522605128,-0.031966886027558455,0.01737209286981661,0.9993379451351898,57.807687644731814,3.4975258605731514,244.519455153469,-75.59651473181901,-78.55389404296875,4761.76025390625,True
1599385672.7988195,0.0,10,0.5,0.5,-0.7221942596435547,-0.05075,-0.0155,-0.001,0.3142420623031775,10,1,100,0.11020073643075973,-10,-1,-100,19291.798712119227,-0.02971291352333311,0.01853474862445402,0.9993866148109964,56.06831613119697,3.3920157354436453,238.36183304327884,-75.96150566851816,-83.82574462890625,4761.76025390625,True
1599385672.8217256,0.0,10,0.5,0.5,-0.532744174194336,-0.05075,-0.0155,-0.001,0.25694012875352973,10,1,100,0.2094774667540544,-10,-1,-100,19290.27583144314,-0.028579342605818677,0.019061023786548715,0.9994097750914926,55.07869001234904,3.3321644886195,234.7444240255365,-76.14402747828146,-86.57269287109375,4761.76025390625,True
1599385672.8546042,0.0,10,0.5,0.5,-0.3351160217285157,-0.05075,-0.0155,-0.001,0.26034225913033127,10,1,100,0.19421359597195564,-10,-1,-100,19288.7493001041,-0.027423518463541626,0.019560751997108345,0.9994325027816473,54.00680966203047,3.2674639002982473,230.7546285521302,-76.3265675303385,-89.3935546875,4761.76025390625,True
1599385672.8875275,0.0,10,0.5,0.5,0.1765381206512452,-0.05075,-0.0155,-0.001,0.3619384258829479,10,1,100,-0.09559253592443273,-10,-1,-100,19284.14779912005,-0.023752088332922448,0.020929197538458507,0.9994987778833054,53.56701592752361,3.2422048540476887,230.59770337358574,-76.87422102991816,-98.2486343383789,4761.76025390625,True
1599385672.9234698,0.0,10,0.5,0.5,0.5453187007904052,-0.05075,-0.0155,-0.001,0.3066192370957849,10,1,100,-0.004270465790087885,-10,-1,-100,19281.06187981891,-0.021259904208354656,0.021661542118880217,0.9995392909066074,55.30559897090598,3.3490600106732944,239.26707007879162,-77.2392232680266,-104.35491943359375,4761.76025390625,True
1599385672.9542358,0.0,10,0.5,0.5,0.763136882019043,-0.05075,-0.0155,-0.001,0.2684995601619483,10,1,100,0.11229993224505545,-10,-1,-100,19279.513445951394,-0.020070052807084415,0.02197261266808746,0.9995571005564711,56.18358750394673,3.403193443800378,243.6670668999314,-77.42168761057073,-107.4261703491211,4761.76025390625,True
1599385672.9881449,0.0,10,0.5,0.5,0.8298133014678956,-0.05075,-0.0155,-0.001,0.23832063299168252,10,1,100,0.2294017269500433,-10,-1,-100,19279.513445951394,-0.020070052807084415,0.02197261266808746,0.9995571005564711,56.18358750394673,3.403193443800378,243.6670668999314,-77.42168761057073,-107.4261703491211,4761.76025390625,True
1599385673.0210564,0.0,10,0.5,0.5,1.2088335208892824,-0.05075,-0.0155,-0.001,0.2984653787153717,10,1,100,-0.039112730807133345,-10,-1,-100,19276.405632257112,-0.017644501018685223,0.022512197645732448,0.9995908525696707,57.70166163647837,3.497273319174301,251.4856484975694,-77.78654479427024,-113.5294189453125,4761.76025390625,True
1599385673.0569997,0.0,10,0.5,0.5,1.5755609169006348,-0.05075,-0.0155,-0.001,0.2893281229669109,10,1,100,-0.06900248101943235,-10,-1,-100,19273.28322693333,-0.015183663693335417,0.02291320909328597,0.9996221492173406,59.059262541443886,3.581732502158851,258.66501816141493,-78.15131231855214,-119.46605682373047,4761.76025390625,True
1599385673.0886116,0.0,10,0.5,0.5,1.782362260437012,-0.05075,-0.0155,-0.001,0.2656221939547538,10,1,100,0.039942640798781764,-10,-1,-100,19271.716553576523,-0.013952206525305015,0.023057219130748225,0.9996367843267032,59.60678211379966,3.6159702637118363,261.6996289564013,-78.33366667504808,-122.35154724121094,4761.76025390625,True
1599385673.1217182,0.0,10,0.5,0.5,2.136310634613037,-0.05075,-0.0155,-0.001,0.2755732926950084,10,1,100,-0.100220211220925,-10,-1,-100,19268.572266606614,-0.011574869244645727,0.02327343358402447,0.9996621277667667,60.41517354113597,3.6668745830406086,266.5386000479821,-78.69832928234221,-127.93507385253906,4761.76025390625,True
1599385673.15463,0.0,10,0.5,0.5,2.6047918998718265,-0.05075,-0.0155,-0.001,0.27044136516245565,10,1,100,-0.2445988091332053,-10,-1,-100,19263.828489609878,-0.008117609957824451,0.023419030395834605,0.999692779519734,60.98591528397604,3.703600415310687,271.008670442701,-79.24524631665624,-135.77459716796875,4761.76025390625,True
1599385673.1895964,0.0,10,0.5,0.5,2.673215328216553,-0.05075,-0.0155,-0.001,0.2563174846423708,10,1,100,0.09908094628412285,-10,-1,-100,19263.828489609878,-0.008117609957824451,0.023419030395834605,0.999692779519734,60.98591528397604,3.703600415310687,271.008670442701,-79.24524631665624,-135.77459716796875,4761.76025390625,True
1599385673.2225459,0.0,10,0.5,0.5,2.996558069610596,-0.05075,-0.0155,-0.001,0.2551405747362116,10,1,100,-0.14614535720620392,-10,-1,-100,19260.647741970373,-0.005905830752008496,0.023404823689052497,0.9997086252459828,61.00739951694702,3.70577370145357,272.40615169696053,-79.60983376677787,-140.63357543945312,4761.76025390625,True
1599385673.2564213,0.0,10,0.5,0.5,3.4058964977264408,-0.05075,-0.0155,-0.001,0.2455068445398519,10,1,100,-0.2693389587226258,-10,-1,-100,19255.849276336958,-0.0027914044216455322,0.0233020785664195,0.999724572667812,60.62697724713657,3.6832749599120254,272.64967298721626,-80.15671684212394,-147.36788940429688,4761.76025390625,True
1599385673.2903273,0.0,10,0.5,0.5,3.574383629226685,-0.05075,-0.0155,-0.001,0.24550883363593615,10,1,100,-0.07072109238787284,-10,-1,-100,19254.24249594868,-0.0017825142696194188,0.023207200595401593,0.9997290875449225,60.41373225924713,3.670374560615643,272.3362961288078,-80.33901740714938,-149.4654998779297,4761.76025390625,True
1599385673.3262308,0.0,10,0.5,0.5,3.842968769073486,-0.05075,-0.0155,-0.001,0.2458282330042032,10,1,100,-0.17674296093589548,-10,-1,-100,19251.017996682203,8.186872944319459e-05,0.02312272917243564,0.9997326306033675,59.885961830497706,3.6382595475850494,271.23806249202266,-80.70363348357438,-153.4369354248047,4761.76025390625,True
1599385673.3571866,0.0,10,0.5,0.5,4.10056333656311,-0.05075,-0.0155,-0.001,0.2380628952875539,10,1,100,-0.1888771281123518,-10,-1,-100,19247.778912092093,0.0018687530469801482,0.022974297430038555,0.9997343094140789,59.263551436220865,3.60025192014989,269.68787489350944,-81.06827416499681,-157.11325073242188,4761.76025390625,True
1599385673.3910584,0.0,10,0.5,0.5,4.2538342105865485,-0.05075,-0.0155,-0.001,0.24296740655110943,10,1,100,-0.10626453622055107,-10,-1,-100,19246.153899996076,0.0027244304511194945,0.022883525857724157,0.9997344255966361,58.92820537114649,3.579753433499814,268.79316683989487,-81.25060457292139,-158.84063720703125,4761.76025390625,True
1599385673.4239702,0.0,10,0.5,0.5,4.558253459167481,-0.05075,-0.0155,-0.001,0.2332182193795982,10,1,100,-0.2831198156454824,-10,-1,-100,19241.256982074352,0.00509381418225059,0.022712404257002387,0.9997290631715892,57.87183259221063,3.51518772016393,265.83661896354715,-81.79763766700012,-163.57717895507812,4761.76025390625,True
1599385673.460871,0.0,10,0.5,0.5,4.617416646575927,-0.05075,-0.0155,-0.001,0.25029589796440066,10,1,100,-0.04808604460312844,-10,-1,-100,19241.256982074352,0.00509381418225059,0.022712404257002387,0.9997290631715892,57.87183259221063,3.51518772016393,265.83661896354715,-81.79763766700012,-163.57717895507812,4761.76025390625,True
1599385673.4977725,0.0,10,0.5,0.5,4.816943777465821,-0.05075,-0.0155,-0.001,0.2358450319552134,10,1,100,-0.20946913152259633,-10,-1,-100,19237.97413490957,0.006545779805675847,0.022581542774488886,0.9997235751409784,57.164083625959826,3.4719841978030943,263.81314331468064,-82.16236020667418,-166.365234375,4761.76025390625,True
1599385673.532679,0.0,10,0.5,0.5,5.049229710388184,-0.05075,-0.0155,-0.001,0.23472391975009138,10,1,100,-0.28210569920740164,-10,-1,-100,19233.02250807907,0.008512750633412038,0.022453147213631272,0.9997116530564482,56.15688433734225,3.4106451881092568,260.975784274564,-82.70948898569014,-169.99148559570312,4761.76025390625,True
1599385673.564594,0.0,10,0.5,0.5,5.09863963623047,-0.05075,-0.0155,-0.001,0.2474668875176324,10,1,100,-0.08707165249290622,-10,-1,-100,19233.02250807907,0.008512750633412038,0.022453147213631272,0.9997116530564482,56.15688433734225,3.4106451881092568,260.975784274564,-82.70948898569014,-169.99148559570312,4761.76025390625,True
1599385673.589527,0.0,10,0.5,0.5,5.25004885787964,-0.05075,-0.0155,-0.001,0.24691024485794316,10,1,100,-0.21791659452537504,-10,-1,-100,19229.703185030492,0.009689142305175008,0.022448951986248116,0.9997010378488707,55.549488671286,3.3737725865603228,259.34837314403325,-83.0742669356225,-172.03794860839844,4761.76025390625,True
1599385673.6218054,0.0,10,0.5,0.5,5.376796379852296,-0.05075,-0.0155,-0.001,0.2531177273409173,10,1,100,-0.21932892580011482,-10,-1,-100,19226.369270280586,0.010760082703160052,0.022502345371726986,0.9996888841399573,55.01516212711655,3.341443661829424,258.03831454193613,-83.4390608320869,-173.78781127929688,4761.76025390625,True
1599385673.6547444,0.0,10,0.5,0.5,5.452305601501465,-0.05075,-0.0155,-0.001,0.24806454668443936,10,1,100,-0.16828865426037984,-10,-1,-100,19224.69684109895,0.011258260053719065,0.0225055875845795,0.9996833249124621,54.780320769336456,3.327280270547686,257.5268679140152,-83.62146237326665,-174.55224609375,4761.76025390625,True
1599385673.6909204,0.0,10,0.5,0.5,5.519962521362305,-0.05075,-0.0155,-0.001,0.25372284798441946,10,1,100,-0.17114715429520322,-10,-1,-100,19223.020763715962,0.011726974562430856,0.02256053519134329,0.9996766978976215,54.567998159118794,3.314508307791113,257.1166324295038,-83.80386630241819,-175.24195861816406,4761.76025390625,True
1599385673.7218018,0.0,10,0.5,0.5,5.60724377746582,-0.05075,-0.0155,-0.001,0.26594026624749856,10,1,100,-0.21978129170240152,-10,-1,-100,19219.657664450468,0.012586245163583878,0.022721931147373545,0.9996625932171394,54.21645106383981,3.2934686367504646,256.6289021263976,-84.1686790407638,-176.39889526367188,4761.76025390625,True
1599385673.7555704,0.0,10,0.5,0.5,5.677849813079834,-0.05075,-0.0155,-0.001,0.27181762780972807,10,1,100,-0.2182019087595702,-10,-1,-100,19216.279972419026,0.013344076942685919,0.022922232207703452,0.9996481915559913,53.96946542383746,3.2788532425292387,256.6237847101645,-84.53349459264962,-177.2597198486328,4761.76025390625,True
1599385673.7886117,0.0,10,0.5,0.5,5.7147154548645025,-0.05075,-0.0155,-0.001,0.2658301809907525,10,1,100,-0.18044282096662312,-10,-1,-100,19214.585654246504,0.013682250250333313,0.023049701993330226,0.9996406890808845,53.886368814319844,3.274021536957012,256.8099594899177,-84.7159019782637,-177.57891845703125,4761.76025390625,True
1599385673.8255117,0.0,10,0.5,0.5,5.757624602508546,-0.05075,-0.0155,-0.001,0.28740201077111455,10,1,100,-0.21300185950387443,-10,-1,-100,19211.186073661083,0.014277864120289517,0.023361384525779377,0.9996251238885513,53.803432721436906,3.2694489762465007,257.5759181966774,-85.08071322306779,-177.994873046875,4761.76025390625,True
1599385673.8564303,0.0,10,0.5,0.5,5.781420645904541,-0.05075,-0.0155,-0.001,0.2983157574458554,10,1,100,-0.20763936720789777,-10,-1,-100,19207.771900776308,0.014763552177272994,0.023743239214365986,0.9996090716468706,53.83432359598487,3.2718207155299406,258.8862194397012,-85.4455160476138,-178.11441040039062,4761.76025390625,True
1599385673.8899827,0.0,10,0.5,0.5,5.79124160232544,-0.05075,-0.0155,-0.001,0.28314853593493167,10,1,100,-0.182152511894279,-10,-1,-100,19206.05934234406,0.014967705543003383,0.023951323197526565,0.9996010713819117,53.893029387753046,3.27564016986645,259.7505740151695,-85.62791280057908,-178.06320190429688,4761.76025390625,True
1599385673.9229217,0.0,10,0.5,0.5,5.772842095184326,-0.05075,-0.0155,-0.001,0.34473665320932045,10,1,100,-0.20991410491627,-10,-1,-100,19200.899780634907,0.015399809489404026,0.02469902045199981,0.999576312372598,54.23888761804548,3.2974069009745213,263.1756550835752,-86.17507759171988,-177.46490478515625,4761.76025390625,True
1599385673.9597435,0.0,10,0.5,0.5,5.7638688598632815,-0.05075,-0.0155,-0.001,0.30143617020955427,10,1,100,-0.17661053174186558,-10,-1,-100,19199.172631153953,0.015484679987106181,0.024983058957463295,0.9995679423885225,54.41007283464696,3.3080504377054836,264.5944309338209,-86.35745541864446,-177.11740112304688,4761.76025390625,True
1599385673.9891536,0.0,10,0.5,0.5,5.721927619934082,-0.05075,-0.0155,-0.001,0.3401756309574956,10,1,100,-0.17828322895819074,-10,-1,-100,19195.707390585565,0.015572746234907509,0.025591197502333442,0.9995511893770622,54.83309452045662,3.3342140359654753,267.837425610232,-86.72219191628557,-176.20050048828125,4761.76025390625,True
1599385674.0221453,0.0,10,0.5,0.5,5.625512718200683,-0.05075,-0.0155,-0.001,0.393689490123455,10,1,100,-0.15657938437811814,-10,-1,-100,19190.482176373014,0.015451576522016066,0.026627735253798884,0.9995259939082314,55.65658302458959,3.3848563643020113,273.6662651451724,-87.26924024973849,-174.27032470703125,4761.76025390625,True
1599385674.0561595,0.0,10,0.5,0.5,5.625936861419678,-0.05075,-0.0155,-0.001,0.2904424349831563,10,1,100,-0.16906881586322095,-10,-1,-100,19190.482176373014,0.015451576522016066,0.026627735253798884,0.9995259939082314,55.65658302458959,3.3848563643020113,273.6662651451724,-87.26924024973849,-174.27032470703125,4761.76025390625,True
1599385674.0921085,0.0,10,0.5,0.5,5.488343105316162,-0.05075,-0.0155,-0.001,0.41722492073849554,10,1,100,-0.12071075729044412,-10,-1,-100,19185.22414269729,0.015009352961028611,0.02777675257511431,0.999501461399668,56.68076790201676,3.4475652236250323,280.54291398188093,-87.81620704947697,-171.67526245117188,4761.76025390625,True
1599385674.1250203,0.0,10,0.5,0.5,5.482282258605958,-0.05075,-0.0155,-0.001,0.30280864064369417,10,1,100,-0.16509964099102387,-10,-1,-100,19185.22414269729,0.015009352961028611,0.02777675257511431,0.999501461399668,56.68076790201676,3.4475652236250323,280.54291398188093,-87.81620704947697,-171.67526245117188,4761.76025390625,True
1599385674.1559699,0.0,10,0.5,0.5,5.364494178771973,-0.05075,-0.0155,-0.001,0.3943576877774424,10,1,100,-0.117178382376037,-10,-1,-100,19181.7005562447,0.014572498698428098,0.028604719321255852,0.9994845733247896,57.45639214887696,3.4949362484536093,285.62625134293626,-88.1807991815866,-169.57598876953125,4761.76025390625,True
1599385674.1884959,0.0,10,0.5,0.5,5.293514781951904,-0.05075,-0.0155,-0.001,0.3573107191849229,10,1,100,-0.1276165681760343,-10,-1,-100,19179.933294442948,0.014269983208265663,0.029015859071638464,0.999477087031799,57.86602162802378,3.5199267040464632,288.2893176749768,-88.36307809041948,-168.41600036621094,4761.76025390625,True
1599385674.2244983,0.0,10,0.5,0.5,5.001388069152832,-0.05075,-0.0155,-0.001,0.5059150734596898,10,1,100,0.011096112779842071,-10,-1,-100,19172.827797005768,0.012734393453036398,0.030735777865523017,0.9994464203659865,59.60119940552441,3.6256752577574076,299.51648652724384,-89.0920693736706,-163.0391082763672,4761.76025390625,True
1599385674.255489,0.0,10,0.5,0.5,4.904392567443848,-0.05075,-0.0155,-0.001,0.38266340091431617,10,1,100,-0.08983468285671425,-10,-1,-100,19171.042311313096,0.012257985737787549,0.031172702968943762,0.9994388447400182,60.046015564921085,3.6527794249322847,302.40232841911313,-89.27428469499924,-161.51089477539062,4761.76025390625,True
1599385674.2885513,0.0,10,0.5,0.5,4.711652697753906,-0.05075,-0.0155,-0.001,0.43052236387045784,10,1,100,-0.01685529095373796,-10,-1,-100,19167.46040772798,0.011164295000944825,0.03199910392391214,0.9994255429321377,60.927573587328425,3.7065326438166277,308.1620776752982,-89.6386753113939,-158.23477172851562,4761.76025390625,True
1599385674.3225005,0.0,10,0.5,0.5,4.685660745239258,-0.05075,-0.0155,-0.001,0.3485838728702647,10,1,100,-0.1257923261393942,-10,-1,-100,19167.46040772798,0.011164295000944825,0.03199910392391214,0.9994255429321377,60.927573587328425,3.7065326438166277,308.1620776752982,-89.6386753113939,-158.23477172851562,4761.76025390625,True
1599385674.3584375,0.0,10,0.5,0.5,4.375012149810791,-0.05075,-0.0155,-0.001,0.48215295072690456,10,1,100,0.08530057235232835,-10,-1,-100,19162.060226941132,0.009249276333960041,0.03320754289858925,0.9994056783818753,62.176530344013464,3.7829082984985116,316.499717641536,-90.18516266791673,-152.77000427246094,4761.76025390625,True
1599385674.3878844,0.0,10,0.5,0.5,4.347151420593262,-0.05075,-0.0155,-0.001,0.3619670340236727,10,1,100,-0.10558106432734447,-10,-1,-100,19162.060226941132,0.009249276333960041,0.03320754289858925,0.9994056783818753,62.176530344013464,3.7829082984985116,316.499717641536,-90.18516266791673,-152.77000427246094,4761.76025390625,True
1599385674.422864,0.0,10,0.5,0.5,4.1063395042419435,-0.05075,-0.0155,-0.001,0.44454063723821524,10,1,100,0.05721136896026177,-10,-1,-100,19158.441892131465,0.007774983576970944,0.03395223037540801,0.999393213746678,62.913717536264855,3.8282676283754604,321.61531935921835,-90.54942622932117,-148.76060485839844,4761.76025390625,True
1599385674.455683,0.0,10,0.5,0.5,3.7352897186279295,-0.05075,-0.0155,-0.001,0.47014408145118197,10,1,100,0.18421126985475642,-10,-1,-100,19152.987073462573,0.005286749580107321,0.034856363503724494,0.9993783488760268,63.786286349225946,3.882692952530528,328.1493296162111,-91.09574478465109,-142.1994171142578,4761.76025390625,True
1599385674.4917295,0.0,10,0.5,0.5,3.575401764678955,-0.05075,-0.0155,-0.001,0.4118470483655048,10,1,100,0.03567928804320949,-10,-1,-100,19151.161516743945,0.004383848147955291,0.03514189367329822,0.9993727178507876,63.99545274177109,3.896053425769515,329.9190830916302,-91.27783514656176,-139.86585998535156,4761.76025390625,True
1599385674.5231912,0.0,10,0.5,0.5,3.407188032531738,-0.05075,-0.0155,-0.001,0.40724943805001423,10,1,100,0.048372361911698594,-10,-1,-100,19149.332318070577,0.0034568994931494295,0.03535372721154075,0.9993688827545844,64.15547183648083,3.9065291621989795,331.43970185176516,-91.45992022397755,-137.4601287841797,4761.76025390625,True
1599385674.5564961,0.0,10,0.5,0.5,2.9655078269958497,-0.05075,-0.0155,-0.001,0.43555225813380094,10,1,100,0.27841459304480115,-10,-1,-100,19143.82287304115,0.0005327559636750921,0.035797839821486654,0.9993589099193535,64.28031506283529,3.916989969187596,334.17782811867517,-92.00616260706215,-129.80593872070312,4761.76025390625,True
1599385674.5900042,0.0,10,0.5,0.5,2.6387367591857913,-0.05075,-0.0155,-0.001,0.4072480341183732,10,1,100,0.21654097112185056,-10,-1,-100,19140.131701212493,-0.001551976466102608,0.03593966555588271,0.9993527564422785,64.01241651156805,3.903082520205961,334.17724899919796,-92.37033610253846,-124.33900451660156,4761.76025390625,True
1599385674.6249087,0.0,10,0.5,0.5,2.5865872634887697,-0.05075,-0.0155,-0.001,0.3935421569374615,10,1,100,0.009448724364469559,-10,-1,-100,19140.131701212493,-0.001551976466102608,0.03593966555588271,0.9993527564422785,64.01241651156805,3.903082520205961,334.17724899919796,-92.37033610253846,-124.33900451660156,4761.76025390625,True
1599385674.6569185,0.0,10,0.5,0.5,2.2361515159606937,-0.05075,-0.0155,-0.001,0.38397417234212683,10,1,100,0.23860929231713685,-10,-1,-100,19136.42596138979,-0.0036236941097931765,0.03584910154898697,0.9993506445483131,63.41167238985111,3.869172050452261,332.422917890984,-92.7345426627718,-118.58253479003906,4761.76025390625,True
1599385674.6908288,0.0,10,0.5,0.5,2.0258468940734864,-0.05075,-0.0155,-0.001,0.3835683202023942,10,1,100,0.15009612158923666,-10,-1,-100,19134.567628106335,-0.004688964970975748,0.035759581070879565,0.9993494213582835,62.971195011502935,3.8437214812028397,330.80113904412633,-92.91666520448058,-115.5950927734375,4761.76025390625,True
1599385674.7247372,0.0,10,0.5,0.5,1.484884354400635,-0.05075,-0.0155,-0.001,0.3331651749113969,10,1,100,0.39984851221871565,-10,-1,-100,19128.97076986474,-0.007915198176587044,0.03521766837161623,0.9993483203929912,61.33301902976443,3.7478780051764615,324.20899654822597,-93.46313071423943,-106.19743347167969,4761.76025390625,True
1599385674.7596433,0.0,10,0.5,0.5,1.2524817245483397,-0.05075,-0.0155,-0.001,0.35704578147851074,10,1,100,0.19418340696337277,-10,-1,-100,19127.09786302992,-0.008962850611630062,0.03494028949973876,0.9993492099754661,60.60022738062909,3.704356270256411,321.00030729769827,-93.64532490555182,-102.91989135742188,4761.76025390625,True
1599385674.7902033,0.0,10,0.5,0.5,0.6533238536834718,-0.05075,-0.0155,-0.001,0.26752133604059347,10,1,100,0.43283537092004887,-10,-1,-100,19121.45727579051,-0.012069609012012952,0.03387337005848332,0.9993532505271489,58.11062155592543,3.554994538005019,309.7296695064972,-94.19203573201852,-92.6516342163086,4761.76025390625,True
1599385674.8231144,0.0,10,0.5,0.5,0.5867930473327637,-0.05075,-0.0155,-0.001,0.3741149808216128,10,1,100,0.12389516674097197,-10,-1,-100,19121.45727579051,-0.012069609012012952,0.03387337005848332,0.9993532505271489,58.11062155592543,3.554994538005019,309.7296695064972,-94.19203573201852,-92.6516342163086,4761.76025390625,True
1599385674.85734,0.0,10,0.5,0.5,0.14058119506835934,-0.05075,-0.0155,-0.001,0.2737254191938917,10,1,100,0.34764116202498707,-10,-1,-100,19117.678661392652,-0.014088705826267664,0.03296189088333569,0.9993573045300344,61.115163315345725,3.73984522069755,327.090046451313,-94.55645395636319,-85.44332885742188,4761.76025390625,True
1599385674.893245,0.0,10,0.5,0.5,-0.12421109695434568,-0.05075,-0.0155,-0.001,0.31104285771802354,10,1,100,0.24840458401451843,-10,-1,-100,19115.78388922906,-0.01500614712520458,0.03247469728917377,0.9993598999281655,62.56897097254183,3.8290917737705614,335.56006319914394,-94.73860884654457,-81.74526977539062,4761.76025390625,True
1599385675.0957427,0.0,10,0.5,0.5,-0.5853888725280763,-0.05075,-0.0155,-0.001,0.23816175328300979,10,1,100,0.35912425698019623,-10,-1,-100,19111.98341825127,-0.016832600875663503,0.031372259565555824,0.9993660214743706,65.208948240932,3.990900005746911,351.1543060447689,-95.10281103754399,-74.20166015625,4761.76025390625,True
1599385675.1186805,0.0,10,0.5,0.5,-0.8531803543090821,-0.05075,-0.0155,-0.001,0.2845421863868661,10,1,100,0.2708775563559608,-10,-1,-100,19110.077721060487,-0.017676879166397146,0.030795835941383954,0.9993693733708313,66.37066793498548,4.062040911003262,358.14045338661066,-95.28486053306106,-70.38287353515625,4761.76025390625,True
1599385675.1436174,0.0,10,0.5,0.5,-1.526840929412842,-0.05075,-0.0155,-0.001,0.13800331100500401,10,1,100,0.44489275748590906,-10,-1,-100,19104.33878895687,-0.02001170225669972,0.02894431907922396,0.99938068730881,69.07534652675702,4.227950798946534,375.0124789005022,-95.83083242948987,-58.907562255859375,4761.76025390625,True
1599385675.1783366,0.0,10,0.5,0.5,-1.802357049560547,-0.05075,-0.0155,-0.001,0.2504213369564259,10,1,100,0.2913820622073775,-10,-1,-100,19102.418533308664,-0.020723818737945494,0.02828938106088213,0.9993849279712542,69.69029707602472,4.265948466675863,379.1163629238423,-96.01277643740634,-55.149200439453125,4761.76025390625,True
1599385675.2052622,0.0,10,0.5,0.5,-2.271815615844727,-0.05075,-0.0155,-0.001,0.17387078291787855,10,1,100,0.3644800034153123,-10,-1,-100,19098.567106605624,-0.022021146955725632,0.027004859825684582,0.9993927189211204,70.47627061006028,4.315316803584735,384.9399324117086,-96.37662158408611,-47.81536865234375,4761.76025390625,True
1599385675.2642684,0.0,10,0.5,0.5,-2.354973984527588,-0.05075,-0.0155,-0.001,0.30150162558304033,10,1,100,0.2361577765152123,-10,-1,-100,19098.567106605624,-0.022021146955725632,0.027004859825684582,0.9993927189211204,70.47627061006028,4.315316803584735,384.9399324117086,-96.37662158408611,-47.81536865234375,4761.76025390625,True
1599385675.2941542,0.0,10,0.5,0.5,-2.6246569297790527,-0.05075,-0.0155,-0.001,0.22741268551131447,10,1,100,0.3035252833469967,-10,-1,-100,19096.635935901548,-0.02262170765751995,0.026338538033827123,0.9993970881270859,70.65539658275215,4.3272047148140365,386.69460131619326,-96.55853232500813,-44.25457763671875,4761.76025390625,True
1599385675.3200848,0.0,10,0.5,0.5,-3.0532478527069093,-0.05075,-0.0155,-0.001,0.15055812411890052,10,1,100,0.364133645635432,-10,-1,-100,19092.76267982961,-0.023709064226641006,0.025040962966775358,0.9994052383528884,70.6184359469541,4.327341235262628,388.0458040195353,-96.92235320502313,-37.3533935546875,4761.76025390625,True
1599385675.3440204,0.0,10,0.5,0.5,-3.473797192382813,-0.05075,-0.0155,-0.001,0.1341690267002425,10,1,100,0.3595794059398563,-10,-1,-100,19088.87487034197,-0.024645586696596163,0.02372038693573296,0.9994147979192622,70.10708880886135,4.299004004128742,386.7815634573253,-97.2862005922993,-30.749755859375,4761.76025390625,True
1599385675.3679564,0.0,10,0.5,0.5,-3.8783593551635747,-0.05075,-0.0155,-0.001,0.1298377014586361,10,1,100,0.35668889433153894,-10,-1,-100,19084.972505290527,-0.025461096217506758,0.02248888895435945,0.9994228246608147,69.18775420993323,4.245957005975506,383.23908748097097,-97.65010149430162,-24.44268798828125,4761.76025390625,True
1599385675.3918924,0.0,10,0.5,0.5,-3.9608712890625,-0.05075,-0.0155,-0.001,0.2519889187625055,10,1,100,0.27618343714970967,-10,-1,-100,19084.972505290527,-0.025461096217506758,0.02248888895435945,0.9994228246608147,69.18775420993323,4.245957005975506,383.23908748097097,-97.65010149430162,-24.44268798828125,4761.76025390625,True
1599385675.422849,0.0,10,0.5,0.5,-4.349034652709961,-0.05075,-0.0155,-0.001,0.12419587805105957,10,1,100,0.35600413274383386,-10,-1,-100,19081.055582096335,-0.026178894818051666,0.021335209830265576,0.9994295744511486,67.97688464029692,4.174992183675929,378.03912776946635,-98.01407502481045,-18.43231201171875,4761.76025390625,True
1599385675.4568162,0.0,10,0.5,0.5,-4.423547647094726,-0.05075,-0.0155,-0.001,0.23861772784933527,10,1,100,0.28507447425450855,-10,-1,-100,19081.055582096335,-0.026178894818051666,0.021335209830265576,0.9994295744511486,67.97688464029692,4.174992183675929,378.03912776946635,-98.01407502481045,-18.43231201171875,4761.76025390625,True
1599385675.4923944,0.0,10,0.5,0.5,-4.924038305664062,-0.05075,-0.0155,-0.001,0.06149340073177714,10,1,100,0.38217417288794747,-10,-1,-100,19075.152893955004,-0.02705601281239079,0.01973190604669592,0.999439154753535,65.96950736295857,4.056105560030275,369.0771742109185,-98.56018078401414,-9.973297119140625,4761.76025390625,True
1599385675.5223176,0.0,10,0.5,0.5,-5.123861996459961,-0.05075,-0.0155,-0.001,0.16886286852521482,10,1,100,0.3239538239298768,-10,-1,-100,19073.178048590664,-0.02731836036755804,0.019258222746131287,0.9994412579253914,65.30984496900912,4.016756750988293,366.1148414217108,-98.74225430459396,-7.301605224609375,4761.76025390625,True
1599385675.5560372,0.0,10,0.5,0.5,-5.575758206176758,-0.05075,-0.0155,-0.001,0.07330069118924609,10,1,100,0.36984019258521805,-10,-1,-100,19067.231660539866,-0.027969191302384247,0.017965896894454228,0.9994473227172447,63.08519423309206,3.8824453356387405,355.7576250971962,-99.2885842475691,0.26885986328125,4761.76025390625,True
1599385675.5898943,0.0,10,0.5,0.5,-5.642718295288086,-0.05075,-0.0155,-0.001,0.20162938006382897,10,1,100,0.30535190353726316,-10,-1,-100,19067.231660539866,-0.027969191302384247,0.017965896894454228,0.9994473227172447,63.08519423309206,3.8824453356387405,355.7576250971962,-99.2885842475691,0.26885986328125,4761.76025390625,True
1599385675.6259508,0.0,10,0.5,0.5,-6.069060151672364,-0.05075,-0.0155,-0.001,0.08943501750224976,10,1,100,0.3695181094222012,-10,-1,-100,19061.252494494198,-0.028547659098024716,0.0169535596358393,0.9994486519955376,65.92988061792245,4.058481968372903,374.0114383004615,-99.83482502700926,7.173797607421875,4761.76025390625,True
1599385675.6563363,0.0,10,0.5,0.5,-6.350264942932129,-0.05075,-0.0155,-0.001,0.13241917600593178,10,1,100,0.3498671423702522,-10,-1,-100,19057.248180206865,-0.028890495034615257,0.016431370299250965,0.9994475220674389,67.70600638650377,4.167764368129347,385.6014180882285,-100.19885334370402,11.407470703125,4761.76025390625,True
1599385675.689312,0.0,10,0.5,0.5,-6.615183236694336,-0.05075,-0.0155,-0.001,0.14201969506994017,10,1,100,0.3562487361306512,-10,-1,-100,19053.22930771648,-0.02925631954903027,0.016050556545331173,0.9994430686142309,69.23257771229454,4.261306702678226,395.84345554818054,-100.5627846991836,15.345794677734375,4761.76025390625,True
1599385675.711287,0.0,10,0.5,0.5,-6.6729170608520505,-0.05075,-0.0155,-0.001,0.1794572372210165,10,1,100,0.32004580702230245,-10,-1,-100,19053.22930771648,-0.02925631954903027,0.016050556545331173,0.9994430686142309,69.23257771229454,4.261306702678226,395.84345554818054,-100.5627846991836,15.345794677734375,4761.76025390625,True
1599385675.7342381,0.0,10,0.5,0.5,-6.830758169555665,-0.05075,-0.0155,-0.001,0.16291066334432258,10,1,100,0.33918514759482987,-10,-1,-100,19051.21441321366,-0.029426863351206405,0.01590598617591489,0.9994403730673886,69.91057266967755,4.30273045752909,400.5011833677755,-100.74471672013294,17.204132080078125,4761.76025390625,True
1599385675.7591286,0.0,10,0.5,0.5,-6.976484201812744,-0.05075,-0.0155,-0.001,0.16459987824600278,10,1,100,0.34148925039032807,-10,-1,-100,19049.19588047592,-0.02959989686175001,0.01579485072432841,0.9994370259282822,70.53570146389434,4.340858510666119,404.8704172289942,-100.92662784857225,18.988632202148438,4761.76025390625,True
1599385675.790379,0.0,10,0.5,0.5,-7.28682880935669,-0.05075,-0.0155,-0.001,0.16075381522058685,10,1,100,0.38208253267095105,-10,-1,-100,19043.118457101984,-0.03012311989021013,0.01566389097638777,0.9994234538810665,72.12470241221828,4.437523453949506,416.407351518961,-101.4722474928846,23.8992919921875,4761.76025390625,True
1599385675.8234031,0.0,10,0.5,0.5,-7.33442066268921,-0.05075,-0.0155,-0.001,0.17344298850762002,10,1,100,0.3300669405327207,-10,-1,-100,19043.118457101984,-0.03012311989021013,0.01566389097638777,0.9994234538810665,72.12470241221828,4.437523453949506,416.407351518961,-101.4722474928846,23.8992919921875,4761.76025390625,True
1599385675.859319,0.0,10,0.5,0.5,-7.459854303741455,-0.05075,-0.0155,-0.001,0.1757022302529055,10,1,100,0.3503480675944284,-10,-1,-100,19041.085375174414,-0.030304943991205063,0.015687697112044676,0.9994175836601088,72.56890004335357,4.464500131211978,419.7819321962651,-101.65408652193169,25.38861083984375,4761.76025390625,True
1599385675.890357,0.0,10,0.5,0.5,-7.6399968650817875,-0.05075,-0.0155,-0.001,0.19035868182353394,10,1,100,0.3738877608737359,-10,-1,-100,19037.008302452276,-0.03068211242856796,0.015844650613086132,0.9994035996652554,73.34773167248665,4.511800780064147,425.9243085601051,-102.01772006519224,28.146026611328125,4761.76025390625,True
1599385675.923004,0.0,10,0.5,0.5,-7.8658681327819835,-0.05075,-0.0155,-0.001,0.2271588242785758,10,1,100,0.4011401373008051,-10,-1,-100,19030.865424218006,-0.03127027541084742,0.016323810769334535,0.9993776578839937,74.28831977403728,4.569084218225424,433.87317790754355,-102.563073398225,31.72900390625,4761.76025390625,True
1599385675.955848,0.0,10,0.5,0.5,-7.954525454711915,-0.05075,-0.0155,-0.001,0.20469937804338223,10,1,100,0.3657712837848113,-10,-1,-100,19028.810527524212,-0.03148095889339896,0.01655580662639178,0.9993672270462454,74.55215800662103,4.585233597067805,436.246100097566,-102.74483549280377,32.77595520019531,4761.76025390625,True
1599385675.9928834,0.0,10,0.5,0.5,-8.036970149230957,-0.05075,-0.0155,-0.001,0.21147705040571552,10,1,100,0.3688711855982054,-10,-1,-100,19026.751995730796,-0.031698315290514145,0.016828214030349453,0.9993558065175244,74.79569568367798,4.600195438642736,438.505990696997,-102.92658770927424,33.749298095703125,4761.76025390625,True
1599385676.0228136,0.0,10,0.5,0.5,-8.153843418884279,-0.05075,-0.0155,-0.001,0.2579856279723155,10,1,100,0.39705051914455136,-10,-1,-100,19022.62402745441,-0.032149867778547926,0.017497955414111865,0.9993298792481627,75.23202738054574,4.627187016889696,442.7438680119623,-103.29006477196381,35.475311279296875,4761.76025390625,True
1599385676.0563507,0.0,10,0.5,0.5,-8.257388186645509,-0.05075,-0.0155,-0.001,0.279251128817721,10,1,100,0.40547944790234414,-10,-1,-100,19018.481521423906,-0.03263436616707719,0.018298818135337035,0.9992998305812539,75.61536994947257,4.651174116540974,446.68895230512294,-103.65350882544229,36.9066162109375,4761.76025390625,True
1599385676.089567,0.0,10,0.5,0.5,-8.317824002075197,-0.05075,-0.0155,-0.001,0.2503257725870608,10,1,100,0.3853189256125304,-10,-1,-100,19016.4048169998,-0.032888625860545605,0.018761742068936257,0.9992829105531343,75.79223595215507,4.662351072465317,448.58063717740487,-103.8352195269246,37.511993408203125,4761.76025390625,True
1599385676.125571,0.0,10,0.5,0.5,-8.397175253295899,-0.05075,-0.0155,-0.001,0.3201280562781509,10,1,100,0.418626788618912,-10,-1,-100,19012.24050585262,-0.03341958003739418,0.019814451049995817,0.9992449745681543,76.12547954463031,4.683624765671363,452.2549515241644,-104.19861981531993,38.50224304199219,4761.76025390625,True
1599385676.1569817,0.0,10,0.5,0.5,-8.4387414642334,-0.05075,-0.0155,-0.001,0.280604050607848,10,1,100,0.3960073354594156,-10,-1,-100,19010.152899619774,-0.033693637478400026,0.020408376835707565,0.9992238172443678,76.28504511121764,4.693913685962461,454.0561395874967,-104.38030997838612,38.88720703125,4761.76025390625,True
1599385676.1958773,0.0,10,0.5,0.5,-8.50326824951172,-0.05075,-0.0155,-0.001,0.5297294801230125,10,1,100,0.4976369842507741,-10,-1,-100,19001.76613885688,-0.034863440579610244,0.023208772831165812,0.9991225617383601,76.90584480358908,4.734512685829313,461.19517895694645,-105.10700666638634,39.692626953125,4761.76025390625,True
1599385676.2238028,0.0,10,0.5,0.5,-8.52463405456543,-0.05075,-0.0155,-0.001,0.25044198814909974,10,1,100,0.3811125237885928,-10,-1,-100,19001.76613885688,-0.034863440579610244,0.023208772831165812,0.9991225617383601,76.90584480358908,4.734512685829313,461.19517895694645,-105.10700666638634,39.692626953125,4761.76025390625,True
1599385676.2598631,0.0,10,0.5,0.5,-8.53395261077881,-0.05075,-0.0155,-0.001,0.5386442949906285,10,1,100,0.4824990366060452,-10,-1,-100,18995.437919476302,-0.035781334943267955,0.025822099145890547,0.9990259832784018,77.3796405723342,4.765934612364434,466.63918811081606,-105.65196391039936,39.52685546875,4761.76025390625,True
1599385676.2907267,0.0,10,0.5,0.5,-8.521525570678712,-0.05075,-0.0155,-0.001,0.4967461237098214,10,1,100,0.4603298869301029,-10,-1,-100,18991.20094246068,-0.036410145677236924,0.027808323067290645,0.9989499479252941,77.70617690985635,4.7877198547562,470.35278736300086,-106.01523733178412,39.049957275390625,4761.76025390625,True
1599385676.3237686,0.0,10,0.5,0.5,-8.513730433654786,-0.05075,-0.0155,-0.001,0.4211171208787384,10,1,100,0.4299705291688056,-10,-1,-100,18989.077005025232,-0.03670131655866616,0.02891621522788007,0.9989078365193435,77.87331764545283,4.798897242196767,472.23917567455356,-106.19686457855276,38.70219421386719,4761.76025390625,True
1599385676.3568363,0.0,10,0.5,0.5,-8.521755185699464,-0.05075,-0.0155,-0.001,0.3115367049395489,10,1,100,0.40135374115269723,-10,-1,-100,18989.077005025232,-0.03670131655866616,0.02891621522788007,0.9989078365193435,77.87331764545283,4.798897242196767,472.23917567455356,-106.19686457855276,38.70219421386719,4761.76025390625,True
1599385676.382728,0.0,10,0.5,0.5,-8.479404372406007,-0.05075,-0.0155,-0.001,0.5741215750488997,10,1,100,0.4652416147951357,-10,-1,-100,18984.81823310966,-0.03727797772925186,0.03129297017449802,0.9988148489054792,78.21426029538827,4.821741129847403,476.0650186613972,-106.56009992789555,37.78717041015625,4761.76025390625,True
1599385676.4056673,0.0,10,0.5,0.5,-8.419180116271972,-0.05075,-0.0155,-0.001,0.6205342959174982,10,1,100,0.47134063278215865,-10,-1,-100,18980.544932587654,-0.03785343931006436,0.03386377745019326,0.9987093479632615,78.56188981096948,4.845085017980054,479.94877883226616,-106.9233096831687,36.57936096191406,4761.76025390625,True
1599385676.4286358,0.0,10,0.5,0.5,-8.341297604370117,-0.05075,-0.0155,-0.001,0.6699863545631382,10,1,100,0.47710667080194236,-10,-1,-100,18976.257104414166,-0.03842449126239238,0.036636710019984524,0.9985896604462404,78.91571587409038,4.868875656305113,483.8880144217945,-107.28649391823916,35.0789794921875,4761.76025390625,True
1599385676.4576705,0.0,10,0.5,0.5,-8.293031905364991,-0.05075,-0.0155,-0.001,0.5611011662228718,10,1,100,0.4459975625977214,-10,-1,-100,18974.10774259828,-0.03865626940699311,0.03815239949945599,0.9985239542684833,79.0945222391359,4.880904506495851,485.8759689640114,-107.46807657792286,34.2198486328125,4761.76025390625,True
1599385676.490705,0.0,10,0.5,0.5,-8.286656630706787,-0.05075,-0.0155,-0.001,0.4113066205421003,10,1,100,0.4233160113305071,-10,-1,-100,18974.10774259828,-0.03865626940699311,0.03815239949945599,0.9985239542684833,79.0945222391359,4.880904506495851,485.8759689640114,-107.46807657792286,34.2198486328125,4761.76025390625,True
1599385676.5257165,0.0,10,0.5,0.5,-8.177916095733643,-0.05075,-0.0155,-0.001,0.7645860336352952,10,1,100,0.4697565153296165,-10,-1,-100,18969.798124999856,-0.039075007780778305,0.04135044541242295,0.9983803305510013,79.44673817756986,4.904647863596469,489.8322593886571,-107.83122342242417,32.282501220703125,4761.76025390625,True
1599385676.552642,0.0,10,0.5,0.5,-7.989632205963135,-0.05075,-0.0155,-0.001,1.016187223730682,10,1,100,0.4887197690651139,-10,-1,-100,18963.306463922258,-0.039624243547995576,0.046528550995458925,0.9981307596029251,79.93751609311056,4.937962873836523,495.56800569026865,-108.37590095260664,28.82867431640625,4761.76025390625,True
1599385676.578544,0.0,10,0.5,0.5,-7.976503852081299,-0.05075,-0.0155,-0.001,0.5004473106120413,10,1,100,0.43418048320385955,-10,-1,-100,18963.306463922258,-0.039624243547995576,0.046528550995458925,0.9981307596029251,79.93751609311056,4.937962873836523,495.56800569026865,-108.37590095260664,28.82867431640625,4761.76025390625,True
1599385676.6005151,0.0,10,0.5,0.5,-7.822704820251466,-0.05075,-0.0155,-0.001,0.9239801996072614,10,1,100,0.4485848815920461,-10,-1,-100,18958.960534976097,-0.03975227071709658,0.050361831597298956,0.9979395988189866,80.22550615469355,4.957747527199288,499.1696571660045,-108.73899457849987,26.162857055664062,4761.76025390625,True
1599385676.625983,0.0,10,0.5,0.5,-7.731318202209473,-0.05075,-0.0155,-0.001,0.7657767537659085,10,1,100,0.43320399964040157,-10,-1,-100,18956.7821242105,-0.039726059258393065,0.05238892298553267,0.9978362796392075,80.35032213459934,4.966452771498657,500.85689576631813,-108.92053531488756,24.720993041992188,4761.76025390625,True
1599385676.656668,0.0,10,0.5,0.5,-7.550523332214356,-0.05075,-0.0155,-0.001,1.0258768693055733,10,1,100,0.4267165459693212,-10,-1,-100,18952.414410226163,-0.03964050404192575,0.05657494101814422,0.9976110998220177,80.54499325646255,4.980467869274759,503.8983682652826,-109.28360785984049,21.618270874023438,4761.76025390625,True
1599385676.6916337,0.0,10,0.5,0.5,-7.528564260101319,-0.05075,-0.0155,-0.001,0.6098032631287829,10,1,100,0.4355083202473203,-10,-1,-100,18952.414410226163,-0.03964050404192575,0.05657494101814422,0.9976110998220177,80.54499325646255,4.980467869274759,503.8983682652826,-109.28360785984049,21.618270874023438,4761.76025390625,True
1599385676.7141833,0.0,10,0.5,0.5,-7.236356851196289,-0.05075,-0.0155,-0.001,1.360691077635821,10,1,100,0.35963947409540686,-10,-1,-100,18945.83560943883,-0.03894916265442484,0.06338054736496461,0.9972290955162894,80.6784510161257,4.991751327804195,507.48634296311866,-109.82820494483569,16.41986083984375,4761.76025390625,True
1599385676.7410786,0.0,10,0.5,0.5,-7.212633627319336,-0.05075,-0.0155,-0.001,0.6828048266882799,10,1,100,0.42882607998470057,-10,-1,-100,18945.83560943883,-0.03894916265442484,0.06338054736496461,0.9972290955162894,80.6784510161257,4.991751327804195,507.48634296311866,-109.82820494483569,16.41986083984375,4761.76025390625,True
1599385676.764042,0.0,10,0.5,0.5,-6.9868829025268555,-0.05075,-0.0155,-0.001,1.2146006080433025,10,1,100,0.3483935196063142,-10,-1,-100,18941.43158909923,-0.0382176912934873,0.06819211978831435,0.9969399394502017,80.62798878339103,4.99075941354683,509.0079920534273,-110.19127203565249,12.590667724609375,4761.76025390625,True
1599385676.7909956,0.0,10,0.5,0.5,-6.743981855773926,-0.05075,-0.0155,-0.001,1.2877204275748602,10,1,100,0.2963083449249434,-10,-1,-100,18937.013045669766,-0.03707961444836208,0.07320369333229296,0.9966274737708529,80.44414843273319,4.981691613140835,509.6865134115816,-110.55435039998417,8.47076416015625,4761.76025390625,True
1599385676.8240132,0.0,10,0.5,0.5,-6.711193566894532,-0.05075,-0.0155,-0.001,0.789748397968987,10,1,100,0.40991649010422393,-10,-1,-100,18937.013045669766,-0.03707961444836208,0.07320369333229296,0.9966274737708529,80.44414843273319,4.981691613140835,509.6865134115816,-110.55435039998417,8.47076416015625,4761.76025390625,True
1599385676.8600285,0.0,10,0.5,0.5,-6.331596051025391,-0.05075,-0.0155,-0.001,1.652498540148133,10,1,100,0.16471875180277284,-10,-1,-100,18930.35799822933,-0.034852857399348555,0.08102262631361534,0.996102711750322,79.86187219062373,4.94967547655636,508.744307056174,-111.0990083576872,1.74530029296875,4761.76025390625,True
1599385676.890959,0.0,10,0.5,0.5,-6.29634228515625,-0.05075,-0.0155,-0.001,0.87405464954771,10,1,100,0.38691731808926066,-10,-1,-100,18930.35799822933,-0.034852857399348555,0.08102262631361534,0.996102711750322,79.86187219062373,4.94967547655636,508.744307056174,-111.0990083576872,1.74530029296875,4761.76025390625,True
1599385676.9240303,0.0,10,0.5,0.5,-6.007666764068604,-0.05075,-0.0155,-0.001,1.471697378139018,10,1,100,0.18108067399957672,-10,-1,-100,18925.903143296717,-0.03298606919245847,0.08642786857833967,0.9957118773883514,79.23363835640957,4.9140256350975084,506.56474826953087,-111.46215446096446,-3.10162353515625,4761.76025390625,True
1599385676.957128,0.0,10,0.5,0.5,-5.564799589538574,-0.05075,-0.0155,-0.001,1.8292336604419177,10,1,100,-0.02836035074952331,-10,-1,-100,18919.193622155115,-0.029391106952171973,0.09456111052575833,0.995085101490451,77.8725513076135,4.835797999500026,500.5570059482066,-112.00695784054656,-10.919769287109375,4761.76025390625,True
1599385676.9931955,0.0,10,0.5,0.5,-5.522183773040771,-0.05075,-0.0155,-0.001,1.0197080826508136,10,1,100,0.3301109335701512,-10,-1,-100,18919.193622155115,-0.029391106952171973,0.09456111052575833,0.995085101490451,77.8725513076135,4.835797999500026,500.5570059482066,-112.00695784054656,-10.919769287109375,4761.76025390625,True
1599385677.0241206,0.0,10,0.5,0.5,-5.183124482727051,-0.05075,-0.0155,-0.001,1.6178557569262855,10,1,100,0.012920239110128295,-10,-1,-100,18914.702445823,-0.02651687281807154,0.09996428377416479,0.9946376211593188,76.64261684621172,4.7646313356038545,494.42244429123105,-112.37022912842559,-16.4970703125,4761.76025390625,True
1599385677.0580933,0.0,10,0.5,0.5,-4.83386565246582,-0.05075,-0.0155,-0.001,1.6605155170678156,10,1,100,-0.05533817130639357,-10,-1,-100,18910.196736510145,-0.023294703774044908,0.10523081751363075,0.9941749503087938,75.1214079839179,4.676276659912764,486.3465622872007,-112.73356470758162,-22.367889404296875,4761.76025390625,True
1599385677.0911593,0.0,10,0.5,0.5,-4.295553652954101,-0.05075,-0.0155,-0.001,1.9948786259352373,10,1,100,-0.352482934204263,-10,-1,-100,18903.410917776055,-0.017678374488476773,0.11302019438453213,0.9934354084371705,72.47574970057238,4.522849913796647,471.73059610977845,-113.27869654051608,-31.72174072265625,4761.76025390625,True
1599385677.127298,0.0,10,0.5,0.5,-4.236223271179199,-0.05075,-0.0155,-0.001,1.2204237463047214,10,1,100,0.2070960626720494,-10,-1,-100,18903.410917776055,-0.017678374488476773,0.11302019438453213,0.9934354084371705,72.47574970057238,4.522849913796647,471.73059610977845,-113.27869654051608,-31.72174072265625,4761.76025390625,True
1599385677.1582289,0.0,10,0.5,0.5,-4.004933532714844,-0.05075,-0.0155,-0.001,1.4941053192090301,10,1,100,-0.01733092995136168,-10,-1,-100,18901.141709889518,-0.01565576659186384,0.11547201186452381,0.9931873496216009,73.17492951632282,4.570894227454989,477.1252430131134,-113.4603918089148,-34.987274169921875,4761.76025390625,True
1599385677.1921384,0.0,10,0.5,0.5,-3.226835032653809,-0.05075,-0.0155,-0.001,2.2703090935728367,10,1,100,-0.8025907130680747,-10,-1,-100,18892.028554317076,-0.0066977830646606,0.1247189090509761,0.9921695084143399,76.88983711592857,4.823816631562643,504.879576352464,-114.18679228717289,-48.784454345703125,4761.76025390625,True
1599385677.2260468,0.0,10,0.5,0.5,-3.1623110931396483,-0.05075,-0.0155,-0.001,1.3499890032013442,10,1,100,0.09039213221878055,-10,-1,-100,18892.028554317076,-0.0066977830646606,0.1247189090509761,0.9921695084143399,76.88983711592857,4.823816631562643,504.879576352464,-114.18679228717289,-48.784454345703125,4761.76025390625,True
1599385677.2623546,0.0,10,0.5,0.5,-2.7040409301757813,-0.05075,-0.0155,-0.001,1.807170165345999,10,1,100,-0.44721551762271394,-10,-1,-100,18887.450192730175,-0.0018360363154967306,0.12883537754071173,0.9916642952454175,78.61086573269037,4.943146949233503,517.9753643331381,-114.54976439931707,-56.12646484375,4761.76025390625,True
1599385677.292275,0.0,10,0.5,0.5,-2.433410516357422,-0.05075,-0.0155,-0.001,1.6029667564659356,10,1,100,-0.22473814713518003,-10,-1,-100,18885.155568727525,0.000532893694877423,0.1306826747152323,0.991424104283118,79.41704272511183,4.999551423196661,524.191498555627,-114.7311978358578,-59.90972900390625,4761.76025390625,True
1599385677.3251867,0.0,10,0.5,0.5,-1.958377507019043,-0.05075,-0.0155,-0.001,1.8197504614124271,10,1,100,-0.5673099284236172,-10,-1,-100,18880.555437100935,0.005773551715433311,0.13429995895141048,0.9909239058203402,80.95058318330773,5.10740611109129,536.1524572638209,-115.09396655055177,-67.69488525390625,4761.76025390625,True
1599385677.3601844,0.0,10,0.5,0.5,-1.4598182006835938,-0.05075,-0.0155,-0.001,1.8020223972720046,10,1,100,-0.6048327752739204,-10,-1,-100,18875.940798188443,0.010846935197607233,0.13739110872081803,0.9904574838130525,82.0825775231393,5.189560317621963,545.5104676478111,-115.45663269596962,-75.77880859375,4761.76025390625,True
1599385677.395119,0.0,10,0.5,0.5,-0.7197263137817382,-0.05075,-0.0155,-0.001,1.9256482838228872,10,1,100,-0.9519813441043862,-10,-1,-100,18868.991643922986,0.018581030981664415,0.14129109218442687,0.9897937020192593,82.88075460075333,5.254500908287269,553.6322532246047,-116.00052699265532,-88.46072387695312,4761.76025390625,True
1599385677.4250383,0.0,10,0.5,0.5,-0.1732249443054199,-0.05075,-0.0155,-0.001,1.7691798916089108,10,1,100,-0.724766831413248,-10,-1,-100,18864.340745111578,0.023508371820200862,0.14338130969969803,0.989388273875915,82.70391757169035,5.251853929071646,554.3292898636231,-116.36311942154266,-97.28660583496094,4761.76025390625,True
1599385677.4594486,0.0,10,0.5,0.5,0.15304707908630377,-0.05075,-0.0155,-0.001,1.6643230388464456,10,1,100,-0.491036278324672,-10,-1,-100,18862.009856511373,0.025825506875966325,0.14430066231090835,0.9891968267494758,82.3780841599537,5.2352272378659555,553.0830448787337,-116.54443160284686,-101.79814910888672,4761.76025390625,True
1599385677.4914267,0.0,10,0.5,0.5,0.7315327854156494,-0.05075,-0.0155,-0.001,1.7501908632167056,10,1,100,-0.7559905187118754,-10,-1,-100,18857.337198626017,0.03030111921985092,0.14588861720816884,0.9888368690249737,81.2244266057459,5.169846744632422,547.1917207154,-116.90711416093312,-110.96488952636719,4761.76025390625,True
1599385677.5293252,0.0,10,0.5,0.5,0.8401313488006592,-0.05075,-0.0155,-0.001,1.5944370340250211,10,1,100,-0.3130249729045875,-10,-1,-100,18857.337198626017,0.03030111921985092,0.14588861720816884,0.9888368690249737,81.2244266057459,5.169846744632422,547.1917207154,-116.90711416093312,-110.96488952636719,4761.76025390625,True
1599385677.5622058,0.0,10,0.5,0.5,1.6490435989379884,-0.05075,-0.0155,-0.001,1.795911656172155,10,1,100,-0.989504559057035,-10,-1,-100,18850.301003520028,0.036417298273705434,0.14770095949299988,0.9883613746759286,78.2176639405333,4.990774701066305,529.625044957389,-117.4513457075673,-124.73363494873047,4761.76025390625,True
1599385677.5981066,0.0,10,0.5,0.5,2.217258792114258,-0.05075,-0.0155,-0.001,1.7124783396590075,10,1,100,-0.7864714342276531,-10,-1,-100,18845.592060199124,0.04009250984118028,0.14856916591959765,0.988088960363686,75.45286161563911,4.823427917096794,512.6360429368498,-117.81433527104595,-133.70489501953125,4761.76025390625,True
1599385677.6404178,0.0,10,0.5,0.5,2.778871070098877,-0.05075,-0.0155,-0.001,1.7325864873440096,10,1,100,-0.7612256510907982,-10,-1,-100,18840.86859310558,0.04316598728658902,0.14952330602420574,0.9878155083299542,72.21074946981015,4.625890187018656,492.26300668274206,-118.17746895216472,-142.4070587158203,4761.76025390625,True
1599385677.6833017,0.0,10,0.5,0.5,3.333274039459229,-0.05075,-0.0155,-0.001,1.728835029314187,10,1,100,-0.7609286355830499,-10,-1,-100,18836.130599655327,0.04591860019271588,0.150339474108752,0.9875674785456665,72.88131660533026,4.679505902253734,498.4964761109822,-118.54059912770717,-150.8173828125,4761.76025390625,True
1599385677.7241933,0.0,10,0.5,0.5,3.4537035865783694,-0.05075,-0.0155,-0.001,1.6488221723752945,10,1,100,-0.48968184981809193,-10,-1,-100,18836.130599655327,0.04591860019271588,0.150339474108752,0.9875674785456665,72.88131660533026,4.679505902253734,498.4964761109822,-118.54059912770717,-150.8173828125,4761.76025390625,True
1599385677.7651172,0.0,10,0.5,0.5,3.989739862823487,-0.05075,-0.0155,-0.001,1.7482104066752866,10,1,100,-0.7450347417144638,-10,-1,-100,18831.37808717345,0.0482081067872328,0.15123123227021745,0.9873221828896697,75.55132419121678,4.862293202309851,518.4739673410634,-118.9035192149195,-158.92803955078125,4761.76025390625,True
1599385677.8009865,0.0,10,0.5,0.5,4.494983016204834,-0.05075,-0.0155,-0.001,1.7734187678607582,10,1,100,-0.7236124547550128,-10,-1,-100,18826.611063912977,0.05006779465006629,0.15226205193679415,0.9870711643437244,77.87070060889673,5.023033894130508,536.1523185136417,-119.26625532370039,-166.7373046875,4761.76025390625,True
1599385677.8358903,0.0,10,0.5,0.5,4.983421119689941,-0.05075,-0.0155,-0.001,1.792132602101491,10,1,100,-0.7023420918145379,-10,-1,-100,18821.82953573682,0.05154090811424709,0.15336121308838227,0.9868251481953724,79.97780757086367,5.170154870743065,552.4660234316182,-119.62883904389395,-174.2464599609375,4761.76025390625,True
1599385677.871832,0.0,10,0.5,0.5,-13.168984846115112,-0.05075,-0.0155,-0.001,1.841308458288567,10,1,100,-0.6779885938752374,-10,-1,-100,18817.03350767633,0.0526353290992921,0.1547992668726381,0.9865428065250403,81.66917175894983,5.290205084672577,565.9938437412183,-119.99130517247492,178.5495147705078,4761.76025390625,True
1599385677.9047403,0.0,10,0.5,0.5,-13.084401060867311,-0.05075,-0.0155,-0.001,1.78585351216224,10,1,100,-0.6174909596209371,-10,-1,-100,18814.630057392293,0.05305997494713079,0.15559435203020908,0.9863949699156566,82.35141827652483,5.339539181336372,571.6530168904277,-120.17250649016282,175.0609130859375,4761.76025390625,True
1599385677.9346614,0.0,10,0.5,0.5,-13.18196611442566,-0.05075,-0.0155,-0.001,1.9067492414015614,10,1,100,-0.644930032829699,-10,-1,-100,18809.812286259374,0.053674772878220825,0.15740738540761104,0.9860740001519214,83.41601565056315,5.418576535077363,580.933130048573,-120.5348673242672,168.31185913085938,4761.76025390625,True
