Timestamp,Input Throttle,horizon,dT,dt,Input Roll,Roll P,Roll I,Roll D,Input Pitch,Pitch P,Pitch I,Pitch D,Input Yaw,Yaw P,Yaw I,Yaw D,Altitude,Direction X,Direction Y,Direction Z,Drag X,Drag Y,Drag Z,Vertical Velocity,Roll,Mass,Has Fuel
1599385835.1489174,0.0,10,0.5,0.5,-2.845922378540039,-0.05075,-0.02275,-0.001,-0.00017119621257203677,10,1,100,0.4981485768318611,-10,-1,-100,19349.7223036543,-0.048846046546252575,-0.0001750530116281971,0.9988063040916614,61.07650412035421,3.6862962179253937,233.73143638302406,-68.6649953159561,-33.92266845703125,4761.76025390625,True
1599385835.183824,0.0,10,0.5,0.5,-2.9734404922485353,-0.05075,-0.02275,-0.001,-0.0008197788021418986,10,1,100,0.49896666575879567,-10,-1,-100,19348.345354429097,-0.04889715196117662,-0.00016643249694362535,0.9988038049738847,61.16633056182293,3.692390889103576,234.72077976769702,-68.84745207587513,-33.923828125,4761.76025390625,True
1599385835.2157395,0.0,10,0.5,0.5,-3.1009517715454105,-0.05075,-0.02275,-0.001,-0.0007518203929876303,10,1,100,0.5045702722987815,-10,-1,-100,19346.96475598379,-0.048950101350597276,-0.00015782655942266348,0.998801212788883,61.256299611407535,3.698497867010602,235.71274207984837,-69.02990530973972,-33.925048828125,4761.76025390625,True
1599385835.2536376,0.0,10,0.5,0.5,-3.2261640548706056,-0.05075,-0.02275,-0.001,0.011037634690925124,10,1,100,0.5092541508471393,-10,-1,-100,19344.192612800864,-0.048996317781100585,-4.2682636768561595e-05,0.9987989582604127,61.43720380534694,3.710781411818533,237.70663558967183,-69.39480158079455,-33.97064208984375,4761.76025390625,True
1599385835.2855518,0.0,10,0.5,0.5,-3.3097423171997074,-0.05075,-0.02275,-0.001,0.0585578818078857,10,1,100,0.4993674606387133,-10,-1,-100,19338.60454039753,-0.048903911608953264,0.000494034705468235,0.9988033657127179,61.83174614193947,3.73733153466918,241.84741775275558,-70.12454964238425,-34.819610595703125,4761.76025390625,True
1599385835.3174682,0.0,10,0.5,0.5,-3.4361266716003422,-0.05075,-0.02275,-0.001,0.004935551054752869,10,1,100,0.5134984690143407,-10,-1,-100,19338.60454039753,-0.048903911608953264,0.000494034705468235,0.9988033657127179,61.83174614193947,3.73733153466918,241.84741775275558,-70.12454964238425,-34.819610595703125,4761.76025390625,True
1599385835.3513758,0.0,10,0.5,0.5,-3.5413271881103516,-0.05075,-0.02275,-0.001,0.028423359109401775,10,1,100,0.5099850289598533,-10,-1,-100,19337.198400736088,-0.048827513143358876,0.0007071111107782539,0.9988069753231162,61.93817208582823,3.7444267379170686,242.91876536098417,-70.30697648981771,-35.212554931640625,4761.76025390625,True
1599385835.3872802,0.0,10,0.5,0.5,-3.614309926605225,-0.05075,-0.02275,-0.001,0.06549158842595736,10,1,100,0.49657088756112866,-10,-1,-100,19334.375176288653,-0.04859172460451797,0.0012371580083826144,0.9988179582586714,62.15564113544227,3.758860156025473,245.08683357758224,-70.67181660402393,-36.2183837890625,4761.76025390625,True
1599385835.4171999,0.0,10,0.5,0.5,-3.6311303886413575,-0.05075,-0.02275,-0.001,0.13156448085296824,10,1,100,0.4647780753971455,-10,-1,-100,19330.112977751298,-0.048044171527167744,0.0023185567937154205,0.9988425210595825,62.47686375530253,3.780068055020116,248.33734941038966,-71.21904199371201,-38.277099609375,4761.76025390625,True
1599385835.451109,0.0,10,0.5,0.5,-3.750858702850342,-0.05075,-0.02275,-0.001,0.023656457999059178,10,1,100,0.5243378002848853,-10,-1,-100,19330.112977751298,-0.048044171527167744,0.0023185567937154205,0.9988425210595825,62.47686375530253,3.780068055020116,248.33734941038966,-71.21904199371201,-38.277099609375,4761.76025390625,True
1599385835.484021,0.0,10,0.5,0.5,-3.673281337738037,-0.05075,-0.02275,-0.001,0.2290564999805428,10,1,100,0.39938587574672424,-10,-1,-100,19324.378975103493,-0.046864568420887036,0.0041837221237346215,0.9988924910599314,62.833980993408574,3.8036174311019755,252.41882996146282,-71.94861176003171,-42.04998779296875,4761.76025390625,True
1599385835.5199244,0.0,10,0.5,0.5,-3.6002731773376464,-0.05075,-0.02275,-0.001,0.10490914920056828,10,1,100,0.47641671625315607,-10,-1,-100,19322.936354933423,-0.04649428367262247,0.004746752166538342,0.9989072779440739,62.89741901134154,3.807838515065361,253.3401461548382,-72.13099386781036,-43.1763916015625,4761.76025390625,True
1599385835.550842,0.0,10,0.5,0.5,-3.580349999237061,-0.05075,-0.02275,-0.001,0.049097463386544415,10,1,100,0.5132049042507574,-10,-1,-100,19322.936354933423,-0.04649428367262247,0.004746752166538342,0.9989072779440739,62.89741901134154,3.807838515065361,253.3401461548382,-72.13099386781036,-43.1763916015625,4761.76025390625,True
1599385835.583779,0.0,10,0.5,0.5,-3.4312769035339357,-0.05075,-0.02275,-0.001,0.17520609746574872,10,1,100,0.4176766692937487,-10,-1,-100,19320.04017240822,-0.04562807773453873,0.0058887355865984165,0.9989411400655406,62.97728977100503,3.8132835970444443,254.9968848933568,-72.49574793252121,-45.65032958984375,4761.76025390625,True
1599385835.617914,0.0,10,0.5,0.5,-3.186670351409912,-0.05075,-0.02275,-0.001,0.2741014514419488,10,1,100,0.331250129857937,-10,-1,-100,19315.66854245495,-0.044057984014179374,0.007820558806233606,0.9989983648157612,62.93849655313172,3.8114209723159216,256.8422958287155,-73.04286202789177,-49.911376953125,4761.76025390625,True
1599385835.6539211,0.0,10,0.5,0.5,-2.990567433166504,-0.05075,-0.02275,-0.001,0.2313238220837147,10,1,100,0.35089460879408496,-10,-1,-100,19312.735885468544,-0.04281361764744928,0.009181213717099136,0.9990408897831052,62.77302454454706,3.8014146924724037,257.49948488978237,-73.40760183870951,-53.11968994140625,4761.76025390625,True
1599385835.6838405,0.0,10,0.5,0.5,-2.9521430656433107,-0.05075,-0.02275,-0.001,0.09612704889832478,10,1,100,0.474722216070944,-10,-1,-100,19312.735885468544,-0.04281361764744928,0.009181213717099136,0.9990408897831052,62.77302454454706,3.8014146924724037,257.49948488978237,-73.40760183870951,-53.11968994140625,4761.76025390625,True
1599385835.717905,0.0,10,0.5,0.5,-2.730111929321289,-0.05075,-0.02275,-0.001,0.24450967006726929,10,1,100,0.32059909161127137,-10,-1,-100,19309.788638744154,-0.04141796551190308,0.010522442907174703,0.999086497921036,62.465851418204295,3.782580647927316,257.5663544186081,-73.77234800551093,-56.6229248046875,4761.76025390625,True
1599385835.7508142,0.0,10,0.5,0.5,-2.3867422424316405,-0.05075,-0.02275,-0.001,0.34422683045084346,10,1,100,0.19568555131873389,-10,-1,-100,19305.34041187074,-0.03902013480337676,0.012639820642640628,0.9991584779273248,61.67737602317311,3.7340808538206223,256.2827621764215,-74.31949867491389,-62.42877197265625,4761.76025390625,True
1599385835.7867577,0.0,10,0.5,0.5,-2.3376030349731445,-0.05075,-0.02275,-0.001,0.13352118328914353,10,1,100,0.43456621849898724,-10,-1,-100,19305.34041187074,-0.03902013480337676,0.012639820642640628,0.9991584779273248,61.67737602317311,3.7340808538206223,256.2827621764215,-74.31949867491389,-62.42877197265625,4761.76025390625,True
1599385835.8168018,0.0,10,0.5,0.5,-1.9478180450439455,-0.05075,-0.02275,-0.001,0.3509131695491247,10,1,100,0.13587351959535376,-10,-1,-100,19300.859353173757,-0.036312950301274446,0.014606728459686889,0.9992337129641504,60.41044535223336,3.6563177736154353,252.94886798473786,-74.86671827150967,-68.89910888671875,4761.76025390625,True
1599385835.8497138,0.0,10,0.5,0.5,-1.8932066314697267,-0.05075,-0.02275,-0.001,0.15526468847809385,10,1,100,0.40553680799362374,-10,-1,-100,19300.859353173757,-0.036312950301274446,0.014606728459686889,0.9992337129641504,60.41044535223336,3.6563177736154353,252.94886798473786,-74.86671827150967,-68.89910888671875,4761.76025390625,True
1599385835.8837178,0.0,10,0.5,0.5,-1.3347806808471678,-0.05075,-0.02275,-0.001,0.4218192386001421,10,1,100,-0.041692080726375536,-10,-1,-100,19294.833526935312,-0.03225648888870295,0.017020988027802646,0.9993346811209598,57.813373831434255,3.497858762319927,244.54366930535,-75.59651373692927,-78.55914306640625,4761.76025390625,True
1599385835.9193342,0.0,10,0.5,0.5,-1.263944955444336,-0.05075,-0.02275,-0.001,0.18162070537469274,10,1,100,0.362530281052382,-10,-1,-100,19294.833526935312,-0.03225648888870295,0.017020988027802646,0.9993346811209598,57.813373831434255,3.497858762319927,244.54366930535,-75.59651373692927,-78.55914306640625,4761.76025390625,True
1599385835.9502532,0.0,10,0.5,0.5,-1.0545744674682616,-0.05075,-0.02275,-0.001,0.24739498415034283,10,1,100,0.237353118255234,-10,-1,-100,19293.31794688804,-0.031130670671316002,0.01760881578718019,0.9993602008035578,56.98053208472642,3.447282931745052,241.63029869596843,-75.77900092863632,-81.15823364257812,4761.76025390625,True
1599385835.9842372,0.0,10,0.5,0.5,-0.7055459892272951,-0.05075,-0.02275,-0.001,0.30006544462174756,10,1,100,0.10360538880601211,-10,-1,-100,19290.275836077053,-0.02890306321810118,0.018613128611826228,0.9994089074947702,55.074269248487795,3.331880791728602,234.72581919201838,-76.14402780300456,-86.57931518554688,4761.76025390625,True
1599385836.0169652,0.0,10,0.5,0.5,-0.3390558807373047,-0.05075,-0.02275,-0.001,0.306259842492974,10,1,100,0.05879740108252518,-10,-1,-100,19287.219121866394,-0.026483266148991776,0.01957387851042948,0.9994576028497361,52.835476582865844,3.196868819840616,226.3163307046002,-76.50912770404894,-92.29507446289062,4761.76025390625,True
1599385836.0538995,0.0,10,0.5,0.5,-0.10200021934509274,-0.05075,-0.02275,-0.001,0.2568512135695772,10,1,100,0.1661724042988218,-10,-1,-100,19285.685288057546,-0.02527443279858452,0.0199886702782258,0.9994806932138399,52.67634962488193,3.187687274723511,226.19929673806988,-76.69168588806636,-95.26410675048828,4761.76025390625,True
1599385836.0837867,0.0,10,0.5,0.5,0.3010346120834351,-0.05075,-0.02275,-0.001,0.29767870510220146,10,1,100,0.015535162646862472,-10,-1,-100,19282.60666907218,-0.022820739858390404,0.02072830705618172,0.9995246625866218,54.55762090358193,3.3028964367013582,235.44706010278315,-77.0567324099091,-101.41087341308594,4761.76025390625,True
1599385836.1182468,0.0,10,0.5,0.5,0.710492343711853,-0.05075,-0.02275,-0.001,0.29268498909670954,10,1,100,-0.013000478054605136,-10,-1,-100,19279.513450773666,-0.02034542171996876,0.02134795353935214,0.9995650697652047,56.319473775536885,3.4114157200813717,244.25677441846216,-77.42168175385032,-107.7281723022461,4761.76025390625,True
1599385836.1513333,0.0,10,0.5,0.5,1.3033650382995605,-0.05075,-0.02275,-0.001,0.30707294832828924,10,1,100,-0.18253033049296333,-10,-1,-100,19274.846258890815,-0.016570929038403473,0.02203415166897896,0.9996198779891448,58.62851617855202,3.5545219829802917,256.15224246544335,-77.96892102630213,-117.31529998779297,4761.76025390625,True
1599385836.1864004,0.0,10,0.5,0.5,1.7285052526474,-0.05075,-0.02275,-0.001,0.27347074525987924,10,1,100,-0.07613257314875893,-10,-1,-100,19271.716560170054,-0.014124771686712225,0.02234574137419117,0.9996505182648764,59.852376159442265,3.630795211716704,262.7779102024567,-78.33363665083981,-123.58738708496094,4761.76025390625,True
1599385836.2183154,0.0,10,0.5,0.5,1.846648998451233,-0.05075,-0.02275,-0.001,0.2430856760301088,10,1,100,0.16626434415890967,-10,-1,-100,19271.716560170054,-0.014124771686712225,0.02234574137419117,0.9996505182648764,59.852376159442265,3.630795211716704,262.7779102024567,-78.33363665083981,-123.58738708496094,4761.76025390625,True
1599385836.2515595,0.0,10,0.5,0.5,2.106960655784607,-0.05075,-0.02275,-0.001,0.25802601029618966,10,1,100,0.035113804752553796,-10,-1,-100,19270.14624092274,-0.01294897743501989,0.022476721909931552,0.9996635038629604,60.30402713467705,3.6591198313556172,265.4045279532398,-78.51596848493408,-126.6380615234375,4761.76025390625,True
1599385836.28427,0.0,10,0.5,0.5,2.664964935874939,-0.05075,-0.02275,-0.001,0.2674566205814718,10,1,100,-0.2348357358707084,-10,-1,-100,19265.413404910476,-0.009443539120046005,0.02267656818694162,0.9996982508858117,61.0586257243626,3.7070708315295753,270.67993704845105,-79.06289638674548,-135.3660888671875,4761.76025390625,True
1599385836.3211753,0.0,10,0.5,0.5,3.061744784355164,-0.05075,-0.02275,-0.001,0.2483473944917159,10,1,100,-0.13308036301749498,-10,-1,-100,19262.239951231284,-0.007201541433781932,0.02267991933577139,0.9997168394399988,61.11655280875488,3.7114498372373665,272.24093703670843,-79.42748689267573,-140.81893920898438,4761.76025390625,True
1599385836.3516388,0.0,10,0.5,0.5,3.179687078666687,-0.05075,-0.02275,-0.001,0.2484189586811334,10,1,100,0.08894925343048043,-10,-1,-100,19262.239951231284,-0.007201541433781932,0.02267991933577139,0.9997168394399988,61.11655280875488,3.7114498372373665,272.24093703670843,-79.42748689267573,-140.81893920898438,4761.76025390625,True
1599385836.3842742,0.0,10,0.5,0.5,3.8085438138961796,-0.05075,-0.02275,-0.001,0.2370626241990459,10,1,100,-0.37131085526313945,-10,-1,-100,19255.849292369443,-0.0030348874681264872,0.022573856257911192,0.9997405715843001,60.40230557575595,3.6685899383390956,271.63979698204486,-80.1566843412259,-150.83758544921875,4761.76025390625,True
1599385836.4183083,0.0,10,0.5,0.5,3.924954831695557,-0.05075,-0.02275,-0.001,0.24792745058303417,10,1,100,0.04313058676935921,-10,-1,-100,19255.849292369443,-0.0030348874681264872,0.022573856257911192,0.9997405715843001,60.40230557575595,3.6685899383390956,271.63979698204486,-80.1566843412259,-150.83758544921875,4761.76025390625,True
1599385836.452724,0.0,10,0.5,0.5,4.1574933559417735,-0.05075,-0.02275,-0.001,0.23682009327187908,10,1,100,-0.06970048918371419,-10,-1,-100,19254.242512231343,-0.0020271375525442417,0.022471202510353665,0.9997454354839946,60.09201918724714,3.649691407299835,270.88697195430615,-80.3389969533706,-153.15821838378906,4761.76025390625,True
1599385836.4832673,0.0,10,0.5,0.5,4.700528374290466,-0.05075,-0.02275,-0.001,0.20744342884308947,10,1,100,-0.3780688799619942,-10,-1,-100,19247.778926261002,0.0016756947558172314,0.02210979920052055,0.9997541441906594,58.498789690714425,3.552402664306868,266.2108086255656,-81.06833130408482,-161.69932556152344,4761.76025390625,True
1599385836.5173414,0.0,10,0.5,0.5,4.792960925292969,-0.05075,-0.02275,-0.001,0.243591324579555,10,1,100,-0.009610311505268896,-10,-1,-100,19247.778926261002,0.0016756947558172314,0.02210979920052055,0.9997541441906594,58.498789690714425,3.552402664306868,266.2108086255656,-81.06833130408482,-161.69932556152344,4761.76025390625,True
1599385836.5503602,0.0,10,0.5,0.5,4.980590561676025,-0.05075,-0.02275,-0.001,0.232903880422361,10,1,100,-0.10588001769885347,-10,-1,-100,19246.153912360664,0.002536509842629337,0.022012855110158488,0.9997544700213734,58.040113641068636,3.5244012638418876,264.7460008466035,-81.25068823935773,-163.64956665039062,4761.76025390625,True
1599385836.58689,0.0,10,0.5,0.5,5.435179293441774,-0.05075,-0.02275,-0.001,0.19934589181827678,10,1,100,-0.3727851152618992,-10,-1,-100,19239.61738147319,0.0057303323707322655,0.02161995411912315,0.9997498391471779,56.10935395183219,3.406803085968888,258.34935242523676,-81.98021178239233,-170.71038818359375,4761.76025390625,True
1599385836.6179647,0.0,10,0.5,0.5,5.61014889945984,-0.05075,-0.02275,-0.001,0.2289876147506047,10,1,100,-0.13605325316179592,-10,-1,-100,19237.974128952133,0.0064647183682742144,0.021533020488285648,0.9997472362777854,55.623188726877615,3.377283542555435,256.7089390143883,-82.16261545652563,-172.2904052734375,4761.76025390625,True
1599385836.6509368,0.0,10,0.5,0.5,5.844555741500854,-0.05075,-0.02275,-0.001,0.22616256281772085,10,1,100,-0.21794064231314636,-10,-1,-100,19234.676679391065,0.007862310760607972,0.021429347213315027,0.99973944963051,54.67103628076472,3.3196028938309903,253.4909915618132,-82.52744763314514,-175.227294921875,4761.76025390625,True
1599385836.6842718,0.0,10,0.5,0.5,5.919897861099243,-0.05075,-0.02275,-0.001,0.23640483310253735,10,1,100,-0.07968778829920962,-10,-1,-100,19234.676679391065,0.007862310760607972,0.021429347213315027,0.99973944963051,54.67103628076472,3.3196028938309903,253.4909915618132,-82.52744763314514,-175.227294921875,4761.76025390625,True
1599385836.7205074,0.0,10,0.5,0.5,6.197443113327026,-0.05075,-0.02275,-0.001,0.21924182777147205,10,1,100,-0.29167182319927,-10,-1,-100,19229.703140438185,0.009775743939522711,0.02127445677587121,0.9997258785883861,53.343791662149165,3.2395568187417467,249.06010418734442,-83.07474992992907,-179.07785034179688,4761.76025390625,True
1599385836.7514539,0.0,10,0.5,0.5,6.25783916053772,-0.05075,-0.02275,-0.001,0.23460093156764958,10,1,100,-0.10160956844856094,-10,-1,-100,19229.703140438185,0.009775743939522711,0.02127445677587121,0.9997258785883861,53.343791662149165,3.2395568187417467,249.06010418734442,-83.07474992992907,-179.07785034179688,4761.76025390625,True
1599385836.7852292,0.0,10,0.5,0.5,-12.096035826492312,-0.05075,-0.02275,-0.001,0.24239639375876126,10,1,100,-0.3480174246847486,-10,-1,-100,19223.02066974668,0.012004169331299282,0.021346505886228627,0.9997000683230519,51.9929178449792,3.1588588710314296,244.9940370690598,-83.80456116168968,176.827880859375,4761.76025390625,True
1599385836.8182843,0.0,10,0.5,0.5,-12.490848471069336,-0.05075,-0.02275,-0.001,0.23507901306060724,10,1,100,-0.1265780161954759,-10,-1,-100,19223.02066974668,0.012004169331299282,0.021346505886228627,0.9997000683230519,51.9929178449792,3.1588588710314296,244.9940370690598,-83.80456116168968,176.827880859375,4761.76025390625,True
1599385836.8539164,0.0,10,0.5,0.5,-13.13780813407898,-0.05075,-0.02275,-0.001,0.25899661877331714,10,1,100,-0.28473067601440183,-10,-1,-100,19217.970502469223,0.01343253126185726,0.021564632568448074,0.9996772147678906,52.74640656412593,3.2060605099140393,250.25075303902736,-84.35188564269653,174.44740295410156,4761.76025390625,True
1599385836.884868,0.0,10,0.5,0.5,-13.9049224193573,-0.05075,-0.02275,-0.001,0.23712943388816524,10,1,100,-0.1430701666092079,-10,-1,-100,19217.970502469223,0.01343253126185726,0.021564632568448074,0.9996772147678906,52.74640656412593,3.2060605099140393,250.25075303902736,-84.35188564269653,174.44740295410156,4761.76025390625,True
1599385836.9182465,0.0,10,0.5,0.5,-14.58503479385376,-0.05075,-0.02275,-0.001,0.260377683883047,10,1,100,-0.23683940960454192,-10,-1,-100,19214.585481626564,0.014275073451433726,0.02177638777071219,0.9996609481287222,53.207040023829116,3.2351661040141075,253.58404074837793,-84.71673155470519,172.72647094726562,4761.76025390625,True
1599385836.951253,0.0,10,0.5,0.5,-15.207560824584961,-0.05075,-0.02275,-0.001,0.2997089615826235,10,1,100,-0.27478913608692096,-10,-1,-100,19209.480588688166,0.015378250463542412,0.02232630735762882,0.9996324551616227,53.99196209820732,3.284816225759743,259.07270011427926,-85.263939790409,169.624755859375,4761.76025390625,True
1599385836.9872942,0.0,10,0.5,0.5,-15.92747859954834,-0.05075,-0.02275,-0.001,0.26983094465797997,10,1,100,-0.2010418243764354,-10,-1,-100,19207.77166207938,0.015702605338913832,0.022553894749265956,0.9996223036813502,54.277367532967546,3.302891869612258,261.02794759981634,-85.44632488703577,168.44522094726562,4761.76025390625,True
1599385837.0182607,0.0,10,0.5,0.5,-16.577071450042723,-0.05075,-0.02275,-0.001,0.3068024284833213,10,1,100,-0.23355230396093551,-10,-1,-100,19204.34286649502,0.01628589568131212,0.02309587446049741,0.9996005953303361,54.875835587523106,3.340851137019174,265.0906307810562,-85.81106611808481,165.86663818359375,4761.76025390625,True
1599385837.052266,0.0,10,0.5,0.5,-17.355638730621337,-0.05075,-0.02275,-0.001,0.2527711100848941,10,1,100,-0.17606562821317723,-10,-1,-100,19204.34286649502,0.01628589568131212,0.02309587446049741,0.9996005953303361,54.875835587523106,3.340851137019174,265.0906307810562,-85.81106611808481,165.86663818359375,4761.76025390625,True
1599385837.0853074,0.0,10,0.5,0.5,-17.99177201690674,-0.05075,-0.02275,-0.001,0.3227660375801658,10,1,100,-0.23203064263892564,-10,-1,-100,19200.899482436595,0.01678875021996275,0.023730536148922947,0.9995774104691123,55.511873768157024,3.38126340669198,269.36150920319903,-86.17576668896334,162.99484252929688,4761.76025390625,True
1599385837.1213021,0.0,10,0.5,0.5,-18.609093685913088,-0.05075,-0.02275,-0.001,0.342707688432178,10,1,100,-0.22815751767701897,-10,-1,-100,19197.44151172659,0.017204305022463773,0.024486556255807135,0.9995521099229522,56.25592045632871,3.4284128351950565,274.1862141009263,-86.54042134470906,159.83029174804688,4761.76025390625,True
1599385837.151252,0.0,10,0.5,0.5,-18.29951413269043,-0.05075,-0.02275,-0.001,0.41284557795516375,10,1,100,-0.24174122558712557,-10,-1,-100,19192.227210115525,0.017700842973291886,0.025808609848302105,0.9995101779450437,57.438194160713046,3.5034229785507693,281.8079610400082,-87.08731029463489,154.53416442871094,4761.76025390625,True
1599385837.184343,0.0,10,0.5,0.5,-18.254092055130005,-0.05075,-0.02275,-0.001,0.2810864291018741,10,1,100,-0.19265709786851357,-10,-1,-100,19192.227210115525,0.017700842973291886,0.025808609848302105,0.9995101779450437,57.438194160713046,3.5034229785507693,281.8079610400082,-87.08731029463489,154.53416442871094,4761.76025390625,True
1599385837.218332,0.0,10,0.5,0.5,-18.007164532852173,-0.05075,-0.02275,-0.001,0.39682646803955485,10,1,100,-0.21861626018566044,-10,-1,-100,19188.73278161697,0.01793295507461919,0.026856933859299336,0.9994784210907051,58.25949037084734,3.55556091708405,287.0944628605832,-87.45183677363634,150.63803100585938,4761.76025390625,True
1599385837.253288,0.0,10,0.5,0.5,-17.626104485321044,-0.05075,-0.02275,-0.001,0.4926431882482031,10,1,100,-0.22032521088948426,-10,-1,-100,19183.463802739163,0.0181554106969399,0.028676205597292847,0.9994238621800898,59.400106203129,3.628221359305786,294.63701416759835,-87.99853011091761,144.24595642089844,4761.76025390625,True
1599385837.2852015,0.0,10,0.5,0.5,-17.56770338935852,-0.05075,-0.02275,-0.001,0.3114059962315101,10,1,100,-0.198467682381964,-10,-1,-100,19183.463802739163,0.0181554106969399,0.028676205597292847,0.9994238621800898,59.400106203129,3.628221359305786,294.63701416759835,-87.99853011091761,144.24595642089844,4761.76025390625,True
1599385837.3180823,0.0,10,0.5,0.5,-17.27056996459961,-0.05075,-0.02275,-0.001,0.46662943043267036,10,1,100,-0.20547317468295745,-10,-1,-100,19179.93292918685,0.018216572299464023,0.030081555091630973,0.9993814369583456,60.06149257248867,3.670531459355894,299.2127223558291,-88.36293367966377,139.61993408203125,4761.76025390625,True
1599385837.3511083,0.0,10,0.5,0.5,-17.084272214508058,-0.05075,-0.02275,-0.001,0.4119030357097112,10,1,100,-0.19946088498056835,-10,-1,-100,19178.162026582635,0.018215231152681918,0.030854789534145673,0.9993578875042002,60.352069903545534,3.689183234072729,301.3109446871339,-88.54512011526066,137.19778442382812,4761.76025390625,True
1599385837.3874452,0.0,10,0.5,0.5,-16.48236415939331,-0.05075,-0.02275,-0.001,0.7159267002359797,10,1,100,-0.19180533087752508,-10,-1,-100,19171.04198242468,0.018142662040605637,0.03431452787296725,0.9992463945348694,61.161658994420904,3.741695060198575,307.9907978885584,-89.27378895295342,126.78022766113281,4761.76025390625,True
1599385837.4184623,0.0,10,0.5,0.5,-16.403860132217407,-0.05075,-0.02275,-0.001,0.3710747316950688,10,1,100,-0.19924791872108244,-10,-1,-100,19171.04198242468,0.018142662040605637,0.03431452787296725,0.9992463945348694,61.161658994420904,3.741695060198575,307.9907978885584,-89.27378895295342,126.78022766113281,4761.76025390625,True
1599385837.4514625,0.0,10,0.5,0.5,-16.177275296783446,-0.05075,-0.02275,-0.001,0.4784268221736049,10,1,100,-0.19565376812651925,-10,-1,-100,19169.252863489208,0.01810875711536357,0.03528083415756845,0.9992133584259585,61.255570536238075,3.7480276117826246,309.12456838165986,-89.45594418268206,123.99382019042969,4761.76025390625,True
1599385837.4850416,0.0,10,0.5,0.5,-15.798904737472535,-0.05075,-0.02275,-0.001,0.6166886732101825,10,1,100,-0.18653072954196714,-10,-1,-100,19165.663696242264,0.017994175512472215,0.03740640735490046,0.999138113744254,61.28421438225678,3.7507507687822095,310.592302370782,-89.82025173274079,118.20388793945312,4761.76025390625,True
1599385837.7253604,0.0,10,0.5,0.5,-15.24431915435791,-0.05075,-0.02275,-0.001,0.7834054113500815,10,1,100,-0.18605999317683058,-10,-1,-100,19160.2526218181,0.01788546433148867,0.04084380988328628,0.9990054521171867,60.87199335748571,3.7265464256819683,310.4775781265905,-90.36673446998688,108.97250366210938,4761.76025390625,True
1599385837.7482917,0.0,10,0.5,0.5,-14.81268337059021,-0.05075,-0.02275,-0.001,0.7256230853984013,10,1,100,-0.19014868183688027,-10,-1,-100,19156.62702149863,0.017823638044451175,0.043429759036771765,0.9988974792023796,60.2429766185073,3.68856937876258,308.5745880914041,-90.73109383019445,102.45628356933594,4761.76025390625,True
1599385837.77339,0.0,10,0.5,0.5,-14.709586115264894,-0.05075,-0.02275,-0.001,0.4686854525676,10,1,100,-0.196320378837613,-10,-1,-100,19156.62702149863,0.017823638044451175,0.043429759036771765,0.9988974792023796,60.2429766185073,3.68856937876258,308.5745880914041,-90.73109383019445,102.45628356933594,4761.76025390625,True
1599385837.8075356,0.0,10,0.5,0.5,-14.080617686462404,-0.05075,-0.02275,-0.001,0.9465162501758466,10,1,100,-0.19842285543938082,-10,-1,-100,19151.16129083361,0.01784305307960587,0.0477602630573563,0.9986994456439288,58.704530783272254,3.5952919163967128,302.6067535161127,-91.27772675134341,92.13943481445312,4761.76025390625,True
1599385837.8342068,0.0,10,0.5,0.5,-13.972392198562623,-0.05075,-0.02275,-0.001,0.5153742538633996,10,1,100,-0.19645011616217772,-10,-1,-100,19151.16129083361,0.01784305307960587,0.0477602630573563,0.9986994456439288,58.704530783272254,3.5952919163967128,302.6067535161127,-91.27772675134341,92.13943481445312,4761.76025390625,True
1599385837.8928845,0.0,10,0.5,0.5,-13.29679652519226,-0.05075,-0.02275,-0.001,1.0508833211249713,10,1,100,-0.2227296575207158,-10,-1,-100,19145.662756502745,0.01808229756397427,0.052612455752492654,0.9984512807415792,56.394194053667775,3.4553730143516486,292.53917772608236,-91.82450848417588,81.1717529296875,4761.76025390625,True
1599385837.9188457,0.0,10,0.5,0.5,-13.180304985427856,-0.05075,-0.02275,-0.001,0.5678398182331703,10,1,100,-0.1987919157250051,-10,-1,-100,19145.662756502745,0.01808229756397427,0.052612455752492654,0.9984512807415792,56.394194053667775,3.4553730143516486,292.53917772608236,-91.82450848417588,81.1717529296875,4761.76025390625,True
1599385837.9501061,0.0,10,0.5,0.5,-12.679464582061769,-0.05075,-0.02275,-0.001,0.9579121949032126,10,1,100,-0.2358593984396197,-10,-1,-100,19141.978837791714,0.018419329556358614,0.05614193378778438,0.9982528795697322,54.46948706859962,3.339112021598992,283.7421676518334,-92.18912374503333,73.49868774414062,4761.76025390625,True
1599385837.9740434,0.0,10,0.5,0.5,-12.154001272201537,-0.05075,-0.02275,-0.001,1.0344048571392346,10,1,100,-0.2660939466477187,-10,-1,-100,19138.280335489893,0.01900033028994914,0.06002609492572722,0.9980159594800276,56.392258027688996,3.4593340781146655,294.9872733971646,-92.55368115628723,65.53886413574219,4761.76025390625,True
1599385837.9979806,0.0,10,0.5,0.5,-11.601943813705445,-0.05075,-0.02275,-0.001,1.0800627085754213,10,1,100,-0.28708270121875035,-10,-1,-100,19134.567254639463,0.019718509113700284,0.06394972619076045,0.997758293835967,58.53216645347096,3.5935172538479097,307.4557753210154,-92.91811757455618,57.28703308105469,4761.76025390625,True
1599385838.0239058,0.0,10,0.5,0.5,-11.471609799957276,-0.05075,-0.02275,-0.001,0.6903539139556845,10,1,100,-0.21543725220375876,-10,-1,-100,19134.567254639463,0.019718509113700284,0.06394972619076045,0.997758293835967,58.53216645347096,3.5935172538479097,307.4557753210154,-92.91811757455618,57.28703308105469,4761.76025390625,True
1599385838.0520592,0.0,10,0.5,0.5,-10.685596277236938,-0.05075,-0.02275,-0.001,1.4001540541773534,10,1,100,-0.4129575856851458,-10,-1,-100,19128.970308620366,0.021512482104638155,0.07038144935976882,0.9972881552990169,61.2257493418671,3.763815891205168,323.6016540337237,-93.46455840253026,44.37052917480469,4761.76025390625,True
1599385838.0849597,0.0,10,0.5,0.5,-10.56636768989563,-0.05075,-0.02275,-0.001,0.7596769063088153,10,1,100,-0.23392917099737737,-10,-1,-100,19128.970308620366,0.021512482104638155,0.07038144935976882,0.9972881552990169,61.2257493418671,3.763815891205168,323.6016540337237,-93.46455840253026,44.37052917480469,4761.76025390625,True
1599385838.120885,0.0,10,0.5,0.5,-9.969804725265503,-0.05075,-0.02275,-0.001,1.2454545450473982,10,1,100,-0.4044967408253344,-10,-1,-100,19125.22080062027,0.02305974288120123,0.07477310817528049,0.9969339148369166,62.72022905947014,3.8589154700732533,332.8628129964643,-93.82872927726963,35.396270751953125,4761.76025390625,True
1599385838.1481016,0.0,10,0.5,0.5,-9.124885062789918,-0.05075,-0.02275,-0.001,1.5482521356167958,10,1,100,-0.5878272221668916,-10,-1,-100,19119.56923040375,0.026128241881362188,0.08149367351717841,0.9963313184643271,64.03281308008404,3.9439294633882493,341.9147396720874,-94.37487046558626,21.390411376953125,4761.76025390625,True
1599385838.178995,0.0,10,0.5,0.5,-8.977936893844605,-0.05075,-0.02275,-0.001,0.8795689424729856,10,1,100,-0.28180584103097156,-10,-1,-100,19119.56923040375,0.026128241881362188,0.08149367351717841,0.9963313184643271,64.03281308008404,3.9439294633882493,341.9147396720874,-94.37487046558626,21.390411376953125,4761.76025390625,True
1599385838.20595,0.0,10,0.5,0.5,-8.083070686721802,-0.05075,-0.02275,-0.001,1.6028329874661607,10,1,100,-0.7289517988759343,-10,-1,-100,19113.88489341666,0.030185890639664224,0.0880425455464212,0.9956592399912717,64.04661099735893,3.9481901149188,344.07839680569634,-94.92098436551971,6.72637939453125,4761.76025390625,True
1599385838.234277,0.0,10,0.5,0.5,-7.667870067214967,-0.05075,-0.02275,-0.001,1.1893346483427207,10,1,100,-0.49021894175573477,-10,-1,-100,19111.982832629932,0.03169336027059545,0.09020478059025253,0.995418820634522,63.72788018509265,3.9295809558006978,343.0607142323693,-95.1030382261839,1.692535400390625,4761.76025390625,True
1599385838.2641633,0.0,10,0.5,0.5,-7.509544914627076,-0.05075,-0.02275,-0.001,0.9765174286398349,10,1,100,-0.3407993817340356,-10,-1,-100,19111.982832629932,0.03169336027059545,0.09020478059025253,0.995418820634522,63.72788018509265,3.9295809558006978,343.0607142323693,-95.1030382261839,1.692535400390625,4761.76025390625,True
1599385838.2911198,0.0,10,0.5,0.5,-7.099991751861572,-0.05075,-0.02275,-0.001,1.2121538970451091,10,1,100,-0.5200787385476761,-10,-1,-100,19110.077130382415,0.033311633487100686,0.09231949513424181,0.9951720684849328,63.240874181925776,3.90059784543884,341.12920706003763,-95.28510690229442,-3.414764404296875,4761.76025390625,True
1599385838.319201,0.0,10,0.5,0.5,-6.426798666000367,-0.05075,-0.02275,-0.001,1.4306768479612229,10,1,100,-0.7506495236003479,-10,-1,-100,19106.254800189636,0.03686653161679028,0.09620274448352086,0.9946787877502901,61.75168980332746,3.811009804250589,334.4463760194905,-95.64930232252028,-13.853485107421875,4761.76025390625,True
1599385838.3550076,0.0,10,0.5,0.5,-5.9996180191040045,-0.05075,-0.02275,-0.001,1.2546643637415187,10,1,100,-0.6067412013457932,-10,-1,-100,19104.33817156509,0.03877441060282751,0.09810353674605653,0.994420555479581,60.74323166756577,3.7500757147762926,329.64938735070734,-95.83143415782122,-19.182464599609375,4761.76025390625,True
1599385838.385859,0.0,10,0.5,0.5,-5.009843338394164,-0.05075,-0.02275,-0.001,1.617761091755582,10,1,100,-1.0913942815064324,-10,-1,-100,19098.56642412115,0.04489909047477791,0.10310720715995654,0.993656366912733,56.695703906683285,3.5048971012809838,309.5454137746496,-96.37798356825091,-35.617645263671875,4761.76025390625,True
1599385838.4189382,0.0,10,0.5,0.5,-4.258000727081298,-0.05075,-0.02275,-0.001,1.4284690266773972,10,1,100,-0.9574517290156588,-10,-1,-100,19094.700374088017,0.04922806114629838,0.1059054108011547,0.9931569070186318,58.55539136197624,3.6239796638917756,320.97779203487806,-96.74231312956029,-46.94720458984375,4761.76025390625,True
1599385838.451914,0.0,10,0.5,0.5,-3.4801066452026372,-0.05075,-0.02275,-0.001,1.3966175913086825,10,1,100,-1.0007192072780589,-10,-1,-100,19090.81975562952,0.053533040360734176,0.10813137169650483,0.9926942228323725,60.727022163932666,3.7628732265716014,334.20451167509066,-97.1064863537881,-58.577972412109375,4761.76025390625,True
1599385838.4879615,0.0,10,0.5,0.5,-3.003056982421875,-0.05075,-0.02275,-0.001,1.2799679530989692,10,1,100,-0.8100753722714626,-10,-1,-100,19088.873985010083,0.05568861860245278,0.10907030516475362,0.9924728944859995,61.53324531151918,3.815029863732824,339.3103957585774,-97.28852699773054,-64.50555419921875,4761.76025390625,True
1599385838.5192783,0.0,10,0.5,0.5,-2.813571242523193,-0.05075,-0.02275,-0.001,1.1888322694388478,10,1,100,-0.5974735857717115,-10,-1,-100,19088.873985010083,0.05568861860245278,0.10907030516475362,0.9924728944859995,61.53324531151918,3.815029863732824,339.3103957585774,-97.28852699773054,-64.50555419921875,4761.76025390625,True
1599385838.5532517,0.0,10,0.5,0.5,-2.026346123504639,-0.05075,-0.02275,-0.001,1.3541367405448734,10,1,100,-1.0612186402858934,-10,-1,-100,19084.971523240907,0.059881298436251895,0.11055395693879173,0.992064540593385,62.76151221305843,3.8952851320600663,347.4465776938615,-97.6525431516515,-76.586181640625,4761.76025390625,True
1599385838.586234,0.0,10,0.5,0.5,-1.2196553070068359,-0.05075,-0.02275,-0.001,1.3184521609562163,10,1,100,-1.087812113024709,-10,-1,-100,19081.054502035957,0.06390895900263519,0.11155982675861265,0.9917005848605654,63.14141837829428,3.92236976567535,350.9214141346729,-98.01652114177074,-88.96661376953125,4761.76025390625,True
1599385838.622217,0.0,10,0.5,0.5,-0.6996315155029296,-0.05075,-0.02275,-0.001,1.2565459786978284,10,1,100,-0.9021088621866533,-10,-1,-100,19079.09053162043,0.0658529703292449,0.11189205671412962,0.991535956959251,62.95157312076246,3.9121279943366294,350.550901553041,-98.19851661221128,-95.26911926269531,4761.76025390625,True
1599385838.6529408,0.0,10,0.5,0.5,0.8460591075897219,-0.05075,-0.02275,-0.001,1.2854328793736982,10,1,100,-1.4424944403589706,-10,-1,-100,19071.1982431981,0.07250326648514559,0.11243889889658033,0.9910099749063621,59.52822617524916,3.7050909346197454,334.0845476787445,-98.92670416029605,-121.22128295898438,4761.76025390625,True
1599385838.6860492,0.0,10,0.5,0.5,1.0643686840057374,-0.05075,-0.02275,-0.001,1.2323722765699328,10,1,100,-0.7810284982557381,-10,-1,-100,19071.1982431981,0.07250326648514559,0.11243889889658033,0.9910099749063621,59.52822617524916,3.7050909346197454,334.0845476787445,-98.92670416029605,-121.22128295898438,4761.76025390625,True
1599385838.7193005,0.0,10,0.5,0.5,2.3351559329986573,-0.05075,-0.02275,-0.001,1.2249421940936298,10,1,100,-1.2094919236112482,-10,-1,-100,19065.240783331217,0.07636772593757539,0.11235832054484074,0.9907288116530507,55.10052122654345,3.434516114747313,311.0400864331622,-99.47315886306122,-141.2917938232422,4761.76025390625,True
1599385838.7553163,0.0,10,0.5,0.5,2.555494110107422,-0.05075,-0.02275,-0.001,1.2339251406060776,10,1,100,-0.8261928419145476,-10,-1,-100,19065.240783331217,0.07636772593757539,0.11235832054484074,0.9907288116530507,55.10052122654345,3.434516114747313,311.0400864331622,-99.47315886306122,-141.2917938232422,4761.76025390625,True
1599385838.785856,0.0,10,0.5,0.5,3.7914459178924567,-0.05075,-0.02275,-0.001,1.223163876190081,10,1,100,-1.138285562023662,-10,-1,-100,19059.250542326015,0.07918026006148436,0.11225462458674651,0.9905197553181282,59.48733702820756,3.71402126661999,337.7450824914704,-100.01939774717863,-161.02740478515625,4761.76025390625,True
1599385838.8208838,0.0,10,0.5,0.5,4.004782765579224,-0.05075,-0.02275,-0.001,1.2339457972885282,10,1,100,-0.85959687160284,-10,-1,-100,19059.250542326015,0.07918026006148436,0.11225462458674651,0.9905197553181282,59.48733702820756,3.71402126661999,337.7450824914704,-100.01939774717863,-161.02740478515625,4761.76025390625,True
1599385838.8540144,0.0,10,0.5,0.5,4.886442432022095,-0.05075,-0.02275,-0.001,1.249064538930209,10,1,100,-1.0077891024149663,-10,-1,-100,19055.238845934276,0.08050610612208639,0.1123891728567418,0.9903976174757474,61.181167010961126,3.823487952547302,348.6911403570727,-100.38340107608829,-173.82107543945312,4761.76025390625,True
1599385838.890075,0.0,10,0.5,0.5,-12.54410210762024,-0.05075,-0.02275,-0.001,1.3206326965914572,10,1,100,-1.0217971189691768,-10,-1,-100,19049.194004352437,0.08181620497538139,0.11315909192848342,0.9902025694358438,62.12926361378289,3.887487830712689,356.12251016696655,-100.92932705004333,167.55947875976562,4761.76025390625,True
1599385838.9190266,0.0,10,0.5,0.5,-12.135646293258668,-0.05075,-0.02275,-0.001,1.3524249121984107,10,1,100,-0.9526054890462069,-10,-1,-100,19045.145911855274,0.08235824829131427,0.11414567019468475,0.9900443853253208,61.5221972300408,3.852444874812825,353.9859904261788,-101.29331227842815,155.53036499023438,4761.76025390625,True
1599385838.9540012,0.0,10,0.5,0.5,-12.703906033706666,-0.05075,-0.02275,-0.001,1.254025669921885,10,1,100,-0.9002460863817865,-10,-1,-100,19045.145911855274,0.08235824829131427,0.11414567019468475,0.9900443853253208,61.5221972300408,3.852444874812825,353.9859904261788,-101.29331227842815,155.53036499023438,4761.76025390625,True
1599385838.9869435,0.0,10,0.5,0.5,-12.652381995391847,-0.05075,-0.02275,-0.001,1.4135804748445324,10,1,100,-0.9469763031990969,-10,-1,-100,19041.083257566905,0.08276806364605158,0.11559411968172649,0.989842132430869,60.032794894187646,3.762350177800376,346.7300765261583,-101.65737265132279,143.50924682617188,4761.76025390625,True
1599385839.0239296,0.0,10,0.5,0.5,-12.951259020996096,-0.05075,-0.02275,-0.001,1.3669982102088627,10,1,100,-0.9264690265480008,-10,-1,-100,19039.046468619024,0.08294486163792925,0.11648454842709004,0.9897229409817687,58.95931593443709,3.6968391321076526,341.1757289718581,-101.8394387302036,137.41444396972656,4761.76025390625,True
1599385839.0543659,0.0,10,0.5,0.5,-12.248975772476197,-0.05075,-0.02275,-0.001,1.8023991804951707,10,1,100,-1.008261787099138,-10,-1,-100,19030.86289592646,0.08383966527632584,0.12124854188045014,0.9890751749074578,59.856651953015046,3.761757241098219,348.98585094953853,-102.56771828572624,112.35600280761719,4761.76025390625,True
1599385839.0874143,0.0,10,0.5,0.5,-12.85108295097351,-0.05075,-0.02275,-0.001,1.3268888572927209,10,1,100,-0.9195286171933532,-10,-1,-100,19030.86289592646,0.08383966527632584,0.12124854188045014,0.9890751749074578,59.856651953015046,3.761757241098219,348.98585094953853,-102.56771828572624,112.35600280761719,4761.76025390625,True
1599385839.121396,0.0,10,0.5,0.5,-13.094913678359985,-0.05075,-0.02275,-0.001,1.48960301331705,10,1,100,-0.9574795145595296,-10,-1,-100,19028.807902164175,0.08417788076207404,0.12271967946127531,0.9888649880865071,61.29838334940675,3.85471086564848,358.05995769521127,-102.74968536037031,105.91700744628906,4761.76025390625,True
1599385839.158423,0.0,10,0.5,0.5,-12.339350601959229,-0.05075,-0.02275,-0.001,2.0911209800914956,10,1,100,-1.1686100392772862,-10,-1,-100,19020.551546018803,0.08640017450046056,0.12951590872827085,0.9878059724624975,65.13292858793743,4.104840071125803,383.29789461617895,-103.47725971187634,79.45709228515625,4761.76025390625,True
1599385839.1893404,0.0,10,0.5,0.5,-12.206267350769044,-0.05075,-0.02275,-0.001,1.8296753605922873,10,1,100,-1.1436695920109448,-10,-1,-100,19016.40154386568,0.08818714663799158,0.13330182853541805,0.9871441888989486,65.53135107204018,4.133953853319211,387.07544022599734,-103.84098586646485,65.80210876464844,4761.76025390625,True
1599385839.2204974,0.0,10,0.5,0.5,-12.765065078353881,-0.05075,-0.02275,-0.001,1.453174645445434,10,1,100,-0.9657404823094328,-10,-1,-100,19016.40154386568,0.08818714663799158,0.13330182853541805,0.9871441888989486,65.53135107204018,4.133953853319211,387.07544022599734,-103.84098586646485,65.80210876464844,4761.76025390625,True
1599385839.2531776,0.0,10,0.5,0.5,-11.81211508102417,-0.05075,-0.02275,-0.001,1.8825485619651423,10,1,100,-1.2221870047020988,-10,-1,-100,19012.236991132493,0.09051268689459527,0.13718691619777273,0.9864011372333602,64.65562111357032,4.082872793865094,383.3214049044833,-104.20476343899593,51.86100769042969,4761.76025390625,True
1599385839.290611,0.0,10,0.5,0.5,-11.223897263717651,-0.05075,-0.02275,-0.001,1.7100241642560312,10,1,100,-1.141084568062249,-10,-1,-100,19010.149257285055,0.09188210639605154,0.13912946386982772,0.9860023685608058,63.721794264259465,4.026205036816397,378.48545067723694,-104.38668741707694,44.78253173828125,4761.76025390625,True
1599385839.3355665,0.0,10,0.5,0.5,-9.857558583450318,-0.05075,-0.02275,-0.001,2.138528686519359,10,1,100,-1.548831151668386,-10,-1,-100,19003.864218901144,0.09682516228642692,0.14476819941620328,0.9847167391620787,59.44683309753063,3.7638332025945873,355.0522811897808,-104.93263375868699,23.1116943359375,4761.76025390625,True
1599385839.3644893,0.0,10,0.5,0.5,-9.60532498893738,-0.05075,-0.02275,-0.001,1.5775725398552505,10,1,100,-1.0559312724948864,-10,-1,-100,19003.864218901144,0.09682516228642692,0.14476819941620328,0.9847167391620787,59.44683309753063,3.7638332025945873,355.0522811897808,-104.93263375868699,23.1116943359375,4761.76025390625,True
1599385839.3934126,0.0,10,0.5,0.5,-8.578679345703126,-0.05075,-0.02275,-0.001,1.9565809777817844,10,1,100,-1.4922648153040479,-10,-1,-100,18999.655998372706,0.1007792124022843,0.14818801826009076,0.983810887107742,63.63038380607854,4.034923311172666,381.4300357538787,-105.29644549664606,8.29803466796875,4761.76025390625,True
1599385839.4243622,0.0,10,0.5,0.5,-7.57483833732605,-0.05075,-0.02275,-0.001,1.9490174759833687,10,1,100,-1.5822577253399794,-10,-1,-100,18995.433231952135,0.10517652119236678,0.15120369494147592,0.982891317504594,66.71513829935292,4.23672564971941,401.3760738932645,-105.6600472364013,-6.81158447265625,4761.76025390625,True
1599385839.4532864,0.0,10,0.5,0.5,-6.9220969596862805,-0.05075,-0.02275,-0.001,1.79608799993786,10,1,100,-1.4014717193636244,-10,-1,-100,18993.31639591593,0.10751116835091487,0.15252771927590233,0.982434040295995,67.8983740268794,4.314771996955498,409.23491374880393,-105.84179675245946,-14.4781494140625,4761.76025390625,True
1599385839.4871616,0.0,10,0.5,0.5,-5.850757853317261,-0.05075,-0.02275,-0.001,1.912454569913797,10,1,100,-1.7053921023074978,-10,-1,-100,18989.071819955017,0.11237527535127667,0.15476215745260338,0.9815398474388803,69.23031958677169,4.404966974078685,418.7753014204969,-106.20525304790357,-30.0357666015625,4761.76025390625,True
1599385839.5210936,0.0,10,0.5,0.5,-5.208838311386108,-0.05075,-0.02275,-0.001,1.7903932748319313,10,1,100,-1.4960723195713712,-10,-1,-100,18986.944080231828,0.11487066996232187,0.15566086561365616,0.9811087728171706,69.25819499364813,4.409497255974043,419.70279723270795,-106.38698559460714,-37.92718505859375,4761.76025390625,True
1599385839.5562587,0.0,10,0.5,0.5,-4.152303386688232,-0.05075,-0.02275,-0.001,1.8509676452049348,10,1,100,-1.8021857826548116,-10,-1,-100,18982.677695138496,0.11989780243373575,0.15700822272975123,0.980292270175995,67.96303637517424,4.332898074722083,413.3475112389175,-106.75051081227934,-53.93572998046875,4761.76025390625,True
1599385839.5872238,0.0,10,0.5,0.5,-3.475843895339966,-0.05075,-0.02275,-0.001,1.768294042278114,10,1,100,-1.577076244037133,-10,-1,-100,18980.53904882341,0.1223926446423188,0.15745996335941717,0.9799114248116051,66.63113513863458,4.251217932454022,405.9797196665473,-106.93231791123992,-62.05291748046875,4761.76025390625,True
1599385839.621185,0.0,10,0.5,0.5,-2.373007083129883,-0.05075,-0.02275,-0.001,1.778645624825231,10,1,100,-1.8656895830604912,-10,-1,-100,18976.250844569528,0.12725545886147235,0.15794631191212213,0.9792134653604978,62.63506161991458,4.003003929258091,383.0063370311683,-107.29604559225788,-78.5128173828125,4761.76025390625,True
1599385839.6549118,0.0,10,0.5,0.5,-0.8022395282745362,-0.05075,-0.02275,-0.001,1.7141352357325044,10,1,100,-2.1244482801382034,-10,-1,-100,18969.791265320266,0.13399639325916804,0.1577848826518816,0.9783398680418101,67.21405863688722,4.306553579284388,413.2028447867654,-107.8413837965845,-103.7636489868164,4761.76025390625,True
1599385839.6903415,0.0,10,0.5,0.5,0.35147001399993905,-0.05075,-0.02275,-0.001,1.6727623928000082,10,1,100,-1.891958973660525,-10,-1,-100,18965.46670925338,0.13797718426093727,0.1572501786766078,0.9778725264213114,69.4194730281871,4.454208146609749,428.2701331400278,-108.2047248827128,-120.96788024902344,4761.76025390625,True
1599385839.7222562,0.0,10,0.5,0.5,0.6620468149185181,-0.05075,-0.02275,-0.001,1.7274809882534288,10,1,100,-1.4979950756810525,-10,-1,-100,18965.46670925338,0.13797718426093727,0.1572501786766078,0.9778725264213114,69.4194730281871,4.454208146609749,428.2701331400278,-108.2047248827128,-120.96788024902344,4761.76025390625,True
1599385839.7541666,0.0,10,0.5,0.5,1.8600295614242555,-0.05075,-0.02275,-0.001,1.6501185071896418,10,1,100,-1.8871066776870415,-10,-1,-100,18961.12762059574,0.1414807461229384,0.15653864506655835,0.9774859851052714,69.84620245943606,4.487369909128592,432.42716707765726,-108.56804469969043,-138.43460083007812,4761.76025390625,True
1599385839.7871654,0.0,10,0.5,0.5,2.5959026716232305,-0.05075,-0.02275,-0.001,1.6806364339465598,10,1,100,-1.7129690094049121,-10,-1,-100,18958.95262583124,0.14304972880861955,0.15616438207328076,0.9773174821210613,69.1931269186001,4.448364779304135,429.1417108292971,-108.74973544406643,-147.20556640625,4761.76025390625,True
1599385839.8242333,0.0,10,0.5,0.5,3.793546067619324,-0.05075,-0.02275,-0.001,1.6425095448875813,10,1,100,-1.8662776611796632,-10,-1,-100,18954.591731799184,0.14583748393859314,0.15547422884904008,0.9770154514859306,66.18832636673253,4.261473633120801,411.95763923806595,-109.11323084055493,-164.68304443359375,4761.76025390625,True
1599385839.8551457,0.0,10,0.5,0.5,-13.654982945442201,-0.05075,-0.02275,-0.001,1.6569303975869192,10,1,100,-1.8520948176140464,-10,-1,-100,18950.216292687925,0.14821245165289323,0.15497726815027305,0.9767369735664341,61.876112906565325,3.990368440307258,386.4713370499361,-109.47690040923054,178.06814575195312,4761.76025390625,True
1599385839.888191,0.0,10,0.5,0.5,-12.49372926425934,-0.05075,-0.02275,-0.001,1.6911600901504742,10,1,100,-1.9489756730034844,-10,-1,-100,18943.62587130128,0.15122193754971497,0.15483728617239295,0.9762977724108965,68.31032109586369,4.4153357056125335,428.8862842467091,-110.02201858433142,152.7562255859375,4761.76025390625,True
1599385839.922104,0.0,10,0.5,0.5,-12.989265383338928,-0.05075,-0.02275,-0.001,1.704941194282748,10,1,100,-1.651159496832909,-10,-1,-100,18943.62587130128,0.15122193754971497,0.15483728617239295,0.9762977724108965,68.31032109586369,4.4153357056125335,428.8862842467091,-110.02201858433142,152.7562255859375,4761.76025390625,True
1599385839.9570107,0.0,10,0.5,0.5,-12.620228518867494,-0.05075,-0.02275,-0.001,1.7499434100176563,10,1,100,-1.8550938032549378,-10,-1,-100,18939.214093411225,0.1530496773418176,0.1552487814765167,0.9759475457808284,70.44294305052921,4.559095620386716,443.8098576465441,-110.38524940106498,136.18177795410156,4761.76025390625,True
1599385839.9882083,0.0,10,0.5,0.5,-12.259193730735781,-0.05075,-0.02275,-0.001,1.8008296559200347,10,1,100,-1.8792428259610698,-10,-1,-100,18934.787786604953,0.15490734625152996,0.15608792265250135,0.9755205146378703,70.6551277537715,4.5788676842577445,446.6930260183084,-110.74847614070495,119.44671630859375,4761.76025390625,True
1599385840.0225294,0.0,10,0.5,0.5,-11.45936951942444,-0.05075,-0.02275,-0.001,1.9344623395816472,10,1,100,-2.043217904042253,-10,-1,-100,18928.121078006923,0.15806780874019527,0.15806716353668332,0.9746944852883598,66.79363548327946,4.339060555289499,424.47865682976715,-111.2935087487923,93.85516357421875,4761.76025390625,True
1599385840.0546184,0.0,10,0.5,0.5,-11.07290216293335,-0.05075,-0.02275,-0.001,1.9210492069551746,10,1,100,-2.008856041640725,-10,-1,-100,18923.658433329547,0.16061031168580506,0.15974379314855347,0.9740052609358437,66.37965119607357,4.319896341749386,423.29554601457664,-111.65695439543484,76.44876098632812,4761.76025390625,True
1599385840.090627,0.0,10,0.5,0.5,-11.539431424331665,-0.05075,-0.02275,-0.001,1.753635607215354,10,1,100,-1.756869059822233,-10,-1,-100,18923.658433329547,0.16061031168580506,0.15974379314855347,0.9740052609358437,66.37965119607357,4.319896341749386,423.29554601457664,-111.65695439543484,76.44876098632812,4761.76025390625,True
1599385840.1213264,0.0,10,0.5,0.5,-11.572455031967165,-0.05075,-0.02275,-0.001,1.8529544300539855,10,1,100,-1.9171204460835947,-10,-1,-100,18921.421662130975,0.1620497519558512,0.16064377776701194,0.9736187418881119,68.94602852253195,4.490716239587278,440.4095316714477,-111.83855790803507,67.64033508300781,4761.76025390625,True
1599385840.1552074,0.0,10,0.5,0.5,-11.14735818862915,-0.05075,-0.02275,-0.001,1.964655577128453,10,1,100,-2.1329227055329025,-10,-1,-100,18916.937227812246,0.16530289999348027,0.16247333839747505,0.9727678888428241,72.53527256930622,4.731714426311771,464.91111942810636,-112.20160407692507,49.81077575683594,4761.76025390625,True
1599385840.1883056,0.0,10,0.5,0.5,-10.71564016609192,-0.05075,-0.02275,-0.001,1.9732579192796371,10,1,100,-2.224118114875643,-10,-1,-100,18912.43827476178,0.16907166064348172,0.16420841561786279,0.9718283643769238,74.25946822245778,4.851100204130604,477.58135927233684,-112.56456111224495,31.694427490234375,4761.76025390625,True
1599385840.2242105,0.0,10,0.5,0.5,-8.966192546463013,-0.05075,-0.02275,-0.001,2.028943527982382,10,1,100,-2.5699455415809664,-10,-1,-100,18905.66261959006,0.17562272946899454,0.16628359939963333,0.9703125380332682,71.62883132341634,4.691084243066936,463.0189707208768,-113.10912879538739,3.973388671875,4761.76025390625,True
1599385840.2571275,0.0,10,0.5,0.5,-7.679910071182252,-0.05075,-0.02275,-0.001,1.9138535825685388,10,1,100,-2.4497700343019884,-10,-1,-100,18901.127356891637,0.1804635594333616,0.1671134521400014,0.9692811758362446,66.58066968437538,4.369147622465741,431.8402335072729,-113.4723883725764,-14.877288818359375,4761.76025390625,True
1599385840.2888892,0.0,10,0.5,0.5,-7.31739450340271,-0.05075,-0.02275,-0.001,1.8320959251284932,10,1,100,-1.968611200053648,-10,-1,-100,18901.127356891637,0.1804635594333616,0.1671134521400014,0.9692811758362446,66.58066968437538,4.369147622465741,431.8402335072729,-113.4723883725764,-14.877288818359375,4761.76025390625,True
1599385840.3215582,0.0,10,0.5,0.5,-6.480166027069092,-0.05075,-0.02275,-0.001,1.8562351408113027,10,1,100,-2.2479880030935737,-10,-1,-100,18898.854278018232,0.18297842684091406,0.16732211349106013,0.9687735574672283,69.73634195932956,4.580622472575585,453.0634833711595,-113.65393418735142,-24.41485595703125,4761.76025390625,True
1599385840.3576088,0.0,10,0.5,0.5,-5.163593611907959,-0.05075,-0.02275,-0.001,1.8330587355874106,10,1,100,-2.562420776164311,-10,-1,-100,18894.29723452055,0.18809763052970538,0.16729089813467946,0.9677980351242726,74.84326898689099,4.924456157480514,487.86033047905215,-114.01678158888167,-43.7158203125,4761.76025390625,True
1599385840.3878498,0.0,10,0.5,0.5,-3.8554765571594243,-0.05075,-0.02275,-0.001,1.766806438200611,10,1,100,-2.614052625642649,-10,-1,-100,18889.72568191937,0.19319353267678283,0.16665184171209158,0.9669040400090554,77.57247066169214,5.111896634550197,507.3344909559773,-114.37947440306561,-63.318603515625,4761.76025390625,True
1599385840.421768,0.0,10,0.5,0.5,-2.006247883605957,-0.05075,-0.02275,-0.001,1.6119997845198437,10,1,100,-2.9037841712222545,-10,-1,-100,18882.841149547487,0.20043047302394876,0.1646572680684924,0.9657720277351259,75.55494127628417,4.992546872283186,496.61647594421464,-114.92359317378911,-93.28692626953125,4761.76025390625,True
1599385840.4555893,0.0,10,0.5,0.5,-1.1253896690368654,-0.05075,-0.02275,-0.001,1.7140027206601036,10,1,100,-2.42960175371554,-10,-1,-100,18880.53904851922,0.20266256030645843,0.1637668519256592,0.9654575624336837,73.12582750259489,4.837187213787454,481.44709479319044,-115.10504890423891,-103.42562866210938,4761.76025390625,True
1599385840.4909854,0.0,10,0.5,0.5,-0.7463533039093017,-0.05075,-0.02275,-0.001,1.8033566423592877,10,1,100,-2.210454306299633,-10,-1,-100,18880.53904851922,0.20266256030645843,0.1637668519256592,0.9654575624336837,73.12582750259489,4.837187213787454,481.44709479319044,-115.10504890423891,-103.42562866210938,4761.76025390625,True
1599385840.5248644,0.0,10,0.5,0.5,0.6630519985198976,-0.05075,-0.02275,-0.001,1.5821974366040807,10,1,100,-2.6670921854369873,-10,-1,-100,18875.923956818646,0.2067798504256044,0.1617551377701317,0.9649235041509406,71.94856945895033,4.769058169097848,475.25112843063505,-115.46800226783742,-123.92403411865234,4761.76025390625,True
1599385840.5548174,0.0,10,0.5,0.5,2.072415234565735,-0.05075,-0.02275,-0.001,1.5436226992206965,10,1,100,-2.656687619407491,-10,-1,-100,18871.294357330422,0.2103939743065761,0.15957785754148296,0.9645046827040054,77.03458866199433,5.114613923273533,510.5030708909871,-115.83062718148554,-144.7130126953125,4761.76025390625,True
1599385840.587852,0.0,10,0.5,0.5,3.478495057868958,-0.05075,-0.02275,-0.001,1.5222774940883685,10,1,100,-2.6416111186762556,-10,-1,-100,18866.650256537483,0.21351087215095954,0.15741056068865217,0.9641758256962373,79.02084272001758,5.254174695140593,525.3759139685263,-116.19314348228637,-165.7489013671875,4761.76025390625,True
1599385840.623882,0.0,10,0.5,0.5,4.345904585456848,-0.05075,-0.02275,-0.001,1.62489253782307,10,1,100,-2.4862067937917107,-10,-1,-100,18864.322767972015,0.21490160604443262,0.1563819756668045,0.9640342200389311,78.56970350660646,5.228403359419158,523.2318274977805,-116.37442644217292,-176.28440856933594,4761.76025390625,True
1599385840.6557627,0.0,10,0.5,0.5,-12.843903833961487,-0.05075,-0.02275,-0.001,1.522023166731526,10,1,100,-2.6269858080225355,-10,-1,-100,18859.656910030986,0.21741441148913285,0.1545214781610864,0.9637707644786424,74.59338043663308,4.973167930714156,498.3764763017673,-116.73713690797587,162.77789306640625,4761.76025390625,True
1599385840.6896725,0.0,10,0.5,0.5,-11.333280704689027,-0.05075,-0.02275,-0.001,1.4716547673312323,10,1,100,-2.7500446685138336,-10,-1,-100,18852.63091035327,0.22078619154819193,0.15238385919345818,0.963344495535711,74.58736088576775,4.986323798423396,500.74763363208285,-117.2813483678612,131.9097900390625,4761.76025390625,True
1599385840.7216196,0.0,10,0.5,0.5,-10.714409282875062,-0.05075,-0.02275,-0.001,1.5796317787057554,10,1,100,-2.6610021160941995,-10,-1,-100,18847.92878194875,0.22301225152441398,0.15143573027078383,0.9629811811595106,78.97991460359846,5.287417702426216,531.9377273084189,-117.64381210955389,111.63369750976562,4761.76025390625,True
1599385840.757526,0.0,10,0.5,0.5,-11.132701860237121,-0.05075,-0.02275,-0.001,1.6729230598290594,10,1,100,-2.4413779903567576,-10,-1,-100,18847.92878194875,0.22301225152441398,0.15143573027078383,0.9629811811595106,78.97991460359846,5.287417702426216,531.9377273084189,-117.64381210955389,111.63369750976562,4761.76025390625,True
1599385840.7885373,0.0,10,0.5,0.5,-10.007796982765198,-0.05075,-0.02275,-0.001,1.579507704850287,10,1,100,-2.852109420939166,-10,-1,-100,18840.848408455728,0.22672564473107182,0.1505985193507929,0.9622450664932654,79.33361158247105,5.3239541628106375,536.905729394765,-118.18744311082166,80.8878173828125,4761.76025390625,True
1599385840.8232002,0.0,10,0.5,0.5,-10.45785595264435,-0.05075,-0.02275,-0.001,1.6619119635918926,10,1,100,-2.4831764087158437,-10,-1,-100,18840.848408455728,0.22672564473107182,0.1505985193507929,0.9622450664932654,79.33361158247105,5.3239541628106375,536.905729394765,-118.18744311082166,80.8878173828125,4761.76025390625,True
1599385840.8560557,0.0,10,0.5,0.5,-9.7992962015152,-0.05075,-0.02275,-0.001,1.622890139094236,10,1,100,-2.8053820401016454,-10,-1,-100,18836.110032928525,0.229632911303284,0.150255746703155,0.961609035226404,74.4428372580402,5.005985152787409,505.42027629838253,-118.55005203388774,60.059356689453125,4761.76025390625,True
1599385840.8919559,0.0,10,0.5,0.5,-9.146258558273315,-0.05075,-0.02275,-0.001,1.6161386401897753,10,1,100,-2.883725131633174,-10,-1,-100,18831.357152284356,0.23296731532751108,0.1498932119344136,0.9608632863238542,76.70549543891784,5.167559762384821,522.4258521466585,-118.9126257794678,38.94963073730469,4761.76025390625,True
1599385840.9228742,0.0,10,0.5,0.5,-9.033425582885743,-0.05075,-0.02275,-0.001,1.6245435537092041,10,1,100,-2.753719967275946,-10,-1,-100,18828.975276870537,0.23479620536354187,0.14964884739992265,0.9604561231096173,79.69919532969467,5.373238584539172,543.6676047050327,-119.09376226663733,28.287307739257812,4761.76025390625,True
1599385840.956249,0.0,10,0.5,0.5,-8.370658224868775,-0.05075,-0.02275,-0.001,1.56832857227326,10,1,100,-3.0075254950332604,-10,-1,-100,18824.200661265175,0.23874680534571582,0.14892270864032114,0.959594700792186,83.07020520056291,5.608371586174065,568.4505834766396,-119.45592172211627,6.74407958984375,4761.76025390625,True
1599385840.9896197,0.0,10,0.5,0.5,-7.107562699127197,-0.05075,-0.02275,-0.001,1.425689037787386,10,1,100,-3.324007187066218,-10,-1,-100,18817.011573229684,0.24519368871226332,0.14697264060629045,0.9582688025438831,79.80945337244177,5.403254792674898,548.7314955132173,-119.99927642774692,-26.12603759765625,4761.76025390625,True
1599385841.025906,0.0,10,0.5,0.5,-5.557234761810303,-0.05075,-0.02275,-0.001,1.3992127556433553,10,1,100,-3.1679245791840756,-10,-1,-100,18812.20072774845,0.24961030508544782,0.144966020590003,0.9574338350348021,75.12819544721845,5.096543013957153,518.1547585263507,-120.36175290798697,-48.414764404296875,4761.76025390625,True
1599385841.05584,0.0,10,0.5,0.5,-5.1692851272583,-0.05075,-0.02275,-0.001,1.5991329734117559,10,1,100,-2.7291453532193515,-10,-1,-100,18812.20072774845,0.24961030508544782,0.144966020590003,0.9574338350348021,75.12819544721845,5.096543013957153,518.1547585263507,-120.36175290798697,-48.414764404296875,4761.76025390625,True
1599385841.0888352,0.0,10,0.5,0.5,-3.0457538406372064,-0.05075,-0.02275,-0.001,1.148953617043341,10,1,100,-3.4293483323109535,-10,-1,-100,18804.957296570647,0.25595160666486144,0.14087936254090902,0.9563690606955786,84.93959503962016,5.7745712424390785,588.5395069554236,-120.9048263041833,-82.41323852539062,4761.76025390625,True
1599385841.1220467,0.0,10,0.5,0.5,-2.63829553527832,-0.05075,-0.02275,-0.001,1.5565637851797507,10,1,100,-2.798512109883636,-10,-1,-100,18804.957296570647,0.25595160666486144,0.14087936254090902,0.9563690606955786,84.93959503962016,5.7745712424390785,588.5395069554236,-120.9048263041833,-82.41323852539062,4761.76025390625,True
1599385841.1580386,0.0,10,0.5,0.5,-1.0745062522888182,-0.05075,-0.02275,-0.001,1.190362757173388,10,1,100,-3.218162238893668,-10,-1,-100,18800.11024650233,0.25974003878137647,0.13755909788340562,0.9558308463548102,85.99834437400881,5.855947324402526,597.7290964666037,-121.26672838913463,-105.45245361328125,4761.76025390625,True
1599385841.1897886,0.0,10,0.5,0.5,0.53383021774292,-0.05075,-0.02275,-0.001,1.122612001130001,10,1,100,-3.2049027636856446,-10,-1,-100,18795.24871609034,0.26303351420899873,0.13393661352297845,0.9554445844531543,81.41451373065645,5.555363060684183,567.6200247840994,-121.62878190130732,-128.78485107421875,4761.76025390625,True
1599385841.235685,0.0,10,0.5,0.5,2.779016139984131,-0.05075,-0.02275,-0.001,0.8684563037374093,10,1,100,-3.310537751827944,-10,-1,-100,18787.929259161698,0.2669575366691256,0.1283477751582758,0.9551233021068397,83.4921113902116,5.710984863761469,584.756935416499,-122.17192237993572,-164.31910705566406,4761.76025390625,True
1599385841.2656157,0.0,10,0.5,0.5,3.2059182624816898,-0.05075,-0.02275,-0.001,1.4251855965300597,10,1,100,-2.92153452794942,-10,-1,-100,18787.929259161698,0.2669575366691256,0.1283477751582758,0.9551233021068397,83.4921113902116,5.710984863761469,584.756935416499,-122.17192237993572,-164.31910705566406,4761.76025390625,True
